{"results": {"rpp": 50, "locations": [{"business_operation_status": 1, "rating": null, "neighborhood": null, "image": null, "scorecard": null, "featured": false, "sample_categories": "Frozen Yogurt Shops, Restaurants, Ice Cream Parlors, Discover, MasterCard", "public_id": "freshens-kennesaw", "id": 2955857, "votes": null, "tagline": null, "has_video": false, "website": "http://www.citysearch.com/profile/external/2955857/kennesaw_ga/freshens.html", "offers": null, "latitude": 34.019128, "politanName": "Atlanta, GA Metro ", "phone_number": "7704241171", "tags": [{"primary": false, "id": 1722, "name": "Restaurants"}, {"primary": false, "id": 1730, "name": "Ice Cream Parlors"}, {"primary": false, "id": 11349, "name": "Discover"}, {"primary": false, "id": 11361, "name": "MasterCard"}, {"primary": false, "id": 11382, "name": "Visa"}, {"primary": true, "id": 1729, "name": "Frozen Yogurt Shops"}], "fax_number": null, "expansion": {"count": null, "uri": null}, "impression_id": "000b000000770c40527153489d9c3d43309a48b79c", "profile": "http://www.citysearch.com/profile/2955857/kennesaw_ga/freshens.html", "address": {"city": "Kennesaw", "state": "GA", "street": "400 Ernest W Barrett Pkwy NW", "postal_code": "30144"}, "capProviderId": null, "distance": null, "has_offers": false, "name": "Freshens", "longitude": -84.563608, "has_menu": true, "awards": null, "user_review_count": 0}, {"business_operation_status": 1, "rating": null, "neighborhood": null, "image": null, "scorecard": null, "featured": false, "sample_categories": "Juice & Smoothie Shops, Health Food Stores, Restaurants", "public_id": "robeks-marietta", "id": 43845240, "votes": null, "tagline": null, "has_video": false, "website": "http://www.citysearch.com/profile/external/43845240/marietta_ga/robeks_juice.html", "offers": null, "latitude": 33.982884, "politanName": "Atlanta, GA Metro ", "phone_number": "7705651932", "tags": [{"primary": false, "id": 1716, "name": "Health Food Stores"}, {"primary": false, "id": 1722, "name": "Restaurants"}, {"primary": true, "id": 1735, "name": "Juice & Smoothie Shops"}], "fax_number": null, "expansion": {"count": null, "uri": null}, "impression_id": "000b000000c5c3c1edef2c409cbe740b9f4a294ca4", "profile": "http://www.citysearch.com/profile/43845240/marietta_ga/robeks_juice.html", "address": {"city": "Marietta", "state": "GA", "street": "4244 Roswell Rd 300", "postal_code": "30062"}, "capProviderId": null, "distance": null, "has_offers": false, "name": "Robeks Juice", "longitude": -84.427528, "has_menu": false, "awards": null, "user_review_count": 0}, {"business_operation_status": 1, "rating": null, "neighborhood": null, "image": null, "scorecard": null, "featured": false, "sample_categories": "Restaurants", "public_id": "soba-asian-bistro-marietta-2", "id": 809491560, "votes": null, "tagline": null, "has_video": false, "website": null, "offers": null, "latitude": 33.977233, "politanName": "Atlanta, GA Metro ", "phone_number": "7709711888", "tags": [{"primary": true, "id": 1722, "name": "Restaurants"}], "fax_number": null, "expansion": {"count": null, "uri": null}, "impression_id": "000b0000003aab52a9eda54b079fd872b98ea0f5cc", "profile": "http://www.citysearch.com/profile/809491560/marietta_ga/soba_asian_bistro.html", "address": {"city": "Marietta", "state": "GA", "street": "1060 E Piedmont Rd", "postal_code": "30062"}, "capProviderId": null, "distance": null, "has_offers": false, "name": "Soba Asian Bistro", "longitude": -84.479764, "has_menu": false, "awards": null, "user_review_count": 0}, {"business_operation_status": 1, "rating": null, "neighborhood": null, "image": null, "scorecard": null, "featured": false, "sample_categories": "Luaus", "public_id": "osaka-restaurant-marietta", "id": 811134240, "votes": null, "tagline": null, "has_video": false, "website": null, "offers": null, "latitude": 34.03695, "politanName": "Atlanta, GA Metro ", "phone_number": "7705161416", "tags": [{"primary": true, "id": 11285, "name": "Luaus"}], "fax_number": null, "expansion": {"count": null, "uri": null}, "impression_id": "000b000000500c4929ff36419c8745dce53fef2467", "profile": "http://www.citysearch.com/profile/811134240/marietta_ga/osaka_restaurant.html", "address": {"city": "Marietta", "state": "GA", "street": "2652 Thornberry Pl", "postal_code": "30066"}, "capProviderId": null, "distance": null, "has_offers": false, "name": "Osaka Restaurant", "longitude": -84.476707, "has_menu": false, "awards": null, "user_review_count": 0}, {"business_operation_status": 1, "rating": null, "neighborhood": null, "image": null, "scorecard": null, "featured": false, "sample_categories": "Restaurants", "public_id": "johnnys-new-york-style-roswell", "id": 822128780, "votes": null, "tagline": null, "has_video": false, "website": null, "offers": null, "latitude": 34.054243, "politanName": "Atlanta, GA Metro ", "phone_number": "7705520505", "tags": [{"primary": true, "id": 1722, "name": "Restaurants"}], "fax_number": null, "expansion": {"count": null, "uri": null}, "impression_id": "000b000000f9367b3d47be415790916e21911840fd", "profile": "http://www.citysearch.com/profile/822128780/roswell_ga/johnny_s_new_york_style.html", "address": {"city": "Roswell", "state": "GA", "street": "580 W Crossville Rd", "postal_code": "30075"}, "capProviderId": null, "distance": null, "has_offers": false, "name": "Johnny's New York Style", "longitude": -84.378213, "has_menu": false, "awards": null, "user_review_count": 0}, {"business_operation_status": 1, "rating": null, "neighborhood": null, "image": null, "scorecard": null, "featured": false, "sample_categories": "Ice Cream Parlors", "public_id": "talenti-gelato-marietta", "id": 766766740, "votes": null, "tagline": null, "has_video": false, "website": null, "offers": null, "latitude": 33.977334, "politanName": "Atlanta, GA Metro ", "phone_number": "7704990442", "tags": [{"primary": true, "id": 1730, "name": "Ice Cream Parlors"}], "fax_number": null, "expansion": {"count": null, "uri": null}, "impression_id": "000b0000003b35402e96b64aa8a95e7a778e833534", "profile": "http://www.citysearch.com/profile/766766740/marietta_ga/talenti_gelato.html", "address": {"city": "Marietta", "state": "GA", "street": "1058 King Industrial Dr", "postal_code": "30062"}, "capProviderId": null, "distance": null, "has_offers": false, "name": "Talenti Gelato", "longitude": -84.539884, "has_menu": false, "awards": null, "user_review_count": 0}, {"business_operation_status": 1, "rating": null, "neighborhood": null, "image": null, "scorecard": null, "featured": false, "sample_categories": "Restaurants, Delis And Delicatessens", "public_id": "planet-sub-marietta", "id": 770774340, "votes": null, "tagline": null, "has_video": false, "website": null, "offers": null, "latitude": 34.013859, "politanName": "Atlanta, GA Metro ", "phone_number": "7705750206", "tags": [{"primary": false, "id": 1727, "name": "Delis And Delicatessens"}, {"primary": true, "id": 1722, "name": "Restaurants"}], "fax_number": null, "expansion": {"count": null, "uri": null}, "impression_id": "000b0000005d5f1ebbe0f04ef0a53e20a91e638cf9", "profile": "http://www.citysearch.com/profile/770774340/marietta_ga/planet_sub.html", "address": {"city": "Marietta", "state": "GA", "street": "125 Barrett Pkwy", "postal_code": "30066"}, "capProviderId": null, "distance": null, "has_offers": false, "name": "Planet Sub", "longitude": -84.554543, "has_menu": false, "awards": null, "user_review_count": 0}, {"business_operation_status": 1, "rating": null, "neighborhood": null, "image": null, "scorecard": null, "featured": false, "sample_categories": "Restaurants", "public_id": "las-tortas-locas-marietta", "id": 43851541, "votes": null, "tagline": null, "has_video": false, "website": null, "offers": null, "latitude": 33.902096, "politanName": "Atlanta, GA Metro ", "phone_number": "7708030303", "tags": [{"primary": true, "id": 1722, "name": "Restaurants"}], "fax_number": null, "expansion": {"count": null, "uri": null}, "impression_id": "000b00000095369f95c07348eeb23ad7b17a6a4c43", "profile": "http://www.citysearch.com/profile/43851541/marietta_ga/las_tortas_locas.html", "address": {"city": "Marietta", "state": "GA", "street": "345 Pat Mell Rd SE", "postal_code": "30060"}, "capProviderId": null, "distance": null, "has_offers": false, "name": "Las Tortas Locas", "longitude": -84.546397, "has_menu": false, "awards": null, "user_review_count": 0}, {"business_operation_status": 1, "rating": null, "neighborhood": null, "image": null, "scorecard": null, "featured": false, "sample_categories": "Restaurants, Pizza", "public_id": "uncle-maddios-pizza-joint-marietta", "id": 793238760, "votes": null, "tagline": null, "has_video": false, "website": "http://www.citysearch.com/profile/external/793238760/marietta_ga/uncle_maddio_s_pizza_joint.html", "offers": null, "latitude": 33.980574, "politanName": "Atlanta, GA Metro ", "phone_number": "6783243590", "tags": [{"primary": false, "id": 1722, "name": "Restaurants"}, {"primary": true, "id": 11299, "name": "Pizza"}], "fax_number": null, "expansion": {"count": null, "uri": null}, "impression_id": "000b000000b4592d4550df4c579a09000b6bd7d19d", "profile": "http://www.citysearch.com/profile/793238760/marietta_ga/uncle_maddio_s_pizza_joint.html", "address": {"city": "Marietta", "state": "GA", "street": "4101 Roswell Rd # 1100", "postal_code": "30062"}, "capProviderId": null, "distance": null, "has_offers": false, "name": "Uncle Maddio's Pizza Joint", "longitude": -84.433488, "has_menu": false, "awards": null, "user_review_count": 0}, {"business_operation_status": 1, "rating": null, "neighborhood": null, "image": null, "scorecard": null, "featured": false, "sample_categories": "Restaurants", "public_id": "swiss-alpine-bakery-marietta", "id": 814198400, "votes": null, "tagline": null, "has_video": false, "website": null, "offers": null, "latitude": 33.977034, "politanName": "Atlanta, GA Metro ", "phone_number": "7706431100", "tags": [{"primary": true, "id": 1722, "name": "Restaurants"}], "fax_number": null, "expansion": {"count": null, "uri": null}, "impression_id": "000b000000c0d25115ba4e45c68d4cfbd03f9b99a4", "profile": "http://www.citysearch.com/profile/814198400/marietta_ga/swiss_alpine_bakery.html", "address": {"city": "Marietta", "state": "GA", "street": "2460 Sheila Ln", "postal_code": "30062"}, "capProviderId": null, "distance": null, "has_offers": false, "name": "Swiss Alpine Bakery", "longitude": -84.475931, "has_menu": false, "awards": null, "user_review_count": 0}, {"business_operation_status": 1, "rating": null, "neighborhood": null, "image": null, "scorecard": null, "featured": false, "sample_categories": "Bars & Clubs, Restaurants, Mexican", "public_id": "three-amigos-mexican-bar-marietta", "id": 764927450, "votes": null, "tagline": null, "has_video": false, "website": null, "offers": null, "latitude": 33.953033, "politanName": "Atlanta, GA Metro ", "phone_number": "7704855947", "tags": [{"primary": false, "id": 164, "name": "Bars & Clubs"}, {"primary": false, "id": 11208, "name": "Mexican"}, {"primary": true, "id": 1722, "name": "Restaurants"}], "fax_number": null, "expansion": {"count": null, "uri": null}, "impression_id": "000b00000050150bd02ef646079118f146a4d10074", "profile": "http://www.citysearch.com/profile/764927450/marietta_ga/three_amigos_mexican_bar.html", "address": {"city": "Marietta", "state": "GA", "street": "1000 Whitlock Ave NW # 410", "postal_code": "30064"}, "capProviderId": null, "distance": null, "has_offers": false, "name": "Three Amigos Mexican Bar", "longitude": -84.581202, "has_menu": false, "awards": null, "user_review_count": 0}, {"business_operation_status": 1, "rating": null, "neighborhood": null, "image": null, "scorecard": null, "featured": false, "sample_categories": "Restaurants, Bars & Clubs, Bars & Pubs", "public_id": "two-monkies-tavern-marietta", "id": 764934920, "votes": null, "tagline": null, "has_video": false, "website": null, "offers": null, "latitude": 33.951899, "politanName": "Atlanta, GA Metro ", "phone_number": "7704220108", "tags": [{"primary": false, "id": 164, "name": "Bars & Clubs"}, {"primary": false, "id": 1686, "name": "Bars & Pubs"}, {"primary": true, "id": 1722, "name": "Restaurants"}], "fax_number": null, "expansion": {"count": null, "uri": null}, "impression_id": "000b000000932cfc1064274f2a95d075c7e865fbc9", "profile": "http://www.citysearch.com/profile/764934920/marietta_ga/two_monkies_tavern.html", "address": {"city": "Marietta", "state": "GA", "street": "688 Whitlock Ave NW", "postal_code": "30064"}, "capProviderId": null, "distance": null, "has_offers": false, "name": "Two Monkies Tavern", "longitude": -84.57265, "has_menu": false, "awards": null, "user_review_count": 0}, {"business_operation_status": 1, "rating": null, "neighborhood": null, "image": null, "scorecard": null, "featured": false, "sample_categories": "Restaurants, Mexican", "public_id": "maria-ponita-mexican-club-marietta", "id": 45556505, "votes": null, "tagline": null, "has_video": false, "website": null, "offers": null, "latitude": 33.921568, "politanName": "Atlanta, GA Metro ", "phone_number": "6782132254", "tags": [{"primary": false, "id": 11208, "name": "Mexican"}, {"primary": true, "id": 1722, "name": "Restaurants"}], "fax_number": null, "expansion": {"count": null, "uri": null}, "impression_id": "000b0000001e5df628cfe9414f9fbd5b9d301dd847", "profile": "http://www.citysearch.com/profile/45556505/marietta_ga/maria_ponita_mexican_club.html", "address": {"city": "Marietta", "state": "GA", "street": "1177 Bellemeade Dr SW", "postal_code": "30008"}, "capProviderId": null, "distance": null, "has_offers": false, "name": "Maria Ponita Mexican Club", "longitude": -84.574372, "has_menu": false, "awards": null, "user_review_count": 1}, {"business_operation_status": 1, "rating": null, "neighborhood": null, "image": null, "scorecard": null, "featured": false, "sample_categories": "Restaurants, Barbecue Restaurants", "public_id": "smokin-js-bbq-marietta", "id": 809243680, "votes": null, "tagline": null, "has_video": false, "website": "http://www.citysearch.com/profile/external/809243680/marietta_ga/smokin_js_bbq.html", "offers": null, "latitude": 33.969959, "politanName": "Atlanta, GA Metro ", "phone_number": "7709731003", "tags": [{"primary": false, "id": 1724, "name": "Barbecue Restaurants"}, {"primary": true, "id": 1722, "name": "Restaurants"}], "fax_number": null, "expansion": {"count": null, "uri": null}, "impression_id": "000b000000cb4e61e612074b39a2bbb849c92e2838", "profile": "http://www.citysearch.com/profile/809243680/marietta_ga/smokin_js_bbq.html", "address": {"city": "Marietta", "state": "GA", "street": "2145 Roswell Rd", "postal_code": "30062"}, "capProviderId": null, "distance": null, "has_offers": false, "name": "Smokin Js BBQ", "longitude": -84.490616, "has_menu": true, "awards": null, "user_review_count": 0}, {"business_operation_status": 1, "rating": null, "neighborhood": null, "image": null, "scorecard": null, "featured": false, "sample_categories": "Restaurants", "public_id": "nine-restaurant-wine-bar-roswell", "id": 834332670, "votes": null, "tagline": null, "has_video": false, "website": "http://www.citysearch.com/profile/external/834332670/roswell_ga/nine_restaurant_wine_bar.html", "offers": null, "latitude": 34.024321, "politanName": "Atlanta, GA Metro ", "phone_number": "7705876707", "tags": [{"primary": true, "id": 1722, "name": "Restaurants"}], "fax_number": null, "expansion": {"count": null, "uri": null}, "impression_id": "000b0000009595208e493f434ab888d66edadb0bc5", "profile": "http://www.citysearch.com/profile/834332670/roswell_ga/nine_restaurant_wine_bar.html", "address": {"city": "Roswell", "state": "GA", "street": "946 Canton St", "postal_code": "30075"}, "capProviderId": null, "distance": null, "has_offers": false, "name": "Nine Restaurant & Wine Bar", "longitude": -84.361786, "has_menu": true, "awards": null, "user_review_count": 3}, {"business_operation_status": 1, "rating": null, "neighborhood": null, "image": null, "scorecard": null, "featured": false, "sample_categories": "Restaurants, Vegetarian", "public_id": "loving-hut-ii-vegetarian-kennesaw", "id": 655872850, "votes": null, "tagline": null, "has_video": false, "website": null, "offers": null, "latitude": 34.014516, "politanName": "Atlanta, GA Metro ", "phone_number": "7704290666", "tags": [{"primary": false, "id": 11230, "name": "Vegetarian"}, {"primary": true, "id": 1722, "name": "Restaurants"}], "fax_number": null, "expansion": {"count": null, "uri": null}, "impression_id": "000b000000e10ad3c19212456dbaeccd774699b0ea", "profile": "http://www.citysearch.com/profile/655872850/kennesaw_ga/loving_hut_ii_vegetarian.html", "address": {"city": "Kennesaw", "state": "GA", "street": "2700 Town Center Dr Nw", "postal_code": "30144"}, "capProviderId": null, "distance": null, "has_offers": false, "name": "Loving Hut Ii Vegetarian", "longitude": -84.56447, "has_menu": false, "awards": null, "user_review_count": 0}, {"business_operation_status": 1, "rating": null, "neighborhood": null, "image": null, "scorecard": null, "featured": false, "sample_categories": "Restaurants", "public_id": "bubbalinis-marietta", "id": 672813110, "votes": null, "tagline": null, "has_video": false, "website": "http://www.citysearch.com/profile/external/672813110/marietta_ga/bubbalini_s.html", "offers": null, "latitude": 33.952594, "politanName": "Atlanta, GA Metro ", "phone_number": "6785947770", "tags": [{"primary": true, "id": 1722, "name": "Restaurants"}], "fax_number": null, "expansion": {"count": null, "uri": null}, "impression_id": "000b0000000632aa971e384d12901ffeb5a456e818", "profile": "http://www.citysearch.com/profile/672813110/marietta_ga/bubbalini_s.html", "address": {"city": "Marietta", "state": "GA", "street": "800 Whitlock Ave NW", "postal_code": "30064"}, "capProviderId": null, "distance": null, "has_offers": false, "name": "Bubbalini's", "longitude": -84.575881, "has_menu": false, "awards": null, "user_review_count": 0}, {"business_operation_status": 1, "rating": null, "neighborhood": null, "image": null, "scorecard": null, "featured": false, "sample_categories": "Restaurants", "public_id": "chequers-seafood-marietta", "id": 607866154, "votes": null, "tagline": null, "has_video": false, "website": null, "offers": null, "latitude": 33.983785, "politanName": "Atlanta, GA Metro ", "phone_number": "7709779324", "tags": [{"primary": true, "id": 1722, "name": "Restaurants"}], "fax_number": null, "expansion": {"count": null, "uri": null}, "impression_id": "000b0000002a000b811ffc4d8f889f6660df7b0291", "profile": "http://www.citysearch.com/profile/607866154/marietta_ga/chequers_seafood.html", "address": {"city": "Marietta", "state": "GA", "street": "1402 Johnson Ferry Rd", "postal_code": "30062"}, "capProviderId": null, "distance": null, "has_offers": false, "name": "Chequers Seafood", "longitude": -84.427049, "has_menu": false, "awards": null, "user_review_count": 0}, {"business_operation_status": 1, "rating": null, "neighborhood": null, "image": null, "scorecard": null, "featured": false, "sample_categories": "Restaurants, Bars & Clubs, Bars & Pubs, General Government Offices, Traditional American", "public_id": "pub-marietta", "id": 764931910, "votes": null, "tagline": null, "has_video": false, "website": null, "offers": null, "latitude": 33.943645, "politanName": "Atlanta, GA Metro ", "phone_number": "7704272500", "tags": [{"primary": false, "id": 1722, "name": "Restaurants"}, {"primary": false, "id": 164, "name": "Bars & Clubs"}, {"primary": false, "id": 1686, "name": "Bars & Pubs"}, {"primary": false, "id": 1756, "name": "General Government Offices"}, {"primary": false, "id": 11190, "name": "Traditional American"}, {"primary": false, "id": 12736, "name": "Wedding Supplies"}], "fax_number": null, "expansion": {"count": null, "uri": null}, "impression_id": "000b000000c10bc2b824334a83be5d1cef6619ed1b", "profile": "http://www.citysearch.com/profile/764931910/marietta_ga/pub.html", "address": {"city": "Marietta", "state": "GA", "street": "500 Powder Springs St", "postal_code": "30064"}, "capProviderId": null, "distance": null, "has_offers": false, "name": "Pub", "longitude": -84.552498, "has_menu": true, "awards": null, "user_review_count": 0}, {"business_operation_status": 1, "rating": null, "neighborhood": null, "image": null, "scorecard": null, "featured": false, "sample_categories": "Restaurants", "public_id": "tme-enterprises-i-ltd-marietta-2", "id": 787135780, "votes": null, "tagline": null, "has_video": false, "website": null, "offers": null, "latitude": 33.968654, "politanName": "Atlanta, GA Metro ", "phone_number": "7705652051", "tags": [{"primary": true, "id": 1722, "name": "Restaurants"}], "fax_number": null, "expansion": {"count": null, "uri": null}, "impression_id": "000b0000001e188b699d7f4e9ba61792c11285959d", "profile": "http://www.citysearch.com/profile/787135780/marietta_ga/tme_enterprises_i_ltd.html", "address": {"city": "Marietta", "state": "GA", "street": "2169 Roswell Rd", "postal_code": "30062"}, "capProviderId": null, "distance": null, "has_offers": false, "name": "Tme Enterprises I LTD", "longitude": -84.48981, "has_menu": false, "awards": null, "user_review_count": 0}, {"business_operation_status": 1, "rating": null, "neighborhood": null, "image": null, "scorecard": null, "featured": false, "sample_categories": "Restaurants, Asian", "public_id": "asia-buffet-marietta", "id": 713444490, "votes": null, "tagline": null, "has_video": false, "website": null, "offers": null, "latitude": 33.921568, "politanName": "Atlanta, GA Metro ", "phone_number": "7706358309", "tags": [{"primary": false, "id": 11235, "name": "Asian"}, {"primary": true, "id": 1722, "name": "Restaurants"}], "fax_number": null, "expansion": {"count": null, "uri": null}, "impression_id": "000b000000cd370c38b27d4296958ee075a68e0cf4", "profile": "http://www.citysearch.com/profile/713444490/marietta_ga/asia_buffet.html", "address": {"city": "Marietta", "state": "GA", "street": "1177 Bellemeade Dr Sw", "postal_code": "30008"}, "capProviderId": null, "distance": null, "has_offers": false, "name": "Asia Buffet", "longitude": -84.574372, "has_menu": false, "awards": null, "user_review_count": 0}, {"business_operation_status": 1, "rating": null, "neighborhood": null, "image": null, "scorecard": null, "featured": false, "sample_categories": "Restaurants, Bars & Clubs", "public_id": "ronnie-johns-beach-cafe-marietta", "id": 732176830, "votes": null, "tagline": null, "has_video": false, "website": "http://www.citysearch.com/profile/external/732176830/marietta_ga/ronnie_johns_beach_cafe.html", "offers": null, "latitude": 33.997727, "politanName": "Atlanta, GA Metro ", "phone_number": "7703565251", "tags": [{"primary": false, "id": 164, "name": "Bars & Clubs"}, {"primary": true, "id": 1722, "name": "Restaurants"}], "fax_number": null, "expansion": {"count": null, "uri": null}, "impression_id": "000b000000d87e63896a524e5da06ce6f1a881947e", "profile": "http://www.citysearch.com/profile/732176830/marietta_ga/ronnie_johns_beach_cafe.html", "address": {"city": "Marietta", "state": "GA", "street": "1951 Canton Rd # 330", "postal_code": "30066"}, "capProviderId": null, "distance": null, "has_offers": false, "name": "Ronnie Johns Beach Cafe", "longitude": -84.525055, "has_menu": false, "awards": null, "user_review_count": 0}, {"business_operation_status": 1, "rating": null, "neighborhood": null, "image": null, "scorecard": null, "featured": false, "sample_categories": "Restaurants, Traditional American", "public_id": "red-eyed-mule-marietta", "id": 655819920, "votes": null, "tagline": null, "has_video": false, "website": "http://www.citysearch.com/profile/external/655819920/marietta_ga/red_eyed_mule.html", "offers": null, "latitude": 33.974961, "politanName": "Atlanta, GA Metro ", "phone_number": "6788094546", "tags": [{"primary": false, "id": 11190, "name": "Traditional American"}, {"primary": true, "id": 1722, "name": "Restaurants"}], "fax_number": null, "expansion": {"count": null, "uri": null}, "impression_id": "000b0000008d61bbf1c38741f59eda0d6e50625f67", "profile": "http://www.citysearch.com/profile/655819920/marietta_ga/red_eyed_mule.html", "address": {"city": "Marietta", "state": "GA", "street": "1405 Church Street Ext Ne", "postal_code": "30060"}, "capProviderId": null, "distance": null, "has_offers": false, "name": "Red Eyed Mule", "longitude": -84.552997, "has_menu": true, "awards": null, "user_review_count": 0}, {"business_operation_status": 0, "rating": null, "neighborhood": null, "image": null, "scorecard": null, "featured": false, "sample_categories": "Restaurants", "public_id": "montana-waffle-co-marietta", "id": 775224500, "votes": null, "tagline": null, "has_video": false, "website": null, "offers": null, "latitude": 33.972274, "politanName": "Atlanta, GA Metro ", "phone_number": "7702182707", "tags": [{"primary": true, "id": 1722, "name": "Restaurants"}], "fax_number": null, "expansion": {"count": null, "uri": null}, "impression_id": "000b000000a44599fc2eb74b7d8179d7944b4abbe7", "profile": "http://www.citysearch.com/profile/775224500/marietta_ga/montana_waffle_co.html", "address": {"city": "Marietta", "state": "GA", "street": "140 Vann St NE", "postal_code": "30060"}, "capProviderId": null, "distance": null, "has_offers": false, "name": "Montana Waffle Co", "longitude": -84.548786, "has_menu": false, "awards": null, "user_review_count": 0}, {"business_operation_status": 1, "rating": null, "neighborhood": null, "image": null, "scorecard": null, "featured": false, "sample_categories": "Restaurants, Chinese", "public_id": "china-moon-marietta", "id": 777713620, "votes": null, "tagline": null, "has_video": false, "website": null, "offers": null, "latitude": 33.952602, "politanName": "Atlanta, GA Metro ", "phone_number": "6782752350", "tags": [{"primary": false, "id": 11252, "name": "Chinese"}, {"primary": true, "id": 1722, "name": "Restaurants"}], "fax_number": null, "expansion": {"count": null, "uri": null}, "impression_id": "000b000000fcdaa8e0e1994a04ac9d0cb43a684bf5", "profile": "http://www.citysearch.com/profile/777713620/marietta_ga/china_moon.html", "address": {"city": "Marietta", "state": "GA", "street": "3960 Mary Eliza Trce NW", "postal_code": "30064"}, "capProviderId": null, "distance": null, "has_offers": false, "name": "China Moon", "longitude": -84.549933, "has_menu": false, "awards": null, "user_review_count": 0}, {"business_operation_status": 1, "rating": null, "neighborhood": null, "image": null, "scorecard": null, "featured": false, "sample_categories": "Restaurants, Mexican", "public_id": "jumping-beans-marietta", "id": 681338130, "votes": null, "tagline": null, "has_video": false, "website": null, "offers": null, "latitude": 33.951322, "politanName": "Atlanta, GA Metro ", "phone_number": "7704209092", "tags": [{"primary": false, "id": 11208, "name": "Mexican"}, {"primary": true, "id": 1722, "name": "Restaurants"}], "fax_number": null, "expansion": {"count": null, "uri": null}, "impression_id": "000b000000710168a1d7734e1f896af4d7140c22d8", "profile": "http://www.citysearch.com/profile/681338130/marietta_ga/jumping_beans.html", "address": {"city": "Marietta", "state": "GA", "street": "749 Roswell St NE", "postal_code": "30060"}, "capProviderId": null, "distance": null, "has_offers": false, "name": "Jumping Beans", "longitude": -84.530069, "has_menu": false, "awards": null, "user_review_count": 0}, {"business_operation_status": 1, "rating": null, "neighborhood": null, "image": null, "scorecard": null, "featured": false, "sample_categories": "Restaurants, Bars & Clubs, American Express, Discover, MasterCard", "public_id": "hemingways-marietta", "id": 682627370, "votes": null, "tagline": null, "has_video": false, "website": "http://www.citysearch.com/profile/external/682627370/marietta_ga/hemingway_s.html", "offers": null, "latitude": 33.952683, "politanName": "Atlanta, GA Metro ", "phone_number": "7704275445", "tags": [{"primary": false, "id": 164, "name": "Bars & Clubs"}, {"primary": false, "id": 11333, "name": "American Express"}, {"primary": false, "id": 11349, "name": "Discover"}, {"primary": false, "id": 11361, "name": "MasterCard"}, {"primary": false, "id": 11382, "name": "Visa"}, {"primary": true, "id": 1722, "name": "Restaurants"}], "fax_number": null, "expansion": {"count": null, "uri": null}, "impression_id": "000b0000007a21d478d409481f8bcda4cce26c5264", "profile": "http://www.citysearch.com/profile/682627370/marietta_ga/hemingway_s.html", "address": {"city": "Marietta", "state": "GA", "street": "29 W Park Sq Ne", "postal_code": "30060"}, "capProviderId": null, "distance": null, "has_offers": false, "name": "Hemingway's", "longitude": -84.550462, "has_menu": true, "awards": null, "user_review_count": 12}, {"business_operation_status": 1, "rating": null, "neighborhood": null, "image": null, "scorecard": null, "featured": false, "sample_categories": "Restaurants, Hot Dogs", "public_id": "gorrins-cafe-marietta", "id": 790846920, "votes": null, "tagline": null, "has_video": false, "website": null, "offers": null, "latitude": 33.975849, "politanName": "Atlanta, GA Metro ", "phone_number": "7705651475", "tags": [{"primary": false, "id": 11274, "name": "Hot Dogs"}, {"primary": true, "id": 1722, "name": "Restaurants"}], "fax_number": null, "expansion": {"count": null, "uri": null}, "impression_id": "000b0000008e1e6dbae50e412bb2dca902ba6092cf", "profile": "http://www.citysearch.com/profile/790846920/marietta_ga/gorrins_cafe.html", "address": {"city": "Marietta", "state": "GA", "street": "1186 Indian Hills Pkwy", "postal_code": "30068"}, "capProviderId": null, "distance": null, "has_offers": false, "name": "Gorrins Cafe", "longitude": -84.436833, "has_menu": false, "awards": null, "user_review_count": 0}, {"business_operation_status": 1, "rating": null, "neighborhood": null, "image": null, "scorecard": null, "featured": false, "sample_categories": "Ice Cream Parlors", "public_id": "jimmies-ice-cream-co-marietta", "id": 802518500, "votes": null, "tagline": null, "has_video": false, "website": null, "offers": null, "latitude": 34.013992, "politanName": "Atlanta, GA Metro ", "phone_number": "7706720051", "tags": [{"primary": true, "id": 1730, "name": "Ice Cream Parlors"}], "fax_number": null, "expansion": {"count": null, "uri": null}, "impression_id": "000b0000009e2f2105b27345859e6870feb6066537", "profile": "http://www.citysearch.com/profile/802518500/marietta_ga/jimmie_s_ice_cream_co.html", "address": {"city": "Marietta", "state": "GA", "street": "2595 Sandy Plains Rd", "postal_code": "30066"}, "capProviderId": null, "distance": null, "has_offers": false, "name": "Jimmie's Ice Cream Co", "longitude": -84.495703, "has_menu": false, "awards": null, "user_review_count": 0}, {"business_operation_status": 0, "rating": null, "neighborhood": null, "image": null, "scorecard": null, "featured": false, "sample_categories": "Restaurants, Delis And Delicatessens, American Express, Debit Card, Discover", "public_id": "lennys-sub-shop-marietta", "id": 732210960, "votes": null, "tagline": null, "has_video": false, "website": null, "offers": null, "latitude": 33.946428, "politanName": "Atlanta, GA Metro ", "phone_number": "6785946940", "tags": [{"primary": false, "id": 1727, "name": "Delis And Delicatessens"}, {"primary": false, "id": 11333, "name": "American Express"}, {"primary": false, "id": 11347, "name": "Debit Card"}, {"primary": false, "id": 11349, "name": "Discover"}, {"primary": false, "id": 11361, "name": "MasterCard"}, {"primary": false, "id": 11382, "name": "Visa"}, {"primary": true, "id": 1722, "name": "Restaurants"}], "fax_number": null, "expansion": {"count": null, "uri": null}, "impression_id": "000b0000006d8a57730ee2418391b9656b7cb5e676", "profile": "http://www.citysearch.com/profile/732210960/marietta_ga/lenny_s_sub_shop.html", "address": {"city": "Marietta", "state": "GA", "street": "270 Cobb Pkwy S", "postal_code": "30060"}, "capProviderId": null, "distance": null, "has_offers": false, "name": "Lenny's Sub Shop", "longitude": -84.520358, "has_menu": false, "awards": null, "user_review_count": 0}, {"business_operation_status": 1, "rating": null, "neighborhood": null, "image": null, "scorecard": null, "featured": false, "sample_categories": "Restaurants, Bars & Pubs, Carry Out", "public_id": "chilis-grill-bar-marietta-4", "id": 764886130, "votes": null, "tagline": null, "has_video": false, "website": null, "offers": null, "latitude": 33.939526, "politanName": "Atlanta, GA Metro ", "phone_number": "7704230897", "tags": [{"primary": false, "id": 1686, "name": "Bars & Pubs"}, {"primary": false, "id": 11247, "name": "Carry Out"}, {"primary": true, "id": 1722, "name": "Restaurants"}], "fax_number": null, "expansion": {"count": null, "uri": null}, "impression_id": "000b000000e240f9a896d84efea9c622bfa8d30d6a", "profile": "http://www.citysearch.com/profile/764886130/marietta_ga/chili_s_grill_bar.html", "address": {"city": "Marietta", "state": "GA", "street": "555 Commerce Ave SE", "postal_code": "30067"}, "capProviderId": null, "distance": null, "has_offers": false, "name": "Chili's Grill & Bar", "longitude": -84.506501, "has_menu": false, "awards": null, "user_review_count": 0}, {"business_operation_status": 1, "rating": null, "neighborhood": null, "image": null, "scorecard": null, "featured": false, "sample_categories": "Grocery Stores, Restaurants", "public_id": "royal-groceries-rstrnt-llc-marietta", "id": 764910880, "votes": null, "tagline": null, "has_video": false, "website": null, "offers": null, "latitude": 33.95073, "politanName": "Atlanta, GA Metro ", "phone_number": "7709738414", "tags": [{"primary": false, "id": 1722, "name": "Restaurants"}, {"primary": true, "id": 1713, "name": "Grocery Stores"}], "fax_number": null, "expansion": {"count": null, "uri": null}, "impression_id": "000b0000000fc6b8da2f7d43e2a55f477bf0d2beb5", "profile": "http://www.citysearch.com/profile/764910880/marietta_ga/royal_groceries_rstrnt_llc.html", "address": {"city": "Marietta", "state": "GA", "street": "1392 Roswell Rd", "postal_code": "30062"}, "capProviderId": null, "distance": null, "has_offers": false, "name": "Royal Groceries & Rstrnt Llc", "longitude": -84.511253, "has_menu": false, "awards": null, "user_review_count": 0}, {"business_operation_status": 1, "rating": null, "neighborhood": null, "image": null, "scorecard": null, "featured": false, "sample_categories": "Restaurants, Grocery Stores", "public_id": "sugar-shack-snacks-marietta", "id": 766798620, "votes": null, "tagline": null, "has_video": false, "website": null, "offers": null, "latitude": 33.952602, "politanName": "Atlanta, GA Metro ", "phone_number": "7704850847", "tags": [{"primary": false, "id": 1713, "name": "Grocery Stores"}, {"primary": true, "id": 1722, "name": "Restaurants"}], "fax_number": null, "expansion": {"count": null, "uri": null}, "impression_id": "000b000000d382b31bceba4640a48816a1ba59315d", "profile": "http://www.citysearch.com/profile/766798620/marietta_ga/sugar_shack_snacks.html", "address": {"city": "Marietta", "state": "GA", "street": "3901 Mary Eliza Trce NW # 120", "postal_code": "30064"}, "capProviderId": null, "distance": null, "has_offers": false, "name": "Sugar Shack Snacks", "longitude": -84.549933, "has_menu": false, "awards": null, "user_review_count": 0}, {"business_operation_status": 1, "rating": null, "neighborhood": null, "image": null, "scorecard": null, "featured": false, "sample_categories": "Restaurants, Mexican", "public_id": "el-taco-azteco-bar-grill-marietta", "id": 779707060, "votes": null, "tagline": null, "has_video": false, "website": null, "offers": null, "latitude": 33.976739, "politanName": "Atlanta, GA Metro ", "phone_number": "6782752349", "tags": [{"primary": false, "id": 11208, "name": "Mexican"}, {"primary": true, "id": 1722, "name": "Restaurants"}], "fax_number": null, "expansion": {"count": null, "uri": null}, "impression_id": "000b000000db957568c9f64567addc6c7d1116950d", "profile": "http://www.citysearch.com/profile/779707060/marietta_ga/el_taco_azteco_bar_grill.html", "address": {"city": "Marietta", "state": "GA", "street": "1050 E Piedmont Rd", "postal_code": "30062"}, "capProviderId": null, "distance": null, "has_offers": false, "name": "El Taco Azteco Bar & Grill", "longitude": -84.479676, "has_menu": false, "awards": null, "user_review_count": 0}, {"business_operation_status": 0, "rating": null, "neighborhood": null, "image": null, "scorecard": null, "featured": false, "sample_categories": "Health Food Stores, Restaurants, American Express, MasterCard, Visa", "public_id": "planet-smoothie-marietta-5", "id": 682245710, "votes": null, "tagline": null, "has_video": false, "website": "http://www.citysearch.com/profile/external/682245710/marietta_ga/planet_smoothie.html", "offers": null, "latitude": 33.958324, "politanName": "Atlanta, GA Metro ", "phone_number": "7704272700", "tags": [{"primary": false, "id": 1722, "name": "Restaurants"}, {"primary": false, "id": 11333, "name": "American Express"}, {"primary": false, "id": 11361, "name": "MasterCard"}, {"primary": false, "id": 11382, "name": "Visa"}, {"primary": true, "id": 1716, "name": "Health Food Stores"}], "fax_number": null, "expansion": {"count": null, "uri": null}, "impression_id": "000b000000b9e0c9e782504fb78dfa086d6ab85ec7", "profile": "http://www.citysearch.com/profile/682245710/marietta_ga/planet_smoothie.html", "address": {"city": "Marietta", "state": "GA", "street": "245 Ernest W Barrett NW # 145", "postal_code": "30060"}, "capProviderId": null, "distance": null, "has_offers": false, "name": "Planet Smoothie", "longitude": -84.621625, "has_menu": false, "awards": null, "user_review_count": 0}, {"business_operation_status": 1, "rating": null, "neighborhood": null, "image": null, "scorecard": null, "featured": false, "sample_categories": "Restaurants, Traditional American, Carry Out, American Express, Discover", "public_id": "arbys-austell", "id": 682522910, "votes": null, "tagline": null, "has_video": false, "website": "http://www.citysearch.com/profile/external/682522910/austell_ga/arby_s.html", "offers": null, "latitude": 33.802759, "politanName": "Atlanta, GA Metro ", "phone_number": "7707390339", "tags": [{"primary": false, "id": 11190, "name": "Traditional American"}, {"primary": false, "id": 11247, "name": "Carry Out"}, {"primary": false, "id": 11333, "name": "American Express"}, {"primary": false, "id": 11349, "name": "Discover"}, {"primary": false, "id": 11361, "name": "MasterCard"}, {"primary": false, "id": 11382, "name": "Visa"}, {"primary": true, "id": 1722, "name": "Restaurants"}], "fax_number": null, "expansion": {"count": null, "uri": null}, "impression_id": "000b000000d356aa7989fa47dea86144122dc620b7", "profile": "http://www.citysearch.com/profile/682522910/austell_ga/arby_s.html", "address": {"city": "Austell", "state": "GA", "street": "3060 Bankhead Hwy", "postal_code": "30168"}, "capProviderId": null, "distance": null, "has_offers": false, "name": "Arby's", "longitude": -84.638393, "has_menu": true, "awards": null, "user_review_count": 0}, {"business_operation_status": 1, "rating": null, "neighborhood": null, "image": null, "scorecard": null, "featured": false, "sample_categories": "Restaurants, Asian, Chinese", "public_id": "hibachi-buffet-marietta", "id": 713488530, "votes": null, "tagline": null, "has_video": false, "website": "http://www.citysearch.com/profile/external/713488530/marietta_ga/hibachi_buffet.html", "offers": null, "latitude": 33.968527, "politanName": "Atlanta, GA Metro ", "phone_number": "7703218202", "tags": [{"primary": false, "id": 11235, "name": "Asian"}, {"primary": false, "id": 11252, "name": "Chinese"}, {"primary": true, "id": 1722, "name": "Restaurants"}], "fax_number": null, "expansion": {"count": null, "uri": null}, "impression_id": "000b0000005703c43747484678868b5f4c7ebc01c2", "profile": "http://www.citysearch.com/profile/713488530/marietta_ga/hibachi_buffet.html", "address": {"city": "Marietta", "state": "GA", "street": "2145 Roswell Rd # 260", "postal_code": "30062"}, "capProviderId": null, "distance": null, "has_offers": false, "name": "Hibachi Buffet", "longitude": -84.491622, "has_menu": false, "awards": null, "user_review_count": 0}, {"business_operation_status": 0, "rating": null, "neighborhood": null, "image": null, "scorecard": null, "featured": false, "sample_categories": "Ice Cream Parlors", "public_id": "clearview-ventures-kennesaw", "id": 732172070, "votes": null, "tagline": null, "has_video": false, "website": null, "offers": null, "latitude": 33.976849, "politanName": "Atlanta, GA Metro ", "phone_number": "7706178112", "tags": [{"primary": true, "id": 1730, "name": "Ice Cream Parlors"}], "fax_number": null, "expansion": {"count": null, "uri": null}, "impression_id": "000b000000a51a1e1df4614fea892884445bab9597", "profile": "http://www.citysearch.com/profile/732172070/kennesaw_ga/clearview_ventures.html", "address": {"city": "Kennesaw", "state": "GA", "street": "985 Frog Leap Trl NW", "postal_code": "30152"}, "capProviderId": null, "distance": null, "has_offers": false, "name": "Clearview Ventures", "longitude": -84.607323, "has_menu": false, "awards": null, "user_review_count": 0}, {"business_operation_status": 1, "rating": null, "neighborhood": null, "image": null, "scorecard": null, "featured": false, "sample_categories": "Restaurants", "public_id": "farmers-basket-kennesaw", "id": 753236330, "votes": null, "tagline": null, "has_video": false, "website": null, "offers": null, "latitude": 34.019128, "politanName": "Atlanta, GA Metro ", "phone_number": "7707947442", "tags": [{"primary": true, "id": 1722, "name": "Restaurants"}], "fax_number": null, "expansion": {"count": null, "uri": null}, "impression_id": "000b0000006d77ec87554346acb973199bf39d9629", "profile": "http://www.citysearch.com/profile/753236330/kennesaw_ga/farmers_basket.html", "address": {"city": "Kennesaw", "state": "GA", "street": "400 Ernest W Barrett Pkwy NW", "postal_code": "30144"}, "capProviderId": null, "distance": null, "has_offers": false, "name": "Farmers Basket", "longitude": -84.563608, "has_menu": false, "awards": null, "user_review_count": 0}, {"business_operation_status": 1, "rating": null, "neighborhood": null, "image": null, "scorecard": null, "featured": false, "sample_categories": "Coffee & Tea Shops, Tea Room", "public_id": "teavana-kennesaw", "id": 762806630, "votes": null, "tagline": null, "has_video": false, "website": "http://www.citysearch.com/profile/external/762806630/kennesaw_ga/teavana.html", "offers": null, "latitude": 34.019128, "politanName": "Atlanta, GA Metro ", "phone_number": "7704208676", "tags": [{"primary": false, "id": 11318, "name": "Tea Room"}, {"primary": true, "id": 1711, "name": "Coffee & Tea Shops"}], "fax_number": null, "expansion": {"count": null, "uri": null}, "impression_id": "000b00000024a20246f3e7465ab7732d9c21d456da", "profile": "http://www.citysearch.com/profile/762806630/kennesaw_ga/teavana.html", "address": {"city": "Kennesaw", "state": "GA", "street": "400 Ernest W Barrett Pkwy NW", "postal_code": "30144"}, "capProviderId": null, "distance": null, "has_offers": false, "name": "Teavana", "longitude": -84.563608, "has_menu": false, "awards": null, "user_review_count": 1}, {"business_operation_status": 1, "rating": null, "neighborhood": null, "image": null, "scorecard": null, "featured": false, "sample_categories": "Restaurants, Barbecue Restaurants", "public_id": "reds-backwoods-barbecue-kennesaw", "id": 775234200, "votes": null, "tagline": null, "has_video": false, "website": null, "offers": null, "latitude": 33.999345, "politanName": "Atlanta, GA Metro ", "phone_number": "6782909055", "tags": [{"primary": false, "id": 1724, "name": "Barbecue Restaurants"}, {"primary": true, "id": 1722, "name": "Restaurants"}], "fax_number": null, "expansion": {"count": null, "uri": null}, "impression_id": "000b00000045d037a94e214aa6ac9449848a43fef7", "profile": "http://www.citysearch.com/profile/775234200/kennesaw_ga/reds_backwoods_barbecue.html", "address": {"city": "Kennesaw", "state": "GA", "street": "1200 Ernest W Barrett Pkwy NW", "postal_code": "30144"}, "capProviderId": null, "distance": null, "has_offers": false, "name": "Reds Backwoods Barbecue", "longitude": -84.586888, "has_menu": false, "awards": null, "user_review_count": 0}, {"business_operation_status": 1, "rating": null, "neighborhood": null, "image": null, "scorecard": null, "featured": false, "sample_categories": "Restaurants", "public_id": "southern-flavor-kennesaw", "id": 777652400, "votes": null, "tagline": null, "has_video": false, "website": null, "offers": null, "latitude": 34.014009, "politanName": "Atlanta, GA Metro ", "phone_number": "7704228400", "tags": [{"primary": true, "id": 1722, "name": "Restaurants"}], "fax_number": null, "expansion": {"count": null, "uri": null}, "impression_id": "000b000000718b9327482e409f9a989bdb8f6c112a", "profile": "http://www.citysearch.com/profile/777652400/kennesaw_ga/southern_flavor.html", "address": {"city": "Kennesaw", "state": "GA", "street": "400 Ernest W Barrett NW # 119", "postal_code": "30144"}, "capProviderId": null, "distance": null, "has_offers": false, "name": "Southern Flavor", "longitude": -84.561425, "has_menu": false, "awards": null, "user_review_count": 0}, {"business_operation_status": 1, "rating": null, "neighborhood": null, "image": null, "scorecard": null, "featured": false, "sample_categories": "Restaurants, Traditional American", "public_id": "come-get-it-marietta", "id": 655806390, "votes": null, "tagline": null, "has_video": false, "website": "http://www.citysearch.com/profile/external/655806390/marietta_ga/come_get_it.html", "offers": null, "latitude": 33.97734, "politanName": "Atlanta, GA Metro ", "phone_number": "7704230010", "tags": [{"primary": false, "id": 11190, "name": "Traditional American"}, {"primary": true, "id": 1722, "name": "Restaurants"}], "fax_number": null, "expansion": {"count": null, "uri": null}, "impression_id": "000b000000ed16c6a9ad954d41bb7c143c54100f04", "profile": "http://www.citysearch.com/profile/655806390/marietta_ga/come_get_it.html", "address": {"city": "Marietta", "state": "GA", "street": "1409 Church Street Ext Ne # E", "postal_code": "30060"}, "capProviderId": null, "distance": null, "has_offers": false, "name": "Come & Get It", "longitude": -84.555829, "has_menu": false, "awards": null, "user_review_count": 0}, {"business_operation_status": 1, "rating": null, "neighborhood": null, "image": null, "scorecard": null, "featured": false, "sample_categories": "Restaurants, Carry Out, Hamburgers, American Express, Discover", "public_id": "burger-king-marietta-11", "id": 682637510, "votes": null, "tagline": null, "has_video": false, "website": "http://www.citysearch.com/profile/external/682637510/marietta_ga/burger_king.html", "offers": null, "latitude": 33.945546, "politanName": "Atlanta, GA Metro ", "phone_number": "6783541084", "tags": [{"primary": false, "id": 1722, "name": "Restaurants"}, {"primary": false, "id": 11270, "name": "Hamburgers"}, {"primary": false, "id": 11333, "name": "American Express"}, {"primary": false, "id": 11349, "name": "Discover"}, {"primary": false, "id": 11361, "name": "MasterCard"}, {"primary": false, "id": 11382, "name": "Visa"}, {"primary": true, "id": 11247, "name": "Carry Out"}], "fax_number": null, "expansion": {"count": null, "uri": null}, "impression_id": "000b0000007e5e23745de249e6b25b36ad82c60505", "profile": "http://www.citysearch.com/profile/682637510/marietta_ga/burger_king.html", "address": {"city": "Marietta", "state": "GA", "street": "2495 Dallas Hwy SW", "postal_code": "30064"}, "capProviderId": null, "distance": null, "has_offers": false, "name": "Burger King", "longitude": -84.624745, "has_menu": true, "awards": null, "user_review_count": 0}, {"business_operation_status": 1, "rating": null, "neighborhood": null, "image": null, "scorecard": null, "featured": false, "sample_categories": "Restaurants", "public_id": "metropolis-wing-station-marietta", "id": 682470740, "votes": null, "tagline": null, "has_video": false, "website": null, "offers": null, "latitude": 33.927554, "politanName": "Atlanta, GA Metro ", "phone_number": "6783545450", "tags": [{"primary": true, "id": 1722, "name": "Restaurants"}], "fax_number": null, "expansion": {"count": null, "uri": null}, "impression_id": "000b00000021e4461b2b7e44c288b30fde7cd051ce", "profile": "http://www.citysearch.com/profile/682470740/marietta_ga/metropolis_wing_station.html", "address": {"city": "Marietta", "state": "GA", "street": "1038 Franklin Rd Se", "postal_code": "30067"}, "capProviderId": null, "distance": null, "has_offers": false, "name": "Metropolis Wing Station", "longitude": -84.493666, "has_menu": false, "awards": null, "user_review_count": 0}, {"business_operation_status": 1, "rating": null, "neighborhood": null, "image": null, "scorecard": null, "featured": false, "sample_categories": "Restaurants, Delis And Delicatessens, Sandwich Shops, Carry Out", "public_id": "subway-roswell-16", "id": 781231490, "votes": null, "tagline": null, "has_video": false, "website": "http://www.citysearch.com/profile/external/781231490/roswell_ga/subway.html", "offers": null, "latitude": 34.026199, "politanName": "Atlanta, GA Metro ", "phone_number": "7705181060", "tags": [{"primary": false, "id": 1727, "name": "Delis And Delicatessens"}, {"primary": false, "id": 1736, "name": "Sandwich Shops"}, {"primary": false, "id": 11247, "name": "Carry Out"}, {"primary": true, "id": 1722, "name": "Restaurants"}], "fax_number": null, "expansion": {"count": null, "uri": null}, "impression_id": "000b0000007deb7567d2ae43bf9929575c2c7ea5f6", "profile": "http://www.citysearch.com/profile/781231490/roswell_ga/subway.html", "address": {"city": "Roswell", "state": "GA", "street": "1007 Alpharetta St # 112", "postal_code": "30075"}, "capProviderId": null, "distance": null, "has_offers": false, "name": "SUBWAY", "longitude": -84.359351, "has_menu": false, "awards": null, "user_review_count": 0}, {"business_operation_status": 1, "rating": null, "neighborhood": null, "image": null, "scorecard": null, "featured": false, "sample_categories": "Restaurants, Barbecue Restaurants", "public_id": "wings-burger-haven-marietta", "id": 653579150, "votes": null, "tagline": null, "has_video": false, "website": null, "offers": null, "latitude": 33.988155, "politanName": "Atlanta, GA Metro ", "phone_number": "6784679223", "tags": [{"primary": false, "id": 1724, "name": "Barbecue Restaurants"}, {"primary": true, "id": 1722, "name": "Restaurants"}], "fax_number": null, "expansion": {"count": null, "uri": null}, "impression_id": "000b0000009bffd23806b84556a66b6c5c232f5b18", "profile": "http://www.citysearch.com/profile/653579150/marietta_ga/wings_burger_haven.html", "address": {"city": "Marietta", "state": "GA", "street": "1410 Glenover Cir", "postal_code": "30062"}, "capProviderId": null, "distance": null, "has_offers": false, "name": "Wings & Burger Haven", "longitude": -84.511569, "has_menu": false, "awards": null, "user_review_count": 0}, {"business_operation_status": 1, "rating": null, "neighborhood": null, "image": null, "scorecard": null, "featured": false, "sample_categories": "Restaurants, Barbecue Restaurants", "public_id": "uncle-buds-bbq-atlanta", "id": 790849630, "votes": null, "tagline": null, "has_video": false, "website": null, "offers": null, "latitude": 33.94048, "politanName": "Atlanta, GA Metro ", "phone_number": "4042255283", "tags": [{"primary": false, "id": 1724, "name": "Barbecue Restaurants"}, {"primary": true, "id": 1722, "name": "Restaurants"}], "fax_number": null, "expansion": {"count": null, "uri": null}, "impression_id": "000b0000001a24a0c4f17149b8a5bb440048cd2c55", "profile": "http://www.citysearch.com/profile/790849630/atlanta_ga/uncle_buds_bbq.html", "address": {"city": "Atlanta", "state": "GA", "street": "4641 Breakwater Trl", "postal_code": "30303"}, "capProviderId": null, "distance": null, "has_offers": false, "name": "Uncle Buds BBQ", "longitude": -84.397897, "has_menu": false, "awards": null, "user_review_count": 0}, {"business_operation_status": 1, "rating": null, "neighborhood": null, "image": null, "scorecard": null, "featured": false, "sample_categories": "Restaurants, Fast Food, Carry Out, MasterCard, Visa", "public_id": "bojangles-famous-chicken-marietta", "id": 43849344, "votes": null, "tagline": null, "has_video": false, "website": "http://www.citysearch.com/profile/external/43849344/marietta_ga/bojangles_famous_chicken.html", "offers": null, "latitude": 33.935998, "politanName": "Atlanta, GA Metro ", "phone_number": "7704226222", "tags": [{"primary": false, "id": 11199, "name": "Fast Food"}, {"primary": false, "id": 11247, "name": "Carry Out"}, {"primary": false, "id": 11361, "name": "MasterCard"}, {"primary": false, "id": 11382, "name": "Visa"}, {"primary": false, "id": 12839, "name": "Chicken"}, {"primary": true, "id": 1722, "name": "Restaurants"}], "fax_number": null, "expansion": {"count": null, "uri": null}, "impression_id": "000b0000004695bb433dfc4d87bc504eebbd974c5c", "profile": "http://www.citysearch.com/profile/43849344/marietta_ga/bojangles_famous_chicken.html", "address": {"city": "Marietta", "state": "GA", "street": "681 Cobb Pkwy N", "postal_code": "30062"}, "capProviderId": null, "distance": null, "has_offers": false, "name": "Bojangles' Famous Chicken", "longitude": -84.511888, "has_menu": false, "awards": null, "user_review_count": 0}, {"business_operation_status": 1, "rating": null, "neighborhood": null, "image": null, "scorecard": null, "featured": false, "sample_categories": "Restaurants", "public_id": "ferreras-bistro-roswell", "id": 811707830, "votes": null, "tagline": null, "has_video": false, "website": null, "offers": null, "latitude": 34.015743, "politanName": "Atlanta, GA Metro ", "phone_number": "7706405345", "tags": [{"primary": true, "id": 1722, "name": "Restaurants"}], "fax_number": null, "expansion": {"count": null, "uri": null}, "impression_id": "000b000000385ac4e1cf8e491ea01d9dd59152a79b", "profile": "http://www.citysearch.com/profile/811707830/roswell_ga/ferrera_s_bistro.html", "address": {"city": "Roswell", "state": "GA", "street": "635 Atlanta St", "postal_code": "30075"}, "capProviderId": null, "distance": null, "has_offers": false, "name": "Ferrera's Bistro", "longitude": -84.362618, "has_menu": false, "awards": null, "user_review_count": 0}], "histograms": [], "tag_ids": [1722], "uri": "http://api.citygridmedia.com:8080/search/places/v2/search/where?has_offers=false&type=restaurant&format=json&page=8&where=30007&rpp=50&histograms=false&publisher=10000009598&region_type=circle", "did_you_mean": "", "regions": [{"latitude": 33.9527, "default_radius": 0.25, "type": "postal_code", "name": "30007", "longitude": -84.5502}], "call_id": "000b000000e98040ef7f04402dbcf4b76dbb3feaa7", "first_hit": 351, "total_hits": 446, "geo_ids": [137010], "page": 8, "last_hit": 400}}