{"results": {"rpp": 50, "locations": [{"business_operation_status": 1, "rating": null, "neighborhood": null, "image": null, "scorecard": null, "featured": false, "sample_categories": "Seafood Markets, Restaurants, Seafood", "public_id": "dallas-seafood-co-dallas", "id": 772188920, "votes": null, "tagline": null, "has_video": false, "website": null, "offers": null, "latitude": 33.911206, "politanName": "Atlanta, GA Metro ", "phone_number": "7705057313", "tags": [{"primary": false, "id": 1722, "name": "Restaurants"}, {"primary": false, "id": 11228, "name": "Seafood"}, {"primary": true, "id": 1719, "name": "Seafood Markets"}], "fax_number": null, "expansion": {"count": null, "uri": null}, "impression_id": "000b000000472bb6df15ef44928b87194f551f1b26", "profile": "http://www.citysearch.com/profile/772188920/dallas_ga/dallas_seafood_co.html", "address": {"city": "Dallas", "state": "GA", "street": "1195 Merchants Dr", "postal_code": "30132"}, "capProviderId": null, "distance": null, "has_offers": false, "name": "Dallas Seafood Co", "longitude": -84.801304, "has_menu": false, "awards": null, "user_review_count": 0}, {"business_operation_status": 1, "rating": null, "neighborhood": null, "image": null, "scorecard": null, "featured": false, "sample_categories": "Restaurants", "public_id": "tme-enterprises-i-ltd-marietta-3", "id": 793319820, "votes": null, "tagline": null, "has_video": false, "website": null, "offers": null, "latitude": 33.924583, "politanName": "Atlanta, GA Metro ", "phone_number": "7704198081", "tags": [{"primary": true, "id": 1722, "name": "Restaurants"}], "fax_number": null, "expansion": {"count": null, "uri": null}, "impression_id": "000b00000069939234893d45afa543b3e2904940d2", "profile": "http://www.citysearch.com/profile/793319820/marietta_ga/tme_enterprises_i_ltd.html", "address": {"city": "Marietta", "state": "GA", "street": "1180 Powder Springs St", "postal_code": "30064"}, "capProviderId": null, "distance": null, "has_offers": false, "name": "Tme Enterprises I LTD", "longitude": -84.575231, "has_menu": false, "awards": null, "user_review_count": 0}, {"business_operation_status": 1, "rating": null, "neighborhood": null, "image": null, "scorecard": null, "featured": false, "sample_categories": "Restaurants, Carry Out", "public_id": "atlanta-bread-co-smyrna-2", "id": 805222070, "votes": null, "tagline": null, "has_video": false, "website": null, "offers": null, "latitude": 33.923686, "politanName": "Atlanta, GA Metro ", "phone_number": "6785030710", "tags": [{"primary": false, "id": 11247, "name": "Carry Out"}, {"primary": true, "id": 1722, "name": "Restaurants"}], "fax_number": null, "expansion": {"count": null, "uri": null}, "impression_id": "000b00000086ed1c6fed184597ae9ab2d022b2c645", "profile": "http://www.citysearch.com/profile/805222070/smyrna_ga/atlanta_bread_co.html", "address": {"city": "Smyrna", "state": "GA", "street": "2160 Kingston CT SE", "postal_code": "30080"}, "capProviderId": null, "distance": null, "has_offers": false, "name": "Atlanta Bread Co", "longitude": -84.488921, "has_menu": false, "awards": null, "user_review_count": 0}, {"business_operation_status": 1, "rating": null, "neighborhood": null, "image": null, "scorecard": null, "featured": false, "sample_categories": "Food Delivery", "public_id": "beffalicious-mableton", "id": 809126440, "votes": null, "tagline": null, "has_video": false, "website": null, "offers": null, "latitude": 33.817489, "politanName": "Atlanta, GA Metro ", "phone_number": "7707452381", "tags": [{"primary": true, "id": 11267, "name": "Food Delivery"}], "fax_number": null, "expansion": {"count": null, "uri": null}, "impression_id": "000b000000ca87cc686eca4a3b831e3f9da3171154", "profile": "http://www.citysearch.com/profile/809126440/mableton_ga/beffalicious.html", "address": {"city": "Mableton", "state": "GA", "street": "5590 Mableton Pkwy SW", "postal_code": "30126"}, "capProviderId": null, "distance": null, "has_offers": false, "name": "Beffalicious", "longitude": -84.575963, "has_menu": false, "awards": null, "user_review_count": 0}, {"business_operation_status": 1, "rating": null, "neighborhood": null, "image": null, "scorecard": null, "featured": false, "sample_categories": "Restaurants", "public_id": "soba-asian-bistro-marietta-2", "id": 809491560, "votes": null, "tagline": null, "has_video": false, "website": null, "offers": null, "latitude": 33.977233, "politanName": "Atlanta, GA Metro ", "phone_number": "7709711888", "tags": [{"primary": true, "id": 1722, "name": "Restaurants"}], "fax_number": null, "expansion": {"count": null, "uri": null}, "impression_id": "000b00000096288290d9054f1c8c0c0265a11c7abf", "profile": "http://www.citysearch.com/profile/809491560/marietta_ga/soba_asian_bistro.html", "address": {"city": "Marietta", "state": "GA", "street": "1060 E Piedmont Rd", "postal_code": "30062"}, "capProviderId": null, "distance": null, "has_offers": false, "name": "Soba Asian Bistro", "longitude": -84.479764, "has_menu": false, "awards": null, "user_review_count": 0}, {"business_operation_status": 1, "rating": null, "neighborhood": null, "image": null, "scorecard": null, "featured": false, "sample_categories": "Luaus", "public_id": "osaka-restaurant-marietta", "id": 811134240, "votes": null, "tagline": null, "has_video": false, "website": null, "offers": null, "latitude": 34.03695, "politanName": "Atlanta, GA Metro ", "phone_number": "7705161416", "tags": [{"primary": true, "id": 11285, "name": "Luaus"}], "fax_number": null, "expansion": {"count": null, "uri": null}, "impression_id": "000b00000022e534c86ed34b798cf80622d8baf3cf", "profile": "http://www.citysearch.com/profile/811134240/marietta_ga/osaka_restaurant.html", "address": {"city": "Marietta", "state": "GA", "street": "2652 Thornberry Pl", "postal_code": "30066"}, "capProviderId": null, "distance": null, "has_offers": false, "name": "Osaka Restaurant", "longitude": -84.476707, "has_menu": false, "awards": null, "user_review_count": 0}, {"business_operation_status": 1, "rating": null, "neighborhood": null, "image": null, "scorecard": null, "featured": false, "sample_categories": "Restaurants", "public_id": "planet-smoothie-marietta-7", "id": 812605020, "votes": null, "tagline": null, "has_video": false, "website": null, "offers": null, "latitude": 33.947326, "politanName": "Atlanta, GA Metro ", "phone_number": "7704272700", "tags": [{"primary": true, "id": 1722, "name": "Restaurants"}], "fax_number": null, "expansion": {"count": null, "uri": null}, "impression_id": "000b0000008c32781f51dd48efaf20b2f45f3f17e5", "profile": "http://www.citysearch.com/profile/812605020/marietta_ga/planet_smoothie.html", "address": {"city": "Marietta", "state": "GA", "street": "3451 Ernest W Barrett NW # 145", "postal_code": "30064"}, "capProviderId": null, "distance": null, "has_offers": false, "name": "Planet Smoothie", "longitude": -84.622965, "has_menu": true, "awards": null, "user_review_count": 0}, {"business_operation_status": 1, "rating": null, "neighborhood": null, "image": null, "scorecard": null, "featured": false, "sample_categories": "Restaurants", "public_id": "barkers-hot-charcaol-broiled-marietta", "id": 817747590, "votes": null, "tagline": null, "has_video": false, "website": null, "offers": null, "latitude": 33.964344, "politanName": "Atlanta, GA Metro ", "phone_number": "7705140806", "tags": [{"primary": true, "id": 1722, "name": "Restaurants"}], "fax_number": null, "expansion": {"count": null, "uri": null}, "impression_id": "000b000000182877b4f2774602ae6fcb25af0ade42", "profile": "http://www.citysearch.com/profile/817747590/marietta_ga/barkers_hot_charcaol_broiled.html", "address": {"city": "Marietta", "state": "GA", "street": "84 Radium St NW", "postal_code": "30060"}, "capProviderId": null, "distance": null, "has_offers": false, "name": "Barkers Hot Charcaol Broiled", "longitude": -84.554127, "has_menu": false, "awards": null, "user_review_count": 0}, {"business_operation_status": 1, "rating": null, "neighborhood": null, "image": null, "scorecard": null, "featured": false, "sample_categories": "Ice Cream Parlors", "public_id": "talenti-gelato-marietta", "id": 766766740, "votes": null, "tagline": null, "has_video": false, "website": null, "offers": null, "latitude": 33.977334, "politanName": "Atlanta, GA Metro ", "phone_number": "7704990442", "tags": [{"primary": true, "id": 1730, "name": "Ice Cream Parlors"}], "fax_number": null, "expansion": {"count": null, "uri": null}, "impression_id": "000b0000002df9e4a1a3c148bfaba89768c7ca5cd3", "profile": "http://www.citysearch.com/profile/766766740/marietta_ga/talenti_gelato.html", "address": {"city": "Marietta", "state": "GA", "street": "1058 King Industrial Dr", "postal_code": "30062"}, "capProviderId": null, "distance": null, "has_offers": false, "name": "Talenti Gelato", "longitude": -84.539884, "has_menu": false, "awards": null, "user_review_count": 0}, {"business_operation_status": 1, "rating": null, "neighborhood": null, "image": null, "scorecard": null, "featured": false, "sample_categories": "Restaurants, Delis And Delicatessens", "public_id": "planet-sub-marietta", "id": 770774340, "votes": null, "tagline": null, "has_video": false, "website": null, "offers": null, "latitude": 34.013859, "politanName": "Atlanta, GA Metro ", "phone_number": "7705750206", "tags": [{"primary": false, "id": 1727, "name": "Delis And Delicatessens"}, {"primary": true, "id": 1722, "name": "Restaurants"}], "fax_number": null, "expansion": {"count": null, "uri": null}, "impression_id": "000b000000bdcc4cd230ed47c18d470e64773b109c", "profile": "http://www.citysearch.com/profile/770774340/marietta_ga/planet_sub.html", "address": {"city": "Marietta", "state": "GA", "street": "125 Barrett Pkwy", "postal_code": "30066"}, "capProviderId": null, "distance": null, "has_offers": false, "name": "Planet Sub", "longitude": -84.554543, "has_menu": false, "awards": null, "user_review_count": 0}, {"business_operation_status": 1, "rating": 9.0, "neighborhood": null, "image": null, "scorecard": null, "featured": false, "sample_categories": "Restaurants, Greek", "public_id": "bobs-kebobs-kennesaw", "id": 41612270, "votes": null, "tagline": null, "has_video": false, "website": null, "offers": null, "latitude": 33.999764, "politanName": "Atlanta, GA Metro ", "phone_number": "7704224362", "tags": [{"primary": false, "id": 1722, "name": "Restaurants"}, {"primary": true, "id": 11268, "name": "Greek"}], "fax_number": null, "expansion": {"count": null, "uri": null}, "impression_id": "000b000000096452f32586400d97677502127ee81f", "profile": "http://www.citysearch.com/profile/41612270/kennesaw_ga/bob_s_kebobs.html", "address": {"city": "Kennesaw", "state": "GA", "street": "1200 Earnest Barrett Pkwy", "postal_code": "30144"}, "capProviderId": null, "distance": null, "has_offers": false, "name": "Bob's Kebobs", "longitude": -84.585396, "has_menu": false, "awards": null, "user_review_count": 0}, {"business_operation_status": 1, "rating": null, "neighborhood": null, "image": null, "scorecard": null, "featured": false, "sample_categories": "Restaurants", "public_id": "rmony-restaurant-lounge-marietta", "id": 779811170, "votes": null, "tagline": null, "has_video": false, "website": null, "offers": null, "latitude": 33.912354, "politanName": "Atlanta, GA Metro ", "phone_number": "7708019475", "tags": [{"primary": true, "id": 1722, "name": "Restaurants"}], "fax_number": null, "expansion": {"count": null, "uri": null}, "impression_id": "000b00000085b22140227843c287070ff712d5a2a3", "profile": "http://www.citysearch.com/profile/779811170/marietta_ga/r_mony_restaurant_lounge.html", "address": {"city": "Marietta", "state": "GA", "street": "1644 Atlanta Rd Se", "postal_code": "30060"}, "capProviderId": null, "distance": null, "has_offers": false, "name": "R'mony Restaurant & Lounge", "longitude": -84.535382, "has_menu": true, "awards": null, "user_review_count": 0}, {"business_operation_status": 1, "rating": null, "neighborhood": null, "image": null, "scorecard": null, "featured": false, "sample_categories": "Restaurants", "public_id": "el-furte-svc-marietta", "id": 781244500, "votes": null, "tagline": null, "has_video": false, "website": null, "offers": null, "latitude": 33.919221, "politanName": "Atlanta, GA Metro ", "phone_number": "6784241349", "tags": [{"primary": true, "id": 1722, "name": "Restaurants"}], "fax_number": null, "expansion": {"count": null, "uri": null}, "impression_id": "000b0000003260644f5da3463e834a507e599f301d", "profile": "http://www.citysearch.com/profile/781244500/marietta_ga/el_furte_svc.html", "address": {"city": "Marietta", "state": "GA", "street": "1368 Atlanta Rd Se", "postal_code": "30060"}, "capProviderId": null, "distance": null, "has_offers": false, "name": "El Furte SVC", "longitude": -84.542534, "has_menu": false, "awards": null, "user_review_count": 0}, {"business_operation_status": 1, "rating": null, "neighborhood": null, "image": null, "scorecard": null, "featured": false, "sample_categories": "Restaurants", "public_id": "las-tortas-locas-marietta", "id": 43851541, "votes": null, "tagline": null, "has_video": false, "website": null, "offers": null, "latitude": 33.902096, "politanName": "Atlanta, GA Metro ", "phone_number": "7708030303", "tags": [{"primary": true, "id": 1722, "name": "Restaurants"}], "fax_number": null, "expansion": {"count": null, "uri": null}, "impression_id": "000b0000004bd3824f385a4ea5bc3f4515cf3f2481", "profile": "http://www.citysearch.com/profile/43851541/marietta_ga/las_tortas_locas.html", "address": {"city": "Marietta", "state": "GA", "street": "345 Pat Mell Rd SE", "postal_code": "30060"}, "capProviderId": null, "distance": null, "has_offers": false, "name": "Las Tortas Locas", "longitude": -84.546397, "has_menu": false, "awards": null, "user_review_count": 0}, {"business_operation_status": 1, "rating": null, "neighborhood": null, "image": null, "scorecard": null, "featured": false, "sample_categories": "Restaurants", "public_id": "chiquitas-cafe-marietta", "id": 805405700, "votes": null, "tagline": null, "has_video": false, "website": null, "offers": null, "latitude": 33.957696, "politanName": "Atlanta, GA Metro ", "phone_number": "7704997349", "tags": [{"primary": true, "id": 1722, "name": "Restaurants"}], "fax_number": null, "expansion": {"count": null, "uri": null}, "impression_id": "000b0000002d3df5b01fe34a069b3993853f576892", "profile": "http://www.citysearch.com/profile/805405700/marietta_ga/chiquitas_cafe.html", "address": {"city": "Marietta", "state": "GA", "street": "270 Cobb Pkwy N", "postal_code": "30062"}, "capProviderId": null, "distance": null, "has_offers": false, "name": "Chiquitas Cafe", "longitude": -84.525109, "has_menu": false, "awards": null, "user_review_count": 0}, {"business_operation_status": 1, "rating": null, "neighborhood": null, "image": null, "scorecard": null, "featured": false, "sample_categories": "Restaurants", "public_id": "swiss-alpine-bakery-marietta", "id": 814198400, "votes": null, "tagline": null, "has_video": false, "website": null, "offers": null, "latitude": 33.977034, "politanName": "Atlanta, GA Metro ", "phone_number": "7706431100", "tags": [{"primary": true, "id": 1722, "name": "Restaurants"}], "fax_number": null, "expansion": {"count": null, "uri": null}, "impression_id": "000b00000055c6beb3cd8848d8a0c2ca84526064e1", "profile": "http://www.citysearch.com/profile/814198400/marietta_ga/swiss_alpine_bakery.html", "address": {"city": "Marietta", "state": "GA", "street": "2460 Sheila Ln", "postal_code": "30062"}, "capProviderId": null, "distance": null, "has_offers": false, "name": "Swiss Alpine Bakery", "longitude": -84.475931, "has_menu": false, "awards": null, "user_review_count": 0}, {"business_operation_status": 1, "rating": null, "neighborhood": null, "image": null, "scorecard": null, "featured": false, "sample_categories": "Restaurants", "public_id": "picoso-taco-factory-marietta", "id": 815654770, "votes": null, "tagline": null, "has_video": false, "website": null, "offers": null, "latitude": 33.950031, "politanName": "Atlanta, GA Metro ", "phone_number": "7707928406", "tags": [{"primary": true, "id": 1722, "name": "Restaurants"}], "fax_number": null, "expansion": {"count": null, "uri": null}, "impression_id": "000b0000008b34f54c34a142d99c4291019d38e81a", "profile": "http://www.citysearch.com/profile/815654770/marietta_ga/picoso_taco_factory.html", "address": {"city": "Marietta", "state": "GA", "street": "50 Cobb Pkwy S", "postal_code": "30060"}, "capProviderId": null, "distance": null, "has_offers": false, "name": "Picoso Taco Factory", "longitude": -84.520799, "has_menu": false, "awards": null, "user_review_count": 0}, {"business_operation_status": 1, "rating": null, "neighborhood": null, "image": null, "scorecard": null, "featured": false, "sample_categories": "Restaurants", "public_id": "soups-on-marietta", "id": 822863480, "votes": null, "tagline": null, "has_video": false, "website": null, "offers": null, "latitude": 33.952258, "politanName": "Atlanta, GA Metro ", "phone_number": "7704297687", "tags": [{"primary": true, "id": 1722, "name": "Restaurants"}], "fax_number": null, "expansion": {"count": null, "uri": null}, "impression_id": "000b000000dea87174cda24eacbf74be9e9d459e15", "profile": "http://www.citysearch.com/profile/822863480/marietta_ga/soup_s_on.html", "address": {"city": "Marietta", "state": "GA", "street": "154 Roswell St SE", "postal_code": "30060"}, "capProviderId": null, "distance": null, "has_offers": false, "name": "Soup's On", "longitude": -84.54874, "has_menu": false, "awards": null, "user_review_count": 0}, {"business_operation_status": 1, "rating": null, "neighborhood": null, "image": null, "scorecard": null, "featured": false, "sample_categories": "Restaurants", "public_id": "zackbys-endless-chicken-llc-austell", "id": 837841690, "votes": null, "tagline": null, "has_video": false, "website": null, "offers": null, "latitude": 33.867601, "politanName": "Atlanta, GA Metro ", "phone_number": "7702221550", "tags": [{"primary": true, "id": 1722, "name": "Restaurants"}], "fax_number": null, "expansion": {"count": null, "uri": null}, "impression_id": "000b0000000b0b4cf55e9a4be18eb9d8777f6da147", "profile": "http://www.citysearch.com/profile/837841690/austell_ga/zackby_s_endless_chicken_llc.html", "address": {"city": "Austell", "state": "GA", "street": "2603 E West Connector", "postal_code": "30106"}, "capProviderId": null, "distance": null, "has_offers": false, "name": "Zackby's Endless Chicken LLC", "longitude": -84.631045, "has_menu": false, "awards": null, "user_review_count": 0}, {"business_operation_status": 1, "rating": null, "neighborhood": null, "image": null, "scorecard": null, "featured": false, "sample_categories": "Restaurants", "public_id": "savory-corner-kennesaw-2", "id": 839498940, "votes": null, "tagline": null, "has_video": false, "website": null, "offers": null, "latitude": 34.006214, "politanName": "Atlanta, GA Metro ", "phone_number": "7703295419", "tags": [{"primary": true, "id": 1722, "name": "Restaurants"}], "fax_number": null, "expansion": {"count": null, "uri": null}, "impression_id": "000b000000c4576ff745c74402a457aa10d14f59eb", "profile": "http://www.citysearch.com/profile/839498940/kennesaw_ga/savory_corner.html", "address": {"city": "Kennesaw", "state": "GA", "street": "2120 Barrett Park Dr NW", "postal_code": "30144"}, "capProviderId": null, "distance": null, "has_offers": false, "name": "Savory Corner", "longitude": -84.595772, "has_menu": false, "awards": null, "user_review_count": 0}, {"business_operation_status": 1, "rating": null, "neighborhood": null, "image": null, "scorecard": null, "featured": false, "sample_categories": "Catering, Restaurants, Pizza, Carry Out, Food Delivery", "public_id": "pizza-hut-mableton-2", "id": 835803370, "votes": null, "tagline": null, "has_video": false, "website": "http://www.citysearch.com/profile/external/835803370/mableton_ga/pizza_hut.html", "offers": null, "latitude": 33.833318, "politanName": "Atlanta, GA Metro ", "phone_number": "7707397739", "tags": [{"primary": false, "id": 1705, "name": "Catering"}, {"primary": false, "id": 1722, "name": "Restaurants"}, {"primary": false, "id": 11247, "name": "Carry Out"}, {"primary": false, "id": 11267, "name": "Food Delivery"}, {"primary": true, "id": 11299, "name": "Pizza"}], "fax_number": null, "expansion": {"count": null, "uri": null}, "impression_id": "000b00000053896f95456c4794b71abe4563abc873", "profile": "http://www.citysearch.com/profile/835803370/mableton_ga/pizza_hut.html", "address": {"city": "Mableton", "state": "GA", "street": "5005 Floyd Rd SW 910", "postal_code": "30126"}, "capProviderId": null, "distance": null, "has_offers": false, "name": "Pizza Hut", "longitude": -84.575479, "has_menu": true, "awards": null, "user_review_count": 0}, {"business_operation_status": 1, "rating": null, "neighborhood": null, "image": null, "scorecard": null, "featured": false, "sample_categories": "Restaurants", "public_id": "american-wing-co-kennesaw", "id": 839999600, "votes": null, "tagline": null, "has_video": false, "website": null, "offers": null, "latitude": 34.017369, "politanName": "Atlanta, GA Metro ", "phone_number": "7706357648", "tags": [{"primary": true, "id": 1722, "name": "Restaurants"}], "fax_number": null, "expansion": {"count": null, "uri": null}, "impression_id": "000b0000005fa64ac9fc5d4ee5b8d9ba45f560eedf", "profile": "http://www.citysearch.com/profile/839999600/kennesaw_ga/american_wing_co.html", "address": {"city": "Kennesaw", "state": "GA", "street": "400 Ernest W Barrett Pkwy NW", "postal_code": "30144"}, "capProviderId": null, "distance": null, "has_offers": false, "name": "American Wing Co", "longitude": -84.564255, "has_menu": false, "awards": null, "user_review_count": 0}, {"business_operation_status": 1, "rating": null, "neighborhood": null, "image": null, "scorecard": null, "featured": false, "sample_categories": "Bars & Clubs, Restaurants, Mexican", "public_id": "three-amigos-mexican-bar-marietta", "id": 764927450, "votes": null, "tagline": null, "has_video": false, "website": null, "offers": null, "latitude": 33.953033, "politanName": "Atlanta, GA Metro ", "phone_number": "7704855947", "tags": [{"primary": false, "id": 164, "name": "Bars & Clubs"}, {"primary": false, "id": 11208, "name": "Mexican"}, {"primary": true, "id": 1722, "name": "Restaurants"}], "fax_number": null, "expansion": {"count": null, "uri": null}, "impression_id": "000b0000006e5c9164bb244fb4924bafd125a0b51c", "profile": "http://www.citysearch.com/profile/764927450/marietta_ga/three_amigos_mexican_bar.html", "address": {"city": "Marietta", "state": "GA", "street": "1000 Whitlock Ave NW # 410", "postal_code": "30064"}, "capProviderId": null, "distance": null, "has_offers": false, "name": "Three Amigos Mexican Bar", "longitude": -84.581202, "has_menu": false, "awards": null, "user_review_count": 0}, {"business_operation_status": 1, "rating": null, "neighborhood": null, "image": null, "scorecard": null, "featured": false, "sample_categories": "Restaurants, Bars & Clubs, Bars & Pubs", "public_id": "two-monkies-tavern-marietta", "id": 764934920, "votes": null, "tagline": null, "has_video": false, "website": null, "offers": null, "latitude": 33.951899, "politanName": "Atlanta, GA Metro ", "phone_number": "7704220108", "tags": [{"primary": false, "id": 164, "name": "Bars & Clubs"}, {"primary": false, "id": 1686, "name": "Bars & Pubs"}, {"primary": true, "id": 1722, "name": "Restaurants"}], "fax_number": null, "expansion": {"count": null, "uri": null}, "impression_id": "000b0000005288cfbec1714e02af3725a11fbe995c", "profile": "http://www.citysearch.com/profile/764934920/marietta_ga/two_monkies_tavern.html", "address": {"city": "Marietta", "state": "GA", "street": "688 Whitlock Ave NW", "postal_code": "30064"}, "capProviderId": null, "distance": null, "has_offers": false, "name": "Two Monkies Tavern", "longitude": -84.57265, "has_menu": false, "awards": null, "user_review_count": 0}, {"business_operation_status": 1, "rating": null, "neighborhood": null, "image": null, "scorecard": null, "featured": false, "sample_categories": "Ice Cream Parlors, Restaurants, Dessert Shops", "public_id": "tongue-slide-water-ice-mableton", "id": 41608412, "votes": null, "tagline": null, "has_video": false, "website": null, "offers": null, "latitude": 33.813153, "politanName": "Atlanta, GA Metro ", "phone_number": "7707452233", "tags": [{"primary": false, "id": 1722, "name": "Restaurants"}, {"primary": false, "id": 1728, "name": "Dessert Shops"}, {"primary": true, "id": 1730, "name": "Ice Cream Parlors"}], "fax_number": null, "expansion": {"count": null, "uri": null}, "impression_id": "000b000000adda1121e194446d8c189640b9c96878", "profile": "http://www.citysearch.com/profile/41608412/mableton_ga/tongue_slide_water_ice.html", "address": {"city": "Mableton", "state": "GA", "street": "296 Veterans Memorial Hwy SE", "postal_code": "30126"}, "capProviderId": null, "distance": null, "has_offers": false, "name": "Tongue Slide Water Ice", "longitude": -84.54604, "has_menu": false, "awards": null, "user_review_count": 0}, {"business_operation_status": 1, "rating": 8.0, "neighborhood": null, "image": null, "scorecard": null, "featured": false, "sample_categories": "Restaurants, Traditional American, Carry Out, American Express, Discover", "public_id": "ruby-tuesday-marietta", "id": 43851545, "votes": null, "tagline": null, "has_video": false, "website": "http://www.citysearch.com/profile/external/43851545/marietta_ga/ruby_tuesday.html", "offers": null, "latitude": 33.922906, "politanName": "Atlanta, GA Metro ", "phone_number": "7709339050", "tags": [{"primary": false, "id": 11190, "name": "Traditional American"}, {"primary": false, "id": 11247, "name": "Carry Out"}, {"primary": false, "id": 11333, "name": "American Express"}, {"primary": false, "id": 11349, "name": "Discover"}, {"primary": false, "id": 11361, "name": "MasterCard"}, {"primary": false, "id": 11375, "name": "Shop Online"}, {"primary": false, "id": 11382, "name": "Visa"}, {"primary": true, "id": 1722, "name": "Restaurants"}], "fax_number": null, "expansion": {"count": null, "uri": null}, "impression_id": "000b000000cfa6fe496311477d87554e16291ff87d", "profile": "http://www.citysearch.com/profile/43851545/marietta_ga/ruby_tuesday.html", "address": {"city": "Marietta", "state": "GA", "street": "2435 Delk Rd SE", "postal_code": "30067"}, "capProviderId": null, "distance": null, "has_offers": false, "name": "Ruby Tuesday", "longitude": -84.485017, "has_menu": true, "awards": null, "user_review_count": 2}, {"business_operation_status": 1, "rating": null, "neighborhood": null, "image": null, "scorecard": null, "featured": false, "sample_categories": "Restaurants", "public_id": "hacienda-los-mariachis-smyrna", "id": 806154260, "votes": null, "tagline": null, "has_video": false, "website": null, "offers": null, "latitude": 33.87498, "politanName": "Atlanta, GA Metro ", "phone_number": "7704324730", "tags": [{"primary": true, "id": 1722, "name": "Restaurants"}], "fax_number": null, "expansion": {"count": null, "uri": null}, "impression_id": "000b0000005fd98bb7ab9546c0940b2ef274a5d6a9", "profile": "http://www.citysearch.com/profile/806154260/smyrna_ga/hacienda_los_mariachis.html", "address": {"city": "Smyrna", "state": "GA", "street": "821 Concord Rd SE", "postal_code": "30080"}, "capProviderId": null, "distance": null, "has_offers": false, "name": "Hacienda Los Mariachis", "longitude": -84.529694, "has_menu": false, "awards": null, "user_review_count": 0}, {"business_operation_status": 1, "rating": null, "neighborhood": null, "image": null, "scorecard": null, "featured": false, "sample_categories": "Restaurants, Barbecue Restaurants", "public_id": "smokin-js-bbq-marietta", "id": 809243680, "votes": null, "tagline": null, "has_video": false, "website": "http://www.citysearch.com/profile/external/809243680/marietta_ga/smokin_js_bbq.html", "offers": null, "latitude": 33.969959, "politanName": "Atlanta, GA Metro ", "phone_number": "7709731003", "tags": [{"primary": false, "id": 1724, "name": "Barbecue Restaurants"}, {"primary": true, "id": 1722, "name": "Restaurants"}], "fax_number": null, "expansion": {"count": null, "uri": null}, "impression_id": "000b00000024aa1ead70714991963c18f21ca35736", "profile": "http://www.citysearch.com/profile/809243680/marietta_ga/smokin_js_bbq.html", "address": {"city": "Marietta", "state": "GA", "street": "2145 Roswell Rd", "postal_code": "30062"}, "capProviderId": null, "distance": null, "has_offers": false, "name": "Smokin Js BBQ", "longitude": -84.490616, "has_menu": true, "awards": null, "user_review_count": 0}, {"business_operation_status": 1, "rating": null, "neighborhood": null, "image": null, "scorecard": null, "featured": false, "sample_categories": "Restaurants", "public_id": "nathans-hotdog-kennesaw", "id": 812541450, "votes": null, "tagline": null, "has_video": false, "website": null, "offers": null, "latitude": 34.033088, "politanName": "Atlanta, GA Metro ", "phone_number": "7704255554", "tags": [{"primary": true, "id": 1722, "name": "Restaurants"}], "fax_number": null, "expansion": {"count": null, "uri": null}, "impression_id": "000b000000fc547439a95f4c5687e9f91e21bcba82", "profile": "http://www.citysearch.com/profile/812541450/kennesaw_ga/nathans_hotdog.html", "address": {"city": "Kennesaw", "state": "GA", "street": "2430 George Busbee Pkwy NW", "postal_code": "30144"}, "capProviderId": null, "distance": null, "has_offers": false, "name": "Nathans Hotdog", "longitude": -84.568648, "has_menu": false, "awards": null, "user_review_count": 0}, {"business_operation_status": 1, "rating": null, "neighborhood": null, "image": null, "scorecard": null, "featured": false, "sample_categories": "Restaurants", "public_id": "chilitos-mexican-burritos-lithia", "id": 814877120, "votes": null, "tagline": null, "has_video": false, "website": null, "offers": null, "latitude": 33.7871, "politanName": "Atlanta, GA Metro ", "phone_number": "7708190550", "tags": [{"primary": true, "id": 1722, "name": "Restaurants"}], "fax_number": null, "expansion": {"count": null, "uri": null}, "impression_id": "000b0000001a2cd576fdd844e1ad90d81fd18d75ea", "profile": "http://www.citysearch.com/profile/814877120/lithia_springs_ga/chilitos_mexican_burritos.html", "address": {"city": "Lithia Springs", "state": "GA", "street": "639 Thornton Rd # 101", "postal_code": "30122"}, "capProviderId": null, "distance": null, "has_offers": false, "name": "Chilitos Mexican Burritos", "longitude": -84.619744, "has_menu": true, "awards": null, "user_review_count": 2}, {"business_operation_status": 1, "rating": null, "neighborhood": null, "image": null, "scorecard": null, "featured": false, "sample_categories": "Restaurants", "public_id": "party-q-marietta", "id": 618063354, "votes": null, "tagline": null, "has_video": false, "website": null, "offers": null, "latitude": 34.020818, "politanName": "Atlanta, GA Metro ", "phone_number": "6786977808", "tags": [{"primary": true, "id": 1722, "name": "Restaurants"}], "fax_number": null, "expansion": {"count": null, "uri": null}, "impression_id": "000b000000d6a36f87b2804ba2b6d6c040d5cb2483", "profile": "http://www.citysearch.com/profile/618063354/marietta_ga/party_q.html", "address": {"city": "Marietta", "state": "GA", "street": "2821 Chastain Meadows Pkwy", "postal_code": "30066"}, "capProviderId": null, "distance": null, "has_offers": false, "name": "Party Q", "longitude": -84.55554, "has_menu": false, "awards": null, "user_review_count": 0}, {"business_operation_status": 0, "rating": 8.0, "neighborhood": null, "image": null, "scorecard": null, "featured": false, "sample_categories": "Catering, Restaurants, Food Delivery", "public_id": "old-hickory-barbeque-mableton", "id": 33652110, "votes": null, "tagline": null, "has_video": false, "website": null, "offers": null, "latitude": 33.816965, "politanName": "Atlanta, GA Metro ", "phone_number": "7709489451", "tags": [{"primary": false, "id": 1722, "name": "Restaurants"}, {"primary": false, "id": 11267, "name": "Food Delivery"}, {"primary": true, "id": 1705, "name": "Catering"}], "fax_number": null, "expansion": {"count": null, "uri": null}, "impression_id": "000b0000003ffe9f851a95469a8fad1db8ac0f001b", "profile": "http://www.citysearch.com/profile/33652110/mableton_ga/old_hickory_barbeque.html", "address": {"city": "Mableton", "state": "GA", "street": "499 Veterans Memorial Hwy SW", "postal_code": "30126"}, "capProviderId": null, "distance": null, "has_offers": false, "name": "Old Hickory Barbeque", "longitude": -84.568558, "has_menu": false, "awards": null, "user_review_count": 0}, {"business_operation_status": 1, "rating": null, "neighborhood": null, "image": null, "scorecard": null, "featured": false, "sample_categories": "Restaurants, Delis And Delicatessens, Sandwich Shops, Carry Out, Soups", "public_id": "subway-marietta-41", "id": 43853244, "votes": null, "tagline": null, "has_video": false, "website": "http://www.citysearch.com/profile/external/43853244/marietta_ga/subway.html", "offers": null, "latitude": 33.945791, "politanName": "Atlanta, GA Metro ", "phone_number": "7704277107", "tags": [{"primary": false, "id": 1727, "name": "Delis And Delicatessens"}, {"primary": false, "id": 1736, "name": "Sandwich Shops"}, {"primary": false, "id": 11247, "name": "Carry Out"}, {"primary": false, "id": 11311, "name": "Soups"}, {"primary": false, "id": 11361, "name": "MasterCard"}, {"primary": false, "id": 11382, "name": "Visa"}, {"primary": true, "id": 1722, "name": "Restaurants"}], "fax_number": null, "expansion": {"count": null, "uri": null}, "impression_id": "000b000000dd4588103d7d4f08a794bf04f23ce2c4", "profile": "http://www.citysearch.com/profile/43853244/marietta_ga/subway.html", "address": {"city": "Marietta", "state": "GA", "street": "2475 Dallas Hwy SW", "postal_code": "30064"}, "capProviderId": null, "distance": null, "has_offers": false, "name": "Subway", "longitude": -84.623056, "has_menu": true, "awards": null, "user_review_count": 0}, {"business_operation_status": 0, "rating": null, "neighborhood": null, "image": null, "scorecard": null, "featured": false, "sample_categories": "Restaurants, Cafes", "public_id": "m-j-lmmnz-austell", "id": 627697230, "votes": null, "tagline": null, "has_video": false, "website": null, "offers": null, "latitude": 33.842327, "politanName": "Atlanta, GA Metro ", "phone_number": "7702760280", "tags": [{"primary": false, "id": 6190, "name": "Cafes"}, {"primary": true, "id": 1722, "name": "Restaurants"}], "fax_number": null, "expansion": {"count": null, "uri": null}, "impression_id": "000b00000047597ab2072f4b968d88745639d105ee", "profile": "http://www.citysearch.com/profile/627697230/austell_ga/m_j_lmmnz.html", "address": {"city": "Austell", "state": "GA", "street": "4629 Rodney Pl", "postal_code": "30106"}, "capProviderId": null, "distance": null, "has_offers": false, "name": "M J Lmmnz", "longitude": -84.613105, "has_menu": false, "awards": null, "user_review_count": 0}, {"business_operation_status": 1, "rating": null, "neighborhood": null, "image": null, "scorecard": null, "featured": false, "sample_categories": "Restaurants", "public_id": "mocha-delights-marietta", "id": 45551238, "votes": null, "tagline": null, "has_video": false, "website": null, "offers": null, "latitude": 33.902448, "politanName": "Atlanta, GA Metro ", "phone_number": "7709567612", "tags": [{"primary": true, "id": 1722, "name": "Restaurants"}], "fax_number": null, "expansion": {"count": null, "uri": null}, "impression_id": "000b000000cb3b39a6bdcf4a18ade2a160053c9f12", "profile": "http://www.citysearch.com/profile/45551238/marietta_ga/mocha_delights.html", "address": {"city": "Marietta", "state": "GA", "street": "2470 Windy Hill Rd SE Ste 148", "postal_code": "30067"}, "capProviderId": null, "distance": null, "has_offers": false, "name": "Mocha Delights", "longitude": -84.480786, "has_menu": false, "awards": null, "user_review_count": 0}, {"business_operation_status": 1, "rating": null, "neighborhood": null, "image": null, "scorecard": null, "featured": false, "sample_categories": "Restaurants", "public_id": "bubbalinis-marietta", "id": 672813110, "votes": null, "tagline": null, "has_video": false, "website": "http://www.citysearch.com/profile/external/672813110/marietta_ga/bubbalini_s.html", "offers": null, "latitude": 33.952594, "politanName": "Atlanta, GA Metro ", "phone_number": "6785947770", "tags": [{"primary": true, "id": 1722, "name": "Restaurants"}], "fax_number": null, "expansion": {"count": null, "uri": null}, "impression_id": "000b0000004bd6b521874c4641a826100cfe12f39e", "profile": "http://www.citysearch.com/profile/672813110/marietta_ga/bubbalini_s.html", "address": {"city": "Marietta", "state": "GA", "street": "800 Whitlock Ave NW", "postal_code": "30064"}, "capProviderId": null, "distance": null, "has_offers": false, "name": "Bubbalini's", "longitude": -84.575881, "has_menu": false, "awards": null, "user_review_count": 0}, {"business_operation_status": 1, "rating": null, "neighborhood": null, "image": null, "scorecard": null, "featured": false, "sample_categories": "Restaurants", "public_id": "monterrey-restaurant-smyrna-2", "id": 682346770, "votes": null, "tagline": null, "has_video": false, "website": null, "offers": null, "latitude": 33.871956, "politanName": "Atlanta, GA Metro ", "phone_number": "7704339344", "tags": [{"primary": true, "id": 1722, "name": "Restaurants"}], "fax_number": null, "expansion": {"count": null, "uri": null}, "impression_id": "000b000000a7bf96d924cb450b85d561604dfad475", "profile": "http://www.citysearch.com/profile/682346770/smyrna_ga/monterrey_restaurant.html", "address": {"city": "Smyrna", "state": "GA", "street": "3326 S Cobb Dr Se", "postal_code": "30080"}, "capProviderId": null, "distance": null, "has_offers": false, "name": "Monterrey Restaurant", "longitude": -84.52909, "has_menu": false, "awards": null, "user_review_count": 0}, {"business_operation_status": 1, "rating": null, "neighborhood": null, "image": null, "scorecard": null, "featured": false, "sample_categories": "Restaurants", "public_id": "obs-bbq-catfish-ribs-mableton", "id": 672612400, "votes": null, "tagline": null, "has_video": false, "website": null, "offers": null, "latitude": 33.816965, "politanName": "Atlanta, GA Metro ", "phone_number": null, "tags": [{"primary": true, "id": 1722, "name": "Restaurants"}], "fax_number": null, "expansion": {"count": null, "uri": null}, "impression_id": "000b000000cc8b8f7cb83b46dfa31e7681b3e503b6", "profile": "http://www.citysearch.com/profile/672612400/mableton_ga/o_b_s_bbq_catfish_ribs.html", "address": {"city": "Mableton", "state": "GA", "street": "499 Veterans Memorial Hwy SW", "postal_code": "30126"}, "capProviderId": null, "distance": null, "has_offers": false, "name": "O.B.'s BBQ Catfish & Ribs", "longitude": -84.568558, "has_menu": false, "awards": null, "user_review_count": 0}, {"business_operation_status": 1, "rating": null, "neighborhood": null, "image": null, "scorecard": null, "featured": false, "sample_categories": "Grocery Stores, Restaurants, Restaurant Management", "public_id": "peterson-foods-llc-marietta", "id": 706581950, "votes": null, "tagline": null, "has_video": false, "website": null, "offers": null, "latitude": 33.952164, "politanName": "Atlanta, GA Metro ", "phone_number": "7704288333", "tags": [{"primary": false, "id": 1722, "name": "Restaurants"}, {"primary": false, "id": 11122, "name": "Restaurant Management"}, {"primary": true, "id": 1713, "name": "Grocery Stores"}], "fax_number": null, "expansion": {"count": null, "uri": null}, "impression_id": "000b000000c4128bdc82da491fb1e8f658c7631e81", "profile": "http://www.citysearch.com/profile/706581950/marietta_ga/peterson_foods_llc.html", "address": {"city": "Marietta", "state": "GA", "street": "3625 Dallas Hwy Sw", "postal_code": "30064"}, "capProviderId": null, "distance": null, "has_offers": false, "name": "Peterson Foods LLC", "longitude": -84.657799, "has_menu": false, "awards": null, "user_review_count": 0}, {"business_operation_status": 1, "rating": null, "neighborhood": null, "image": null, "scorecard": null, "featured": false, "sample_categories": "Delis And Delicatessens", "public_id": "kroger-deli-marietta-10", "id": 706675460, "votes": null, "tagline": null, "has_video": false, "website": null, "offers": null, "latitude": 33.954848, "politanName": "Atlanta, GA Metro ", "phone_number": "7704240040", "tags": [{"primary": true, "id": 1727, "name": "Delis And Delicatessens"}], "fax_number": null, "expansion": {"count": null, "uri": null}, "impression_id": "000b0000007e1e7cb69a704e95b418816b9273f877", "profile": "http://www.citysearch.com/profile/706675460/marietta_ga/kroger_deli.html", "address": {"city": "Marietta", "state": "GA", "street": "3600 Dallas Hwy Sw # 180", "postal_code": "30064"}, "capProviderId": null, "distance": null, "has_offers": false, "name": "Kroger Deli", "longitude": -84.655682, "has_menu": false, "awards": null, "user_review_count": 0}, {"business_operation_status": 1, "rating": null, "neighborhood": null, "image": null, "scorecard": null, "featured": false, "sample_categories": "Doughnut Shops, Coffeehouses", "public_id": "dunkin-donuts-lithia-2", "id": 617894094, "votes": null, "tagline": null, "has_video": false, "website": "http://www.citysearch.com/profile/external/617894094/lithia_springs_ga/dunkin_donuts.html", "offers": null, "latitude": 33.786694, "politanName": "Atlanta, GA Metro ", "phone_number": "6789457919", "tags": [{"primary": false, "id": 1726, "name": "Coffeehouses"}, {"primary": true, "id": 1734, "name": "Doughnut Shops"}], "fax_number": null, "expansion": {"count": null, "uri": null}, "impression_id": "000b0000002d968063b6c848c19f04f48486756670", "profile": "http://www.citysearch.com/profile/617894094/lithia_springs_ga/dunkin_donuts.html", "address": {"city": "Lithia Springs", "state": "GA", "street": "1300 W Corporate CT", "postal_code": "30122"}, "capProviderId": null, "distance": null, "has_offers": false, "name": "Dunkin' Donuts", "longitude": -84.618557, "has_menu": false, "awards": null, "user_review_count": 0}, {"business_operation_status": 1, "rating": null, "neighborhood": null, "image": null, "scorecard": null, "featured": false, "sample_categories": "Restaurants", "public_id": "butler-creek-powder", "id": 732131820, "votes": null, "tagline": null, "has_video": false, "website": null, "offers": null, "latitude": 33.916043, "politanName": "Atlanta, GA Metro ", "phone_number": "7709436777", "tags": [{"primary": true, "id": 1722, "name": "Restaurants"}], "fax_number": null, "expansion": {"count": null, "uri": null}, "impression_id": "000b00000023705b30093845678dfb8e9f26d77b88", "profile": "http://www.citysearch.com/profile/732131820/powder_springs_ga/butler_creek.html", "address": {"city": "Powder Springs", "state": "GA", "street": "1518 Haven Crest Dr", "postal_code": "30127"}, "capProviderId": null, "distance": null, "has_offers": false, "name": "Butler Creek", "longitude": -84.707895, "has_menu": false, "awards": null, "user_review_count": 0}, {"business_operation_status": 1, "rating": null, "neighborhood": null, "image": null, "scorecard": null, "featured": false, "sample_categories": "Restaurants", "public_id": "el-vaquero-marietta", "id": 764884030, "votes": null, "tagline": null, "has_video": false, "website": null, "offers": null, "latitude": 33.919221, "politanName": "Atlanta, GA Metro ", "phone_number": "7704338558", "tags": [{"primary": true, "id": 1722, "name": "Restaurants"}], "fax_number": null, "expansion": {"count": null, "uri": null}, "impression_id": "000b000000fea2a833ecb94c30b115f13ebc61b720", "profile": "http://www.citysearch.com/profile/764884030/marietta_ga/el_vaquero.html", "address": {"city": "Marietta", "state": "GA", "street": "1368 Atlanta Rd SE", "postal_code": "30060"}, "capProviderId": null, "distance": null, "has_offers": false, "name": "El Vaquero", "longitude": -84.542534, "has_menu": false, "awards": null, "user_review_count": 0}, {"business_operation_status": 1, "rating": null, "neighborhood": null, "image": null, "scorecard": null, "featured": false, "sample_categories": "Restaurants, Bars & Clubs, Bars & Pubs, General Government Offices, Traditional American", "public_id": "pub-marietta", "id": 764931910, "votes": null, "tagline": null, "has_video": false, "website": null, "offers": null, "latitude": 33.943645, "politanName": "Atlanta, GA Metro ", "phone_number": "7704272500", "tags": [{"primary": false, "id": 1722, "name": "Restaurants"}, {"primary": false, "id": 164, "name": "Bars & Clubs"}, {"primary": false, "id": 1686, "name": "Bars & Pubs"}, {"primary": false, "id": 1756, "name": "General Government Offices"}, {"primary": false, "id": 11190, "name": "Traditional American"}, {"primary": false, "id": 12736, "name": "Wedding Supplies"}], "fax_number": null, "expansion": {"count": null, "uri": null}, "impression_id": "000b000000fbb8fd6bbfd240dbbca35f7c8bcb2826", "profile": "http://www.citysearch.com/profile/764931910/marietta_ga/pub.html", "address": {"city": "Marietta", "state": "GA", "street": "500 Powder Springs St", "postal_code": "30064"}, "capProviderId": null, "distance": null, "has_offers": false, "name": "Pub", "longitude": -84.552498, "has_menu": true, "awards": null, "user_review_count": 0}, {"business_operation_status": 1, "rating": null, "neighborhood": null, "image": null, "scorecard": null, "featured": false, "sample_categories": "Restaurants", "public_id": "tme-enterprises-i-ltd-marietta-2", "id": 787135780, "votes": null, "tagline": null, "has_video": false, "website": null, "offers": null, "latitude": 33.968654, "politanName": "Atlanta, GA Metro ", "phone_number": "7705652051", "tags": [{"primary": true, "id": 1722, "name": "Restaurants"}], "fax_number": null, "expansion": {"count": null, "uri": null}, "impression_id": "000b0000006c9071120e954a1e965f7f04536e9d1d", "profile": "http://www.citysearch.com/profile/787135780/marietta_ga/tme_enterprises_i_ltd.html", "address": {"city": "Marietta", "state": "GA", "street": "2169 Roswell Rd", "postal_code": "30062"}, "capProviderId": null, "distance": null, "has_offers": false, "name": "Tme Enterprises I LTD", "longitude": -84.48981, "has_menu": false, "awards": null, "user_review_count": 0}, {"business_operation_status": 1, "rating": null, "neighborhood": null, "image": null, "scorecard": null, "featured": false, "sample_categories": "Ice Cream Parlors, Frozen Yogurt Shops", "public_id": "baskinrobbins-mableton", "id": 764906520, "votes": null, "tagline": null, "has_video": false, "website": null, "offers": null, "latitude": 33.83335, "politanName": "Atlanta, GA Metro ", "phone_number": "7707329319", "tags": [{"primary": false, "id": 1729, "name": "Frozen Yogurt Shops"}, {"primary": true, "id": 1730, "name": "Ice Cream Parlors"}], "fax_number": null, "expansion": {"count": null, "uri": null}, "impression_id": "000b0000007f289350fa804089a4c7d69d15ecaaa3", "profile": "http://www.citysearch.com/profile/764906520/mableton_ga/baskin_robbins.html", "address": {"city": "Mableton", "state": "GA", "street": "5005 Floyd Rd SW", "postal_code": "30126"}, "capProviderId": null, "distance": null, "has_offers": false, "name": "Baskin-Robbins", "longitude": -84.575544, "has_menu": false, "awards": null, "user_review_count": 0}, {"business_operation_status": 1, "rating": null, "neighborhood": null, "image": null, "scorecard": null, "featured": false, "sample_categories": "Restaurants, Japanese", "public_id": "mt-fuji-marietta", "id": 779710710, "votes": null, "tagline": null, "has_video": false, "website": null, "offers": null, "latitude": 33.947797, "politanName": "Atlanta, GA Metro ", "phone_number": "7704280955", "tags": [{"primary": false, "id": 11202, "name": "Japanese"}, {"primary": true, "id": 1722, "name": "Restaurants"}], "fax_number": null, "expansion": {"count": null, "uri": null}, "impression_id": "000b000000918f9268772b48d3935bae43553a7f3c", "profile": "http://www.citysearch.com/profile/779710710/marietta_ga/mt_fuji.html", "address": {"city": "Marietta", "state": "GA", "street": "180 Cobb Pkwy S # 26", "postal_code": "30060"}, "capProviderId": null, "distance": null, "has_offers": false, "name": "Mt Fuji", "longitude": -84.519997, "has_menu": false, "awards": null, "user_review_count": 4}, {"business_operation_status": 1, "rating": null, "neighborhood": null, "image": null, "scorecard": null, "featured": false, "sample_categories": "Restaurants, Pizza, Carry Out, American Express, Discover", "public_id": "papa-johns-pizza-powder-2", "id": 707383910, "votes": null, "tagline": null, "has_video": false, "website": null, "offers": null, "latitude": 33.940822, "politanName": "Atlanta, GA Metro ", "phone_number": "7705141444", "tags": [{"primary": false, "id": 1722, "name": "Restaurants"}, {"primary": false, "id": 11247, "name": "Carry Out"}, {"primary": false, "id": 11333, "name": "American Express"}, {"primary": false, "id": 11349, "name": "Discover"}, {"primary": false, "id": 11361, "name": "MasterCard"}, {"primary": false, "id": 11382, "name": "Visa"}, {"primary": true, "id": 11299, "name": "Pizza"}], "fax_number": null, "expansion": {"count": null, "uri": null}, "impression_id": "000b000000731c8b45a4564e85a253fb62364ae764", "profile": "http://www.citysearch.com/profile/707383910/powder_springs_ga/papa_john_s_pizza.html", "address": {"city": "Powder Springs", "state": "GA", "street": "5100 Dallas Hwy Ste 330", "postal_code": "30127"}, "capProviderId": null, "distance": null, "has_offers": false, "name": "Papa John's Pizza", "longitude": -84.703029, "has_menu": false, "awards": null, "user_review_count": 0}, {"business_operation_status": 1, "rating": null, "neighborhood": null, "image": null, "scorecard": null, "featured": false, "sample_categories": "Restaurants, Pizza, Carry Out", "public_id": "papa-johns-pizza-austell-3", "id": 713391930, "votes": null, "tagline": null, "has_video": false, "website": "http://www.citysearch.com/profile/external/713391930/austell_ga/papa_john_s_pizza.html", "offers": null, "latitude": 33.851685, "politanName": "Atlanta, GA Metro ", "phone_number": "7707458809", "tags": [{"primary": false, "id": 1722, "name": "Restaurants"}, {"primary": false, "id": 11247, "name": "Carry Out"}, {"primary": true, "id": 11299, "name": "Pizza"}], "fax_number": null, "expansion": {"count": null, "uri": null}, "impression_id": "000b000000ba8c9063fb0548fab48b129bf28f59d8", "profile": "http://www.citysearch.com/profile/713391930/austell_ga/papa_john_s_pizza.html", "address": {"city": "Austell", "state": "GA", "street": "4180 Austell Rd", "postal_code": "30106"}, "capProviderId": null, "distance": null, "has_offers": false, "name": "Papa John's Pizza", "longitude": -84.606222, "has_menu": false, "awards": null, "user_review_count": 0}, {"business_operation_status": 1, "rating": null, "neighborhood": null, "image": null, "scorecard": null, "featured": false, "sample_categories": "Restaurants", "public_id": "asian-grill-marietta", "id": 813218910, "votes": null, "tagline": null, "has_video": false, "website": null, "offers": null, "latitude": 33.948939, "politanName": "Atlanta, GA Metro ", "phone_number": "6785602037", "tags": [{"primary": true, "id": 1722, "name": "Restaurants"}], "fax_number": null, "expansion": {"count": null, "uri": null}, "impression_id": "000b0000007e0c9321506246a090440a95c5de0221", "profile": "http://www.citysearch.com/profile/813218910/marietta_ga/asian_grill.html", "address": {"city": "Marietta", "state": "GA", "street": "279 Powers Ferry Rd SE # F", "postal_code": "30067"}, "capProviderId": null, "distance": null, "has_offers": false, "name": "Asian Grill", "longitude": -84.503582, "has_menu": false, "awards": null, "user_review_count": 0}], "histograms": [], "tag_ids": [1722], "uri": "http://api.citygridmedia.com:8080/search/places/v2/search/where?has_offers=false&type=restaurant&format=json&page=23&where=30008&rpp=50&histograms=false&publisher=10000009598&region_type=circle", "did_you_mean": "", "regions": [{"latitude": 33.895376999999996, "default_radius": 3.24, "type": "postal_code", "name": "30008", "longitude": -84.588844}], "call_id": "000b00000069ac48af14a447faace7f957970e964d", "first_hit": 1101, "total_hits": 1349, "geo_ids": [26364], "page": 23, "last_hit": 1150}}