{"results": {"rpp": 50, "locations": [{"business_operation_status": 1, "rating": null, "neighborhood": null, "image": null, "scorecard": null, "featured": false, "sample_categories": "Grocery Stores, Restaurants", "public_id": "genji-express-marietta", "id": 836645200, "votes": null, "tagline": null, "has_video": false, "website": null, "offers": null, "latitude": 33.948194, "politanName": "Atlanta, GA Metro ", "phone_number": "7705784400", "tags": [{"primary": false, "id": 1722, "name": "Restaurants"}, {"primary": true, "id": 1713, "name": "Grocery Stores"}], "fax_number": null, "expansion": {"count": null, "uri": null}, "impression_id": "000b000000ee06d26c8bf3420d8e32e746e3fd0c9a", "profile": "http://www.citysearch.com/profile/836645200/marietta_ga/genji_express.html", "address": {"city": "Marietta", "state": "GA", "street": "70 Powers Ferry Rd SE", "postal_code": "30067"}, "capProviderId": null, "distance": null, "has_offers": false, "name": "Genji Express", "longitude": -84.513268, "has_menu": true, "awards": null, "user_review_count": 0}, {"business_operation_status": 1, "rating": null, "neighborhood": null, "image": null, "scorecard": null, "featured": false, "sample_categories": "Restaurants", "public_id": "valindas-cozy-kitchen-austell-2", "id": 814424400, "votes": null, "tagline": null, "has_video": false, "website": null, "offers": null, "latitude": 33.834562, "politanName": "Atlanta, GA Metro ", "phone_number": "7709440410", "tags": [{"primary": true, "id": 1722, "name": "Restaurants"}], "fax_number": null, "expansion": {"count": null, "uri": null}, "impression_id": "000b000000888247bcf3bd428fbaf8ef4152e0b5a4", "profile": "http://www.citysearch.com/profile/814424400/austell_ga/valinda_s_cozy_kitchen.html", "address": {"city": "Austell", "state": "GA", "street": "2075 Warren Dr", "postal_code": "30106"}, "capProviderId": null, "distance": null, "has_offers": false, "name": "Valinda's Cozy Kitchen", "longitude": -84.61502, "has_menu": false, "awards": null, "user_review_count": 0}, {"business_operation_status": 1, "rating": null, "neighborhood": null, "image": null, "scorecard": null, "featured": false, "sample_categories": "Restaurants, Pizza, Carry Out", "public_id": "little-caesars-pizza-austell", "id": 817405370, "votes": null, "tagline": null, "has_video": false, "website": null, "offers": null, "latitude": 33.836659, "politanName": "Atlanta, GA Metro ", "phone_number": "7709485001", "tags": [{"primary": false, "id": 1722, "name": "Restaurants"}, {"primary": false, "id": 11247, "name": "Carry Out"}, {"primary": true, "id": 11299, "name": "Pizza"}], "fax_number": null, "expansion": {"count": null, "uri": null}, "impression_id": "000b00000004825e9dc81c45c784067f8804e2b08e", "profile": "http://www.citysearch.com/profile/817405370/austell_ga/little_caesars_pizza.html", "address": {"city": "Austell", "state": "GA", "street": "3753 Austell Rd", "postal_code": "30106"}, "capProviderId": null, "distance": null, "has_offers": false, "name": "Little Caesars Pizza", "longitude": -84.611909, "has_menu": false, "awards": null, "user_review_count": 0}, {"business_operation_status": 1, "rating": null, "neighborhood": null, "image": null, "scorecard": null, "featured": false, "sample_categories": "Restaurants", "public_id": "marietta-marietta-2", "id": 838727430, "votes": null, "tagline": null, "has_video": false, "website": null, "offers": null, "latitude": 33.924583, "politanName": "Atlanta, GA Metro ", "phone_number": "7705907388", "tags": [{"primary": true, "id": 1722, "name": "Restaurants"}], "fax_number": null, "expansion": {"count": null, "uri": null}, "impression_id": "000b00000012e4e7fecc8242dbb91c27163f06c367", "profile": "http://www.citysearch.com/profile/838727430/marietta_ga/marietta.html", "address": {"city": "Marietta", "state": "GA", "street": "1180 Powder Springs St", "postal_code": "30064"}, "capProviderId": null, "distance": null, "has_offers": false, "name": "Marietta", "longitude": -84.575231, "has_menu": false, "awards": null, "user_review_count": 0}, {"business_operation_status": 1, "rating": null, "neighborhood": null, "image": null, "scorecard": null, "featured": false, "sample_categories": "Ice Cream Parlors", "public_id": "marble-slab-creamery-kennesaw", "id": 829114200, "votes": null, "tagline": null, "has_video": false, "website": "http://www.citysearch.com/profile/external/829114200/kennesaw_ga/marble_slab_creamery.html", "offers": null, "latitude": 34.012738, "politanName": "Atlanta, GA Metro ", "phone_number": "6783555424", "tags": [{"primary": true, "id": 1730, "name": "Ice Cream Parlors"}], "fax_number": null, "expansion": {"count": null, "uri": null}, "impression_id": "000b000000e1397a73a38241c390afac5f3606f2ca", "profile": "http://www.citysearch.com/profile/829114200/kennesaw_ga/marble_slab_creamery.html", "address": {"city": "Kennesaw", "state": "GA", "street": "440 Ernest W Barrett Pkwy NW", "postal_code": "30144"}, "capProviderId": null, "distance": null, "has_offers": false, "name": "Marble Slab Creamery", "longitude": -84.5643, "has_menu": true, "awards": null, "user_review_count": 0}, {"business_operation_status": 1, "rating": null, "neighborhood": null, "image": null, "scorecard": null, "featured": false, "sample_categories": "Barbecue Restaurants, Restaurants", "public_id": "als-barbeque-marietta", "id": 764865730, "votes": null, "tagline": null, "has_video": false, "website": null, "offers": null, "latitude": 33.951118, "politanName": "Atlanta, GA Metro ", "phone_number": "7704999774", "tags": [{"primary": false, "id": 1722, "name": "Restaurants"}, {"primary": true, "id": 1724, "name": "Barbecue Restaurants"}], "fax_number": null, "expansion": {"count": null, "uri": null}, "impression_id": "000b000000c5a3786c53ac4a6e9d9d84bf11dec460", "profile": "http://www.citysearch.com/profile/764865730/marietta_ga/al_s_barbeque.html", "address": {"city": "Marietta", "state": "GA", "street": "34 Powder Springs St", "postal_code": "30064"}, "capProviderId": null, "distance": null, "has_offers": false, "name": "Al's Barbeque", "longitude": -84.550542, "has_menu": true, "awards": null, "user_review_count": 0}, {"business_operation_status": 1, "rating": null, "neighborhood": null, "image": null, "scorecard": null, "featured": false, "sample_categories": "Restaurants, Barbecue Restaurants", "public_id": "hot-wings-marietta-2", "id": 764883190, "votes": null, "tagline": null, "has_video": false, "website": null, "offers": null, "latitude": 33.922673, "politanName": "Atlanta, GA Metro ", "phone_number": "6784013756", "tags": [{"primary": false, "id": 1724, "name": "Barbecue Restaurants"}, {"primary": true, "id": 1722, "name": "Restaurants"}], "fax_number": null, "expansion": {"count": null, "uri": null}, "impression_id": "000b0000008edca94305904ca6a9c8f95bff6f3c4c", "profile": "http://www.citysearch.com/profile/764883190/marietta_ga/hot_wings.html", "address": {"city": "Marietta", "state": "GA", "street": "2555 Delk Rd SE # A8", "postal_code": "30067"}, "capProviderId": null, "distance": null, "has_offers": false, "name": "Hot Wings", "longitude": -84.478383, "has_menu": false, "awards": null, "user_review_count": 0}, {"business_operation_status": 1, "rating": null, "neighborhood": null, "image": null, "scorecard": null, "featured": false, "sample_categories": "Restaurants, Jamaican", "public_id": "country-style-jamaican-rstrnt-marietta", "id": 790653840, "votes": null, "tagline": null, "has_video": false, "website": null, "offers": null, "latitude": 34.03261, "politanName": "Atlanta, GA Metro ", "phone_number": "7704258444", "tags": [{"primary": false, "id": 11193, "name": "Jamaican"}, {"primary": true, "id": 1722, "name": "Restaurants"}], "fax_number": null, "expansion": {"count": null, "uri": null}, "impression_id": "000b00000059cf91b9cdfe4efa83020be1912b71c1", "profile": "http://www.citysearch.com/profile/790653840/marietta_ga/country_style_jamaican_rstrnt.html", "address": {"city": "Marietta", "state": "GA", "street": "3349 Canton Rd # 201", "postal_code": "30066"}, "capProviderId": null, "distance": null, "has_offers": false, "name": "Country Style Jamaican Rstrnt", "longitude": -84.528907, "has_menu": false, "awards": null, "user_review_count": 0}, {"business_operation_status": 1, "rating": null, "neighborhood": null, "image": null, "scorecard": null, "featured": false, "sample_categories": "Restaurants", "public_id": "mobile-pit-stop-of-atlanta-smyrna", "id": 754713040, "votes": null, "tagline": null, "has_video": false, "website": null, "offers": null, "latitude": 33.884704, "politanName": "Atlanta, GA Metro ", "phone_number": "7707786349", "tags": [{"primary": true, "id": 1722, "name": "Restaurants"}], "fax_number": null, "expansion": {"count": null, "uri": null}, "impression_id": "000b0000003c72b97430d94d96a662c8a81d653c59", "profile": "http://www.citysearch.com/profile/754713040/smyrna_ga/mobile_pit_stop_of_atlanta.html", "address": {"city": "Smyrna", "state": "GA", "street": "2051 Glenroy Dr SE", "postal_code": "30080"}, "capProviderId": null, "distance": null, "has_offers": false, "name": "Mobile Pit Stop of Atlanta", "longitude": -84.4941, "has_menu": false, "awards": null, "user_review_count": 0}, {"business_operation_status": 1, "rating": null, "neighborhood": null, "image": null, "scorecard": null, "featured": false, "sample_categories": "Restaurants, Asian, Chinese", "public_id": "chinese-restaurant-marietta", "id": 682576220, "votes": null, "tagline": null, "has_video": false, "website": "http://www.citysearch.com/profile/external/682576220/marietta_ga/chinese_restaurant.html", "offers": null, "latitude": 33.968527, "politanName": "Atlanta, GA Metro ", "phone_number": "7703218202", "tags": [{"primary": false, "id": 11235, "name": "Asian"}, {"primary": false, "id": 11252, "name": "Chinese"}, {"primary": true, "id": 1722, "name": "Restaurants"}], "fax_number": null, "expansion": {"count": null, "uri": null}, "impression_id": "000b00000052fb04f497c7421d83f5b7ac35d725d3", "profile": "http://www.citysearch.com/profile/682576220/marietta_ga/chinese_restaurant.html", "address": {"city": "Marietta", "state": "GA", "street": "2145 Roswell Rd", "postal_code": "30062"}, "capProviderId": null, "distance": null, "has_offers": false, "name": "Chinese Restaurant", "longitude": -84.491622, "has_menu": false, "awards": null, "user_review_count": 0}, {"business_operation_status": 1, "rating": null, "neighborhood": null, "image": null, "scorecard": null, "featured": false, "sample_categories": "Restaurants", "public_id": "philly-connection-marietta-4", "id": 805419070, "votes": null, "tagline": null, "has_video": false, "website": null, "offers": null, "latitude": 34.011742, "politanName": "Atlanta, GA Metro ", "phone_number": "7705799288", "tags": [{"primary": true, "id": 1722, "name": "Restaurants"}], "fax_number": null, "expansion": {"count": null, "uri": null}, "impression_id": "000b00000044efb0882ba54107bbdd4c11212ec49a", "profile": "http://www.citysearch.com/profile/805419070/marietta_ga/philly_connection.html", "address": {"city": "Marietta", "state": "GA", "street": "2550 Sandy Plains Rd # 215", "postal_code": "30066"}, "capProviderId": null, "distance": null, "has_offers": false, "name": "Philly Connection", "longitude": -84.495056, "has_menu": true, "awards": null, "user_review_count": 0}, {"business_operation_status": 1, "rating": null, "neighborhood": null, "image": null, "scorecard": null, "featured": false, "sample_categories": "Restaurants, Carry Out", "public_id": "ryans-grill-buffet-bakery-marietta", "id": 764837190, "votes": null, "tagline": null, "has_video": false, "website": null, "offers": null, "latitude": 34.010977, "politanName": "Atlanta, GA Metro ", "phone_number": "7704250277", "tags": [{"primary": false, "id": 11247, "name": "Carry Out"}, {"primary": true, "id": 1722, "name": "Restaurants"}], "fax_number": null, "expansion": {"count": null, "uri": null}, "impression_id": "000b000000241682567d484989a42aad5237ea506a", "profile": "http://www.citysearch.com/profile/764837190/marietta_ga/ryan_s_grill_buffet_bakery.html", "address": {"city": "Marietta", "state": "GA", "street": "2418 Canton Rd", "postal_code": "30066"}, "capProviderId": null, "distance": null, "has_offers": false, "name": "Ryan's Grill Buffet & Bakery", "longitude": -84.526734, "has_menu": false, "awards": null, "user_review_count": 0}, {"business_operation_status": 1, "rating": null, "neighborhood": null, "image": null, "scorecard": null, "featured": false, "sample_categories": "Restaurants", "public_id": "sunrise-biscuit-co-marietta", "id": 808765260, "votes": null, "tagline": null, "has_video": false, "website": null, "offers": null, "latitude": 34.048278, "politanName": "Atlanta, GA Metro ", "phone_number": "7705169556", "tags": [{"primary": true, "id": 1722, "name": "Restaurants"}], "fax_number": null, "expansion": {"count": null, "uri": null}, "impression_id": "000b00000034ffefbb02c34d119a526da1dfac4794", "profile": "http://www.citysearch.com/profile/808765260/marietta_ga/sunrise_biscuit_co.html", "address": {"city": "Marietta", "state": "GA", "street": "4017 Canton Rd", "postal_code": "30066"}, "capProviderId": null, "distance": null, "has_offers": false, "name": "Sunrise Biscuit Co", "longitude": -84.52851, "has_menu": false, "awards": null, "user_review_count": 0}, {"business_operation_status": 1, "rating": null, "neighborhood": null, "image": null, "scorecard": null, "featured": false, "sample_categories": "Restaurants, Pizza", "public_id": "gondolier-pizza-1-kennesaw", "id": 809188170, "votes": null, "tagline": null, "has_video": false, "website": null, "offers": null, "latitude": 34.007674, "politanName": "Atlanta, GA Metro ", "phone_number": "7704199979", "tags": [{"primary": false, "id": 1722, "name": "Restaurants"}, {"primary": true, "id": 11299, "name": "Pizza"}], "fax_number": null, "expansion": {"count": null, "uri": null}, "impression_id": "000b000000924296e90e1d490980df94fc148792d0", "profile": "http://www.citysearch.com/profile/809188170/kennesaw_ga/gondolier_pizza_1.html", "address": {"city": "Kennesaw", "state": "GA", "street": "740 Ernest W Barrett Pkwy NW", "postal_code": "30144"}, "capProviderId": null, "distance": null, "has_offers": false, "name": "Gondolier Pizza 1", "longitude": -84.571702, "has_menu": false, "awards": null, "user_review_count": 0}, {"business_operation_status": 1, "rating": null, "neighborhood": null, "image": null, "scorecard": null, "featured": false, "sample_categories": "Restaurants, Japanese", "public_id": "access-japan-inc-marietta", "id": 775202150, "votes": null, "tagline": null, "has_video": false, "website": null, "offers": null, "latitude": 33.959931, "politanName": "Atlanta, GA Metro ", "phone_number": "7709714847", "tags": [{"primary": false, "id": 11202, "name": "Japanese"}, {"primary": true, "id": 1722, "name": "Restaurants"}], "fax_number": null, "expansion": {"count": null, "uri": null}, "impression_id": "000b00000055c2ea2ceb00424f912072b72f6beea7", "profile": "http://www.citysearch.com/profile/775202150/marietta_ga/access_japan_inc.html", "address": {"city": "Marietta", "state": "GA", "street": "360 Willow Glen Dr", "postal_code": "30068"}, "capProviderId": null, "distance": null, "has_offers": false, "name": "Access Japan Inc", "longitude": -84.485385, "has_menu": false, "awards": null, "user_review_count": 0}, {"business_operation_status": 1, "rating": null, "neighborhood": null, "image": null, "scorecard": null, "featured": false, "sample_categories": "Restaurants", "public_id": "baileys-diner-powder", "id": 823022250, "votes": null, "tagline": null, "has_video": false, "website": null, "offers": null, "latitude": 33.85832, "politanName": "Atlanta, GA Metro ", "phone_number": "6783841220", "tags": [{"primary": true, "id": 1722, "name": "Restaurants"}], "fax_number": null, "expansion": {"count": null, "uri": null}, "impression_id": "000b000000c2810fbf50b54e6baf064a7ce9c26a54", "profile": "http://www.citysearch.com/profile/823022250/powder_springs_ga/bailey_s_diner.html", "address": {"city": "Powder Springs", "state": "GA", "street": "4093 Marietta St", "postal_code": "30127"}, "capProviderId": null, "distance": null, "has_offers": false, "name": "Bailey's Diner", "longitude": -84.67366, "has_menu": false, "awards": null, "user_review_count": 0}, {"business_operation_status": 1, "rating": null, "neighborhood": null, "image": null, "scorecard": null, "featured": false, "sample_categories": "Restaurants", "public_id": "kds-cafe-inc-powder", "id": 828806350, "votes": null, "tagline": null, "has_video": false, "website": null, "offers": null, "latitude": 33.842913, "politanName": "Atlanta, GA Metro ", "phone_number": "7709434912", "tags": [{"primary": true, "id": 1722, "name": "Restaurants"}], "fax_number": null, "expansion": {"count": null, "uri": null}, "impression_id": "000b000000b797e5c19d704057a0b906e3a9b40074", "profile": "http://www.citysearch.com/profile/828806350/powder_springs_ga/kds_cafe_inc.html", "address": {"city": "Powder Springs", "state": "GA", "street": "4565 Ridgeview Dr", "postal_code": "30127"}, "capProviderId": null, "distance": null, "has_offers": false, "name": "Kds Cafe Inc", "longitude": -84.721382, "has_menu": false, "awards": null, "user_review_count": 0}, {"business_operation_status": 1, "rating": null, "neighborhood": null, "image": null, "scorecard": null, "featured": false, "sample_categories": "Ice Cream Parlors", "public_id": "smyrna-old-fashioned-ice-cream-smyrna", "id": 829274170, "votes": null, "tagline": null, "has_video": false, "website": null, "offers": null, "latitude": 33.8824, "politanName": "Atlanta, GA Metro ", "phone_number": "7704345560", "tags": [{"primary": true, "id": 1730, "name": "Ice Cream Parlors"}], "fax_number": null, "expansion": {"count": null, "uri": null}, "impression_id": "000b000000904cf03060d64aeeb3210a85342fec23", "profile": "http://www.citysearch.com/profile/829274170/smyrna_ga/smyrna_old_fashioned_ice_cream.html", "address": {"city": "Smyrna", "state": "GA", "street": "885 Flagler Cir SE", "postal_code": "30080"}, "capProviderId": null, "distance": null, "has_offers": false, "name": "Smyrna Old Fashioned Ice Cream", "longitude": -84.527884, "has_menu": false, "awards": null, "user_review_count": 0}, {"business_operation_status": 1, "rating": null, "neighborhood": null, "image": null, "scorecard": null, "featured": false, "sample_categories": "Restaurants", "public_id": "el-tapatio-mableton", "id": 832623600, "votes": null, "tagline": null, "has_video": false, "website": null, "offers": null, "latitude": 33.823999, "politanName": "Atlanta, GA Metro ", "phone_number": "7707458920", "tags": [{"primary": true, "id": 1722, "name": "Restaurants"}], "fax_number": null, "expansion": {"count": null, "uri": null}, "impression_id": "000b000000dfcee356494f443195a1f52545573f86", "profile": "http://www.citysearch.com/profile/832623600/mableton_ga/el_tapatio.html", "address": {"city": "Mableton", "state": "GA", "street": "5345 Floyd Rd Sw", "postal_code": "30126"}, "capProviderId": null, "distance": null, "has_offers": false, "name": "El Tapatio", "longitude": -84.574687, "has_menu": true, "awards": null, "user_review_count": 0}, {"business_operation_status": 1, "rating": null, "neighborhood": null, "image": null, "scorecard": null, "featured": false, "sample_categories": "Restaurants, Greek, Middle Eastern, Family Style Dining, Mediterranean", "public_id": "milos-greek-taverna-marietta", "id": 798213230, "votes": null, "tagline": null, "has_video": false, "website": null, "offers": null, "latitude": 33.953276, "politanName": "Atlanta, GA Metro ", "phone_number": "6789033148", "tags": [{"primary": false, "id": 1722, "name": "Restaurants"}, {"primary": false, "id": 11215, "name": "Middle Eastern"}, {"primary": false, "id": 11262, "name": "Family Style Dining"}, {"primary": false, "id": 11289, "name": "Mediterranean"}, {"primary": true, "id": 11268, "name": "Greek"}], "fax_number": "6789033149", "expansion": {"count": null, "uri": null}, "impression_id": "000b000000bfd1dcf7422844929f3f85939ebc7ff5", "profile": "http://www.citysearch.com/profile/798213230/marietta_ga/milos_greek_taverna.html", "address": {"city": "Marietta", "state": "GA", "street": "26 Mill St NE", "postal_code": "30060"}, "capProviderId": null, "distance": null, "has_offers": false, "name": "Milos Greek Taverna", "longitude": -84.551885, "has_menu": false, "awards": null, "user_review_count": 0}, {"business_operation_status": 1, "rating": null, "neighborhood": null, "image": null, "scorecard": null, "featured": false, "sample_categories": "Restaurants", "public_id": "underwood-enterprises-inc-mableton", "id": 732242390, "votes": null, "tagline": null, "has_video": false, "website": null, "offers": null, "latitude": 33.835202, "politanName": "Atlanta, GA Metro ", "phone_number": "7708238349", "tags": [{"primary": true, "id": 1722, "name": "Restaurants"}], "fax_number": null, "expansion": {"count": null, "uri": null}, "impression_id": "000b000000ab026b68a064446181e0930159db219b", "profile": "http://www.citysearch.com/profile/732242390/mableton_ga/underwood_enterprises_inc.html", "address": {"city": "Mableton", "state": "GA", "street": "4870 Floyd Rd SW # 30", "postal_code": "30126"}, "capProviderId": null, "distance": null, "has_offers": false, "name": "Underwood Enterprises Inc", "longitude": -84.576887, "has_menu": false, "awards": null, "user_review_count": 0}, {"business_operation_status": 1, "rating": null, "neighborhood": null, "image": null, "scorecard": null, "featured": false, "sample_categories": "Restaurants", "public_id": "pegasus-foods-inc-powder", "id": 732186320, "votes": null, "tagline": null, "has_video": false, "website": null, "offers": null, "latitude": 33.906794, "politanName": "Atlanta, GA Metro ", "phone_number": "7704391489", "tags": [{"primary": true, "id": 1722, "name": "Restaurants"}], "fax_number": null, "expansion": {"count": null, "uri": null}, "impression_id": "000b000000c0be53cc36cf411fb806f94b697edc7f", "profile": "http://www.citysearch.com/profile/732186320/powder_springs_ga/pegasus_foods_inc.html", "address": {"city": "Powder Springs", "state": "GA", "street": "3640 Velma Dr", "postal_code": "30127"}, "capProviderId": null, "distance": null, "has_offers": false, "name": "Pegasus Foods Inc", "longitude": -84.660285, "has_menu": false, "awards": null, "user_review_count": 0}, {"business_operation_status": 1, "rating": null, "neighborhood": null, "image": null, "scorecard": null, "featured": false, "sample_categories": "Frozen Yogurt Shops, Grocery Stores, Restaurants", "public_id": "oolala-marietta", "id": 732204990, "votes": null, "tagline": null, "has_video": false, "website": "http://www.citysearch.com/profile/external/732204990/marietta_ga/oolala.html", "offers": null, "latitude": 33.950252, "politanName": "Atlanta, GA Metro ", "phone_number": "6783836129", "tags": [{"primary": false, "id": 1713, "name": "Grocery Stores"}, {"primary": false, "id": 1722, "name": "Restaurants"}, {"primary": true, "id": 1729, "name": "Frozen Yogurt Shops"}], "fax_number": null, "expansion": {"count": null, "uri": null}, "impression_id": "000b000000f711cd2c979f4458bdd19477397497bd", "profile": "http://www.citysearch.com/profile/732204990/marietta_ga/oolala.html", "address": {"city": "Marietta", "state": "GA", "street": "2500 Dallas Hwy SW # 650", "postal_code": "30064"}, "capProviderId": null, "distance": null, "has_offers": false, "name": "Oolala", "longitude": -84.638093, "has_menu": false, "awards": null, "user_review_count": 0}, {"business_operation_status": 1, "rating": null, "neighborhood": null, "image": null, "scorecard": null, "featured": false, "sample_categories": "Coffeehouses", "public_id": "volcanica-coffee-inc-coral", "id": 732048930, "votes": null, "tagline": null, "has_video": false, "website": null, "offers": "Free Shipping", "latitude": 33.988892, "politanName": "Atlanta, GA Metro ", "phone_number": "8774547031", "tags": [{"primary": true, "id": 1726, "name": "Coffeehouses"}], "fax_number": null, "expansion": {"count": null, "uri": null}, "impression_id": "000b000000ac2c1707e35847678a71d60bf9ce76b5", "profile": "http://www.citysearch.com/profile/732048930/atlanta_ga/volcanica_coffee_inc.html", "address": {"city": "Atlanta", "state": "GA", "street": "1831-C West Oak Parkway", "postal_code": "30062"}, "capProviderId": null, "distance": null, "has_offers": true, "name": "Volcanica Coffee Inc", "longitude": -84.525273, "has_menu": false, "awards": null, "user_review_count": 0}, {"business_operation_status": 1, "rating": null, "neighborhood": null, "image": null, "scorecard": null, "featured": false, "sample_categories": "Health Food Stores, Restaurants", "public_id": "planet-smoothie-marietta", "id": 36642521, "votes": null, "tagline": null, "has_video": false, "website": "http://www.citysearch.com/profile/external/36642521/marietta_ga/planet_smoothie.html", "offers": null, "latitude": 33.969856, "politanName": "Atlanta, GA Metro ", "phone_number": "6785604001", "tags": [{"primary": false, "id": 1722, "name": "Restaurants"}, {"primary": true, "id": 1716, "name": "Health Food Stores"}], "fax_number": null, "expansion": {"count": null, "uri": null}, "impression_id": "000b0000007f8e8df4b9554e6ba8b2270bc5bf25c9", "profile": "http://www.citysearch.com/profile/36642521/marietta_ga/planet_smoothie.html", "address": {"city": "Marietta", "state": "GA", "street": "2200 Roswell Rd", "postal_code": "30062"}, "capProviderId": null, "distance": null, "has_offers": false, "name": "Planet Smoothie", "longitude": -84.488427, "has_menu": true, "awards": null, "user_review_count": 0}, {"business_operation_status": 1, "rating": null, "neighborhood": null, "image": null, "scorecard": null, "featured": false, "sample_categories": "Restaurants, Ice Cream Parlors", "public_id": "smoothie-express-marietta", "id": 653592070, "votes": null, "tagline": null, "has_video": false, "website": "http://www.citysearch.com/profile/external/653592070/marietta_ga/smoothie_express.html", "offers": null, "latitude": 33.899518, "politanName": "Atlanta, GA Metro ", "phone_number": "7705901900", "tags": [{"primary": false, "id": 1730, "name": "Ice Cream Parlors"}, {"primary": true, "id": 1722, "name": "Restaurants"}], "fax_number": null, "expansion": {"count": null, "uri": null}, "impression_id": "000b000000617743b6bb4f4d2c82afd23101cdfc91", "profile": "http://www.citysearch.com/profile/653592070/marietta_ga/smoothie_express.html", "address": {"city": "Marietta", "state": "GA", "street": "1812 Powder Springs Rd Sw#1107", "postal_code": "30064"}, "capProviderId": null, "distance": null, "has_offers": false, "name": "Smoothie Express", "longitude": -84.606801, "has_menu": false, "awards": null, "user_review_count": 0}, {"business_operation_status": 1, "rating": null, "neighborhood": null, "image": null, "scorecard": null, "featured": false, "sample_categories": "Restaurants", "public_id": "royal-waffle-king-marietta", "id": 775234230, "votes": null, "tagline": null, "has_video": false, "website": "http://www.citysearch.com/profile/external/775234230/marietta_ga/royal_waffle_king.html", "offers": null, "latitude": 33.987292, "politanName": "Atlanta, GA Metro ", "phone_number": "7704423800", "tags": [{"primary": true, "id": 1722, "name": "Restaurants"}], "fax_number": null, "expansion": {"count": null, "uri": null}, "impression_id": "000b000000cf65a3c99b82402dbb221e6ba8762203", "profile": "http://www.citysearch.com/profile/775234230/marietta_ga/royal_waffle_king.html", "address": {"city": "Marietta", "state": "GA", "street": "1459 Field Park Cir", "postal_code": "30066"}, "capProviderId": null, "distance": null, "has_offers": false, "name": "Royal Waffle King", "longitude": -84.563324, "has_menu": true, "awards": null, "user_review_count": 0}, {"business_operation_status": 1, "rating": null, "neighborhood": null, "image": null, "scorecard": null, "featured": false, "sample_categories": "Restaurants, New American, Carry Out, Cooking, Soul", "public_id": "chads-place-marietta", "id": 753259210, "votes": null, "tagline": null, "has_video": false, "website": null, "offers": null, "latitude": 33.964105, "politanName": "Atlanta, GA Metro ", "phone_number": "7704278226", "tags": [{"primary": false, "id": 11189, "name": "New American"}, {"primary": false, "id": 11247, "name": "Carry Out"}, {"primary": false, "id": 11254, "name": "Cooking"}, {"primary": false, "id": 15140, "name": "Soul"}, {"primary": true, "id": 1722, "name": "Restaurants"}], "fax_number": null, "expansion": {"count": null, "uri": null}, "impression_id": "000b0000002dda8b2fd3bd4190861e5fd06dedcd4b", "profile": "http://www.citysearch.com/profile/753259210/marietta_ga/chad_s_place.html", "address": {"city": "Marietta", "state": "GA", "street": "531 Roselane St NW Suite 520 NW", "postal_code": "30060"}, "capProviderId": null, "distance": null, "has_offers": false, "name": "Chad's Place", "longitude": -84.557337, "has_menu": false, "awards": null, "user_review_count": 0}, {"business_operation_status": 1, "rating": null, "neighborhood": null, "image": null, "scorecard": null, "featured": false, "sample_categories": "Ice Cream Parlors", "public_id": "brusters-real-ice-cream-powder", "id": 777624710, "votes": null, "tagline": null, "has_video": false, "website": null, "offers": null, "latitude": 33.859024, "politanName": "Atlanta, GA Metro ", "phone_number": "7702227558", "tags": [{"primary": true, "id": 1730, "name": "Ice Cream Parlors"}], "fax_number": null, "expansion": {"count": null, "uri": null}, "impression_id": "000b0000000706d263443144618aa608d567f6e834", "profile": "http://www.citysearch.com/profile/777624710/powder_springs_ga/bruster_s_real_ice_cream.html", "address": {"city": "Powder Springs", "state": "GA", "street": "3861 Siniard St", "postal_code": "30127"}, "capProviderId": null, "distance": null, "has_offers": false, "name": "Bruster's Real Ice Cream", "longitude": -84.672325, "has_menu": false, "awards": null, "user_review_count": 0}, {"business_operation_status": 1, "rating": null, "neighborhood": null, "image": null, "scorecard": null, "featured": false, "sample_categories": "Seafood Markets, Restaurants, Cajun & Creole", "public_id": "cajun-crawfish-seafood-marietta", "id": 764847750, "votes": null, "tagline": null, "has_video": false, "website": null, "offers": null, "latitude": 33.894433, "politanName": "Atlanta, GA Metro ", "phone_number": "7703190345", "tags": [{"primary": false, "id": 1722, "name": "Restaurants"}, {"primary": false, "id": 11245, "name": "Cajun & Creole"}, {"primary": true, "id": 1719, "name": "Seafood Markets"}], "fax_number": null, "expansion": {"count": null, "uri": null}, "impression_id": "000b000000215be39aa9724f779141a2fea5c8bc8c", "profile": "http://www.citysearch.com/profile/764847750/marietta_ga/cajun_crawfish_seafood.html", "address": {"city": "Marietta", "state": "GA", "street": "234 Windy Hill Rd SE", "postal_code": "30060"}, "capProviderId": null, "distance": null, "has_offers": false, "name": "Cajun Crawfish & Seafood", "longitude": -84.552798, "has_menu": false, "awards": null, "user_review_count": 0}, {"business_operation_status": 1, "rating": null, "neighborhood": null, "image": null, "scorecard": null, "featured": false, "sample_categories": "Restaurants, Mexican", "public_id": "casa-de-oro-mexican-restaurant-smyrna", "id": 777623800, "votes": null, "tagline": null, "has_video": false, "website": null, "offers": null, "latitude": 33.87498, "politanName": "Atlanta, GA Metro ", "phone_number": "7704360333", "tags": [{"primary": false, "id": 11208, "name": "Mexican"}, {"primary": true, "id": 1722, "name": "Restaurants"}], "fax_number": null, "expansion": {"count": null, "uri": null}, "impression_id": "000b000000c78582dd7718409a98b5360b96d54e54", "profile": "http://www.citysearch.com/profile/777623800/smyrna_ga/casa_de_oro_mexican_restaurant.html", "address": {"city": "Smyrna", "state": "GA", "street": "821 Concord Rd Se", "postal_code": "30080"}, "capProviderId": null, "distance": null, "has_offers": false, "name": "Casa De Oro Mexican Restaurant", "longitude": -84.529694, "has_menu": false, "awards": null, "user_review_count": 0}, {"business_operation_status": 1, "rating": null, "neighborhood": null, "image": null, "scorecard": null, "featured": false, "sample_categories": "Restaurants", "public_id": "rahims-seafood-inc-powder", "id": 806264920, "votes": null, "tagline": null, "has_video": false, "website": null, "offers": null, "latitude": 33.822061, "politanName": "Atlanta, GA Metro ", "phone_number": "7709435544", "tags": [{"primary": true, "id": 1722, "name": "Restaurants"}], "fax_number": null, "expansion": {"count": null, "uri": null}, "impression_id": "000b0000007074bbcd73624ce69960d38159e0a41d", "profile": "http://www.citysearch.com/profile/806264920/powder_springs_ga/rahim_s_seafood_inc.html", "address": {"city": "Powder Springs", "state": "GA", "street": "4123 Sweetsprings Ter SW", "postal_code": "30127"}, "capProviderId": null, "distance": null, "has_offers": false, "name": "Rahim's Seafood Inc", "longitude": -84.676431, "has_menu": false, "awards": null, "user_review_count": 0}, {"business_operation_status": 1, "rating": null, "neighborhood": null, "image": null, "scorecard": null, "featured": false, "sample_categories": "Restaurants, Pizza, Carry Out", "public_id": "pizza-hut-kennesaw-3", "id": 790675460, "votes": null, "tagline": null, "has_video": false, "website": null, "offers": null, "latitude": 33.99979, "politanName": "Atlanta, GA Metro ", "phone_number": "7704248863", "tags": [{"primary": false, "id": 1722, "name": "Restaurants"}, {"primary": false, "id": 11247, "name": "Carry Out"}, {"primary": true, "id": 11299, "name": "Pizza"}], "fax_number": null, "expansion": {"count": null, "uri": null}, "impression_id": "000b000000d7d0de455a134c05b78857fd0663576d", "profile": "http://www.citysearch.com/profile/790675460/kennesaw_ga/pizza_hut.html", "address": {"city": "Kennesaw", "state": "GA", "street": "1906 Cobb Pkwy NW", "postal_code": "30152"}, "capProviderId": null, "distance": null, "has_offers": false, "name": "Pizza Hut", "longitude": -84.588641, "has_menu": false, "awards": null, "user_review_count": 0}, {"business_operation_status": 1, "rating": null, "neighborhood": null, "image": null, "scorecard": null, "featured": false, "sample_categories": "Restaurants", "public_id": "wan-fu-chinese-austell", "id": 814396930, "votes": null, "tagline": null, "has_video": false, "website": null, "offers": null, "latitude": 33.829858, "politanName": "Atlanta, GA Metro ", "phone_number": "7709486668", "tags": [{"primary": true, "id": 1722, "name": "Restaurants"}], "fax_number": null, "expansion": {"count": null, "uri": null}, "impression_id": "000b00000077e8f837563b4ce09fdf1810a8b61368", "profile": "http://www.citysearch.com/profile/814396930/austell_ga/wan_fu_chinese.html", "address": {"city": "Austell", "state": "GA", "street": "5055 Austell Rd # 153", "postal_code": "30106"}, "capProviderId": null, "distance": null, "has_offers": false, "name": "Wan Fu Chinese", "longitude": -84.612138, "has_menu": false, "awards": null, "user_review_count": 0}, {"business_operation_status": 1, "rating": null, "neighborhood": null, "image": null, "scorecard": null, "featured": false, "sample_categories": "Restaurants, Delis And Delicatessens", "public_id": "jasons-deli-kennesaw", "id": 803500390, "votes": null, "tagline": null, "has_video": false, "website": "http://www.citysearch.com/profile/external/803500390/kennesaw_ga/jason_s_deli.html", "offers": null, "latitude": 34.003304, "politanName": "Atlanta, GA Metro ", "phone_number": "6783984000", "tags": [{"primary": false, "id": 1727, "name": "Delis And Delicatessens"}, {"primary": true, "id": 1722, "name": "Restaurants"}], "fax_number": null, "expansion": {"count": null, "uri": null}, "impression_id": "000b000000cf5820e2ff514b90afc69e7beda32448", "profile": "http://www.citysearch.com/profile/803500390/kennesaw_ga/jason_s_deli.html", "address": {"city": "Kennesaw", "state": "GA", "street": "945 Ernest W Barrett Pkwy NW", "postal_code": "30144"}, "capProviderId": null, "distance": null, "has_offers": false, "name": "Jason's Deli", "longitude": -84.578858, "has_menu": false, "awards": null, "user_review_count": 0}, {"business_operation_status": 1, "rating": null, "neighborhood": null, "image": null, "scorecard": null, "featured": false, "sample_categories": "Coffeehouses", "public_id": "insomnia-marietta", "id": 37646047, "votes": null, "tagline": null, "has_video": false, "website": null, "offers": null, "latitude": 33.948083, "politanName": "Atlanta, GA Metro ", "phone_number": "7705147442", "tags": [{"primary": true, "id": 1726, "name": "Coffeehouses"}], "fax_number": null, "expansion": {"count": null, "uri": null}, "impression_id": "000b000000e996bceda3c147f3b5afa0ef11bee73a", "profile": "http://www.citysearch.com/profile/37646047/marietta_ga/insomnia.html", "address": {"city": "Marietta", "state": "GA", "street": "245 Ridgeway Rd", "postal_code": "30064"}, "capProviderId": null, "distance": null, "has_offers": false, "name": "Insomnia", "longitude": -84.626672, "has_menu": false, "awards": null, "user_review_count": 0}, {"business_operation_status": 1, "rating": null, "neighborhood": null, "image": null, "scorecard": null, "featured": false, "sample_categories": "Restaurants", "public_id": "kidz-spot-marietta", "id": 824161410, "votes": null, "tagline": null, "has_video": false, "website": null, "offers": null, "latitude": 33.903812, "politanName": "Atlanta, GA Metro ", "phone_number": "6784494499", "tags": [{"primary": true, "id": 1722, "name": "Restaurants"}], "fax_number": null, "expansion": {"count": null, "uri": null}, "impression_id": "000b0000002b750f87ff184699a2d9b4ba174b8ac5", "profile": "http://www.citysearch.com/profile/824161410/marietta_ga/kidz_spot.html", "address": {"city": "Marietta", "state": "GA", "street": "2930 Maple Springs CT", "postal_code": "30064"}, "capProviderId": null, "distance": null, "has_offers": false, "name": "Kidz Spot", "longitude": -84.638869, "has_menu": false, "awards": null, "user_review_count": 0}, {"business_operation_status": 1, "rating": null, "neighborhood": null, "image": null, "scorecard": null, "featured": false, "sample_categories": "Restaurants", "public_id": "los-reyes-mexican-marietta", "id": 827063900, "votes": null, "tagline": null, "has_video": false, "website": null, "offers": null, "latitude": 33.906963, "politanName": "Atlanta, GA Metro ", "phone_number": "7709534150", "tags": [{"primary": true, "id": 1722, "name": "Restaurants"}], "fax_number": null, "expansion": {"count": null, "uri": null}, "impression_id": "000b0000002979290d76da4be0bd69d2ef3f80782c", "profile": "http://www.citysearch.com/profile/827063900/marietta_ga/los_reyes_mexican.html", "address": {"city": "Marietta", "state": "GA", "street": "1869 Cobb Pkwy S", "postal_code": "30060"}, "capProviderId": null, "distance": null, "has_offers": false, "name": "Los Reyes Mexican", "longitude": -84.488987, "has_menu": false, "awards": null, "user_review_count": 0}, {"business_operation_status": 1, "rating": null, "neighborhood": null, "image": null, "scorecard": null, "featured": false, "sample_categories": "Restaurants", "public_id": "johnnys-jerk-barbeque-mableton", "id": 808729280, "votes": null, "tagline": null, "has_video": false, "website": null, "offers": null, "latitude": 33.835173, "politanName": "Atlanta, GA Metro ", "phone_number": "6788386770", "tags": [{"primary": true, "id": 1722, "name": "Restaurants"}], "fax_number": null, "expansion": {"count": null, "uri": null}, "impression_id": "000b0000002d4661533e9f45b78a51b1fd5caa9302", "profile": "http://www.citysearch.com/profile/808729280/mableton_ga/johnny_s_jerk_barbeque.html", "address": {"city": "Mableton", "state": "GA", "street": "4875 Floyd Rd SW", "postal_code": "30126"}, "capProviderId": null, "distance": null, "has_offers": false, "name": "Johnny's Jerk & Barbeque", "longitude": -84.574622, "has_menu": false, "awards": null, "user_review_count": 0}, {"business_operation_status": 1, "rating": null, "neighborhood": null, "image": null, "scorecard": null, "featured": false, "sample_categories": "Grocery Stores, Restaurants", "public_id": "global-food-nuts-marietta", "id": 748312370, "votes": null, "tagline": null, "has_video": false, "website": null, "offers": null, "latitude": 33.929154, "politanName": "Atlanta, GA Metro ", "phone_number": "7704282222", "tags": [{"primary": false, "id": 1722, "name": "Restaurants"}, {"primary": true, "id": 1713, "name": "Grocery Stores"}], "fax_number": null, "expansion": {"count": null, "uri": null}, "impression_id": "000b00000019f36b526518475da5324d9d9b82cbf2", "profile": "http://www.citysearch.com/profile/748312370/marietta_ga/global_food_nuts.html", "address": {"city": "Marietta", "state": "GA", "street": "950 Cobb Pkwy S", "postal_code": "30060"}, "capProviderId": null, "distance": null, "has_offers": false, "name": "Global Food & Nuts", "longitude": -84.510376, "has_menu": false, "awards": null, "user_review_count": 0}, {"business_operation_status": 1, "rating": 8.0, "neighborhood": null, "image": null, "scorecard": null, "featured": false, "sample_categories": "Restaurants, Pizza", "public_id": "uncle-vitos-new-york-pizza-marietta", "id": 37646046, "votes": null, "tagline": null, "has_video": false, "website": null, "offers": null, "latitude": 33.950252, "politanName": "Atlanta, GA Metro ", "phone_number": "6787668486", "tags": [{"primary": false, "id": 1722, "name": "Restaurants"}, {"primary": true, "id": 11299, "name": "Pizza"}], "fax_number": null, "expansion": {"count": null, "uri": null}, "impression_id": "000b000000dd3d071f33bb46439cfd167c1e9dbc3b", "profile": "http://www.citysearch.com/profile/37646046/marietta_ga/uncle_vitos_new_york_pizza.html", "address": {"city": "Marietta", "state": "GA", "street": "2500 Dallas Hwy SW", "postal_code": "30064"}, "capProviderId": null, "distance": null, "has_offers": false, "name": "Uncle Vitos New York Pizza", "longitude": -84.638093, "has_menu": true, "awards": null, "user_review_count": 2}, {"business_operation_status": 1, "rating": null, "neighborhood": null, "image": null, "scorecard": null, "featured": false, "sample_categories": "Restaurants", "public_id": "cafe-moms-douglasville", "id": 622212590, "votes": null, "tagline": null, "has_video": false, "website": null, "offers": null, "latitude": 33.78174, "politanName": "Atlanta, GA Metro ", "phone_number": "6784027897", "tags": [{"primary": true, "id": 1722, "name": "Restaurants"}], "fax_number": null, "expansion": {"count": null, "uri": null}, "impression_id": "000b000000397cc20ea2304f6089fa94dccaeffb61", "profile": "http://www.citysearch.com/profile/622212590/douglasville_ga/cafe_mom_s.html", "address": {"city": "Douglasville", "state": "GA", "street": "4010 Bankhead Hwy", "postal_code": "30134"}, "capProviderId": null, "distance": null, "has_offers": false, "name": "Cafe Mom's", "longitude": -84.702227, "has_menu": false, "awards": null, "user_review_count": 0}, {"business_operation_status": 0, "rating": null, "neighborhood": null, "image": null, "scorecard": null, "featured": false, "sample_categories": "Restaurants", "public_id": "zokas-smyrna", "id": 43845390, "votes": null, "tagline": null, "has_video": false, "website": null, "offers": null, "latitude": 33.890523, "politanName": "Atlanta, GA Metro ", "phone_number": "7704314727", "tags": [{"primary": true, "id": 1722, "name": "Restaurants"}], "fax_number": null, "expansion": {"count": null, "uri": null}, "impression_id": "000b0000001c12f72044c24645a18ecac5303f61dc", "profile": "http://www.citysearch.com/profile/43845390/smyrna_ga/zoka_s.html", "address": {"city": "Smyrna", "state": "GA", "street": "2506 Atlanta Rd SE Ste O8", "postal_code": "30080"}, "capProviderId": null, "distance": null, "has_offers": false, "name": "Zoka's", "longitude": -84.51736, "has_menu": true, "awards": null, "user_review_count": 0}, {"business_operation_status": 1, "rating": null, "neighborhood": null, "image": null, "scorecard": null, "featured": false, "sample_categories": "Coffee & Tea Shops, Restaurants, Deordorant, Soap, Glue", "public_id": "southern-tea-llc-marietta-2", "id": 43853814, "votes": null, "tagline": null, "has_video": false, "website": null, "offers": null, "latitude": 33.983317, "politanName": "Atlanta, GA Metro ", "phone_number": "7705901221", "tags": [{"primary": false, "id": 1711, "name": "Coffee & Tea Shops"}, {"primary": false, "id": 1722, "name": "Restaurants"}, {"primary": false, "id": 23400, "name": "Deordorant"}, {"primary": false, "id": 23410, "name": "Soap"}, {"primary": false, "id": 24950, "name": "Glue"}, {"primary": false, "id": 25880, "name": "Air Fresheners"}, {"primary": false, "id": 3922, "name": "General Merchandise Stores"}, {"primary": true, "id": 11147, "name": "Tea"}], "fax_number": null, "expansion": {"count": null, "uri": null}, "impression_id": "000b0000002a02dcfb9a264e36bb6e24c3b55b9c25", "profile": "http://www.citysearch.com/profile/43853814/marietta_ga/southern_tea_llc.html", "address": {"city": "Marietta", "state": "GA", "street": "1491 Cobb Industrial Dr", "postal_code": "30066"}, "capProviderId": null, "distance": null, "has_offers": false, "name": "Southern Tea Llc", "longitude": -84.534242, "has_menu": false, "awards": null, "user_review_count": 1}, {"business_operation_status": 1, "rating": null, "neighborhood": null, "image": null, "scorecard": null, "featured": false, "sample_categories": "Restaurants, Barbecue Restaurants", "public_id": "barbecue-heaven-marietta", "id": 631969010, "votes": null, "tagline": null, "has_video": false, "website": null, "offers": null, "latitude": 33.894508, "politanName": "Atlanta, GA Metro ", "phone_number": "7704344247", "tags": [{"primary": false, "id": 1724, "name": "Barbecue Restaurants"}, {"primary": true, "id": 1722, "name": "Restaurants"}], "fax_number": null, "expansion": {"count": null, "uri": null}, "impression_id": "000b000000c9c4581c1dde479fade02837e63f84e4", "profile": "http://www.citysearch.com/profile/631969010/marietta_ga/barbecue_heaven.html", "address": {"city": "Marietta", "state": "GA", "street": "186 Windy Hill Rd Sw", "postal_code": "30060"}, "capProviderId": null, "distance": null, "has_offers": false, "name": "Barbecue Heaven", "longitude": -84.555734, "has_menu": false, "awards": null, "user_review_count": 0}, {"business_operation_status": 1, "rating": null, "neighborhood": null, "image": null, "scorecard": null, "featured": false, "sample_categories": "Restaurants", "public_id": "mughals-marietta", "id": 672132640, "votes": null, "tagline": null, "has_video": false, "website": null, "offers": null, "latitude": 33.907587, "politanName": "Atlanta, GA Metro ", "phone_number": "7709553130", "tags": [{"primary": true, "id": 1722, "name": "Restaurants"}], "fax_number": null, "expansion": {"count": null, "uri": null}, "impression_id": "000b000000273bf902157e4a68a2f6ceb1cfac8050", "profile": "http://www.citysearch.com/profile/672132640/marietta_ga/mughals.html", "address": {"city": "Marietta", "state": "GA", "street": "1869 S Cobb Dr SE", "postal_code": "30060"}, "capProviderId": null, "distance": null, "has_offers": false, "name": "Mughals", "longitude": -84.543502, "has_menu": false, "awards": null, "user_review_count": 0}, {"business_operation_status": 1, "rating": null, "neighborhood": null, "image": null, "scorecard": null, "featured": false, "sample_categories": "Restaurants", "public_id": "food-court-cobb-international-farmers-mrkt-smyrna", "id": 672343510, "votes": null, "tagline": null, "has_video": false, "website": null, "offers": null, "latitude": 33.88361, "politanName": "Atlanta, GA Metro ", "phone_number": "6783090007", "tags": [{"primary": true, "id": 1722, "name": "Restaurants"}], "fax_number": null, "expansion": {"count": null, "uri": null}, "impression_id": "000b00000073512ddc385c40f9901ad468b44c9c98", "profile": "http://www.citysearch.com/profile/672343510/smyrna_ga/food_court_cobb_international_farmers_mrkt.html", "address": {"city": "Smyrna", "state": "GA", "street": "2350 Spring Street", "postal_code": "30080"}, "capProviderId": null, "distance": null, "has_offers": false, "name": "Food Court @ Cobb International Farmers Mrkt", "longitude": -84.501858, "has_menu": false, "awards": null, "user_review_count": 0}, {"business_operation_status": 1, "rating": null, "neighborhood": null, "image": null, "scorecard": null, "featured": false, "sample_categories": "Restaurants", "public_id": "taco-l-1000000-marietta", "id": 607688524, "votes": null, "tagline": null, "has_video": false, "website": null, "offers": null, "latitude": 33.902769, "politanName": "Atlanta, GA Metro ", "phone_number": "6783090482", "tags": [{"primary": true, "id": 1722, "name": "Restaurants"}], "fax_number": null, "expansion": {"count": null, "uri": null}, "impression_id": "000b0000009c6bfc8188f048b3bfa37a3e41981956", "profile": "http://www.citysearch.com/profile/607688524/marietta_ga/taco_l_1000000.html", "address": {"city": "Marietta", "state": "GA", "street": "2080 Favor Rd SW", "postal_code": "30060"}, "capProviderId": null, "distance": null, "has_offers": false, "name": "Taco L 1000000", "longitude": -84.564621, "has_menu": false, "awards": null, "user_review_count": 0}, {"business_operation_status": 1, "rating": null, "neighborhood": null, "image": null, "scorecard": null, "featured": false, "sample_categories": "Delis And Delicatessens, Sandwich Shops", "public_id": "threadmill-deli-austell", "id": 695583100, "votes": null, "tagline": null, "has_video": false, "website": null, "offers": null, "latitude": 33.832536, "politanName": "Atlanta, GA Metro ", "phone_number": "7707459100", "tags": [{"primary": false, "id": 1736, "name": "Sandwich Shops"}, {"primary": true, "id": 1727, "name": "Delis And Delicatessens"}], "fax_number": null, "expansion": {"count": null, "uri": null}, "impression_id": "000b000000f9f6922da22741e383c3a6f84cccb4ff", "profile": "http://www.citysearch.com/profile/695583100/austell_ga/threadmill_deli.html", "address": {"city": "Austell", "state": "GA", "street": "5000 Austell Powder Spngs#289", "postal_code": "30106"}, "capProviderId": null, "distance": null, "has_offers": false, "name": "Threadmill Deli", "longitude": -84.654686, "has_menu": false, "awards": null, "user_review_count": 0}, {"business_operation_status": 1, "rating": null, "neighborhood": null, "image": null, "scorecard": null, "featured": false, "sample_categories": "Restaurants, Delis And Delicatessens, Sandwich Shops, Carry Out", "public_id": "blimpie-subs-salads-kennesaw-2", "id": 713401400, "votes": null, "tagline": null, "has_video": false, "website": "http://www.citysearch.com/profile/external/713401400/kennesaw_ga/blimpie_subs_salads.html", "offers": null, "latitude": 34.00436, "politanName": "Atlanta, GA Metro ", "phone_number": "7704245088", "tags": [{"primary": false, "id": 1727, "name": "Delis And Delicatessens"}, {"primary": false, "id": 1736, "name": "Sandwich Shops"}, {"primary": false, "id": 11247, "name": "Carry Out"}, {"primary": true, "id": 1722, "name": "Restaurants"}], "fax_number": null, "expansion": {"count": null, "uri": null}, "impression_id": "000b0000009959e895e3a445dd8b2821ea9cf7eaa3", "profile": "http://www.citysearch.com/profile/713401400/kennesaw_ga/blimpie_subs_salads.html", "address": {"city": "Kennesaw", "state": "GA", "street": "667 Ernest W Barrett Pkwy NW", "postal_code": "30144"}, "capProviderId": null, "distance": null, "has_offers": false, "name": "Blimpie Subs & Salads", "longitude": -84.572087, "has_menu": false, "awards": null, "user_review_count": 0}], "histograms": [], "tag_ids": [1722], "uri": "http://api.citygridmedia.com:8080/search/places/v2/search/where?has_offers=false&type=restaurant&format=json&page=18&where=30008&rpp=50&histograms=false&publisher=10000009598&region_type=circle", "did_you_mean": "", "regions": [{"latitude": 33.895376999999996, "default_radius": 3.24, "type": "postal_code", "name": "30008", "longitude": -84.588844}], "call_id": "000b000000cd2bf14021cf453597dde52b924935e6", "first_hit": 851, "total_hits": 1349, "geo_ids": [26364], "page": 18, "last_hit": 900}}