{"results": {"rpp": 50, "locations": [{"business_operation_status": 1, "rating": null, "neighborhood": null, "image": null, "scorecard": null, "featured": false, "sample_categories": "Restaurants", "public_id": "hibachi-express-smyrna", "id": 609007094, "votes": null, "tagline": null, "has_video": false, "website": null, "offers": null, "latitude": 33.889892, "politanName": "Atlanta, GA Metro ", "phone_number": "7704345005", "tags": [{"primary": true, "id": 1722, "name": "Restaurants"}], "fax_number": null, "expansion": {"count": null, "uri": null}, "impression_id": "000b000000841724fa86ad4c1d960f360af56deca1", "profile": "http://www.citysearch.com/profile/609007094/smyrna_ga/hibachi_express.html", "address": {"city": "Smyrna", "state": "GA", "street": "2596 S Cobb Dr SE", "postal_code": "30080"}, "capProviderId": null, "distance": null, "has_offers": false, "name": "Hibachi Express", "longitude": -84.537398, "has_menu": false, "awards": null, "user_review_count": 0}, {"business_operation_status": 1, "rating": null, "neighborhood": null, "image": null, "scorecard": null, "featured": false, "sample_categories": "Restaurants, Pizza", "public_id": "johnnys-pizza-powder", "id": 609433314, "votes": null, "tagline": null, "has_video": false, "website": null, "offers": null, "latitude": 33.864726, "politanName": "Atlanta, GA Metro ", "phone_number": "6784836186", "tags": [{"primary": false, "id": 11299, "name": "Pizza"}, {"primary": true, "id": 1722, "name": "Restaurants"}], "fax_number": null, "expansion": {"count": null, "uri": null}, "impression_id": "000b0000003d64d9c399004530bb7c1890673aead0", "profile": "http://www.citysearch.com/profile/609433314/powder_springs_ga/johnny_s_pizza.html", "address": {"city": "Powder Springs", "state": "GA", "street": "1050 Richard D Sailors Pkwy", "postal_code": "30127"}, "capProviderId": null, "distance": null, "has_offers": false, "name": "Johnny's Pizza", "longitude": -84.680179, "has_menu": false, "awards": null, "user_review_count": 0}, {"business_operation_status": 1, "rating": null, "neighborhood": null, "image": null, "scorecard": null, "featured": false, "sample_categories": "Restaurants, Chinese, American Express, MasterCard, Visa", "public_id": "xin-xin-chinese-marietta", "id": 33572088, "votes": null, "tagline": null, "has_video": false, "website": null, "offers": null, "latitude": 33.928458, "politanName": "Atlanta, GA Metro ", "phone_number": "7709842233", "tags": [{"primary": false, "id": 11252, "name": "Chinese"}, {"primary": false, "id": 11333, "name": "American Express"}, {"primary": false, "id": 11361, "name": "MasterCard"}, {"primary": false, "id": 11382, "name": "Visa"}, {"primary": true, "id": 1722, "name": "Restaurants"}], "fax_number": null, "expansion": {"count": null, "uri": null}, "impression_id": "000b000000f086b943f33947238b4ec21b03d6ff52", "profile": "http://www.citysearch.com/profile/33572088/marietta_ga/xin_xin_chinese.html", "address": {"city": "Marietta", "state": "GA", "street": "1033 Franklin Rd SE", "postal_code": "30067"}, "capProviderId": null, "distance": null, "has_offers": false, "name": "Xin Xin Chinese", "longitude": -84.492995, "has_menu": true, "awards": null, "user_review_count": 1}, {"business_operation_status": 1, "rating": null, "neighborhood": null, "image": null, "scorecard": null, "featured": false, "sample_categories": "Food Delivery", "public_id": "nanas-fish-n-wings-austell", "id": 826891830, "votes": null, "tagline": null, "has_video": false, "website": null, "offers": null, "latitude": 33.804939, "politanName": "Atlanta, GA Metro ", "phone_number": "7707321234", "tags": [{"primary": true, "id": 11267, "name": "Food Delivery"}], "fax_number": null, "expansion": {"count": null, "uri": null}, "impression_id": "000b000000f3014b4612e64ee69be3f714885f70e1", "profile": "http://www.citysearch.com/profile/826891830/austell_ga/nana_s_fish_n_wings.html", "address": {"city": "Austell", "state": "GA", "street": "5770 Veterans Memorial Hwy SW", "postal_code": "30168"}, "capProviderId": null, "distance": null, "has_offers": false, "name": "Nana's Fish N Wings", "longitude": -84.636774, "has_menu": false, "awards": null, "user_review_count": 0}, {"business_operation_status": 1, "rating": null, "neighborhood": null, "image": null, "scorecard": null, "featured": false, "sample_categories": "Restaurants, Fast Food, Mexican, American Express, Discover", "public_id": "taco-bell-marietta-3", "id": 45988789, "votes": null, "tagline": null, "has_video": false, "website": "http://www.citysearch.com/profile/external/45988789/marietta_ga/taco_bell.html", "offers": null, "latitude": 33.944998, "politanName": "Atlanta, GA Metro ", "phone_number": "7704218815", "tags": [{"primary": false, "id": 11199, "name": "Fast Food"}, {"primary": false, "id": 11208, "name": "Mexican"}, {"primary": false, "id": 11333, "name": "American Express"}, {"primary": false, "id": 11349, "name": "Discover"}, {"primary": false, "id": 11361, "name": "MasterCard"}, {"primary": false, "id": 11382, "name": "Visa"}, {"primary": true, "id": 1722, "name": "Restaurants"}], "fax_number": null, "expansion": {"count": null, "uri": null}, "impression_id": "000b00000053eab790a1574775810930322bf603fd", "profile": "http://www.citysearch.com/profile/45988789/marietta_ga/taco_bell.html", "address": {"city": "Marietta", "state": "GA", "street": "380 Villa Rica Way SW", "postal_code": "30064"}, "capProviderId": null, "distance": null, "has_offers": false, "name": "Taco Bell", "longitude": -84.622332, "has_menu": false, "awards": null, "user_review_count": 0}, {"business_operation_status": 1, "rating": null, "neighborhood": null, "image": null, "scorecard": null, "featured": false, "sample_categories": "Restaurants, American Express, Discover, MasterCard, Visa", "public_id": "tofu-village-marietta-2", "id": 601298639, "votes": null, "tagline": null, "has_video": false, "website": null, "offers": null, "latitude": 33.99637, "politanName": "Atlanta, GA Metro ", "phone_number": "7704267757", "tags": [{"primary": false, "id": 11333, "name": "American Express"}, {"primary": false, "id": 11349, "name": "Discover"}, {"primary": false, "id": 11361, "name": "MasterCard"}, {"primary": false, "id": 11382, "name": "Visa"}, {"primary": false, "id": 14910, "name": "Organic"}, {"primary": true, "id": 1722, "name": "Restaurants"}], "fax_number": null, "expansion": {"count": null, "uri": null}, "impression_id": "000b000000869f10eb051d4edbb0d0f4627f990e54", "profile": "http://www.citysearch.com/profile/601298639/marietta_ga/tofu_village.html", "address": {"city": "Marietta", "state": "GA", "street": "700 Sandy Plains Rd", "postal_code": "30066"}, "capProviderId": null, "distance": null, "has_offers": false, "name": "Tofu Village", "longitude": -84.528753, "has_menu": false, "awards": null, "user_review_count": 2}, {"business_operation_status": 1, "rating": null, "neighborhood": null, "image": null, "scorecard": null, "featured": false, "sample_categories": "Restaurants", "public_id": "tacos-del-chavo-llc-kennesaw", "id": 611127424, "votes": null, "tagline": null, "has_video": false, "website": null, "offers": null, "latitude": 34.005966, "politanName": "Atlanta, GA Metro ", "phone_number": "6788868893", "tags": [{"primary": true, "id": 1722, "name": "Restaurants"}], "fax_number": null, "expansion": {"count": null, "uri": null}, "impression_id": "000b000000368fef6a3f8a4327944ee20acdaadd84", "profile": "http://www.citysearch.com/profile/611127424/kennesaw_ga/tacos_del_chavo_llc.html", "address": {"city": "Kennesaw", "state": "GA", "street": "2176 Cobb Pkwy NW", "postal_code": "30152"}, "capProviderId": null, "distance": null, "has_offers": false, "name": "Tacos Del Chavo LLC", "longitude": -84.603387, "has_menu": false, "awards": null, "user_review_count": 0}, {"business_operation_status": 1, "rating": null, "neighborhood": null, "image": null, "scorecard": null, "featured": false, "sample_categories": "Restaurants, Carry Out", "public_id": "popeyes-chicken-biscuits-smyrna-2", "id": 614164814, "votes": null, "tagline": null, "has_video": false, "website": "http://www.citysearch.com/profile/external/614164814/smyrna_ga/popeye_s_chicken_biscuits.html", "offers": null, "latitude": 33.871926, "politanName": "Atlanta, GA Metro ", "phone_number": "7704389500", "tags": [{"primary": false, "id": 11247, "name": "Carry Out"}, {"primary": true, "id": 1722, "name": "Restaurants"}], "fax_number": null, "expansion": {"count": null, "uri": null}, "impression_id": "000b000000cecb032f8ce14ad69bfc3bdbdcbe50f7", "profile": "http://www.citysearch.com/profile/614164814/smyrna_ga/popeye_s_chicken_biscuits.html", "address": {"city": "Smyrna", "state": "GA", "street": "3350 S Cobb Dr SE", "postal_code": "30080"}, "capProviderId": null, "distance": null, "has_offers": false, "name": "Popeye's Chicken & Biscuits", "longitude": -84.529826, "has_menu": false, "awards": null, "user_review_count": 0}, {"business_operation_status": 1, "rating": null, "neighborhood": null, "image": null, "scorecard": null, "featured": false, "sample_categories": "Restaurants", "public_id": "thats-a-wrap-marietta", "id": 814226120, "votes": null, "tagline": null, "has_video": false, "website": null, "offers": null, "latitude": 34.017341, "politanName": "Atlanta, GA Metro ", "phone_number": "6787979992", "tags": [{"primary": true, "id": 1722, "name": "Restaurants"}], "fax_number": null, "expansion": {"count": null, "uri": null}, "impression_id": "000b00000024cc9ec2fd2a45d19394551e2180806a", "profile": "http://www.citysearch.com/profile/814226120/marietta_ga/that_s_a_wrap.html", "address": {"city": "Marietta", "state": "GA", "street": "2769 Chastain Meadows Pkwy", "postal_code": "30066"}, "capProviderId": null, "distance": null, "has_offers": false, "name": "That's A Wrap", "longitude": -84.555709, "has_menu": false, "awards": null, "user_review_count": 0}, {"business_operation_status": 1, "rating": 8.0, "neighborhood": null, "image": null, "scorecard": null, "featured": false, "sample_categories": "Sandwich Shops, Restaurants, Soups", "public_id": "my-friends-place-marietta", "id": 39887388, "votes": null, "tagline": null, "has_video": false, "website": "http://www.citysearch.com/profile/external/39887388/marietta_ga/my_friend_s_place.html", "offers": null, "latitude": 33.919788, "politanName": "Atlanta, GA Metro ", "phone_number": "7709880818", "tags": [{"primary": false, "id": 1722, "name": "Restaurants"}, {"primary": false, "id": 11311, "name": "Soups"}, {"primary": true, "id": 1736, "name": "Sandwich Shops"}], "fax_number": null, "expansion": {"count": null, "uri": null}, "impression_id": "000b000000e9d97e8e32fb43e1b91c167ce8c82a96", "profile": "http://www.citysearch.com/profile/39887388/marietta_ga/my_friend_s_place.html", "address": {"city": "Marietta", "state": "GA", "street": "2121 New Market Pkwy SE", "postal_code": "30067"}, "capProviderId": null, "distance": null, "has_offers": false, "name": "My Friend's Place", "longitude": -84.49377, "has_menu": true, "awards": null, "user_review_count": 0}, {"business_operation_status": 1, "rating": null, "neighborhood": null, "image": null, "scorecard": null, "featured": false, "sample_categories": "Juice & Smoothie Shops", "public_id": "juice-me-too-austell", "id": 611119264, "votes": null, "tagline": null, "has_video": false, "website": null, "offers": null, "latitude": 33.855802, "politanName": "Atlanta, GA Metro ", "phone_number": "4046688380", "tags": [{"primary": true, "id": 1735, "name": "Juice & Smoothie Shops"}], "fax_number": null, "expansion": {"count": null, "uri": null}, "impression_id": "000b0000009a24e7ca134440d196f5ecde8583bbc8", "profile": "http://www.citysearch.com/profile/611119264/austell_ga/juice_me_too.html", "address": {"city": "Austell", "state": "GA", "street": "3999 Austell Rd", "postal_code": "30106"}, "capProviderId": null, "distance": null, "has_offers": false, "name": "Juice Me Too", "longitude": -84.600338, "has_menu": false, "awards": null, "user_review_count": 0}, {"business_operation_status": 1, "rating": null, "neighborhood": null, "image": null, "scorecard": null, "featured": false, "sample_categories": "Restaurants", "public_id": "asian-express-marietta", "id": 617926934, "votes": null, "tagline": null, "has_video": false, "website": null, "offers": null, "latitude": 34.020818, "politanName": "Atlanta, GA Metro ", "phone_number": "7704201819", "tags": [{"primary": true, "id": 1722, "name": "Restaurants"}], "fax_number": null, "expansion": {"count": null, "uri": null}, "impression_id": "000b000000f0d151f919ba4cecbe786e47178cb2f7", "profile": "http://www.citysearch.com/profile/617926934/marietta_ga/asian_express.html", "address": {"city": "Marietta", "state": "GA", "street": "2821 Chastain Meadows Pkwy", "postal_code": "30066"}, "capProviderId": null, "distance": null, "has_offers": false, "name": "Asian Express", "longitude": -84.55554, "has_menu": false, "awards": null, "user_review_count": 0}, {"business_operation_status": 1, "rating": null, "neighborhood": null, "image": null, "scorecard": null, "featured": false, "sample_categories": "Restaurants", "public_id": "winstons-food-spirits-austell", "id": 627650230, "votes": null, "tagline": null, "has_video": false, "website": null, "offers": null, "latitude": 33.856339, "politanName": "Atlanta, GA Metro ", "phone_number": "7707391130", "tags": [{"primary": true, "id": 1722, "name": "Restaurants"}], "fax_number": null, "expansion": {"count": null, "uri": null}, "impression_id": "000b000000489c5e005a7143b1a7fdd65ab5aeac2b", "profile": "http://www.citysearch.com/profile/627650230/austell_ga/winston_s_food_spirits.html", "address": {"city": "Austell", "state": "GA", "street": "3999 Austell Rd", "postal_code": "30106"}, "capProviderId": null, "distance": null, "has_offers": false, "name": "Winston's Food & Spirits", "longitude": -84.599753, "has_menu": false, "awards": null, "user_review_count": 0}, {"business_operation_status": 1, "rating": null, "neighborhood": null, "image": null, "scorecard": null, "featured": false, "sample_categories": "Restaurants", "public_id": "stockyard-burgers-marietta", "id": 621272344, "votes": null, "tagline": null, "has_video": false, "website": null, "offers": null, "latitude": 33.953436, "politanName": "Atlanta, GA Metro ", "phone_number": "6785032760", "tags": [{"primary": true, "id": 1722, "name": "Restaurants"}], "fax_number": null, "expansion": {"count": null, "uri": null}, "impression_id": "000b000000576237987736402091e9e629f0380656", "profile": "http://www.citysearch.com/profile/621272344/marietta_ga/stockyard_burgers.html", "address": {"city": "Marietta", "state": "GA", "street": "26 Mill St NE", "postal_code": "30060"}, "capProviderId": null, "distance": null, "has_offers": false, "name": "Stockyard Burgers", "longitude": -84.550777, "has_menu": false, "awards": null, "user_review_count": 0}, {"business_operation_status": 1, "rating": null, "neighborhood": null, "image": null, "scorecard": null, "featured": false, "sample_categories": "Delis And Delicatessens", "public_id": "kroger-deli-marietta-4", "id": 693544700, "votes": null, "tagline": null, "has_video": false, "website": null, "offers": null, "latitude": 33.953033, "politanName": "Atlanta, GA Metro ", "phone_number": "7704217676", "tags": [{"primary": true, "id": 1727, "name": "Delis And Delicatessens"}], "fax_number": null, "expansion": {"count": null, "uri": null}, "impression_id": "000b000000965d576a16a1416ab5651d4e08933426", "profile": "http://www.citysearch.com/profile/693544700/marietta_ga/kroger_deli.html", "address": {"city": "Marietta", "state": "GA", "street": "1000 Whitlock Ave NW # 200", "postal_code": "30064"}, "capProviderId": null, "distance": null, "has_offers": false, "name": "Kroger Deli", "longitude": -84.581202, "has_menu": false, "awards": null, "user_review_count": 0}, {"business_operation_status": 1, "rating": null, "neighborhood": null, "image": null, "scorecard": null, "featured": false, "sample_categories": "Restaurants, Pizza", "public_id": "marcos-pizza-marietta", "id": 713581120, "votes": null, "tagline": null, "has_video": false, "website": "http://www.citysearch.com/profile/external/713581120/marietta_ga/marco_s_pizza.html", "offers": null, "latitude": 33.973533, "politanName": "Atlanta, GA Metro ", "phone_number": "7706946400", "tags": [{"primary": false, "id": 11299, "name": "Pizza"}, {"primary": true, "id": 1722, "name": "Restaurants"}], "fax_number": null, "expansion": {"count": null, "uri": null}, "impression_id": "000b000000ff46c2cda6c84cd48e96b91a590f7e2c", "profile": "http://www.citysearch.com/profile/713581120/marietta_ga/marco_s_pizza.html", "address": {"city": "Marietta", "state": "GA", "street": "2424 Roswell Rd", "postal_code": "30068"}, "capProviderId": null, "distance": null, "has_offers": false, "name": "Marco's Pizza", "longitude": -84.480778, "has_menu": true, "awards": null, "user_review_count": 0}, {"business_operation_status": 1, "rating": null, "neighborhood": null, "image": null, "scorecard": null, "featured": false, "sample_categories": "Restaurants", "public_id": "peldng-garden-restaurant-smyrna", "id": 713430280, "votes": null, "tagline": null, "has_video": false, "website": null, "offers": null, "latitude": 33.891107, "politanName": "Atlanta, GA Metro ", "phone_number": "7704324048", "tags": [{"primary": true, "id": 1722, "name": "Restaurants"}], "fax_number": null, "expansion": {"count": null, "uri": null}, "impression_id": "000b000000d9200d9d2e484debbaa95c365c7a1997", "profile": "http://www.citysearch.com/profile/713430280/smyrna_ga/peldng_garden_restaurant.html", "address": {"city": "Smyrna", "state": "GA", "street": "2526 S Cobb Dr Se", "postal_code": "30080"}, "capProviderId": null, "distance": null, "has_offers": false, "name": "Peldng Garden Restaurant", "longitude": -84.537851, "has_menu": false, "awards": null, "user_review_count": 0}, {"business_operation_status": 1, "rating": null, "neighborhood": null, "image": null, "scorecard": null, "featured": false, "sample_categories": "Restaurants", "public_id": "tequilas-lounge-marietta", "id": 620246084, "votes": null, "tagline": null, "has_video": false, "website": null, "offers": null, "latitude": 33.935771, "politanName": "Atlanta, GA Metro ", "phone_number": "6789036953", "tags": [{"primary": true, "id": 1722, "name": "Restaurants"}], "fax_number": null, "expansion": {"count": null, "uri": null}, "impression_id": "000b000000dc73dd5cc81e4ed09bcaefd98e565868", "profile": "http://www.citysearch.com/profile/620246084/marietta_ga/tequilas_lounge.html", "address": {"city": "Marietta", "state": "GA", "street": "677 Franklin Rd SE", "postal_code": "30067"}, "capProviderId": null, "distance": null, "has_offers": false, "name": "Tequilas Lounge", "longitude": -84.503662, "has_menu": false, "awards": null, "user_review_count": 0}, {"business_operation_status": 1, "rating": null, "neighborhood": null, "image": null, "scorecard": null, "featured": false, "sample_categories": "Restaurants", "public_id": "dinner-afare-marietta", "id": 621938470, "votes": null, "tagline": null, "has_video": false, "website": null, "offers": null, "latitude": 33.963729, "politanName": "Atlanta, GA Metro ", "phone_number": "7704261838", "tags": [{"primary": true, "id": 1722, "name": "Restaurants"}], "fax_number": null, "expansion": {"count": null, "uri": null}, "impression_id": "000b0000000d6d993bd8cc4074ac442f87f1c27b0c", "profile": "http://www.citysearch.com/profile/621938470/marietta_ga/dinner_a_fare.html", "address": {"city": "Marietta", "state": "GA", "street": "3391 Bridle Run Trl Nw", "postal_code": "30064"}, "capProviderId": null, "distance": null, "has_offers": false, "name": "Dinner A'Fare", "longitude": -84.649114, "has_menu": false, "awards": null, "user_review_count": 0}, {"business_operation_status": 1, "rating": null, "neighborhood": null, "image": null, "scorecard": null, "featured": false, "sample_categories": "Restaurants", "public_id": "clec-solutions-inc-marietta-2", "id": 682601500, "votes": null, "tagline": null, "has_video": false, "website": null, "offers": null, "latitude": 33.948318, "politanName": "Atlanta, GA Metro ", "phone_number": "7709772212", "tags": [{"primary": true, "id": 1722, "name": "Restaurants"}], "fax_number": null, "expansion": {"count": null, "uri": null}, "impression_id": "000b0000007dcd2605fe9e48a9972e377b0be40bb7", "profile": "http://www.citysearch.com/profile/682601500/marietta_ga/clec_solutions_inc.html", "address": {"city": "Marietta", "state": "GA", "street": "2060 Lower Roswell Rd", "postal_code": "30068"}, "capProviderId": null, "distance": null, "has_offers": false, "name": "Clec Solutions INC", "longitude": -84.492511, "has_menu": false, "awards": null, "user_review_count": 0}, {"business_operation_status": 1, "rating": null, "neighborhood": null, "image": null, "scorecard": null, "featured": false, "sample_categories": "Restaurants", "public_id": "nashville-restaurant-mgmt-smyrna", "id": 713616520, "votes": null, "tagline": null, "has_video": false, "website": null, "offers": null, "latitude": 33.871625, "politanName": "Atlanta, GA Metro ", "phone_number": "7704389400", "tags": [{"primary": true, "id": 1722, "name": "Restaurants"}], "fax_number": null, "expansion": {"count": null, "uri": null}, "impression_id": "000b000000680e8c5ab9dd498ea89c6c1bd4b53f91", "profile": "http://www.citysearch.com/profile/713616520/smyrna_ga/nashville_restaurant_mgmt.html", "address": {"city": "Smyrna", "state": "GA", "street": "3350 S Cobb Dr Se", "postal_code": "30080"}, "capProviderId": null, "distance": null, "has_offers": false, "name": "Nashville Restaurant Mgmt", "longitude": -84.528763, "has_menu": false, "awards": null, "user_review_count": 0}, {"business_operation_status": 1, "rating": null, "neighborhood": null, "image": null, "scorecard": null, "featured": false, "sample_categories": "Restaurants, Mexican, Carry Out", "public_id": "taco-bell-marietta-9", "id": 713633170, "votes": null, "tagline": null, "has_video": false, "website": "http://www.citysearch.com/profile/external/713633170/marietta_ga/taco_bell.html", "offers": null, "latitude": 33.911069, "politanName": "Atlanta, GA Metro ", "phone_number": "7709512472", "tags": [{"primary": false, "id": 11208, "name": "Mexican"}, {"primary": false, "id": 11247, "name": "Carry Out"}, {"primary": true, "id": 1722, "name": "Restaurants"}], "fax_number": null, "expansion": {"count": null, "uri": null}, "impression_id": "000b000000e3dd514166454e199db362edc75ab5cf", "profile": "http://www.citysearch.com/profile/713633170/marietta_ga/taco_bell.html", "address": {"city": "Marietta", "state": "GA", "street": "1700 Cumberland Point Dr Se", "postal_code": "30067"}, "capProviderId": null, "distance": null, "has_offers": false, "name": "Taco Bell", "longitude": -84.491182, "has_menu": true, "awards": null, "user_review_count": 0}, {"business_operation_status": 1, "rating": null, "neighborhood": null, "image": null, "scorecard": null, "featured": false, "sample_categories": "Restaurants, Mexican", "public_id": "el-vaquero-mexican-cantina-marietta", "id": 655802400, "votes": null, "tagline": null, "has_video": false, "website": null, "offers": null, "latitude": 33.953033, "politanName": "Atlanta, GA Metro ", "phone_number": "6787385431", "tags": [{"primary": false, "id": 11208, "name": "Mexican"}, {"primary": true, "id": 1722, "name": "Restaurants"}], "fax_number": null, "expansion": {"count": null, "uri": null}, "impression_id": "000b000000d669ad7d866b4507ad9a5e2f1078833c", "profile": "http://www.citysearch.com/profile/655802400/marietta_ga/el_vaquero_mexican_cantina.html", "address": {"city": "Marietta", "state": "GA", "street": "1000 Whitlock Ave Nw # 410", "postal_code": "30064"}, "capProviderId": null, "distance": null, "has_offers": false, "name": "El Vaquero Mexican Cantina", "longitude": -84.581202, "has_menu": false, "awards": null, "user_review_count": 0}, {"business_operation_status": 1, "rating": null, "neighborhood": null, "image": null, "scorecard": null, "featured": false, "sample_categories": "Coffeehouses, Coffee & Tea Shops, Restaurants", "public_id": "starbucks-marietta-10", "id": 621939860, "votes": null, "tagline": null, "has_video": false, "website": "http://www.citysearch.com/profile/external/621939860/marietta_ga/starbucks.html", "offers": null, "latitude": 33.971846, "politanName": "Atlanta, GA Metro ", "phone_number": "7707941443", "tags": [{"primary": false, "id": 1711, "name": "Coffee & Tea Shops"}, {"primary": false, "id": 1722, "name": "Restaurants"}, {"primary": true, "id": 1726, "name": "Coffeehouses"}], "fax_number": null, "expansion": {"count": null, "uri": null}, "impression_id": "000b000000891729e2f4524a03852c61dd8749895b", "profile": "http://www.citysearch.com/profile/621939860/marietta_ga/starbucks.html", "address": {"city": "Marietta", "state": "GA", "street": "825 Church St Ne", "postal_code": "30060"}, "capProviderId": null, "distance": null, "has_offers": false, "name": "Starbucks", "longitude": -84.551204, "has_menu": true, "awards": null, "user_review_count": 0}, {"business_operation_status": 1, "rating": null, "neighborhood": null, "image": null, "scorecard": null, "featured": false, "sample_categories": "Restaurants, Seafood, American Express, Discover, MasterCard", "public_id": "a-js-famous-seafood-po-boys-marietta-2", "id": 713327660, "votes": null, "tagline": null, "has_video": false, "website": "http://www.citysearch.com/profile/external/713327660/marietta_ga/ajs_famous_seafood.html", "offers": null, "latitude": 33.968758, "politanName": "Atlanta, GA Metro ", "phone_number": "6789990767", "tags": [{"primary": false, "id": 11228, "name": "Seafood"}, {"primary": false, "id": 11333, "name": "American Express"}, {"primary": false, "id": 11349, "name": "Discover"}, {"primary": false, "id": 11361, "name": "MasterCard"}, {"primary": false, "id": 11382, "name": "Visa"}, {"primary": true, "id": 1722, "name": "Restaurants"}], "fax_number": null, "expansion": {"count": null, "uri": null}, "impression_id": "000b000000199592ae81e742a4a79b9db6e32dd603", "profile": "http://www.citysearch.com/profile/713327660/marietta_ga/ajs_famous_seafood.html", "address": {"city": "Marietta", "state": "GA", "street": "2100 Roswell Rd Ne", "postal_code": "30062"}, "capProviderId": null, "distance": null, "has_offers": false, "name": "AJs famous seafood", "longitude": -84.488447, "has_menu": true, "awards": null, "user_review_count": 9}, {"business_operation_status": 1, "rating": null, "neighborhood": null, "image": null, "scorecard": null, "featured": false, "sample_categories": "Restaurants, Pizza", "public_id": "stevi-bs-pizza-marietta-4", "id": 713518730, "votes": null, "tagline": null, "has_video": false, "website": null, "offers": null, "latitude": 34.015975, "politanName": "Atlanta, GA Metro ", "phone_number": "7704990155", "tags": [{"primary": false, "id": 11299, "name": "Pizza"}, {"primary": true, "id": 1722, "name": "Restaurants"}], "fax_number": null, "expansion": {"count": null, "uri": null}, "impression_id": "000b0000004da11650c58941b7b3fb58fd40faaed2", "profile": "http://www.citysearch.com/profile/713518730/marietta_ga/stevi_b_s_pizza.html", "address": {"city": "Marietta", "state": "GA", "street": "50 Ernest Barrett Pkwy NW", "postal_code": "30060"}, "capProviderId": null, "distance": null, "has_offers": false, "name": "Stevi B's Pizza", "longitude": -84.550996, "has_menu": false, "awards": null, "user_review_count": 0}, {"business_operation_status": 1, "rating": null, "neighborhood": null, "image": null, "scorecard": null, "featured": false, "sample_categories": "Restaurants, Bakeries", "public_id": "tajmahal-grill-kennesaw", "id": 713543660, "votes": null, "tagline": null, "has_video": false, "website": "http://www.citysearch.com/profile/external/713543660/kennesaw_ga/taj_mahal_grill.html", "offers": null, "latitude": 34.000514, "politanName": "Atlanta, GA Metro ", "phone_number": "7709199990", "tags": [{"primary": false, "id": 1685, "name": "Bakeries"}, {"primary": true, "id": 1722, "name": "Restaurants"}], "fax_number": null, "expansion": {"count": null, "uri": null}, "impression_id": "000b0000007928a4cbd7764ce49d400b81df6260b7", "profile": "http://www.citysearch.com/profile/713543660/kennesaw_ga/taj_mahal_grill.html", "address": {"city": "Kennesaw", "state": "GA", "street": "1200 Earnest W Barrett Pkwy NW St 18", "postal_code": "30144"}, "capProviderId": null, "distance": null, "has_offers": false, "name": "Taj Mahal Grill", "longitude": -84.587423, "has_menu": true, "awards": null, "user_review_count": 2}, {"business_operation_status": 1, "rating": null, "neighborhood": null, "image": null, "scorecard": null, "featured": false, "sample_categories": "Restaurants, Eclectic & International", "public_id": "mingles-international-cafe-marietta", "id": 713577140, "votes": null, "tagline": null, "has_video": false, "website": null, "offers": null, "latitude": 33.968758, "politanName": "Atlanta, GA Metro ", "phone_number": "7709777878", "tags": [{"primary": false, "id": 11259, "name": "Eclectic & International"}, {"primary": true, "id": 1722, "name": "Restaurants"}], "fax_number": null, "expansion": {"count": null, "uri": null}, "impression_id": "000b00000060844ce8155c422ea929117814b8a252", "profile": "http://www.citysearch.com/profile/713577140/marietta_ga/mingles_international_cafe.html", "address": {"city": "Marietta", "state": "GA", "street": "2100 Roswell Rd # 2198", "postal_code": "30062"}, "capProviderId": null, "distance": null, "has_offers": false, "name": "Mingles International Cafe", "longitude": -84.488447, "has_menu": false, "awards": null, "user_review_count": 0}, {"business_operation_status": 1, "rating": null, "neighborhood": null, "image": null, "scorecard": null, "featured": false, "sample_categories": "Restaurants", "public_id": "borber-restaurant-hiram", "id": 732143050, "votes": null, "tagline": null, "has_video": false, "website": null, "offers": null, "latitude": 33.876664, "politanName": "Atlanta, GA Metro ", "phone_number": "7707785401", "tags": [{"primary": true, "id": 1722, "name": "Restaurants"}], "fax_number": null, "expansion": {"count": null, "uri": null}, "impression_id": "000b000000b7aebd5bc1f843bbba26fd6869530ec2", "profile": "http://www.citysearch.com/profile/732143050/hiram_ga/borber_restaurant.html", "address": {"city": "Hiram", "state": "GA", "street": "25 Travelers Path", "postal_code": "30141"}, "capProviderId": null, "distance": null, "has_offers": false, "name": "Borber Restaurant", "longitude": -84.73037, "has_menu": false, "awards": null, "user_review_count": 0}, {"business_operation_status": 0, "rating": null, "neighborhood": null, "image": null, "scorecard": null, "featured": false, "sample_categories": "Restaurants, Barbecue Restaurants", "public_id": "georges-grill-barbecue-marietta", "id": 621879190, "votes": null, "tagline": null, "has_video": false, "website": null, "offers": null, "latitude": 33.997727, "politanName": "Atlanta, GA Metro ", "phone_number": "7704851099", "tags": [{"primary": false, "id": 1724, "name": "Barbecue Restaurants"}, {"primary": true, "id": 1722, "name": "Restaurants"}], "fax_number": null, "expansion": {"count": null, "uri": null}, "impression_id": "000b0000008bf73b6a07f349faab42b1c2c75d3e3f", "profile": "http://www.citysearch.com/profile/621879190/marietta_ga/georges_grill_barbecue.html", "address": {"city": "Marietta", "state": "GA", "street": "1951 Canton Rd # 330", "postal_code": "30066"}, "capProviderId": null, "distance": null, "has_offers": false, "name": "Georges Grill & Barbecue", "longitude": -84.525055, "has_menu": false, "awards": null, "user_review_count": 0}, {"business_operation_status": 1, "rating": null, "neighborhood": null, "image": null, "scorecard": null, "featured": false, "sample_categories": "Restaurants, Delis And Delicatessens, Sandwich Shops, Carry Out", "public_id": "subway-sandwiches-salads-marietta", "id": 764919100, "votes": null, "tagline": null, "has_video": false, "website": "http://www.citysearch.com/profile/external/764919100/marietta_ga/subway_sandwiches_salads.html", "offers": null, "latitude": 33.949333, "politanName": "Atlanta, GA Metro ", "phone_number": "7704225412", "tags": [{"primary": false, "id": 1727, "name": "Delis And Delicatessens"}, {"primary": false, "id": 1736, "name": "Sandwich Shops"}, {"primary": false, "id": 11247, "name": "Carry Out"}, {"primary": true, "id": 1722, "name": "Restaurants"}], "fax_number": null, "expansion": {"count": null, "uri": null}, "impression_id": "000b00000044061716651845ebacbc992350e96a01", "profile": "http://www.citysearch.com/profile/764919100/marietta_ga/subway_sandwiches_salads.html", "address": {"city": "Marietta", "state": "GA", "street": "85 S Marietta Pkwy SW", "postal_code": "30064"}, "capProviderId": null, "distance": null, "has_offers": false, "name": "Subway Sandwiches & Salads", "longitude": -84.550502, "has_menu": false, "awards": null, "user_review_count": 0}, {"business_operation_status": 1, "rating": null, "neighborhood": null, "image": null, "scorecard": null, "featured": false, "sample_categories": "Ice Cream Parlors", "public_id": "yogolyciouls-marietta", "id": 713608720, "votes": null, "tagline": null, "has_video": false, "website": null, "offers": null, "latitude": 33.968758, "politanName": "Atlanta, GA Metro ", "phone_number": "7705092345", "tags": [{"primary": true, "id": 1730, "name": "Ice Cream Parlors"}], "fax_number": null, "expansion": {"count": null, "uri": null}, "impression_id": "000b000000ee2f2ec55cff40b382a607cb1efa5e49", "profile": "http://www.citysearch.com/profile/713608720/marietta_ga/yogolyciouls.html", "address": {"city": "Marietta", "state": "GA", "street": "2100 Roswell Rd", "postal_code": "30062"}, "capProviderId": null, "distance": null, "has_offers": false, "name": "Yogolyciouls", "longitude": -84.488447, "has_menu": false, "awards": null, "user_review_count": 0}, {"business_operation_status": 1, "rating": null, "neighborhood": null, "image": null, "scorecard": null, "featured": false, "sample_categories": "Restaurants, Mexican", "public_id": "las-toras-mex-marietta", "id": 713611870, "votes": null, "tagline": null, "has_video": false, "website": null, "offers": null, "latitude": 33.927554, "politanName": "Atlanta, GA Metro ", "phone_number": "7705149394", "tags": [{"primary": false, "id": 11208, "name": "Mexican"}, {"primary": true, "id": 1722, "name": "Restaurants"}], "fax_number": null, "expansion": {"count": null, "uri": null}, "impression_id": "000b0000004f80c022c64e45bfa6f9776382faeb38", "profile": "http://www.citysearch.com/profile/713611870/marietta_ga/las_toras_mex.html", "address": {"city": "Marietta", "state": "GA", "street": "1038 Franklin Rd Se", "postal_code": "30067"}, "capProviderId": null, "distance": null, "has_offers": false, "name": "Las Toras Mex", "longitude": -84.493666, "has_menu": false, "awards": null, "user_review_count": 0}, {"business_operation_status": 1, "rating": null, "neighborhood": null, "image": null, "scorecard": null, "featured": false, "sample_categories": "Ice Cream Parlors, Restaurants, Dessert Shops, Information & Referral Services", "public_id": "noels-ice-cream-smyrna", "id": 2924493, "votes": null, "tagline": null, "has_video": false, "website": null, "offers": null, "latitude": 33.867003, "politanName": "Atlanta, GA Metro ", "phone_number": "7703330515", "tags": [{"primary": false, "id": 1722, "name": "Restaurants"}, {"primary": false, "id": 1728, "name": "Dessert Shops"}, {"primary": false, "id": 624, "name": "Information & Referral Services"}, {"primary": true, "id": 1730, "name": "Ice Cream Parlors"}], "fax_number": null, "expansion": {"count": null, "uri": null}, "impression_id": "000b000000d63b10fb344a460186ff1b1a1bc2e21b", "profile": "http://www.citysearch.com/profile/2924493/smyrna_ga/noels_ice_cream.html", "address": {"city": "Smyrna", "state": "GA", "street": "3539 Westbrook Dr SE", "postal_code": "30082"}, "capProviderId": null, "distance": null, "has_offers": false, "name": "Noels Ice Cream", "longitude": -84.526611, "has_menu": false, "awards": null, "user_review_count": 1}, {"business_operation_status": 1, "rating": null, "neighborhood": null, "image": null, "scorecard": null, "featured": false, "sample_categories": "Restaurants", "public_id": "daily-bread-cafe-marietta", "id": 787129630, "votes": null, "tagline": null, "has_video": false, "website": null, "offers": null, "latitude": 33.964179, "politanName": "Atlanta, GA Metro ", "phone_number": "7704237288", "tags": [{"primary": true, "id": 1722, "name": "Restaurants"}], "fax_number": null, "expansion": {"count": null, "uri": null}, "impression_id": "000b00000015e8888430fe4ed9affcfde16ea1e34e", "profile": "http://www.citysearch.com/profile/787129630/marietta_ga/daily_bread_cafe.html", "address": {"city": "Marietta", "state": "GA", "street": "531 Roselane St NW", "postal_code": "30060"}, "capProviderId": null, "distance": null, "has_offers": false, "name": "Daily Bread Cafe", "longitude": -84.556876, "has_menu": false, "awards": null, "user_review_count": 0}, {"business_operation_status": 1, "rating": null, "neighborhood": null, "image": null, "scorecard": null, "featured": false, "sample_categories": "Restaurants, Carry Out, Pizza", "public_id": "sbarro-smyrna-2", "id": 682322420, "votes": null, "tagline": null, "has_video": false, "website": "http://www.citysearch.com/profile/external/682322420/smyrna_ga/sbarro.html", "offers": null, "latitude": 33.87774, "politanName": "Atlanta, GA Metro ", "phone_number": "7704443994", "tags": [{"primary": false, "id": 11247, "name": "Carry Out"}, {"primary": false, "id": 11299, "name": "Pizza"}, {"primary": true, "id": 1722, "name": "Restaurants"}], "fax_number": null, "expansion": {"count": null, "uri": null}, "impression_id": "000b0000004ebf5d0739654d00a4913b7b49c4e214", "profile": "http://www.citysearch.com/profile/682322420/smyrna_ga/sbarro.html", "address": {"city": "Smyrna", "state": "GA", "street": "3030 Montclair Cir Se", "postal_code": "30080"}, "capProviderId": null, "distance": null, "has_offers": false, "name": "Sbarro", "longitude": -84.508306, "has_menu": false, "awards": null, "user_review_count": 0}, {"business_operation_status": 1, "rating": null, "neighborhood": null, "image": null, "scorecard": null, "featured": false, "sample_categories": "Restaurants, Sandwich Shops, Pizza", "public_id": "peace-love-and-pizza-marietta-2", "id": 606523644, "votes": null, "tagline": null, "has_video": false, "website": "http://www.citysearch.com/profile/external/606523644/marietta_ga/peace_love_and_pizza.html", "offers": null, "latitude": 33.976429, "politanName": "Atlanta, GA Metro ", "phone_number": "7703210757", "tags": [{"primary": false, "id": 1722, "name": "Restaurants"}, {"primary": false, "id": 1736, "name": "Sandwich Shops"}, {"primary": true, "id": 11299, "name": "Pizza"}], "fax_number": null, "expansion": {"count": null, "uri": null}, "impression_id": "000b000000a2c78eab87394798b19abb1ed6903230", "profile": "http://www.citysearch.com/profile/606523644/marietta_ga/peace_love_and_pizza.html", "address": {"city": "Marietta", "state": "GA", "street": "1050 E Piedmont Rd 152", "postal_code": "30062"}, "capProviderId": null, "distance": null, "has_offers": false, "name": "Peace Love and Pizza", "longitude": -84.478226, "has_menu": false, "awards": null, "user_review_count": 0}, {"business_operation_status": 1, "rating": null, "neighborhood": null, "image": null, "scorecard": null, "featured": false, "sample_categories": "Restaurants", "public_id": "j-k-island-cafe-marietta", "id": 808002760, "votes": null, "tagline": null, "has_video": false, "website": null, "offers": null, "latitude": 33.953203, "politanName": "Atlanta, GA Metro ", "phone_number": "6782909933", "tags": [{"primary": true, "id": 1722, "name": "Restaurants"}], "fax_number": null, "expansion": {"count": null, "uri": null}, "impression_id": "000b00000036072868426547949c8e85b4b1545135", "profile": "http://www.citysearch.com/profile/808002760/marietta_ga/j_k_island_cafe.html", "address": {"city": "Marietta", "state": "GA", "street": "2503 Zachary Woods Dr NW", "postal_code": "30064"}, "capProviderId": null, "distance": null, "has_offers": false, "name": "J & K Island Cafe", "longitude": -84.630386, "has_menu": false, "awards": null, "user_review_count": 0}, {"business_operation_status": 1, "rating": null, "neighborhood": null, "image": null, "scorecard": null, "featured": false, "sample_categories": "Restaurants, Pizza", "public_id": "patagonia-pizzeria-bakery-marietta", "id": 811210800, "votes": null, "tagline": null, "has_video": false, "website": null, "offers": null, "latitude": 33.938607, "politanName": "Atlanta, GA Metro ", "phone_number": "6789032597", "tags": [{"primary": false, "id": 11299, "name": "Pizza"}, {"primary": true, "id": 1722, "name": "Restaurants"}], "fax_number": null, "expansion": {"count": null, "uri": null}, "impression_id": "000b000000590e38b49cb74a8e99fa4c61352ca73a", "profile": "http://www.citysearch.com/profile/811210800/marietta_ga/patagonia_pizzeria_bakery.html", "address": {"city": "Marietta", "state": "GA", "street": "585 Franklin Rd SE", "postal_code": "30067"}, "capProviderId": null, "distance": null, "has_offers": false, "name": "Patagonia Pizzeria & Bakery", "longitude": -84.50623, "has_menu": false, "awards": null, "user_review_count": 0}, {"business_operation_status": 1, "rating": null, "neighborhood": null, "image": null, "scorecard": null, "featured": false, "sample_categories": "Restaurants", "public_id": "spice-it-up-cafe-marietta", "id": 839365090, "votes": null, "tagline": null, "has_video": false, "website": null, "offers": null, "latitude": 33.944775, "politanName": "Atlanta, GA Metro ", "phone_number": "6789034384", "tags": [{"primary": true, "id": 1722, "name": "Restaurants"}], "fax_number": null, "expansion": {"count": null, "uri": null}, "impression_id": "000b00000076beae97a1d14f88b699bd4b130763aa", "profile": "http://www.citysearch.com/profile/839365090/marietta_ga/spice_it_up_cafe.html", "address": {"city": "Marietta", "state": "GA", "street": "316 S Fairground St SE", "postal_code": "30060"}, "capProviderId": null, "distance": null, "has_offers": false, "name": "Spice It Up Cafe", "longitude": -84.535719, "has_menu": true, "awards": null, "user_review_count": 0}, {"business_operation_status": 1, "rating": null, "neighborhood": null, "image": null, "scorecard": null, "featured": false, "sample_categories": "Restaurants", "public_id": "my-cousin-vinnys-kennesaw-2", "id": 615555824, "votes": null, "tagline": null, "has_video": false, "website": null, "offers": null, "latitude": 34.013172, "politanName": "Atlanta, GA Metro ", "phone_number": "7704230391", "tags": [{"primary": true, "id": 1722, "name": "Restaurants"}], "fax_number": null, "expansion": {"count": null, "uri": null}, "impression_id": "000b00000079a58bdc60d748d5a22e8c1ffa1ad6b6", "profile": "http://www.citysearch.com/profile/615555824/kennesaw_ga/my_cousin_vinny_s.html", "address": {"city": "Kennesaw", "state": "GA", "street": "2615 George Busbee Pkwy NW 26", "postal_code": "30144"}, "capProviderId": null, "distance": null, "has_offers": false, "name": "My Cousin Vinny's", "longitude": -84.567215, "has_menu": false, "awards": null, "user_review_count": 0}, {"business_operation_status": 1, "rating": null, "neighborhood": null, "image": null, "scorecard": null, "featured": false, "sample_categories": "Restaurants, Pizza, Carry Out", "public_id": "papa-johns-pizza-marietta-2", "id": 632029900, "votes": null, "tagline": null, "has_video": false, "website": null, "offers": null, "latitude": 33.952112, "politanName": "Atlanta, GA Metro ", "phone_number": "7704267272", "tags": [{"primary": false, "id": 1722, "name": "Restaurants"}, {"primary": false, "id": 11247, "name": "Carry Out"}, {"primary": true, "id": 11299, "name": "Pizza"}], "fax_number": null, "expansion": {"count": null, "uri": null}, "impression_id": "000b000000c52474cec6784ffb9a5487338fb0c1a5", "profile": "http://www.citysearch.com/profile/632029900/marietta_ga/papa_john_s_pizza.html", "address": {"city": "Marietta", "state": "GA", "street": "971 Whitlock Ave Sw", "postal_code": "30064"}, "capProviderId": null, "distance": null, "has_offers": false, "name": "Papa John's Pizza", "longitude": -84.578857, "has_menu": false, "awards": null, "user_review_count": 0}, {"business_operation_status": 1, "rating": null, "neighborhood": null, "image": null, "scorecard": null, "featured": false, "sample_categories": "Restaurants, Barbecue Restaurants", "public_id": "staqs-bar-b-que-smyrna", "id": 647325040, "votes": null, "tagline": null, "has_video": false, "website": null, "offers": null, "latitude": 33.890026, "politanName": "Atlanta, GA Metro ", "phone_number": "7704384301", "tags": [{"primary": false, "id": 1724, "name": "Barbecue Restaurants"}, {"primary": true, "id": 1722, "name": "Restaurants"}], "fax_number": null, "expansion": {"count": null, "uri": null}, "impression_id": "000b00000070f1970f9469442782ed708e873096ad", "profile": "http://www.citysearch.com/profile/647325040/smyrna_ga/staqs_bar_b_que.html", "address": {"city": "Smyrna", "state": "GA", "street": "2599 S Cobb Dr Se", "postal_code": "30080"}, "capProviderId": null, "distance": null, "has_offers": false, "name": "Staqs Bar B Que", "longitude": -84.536726, "has_menu": true, "awards": null, "user_review_count": 0}, {"business_operation_status": 1, "rating": null, "neighborhood": null, "image": null, "scorecard": null, "featured": false, "sample_categories": "Restaurants, Delis And Delicatessens", "public_id": "best-wings-deli-douglasville-2", "id": 728017940, "votes": null, "tagline": null, "has_video": false, "website": null, "offers": null, "latitude": 33.747372, "politanName": "Atlanta, GA Metro ", "phone_number": "7709477809", "tags": [{"primary": false, "id": 1727, "name": "Delis And Delicatessens"}, {"primary": true, "id": 1722, "name": "Restaurants"}], "fax_number": null, "expansion": {"count": null, "uri": null}, "impression_id": "000b000000b9a5d35ea8a74cc38cd14f110aad2908", "profile": "http://www.citysearch.com/profile/728017940/douglasville_ga/best_wings_deli.html", "address": {"city": "Douglasville", "state": "GA", "street": "2134 Fairburn Rd", "postal_code": "30135"}, "capProviderId": null, "distance": null, "has_offers": false, "name": "Best Wings & Deli", "longitude": -84.699929, "has_menu": false, "awards": null, "user_review_count": 0}, {"business_operation_status": 0, "rating": null, "neighborhood": null, "image": null, "scorecard": null, "featured": false, "sample_categories": "Restaurants, Barbecue Restaurants", "public_id": "longhorns-buffalo-wings-marietta", "id": 653551040, "votes": null, "tagline": null, "has_video": false, "website": null, "offers": null, "latitude": 33.986818, "politanName": "Atlanta, GA Metro ", "phone_number": "4043131588", "tags": [{"primary": false, "id": 1724, "name": "Barbecue Restaurants"}, {"primary": true, "id": 1722, "name": "Restaurants"}], "fax_number": null, "expansion": {"count": null, "uri": null}, "impression_id": "000b00000095d750f36c0d405b95cbcb261a9ec336", "profile": "http://www.citysearch.com/profile/653551040/marietta_ga/longhorns_buffalo_wings.html", "address": {"city": "Marietta", "state": "GA", "street": "1367 Sheffield Pkwy", "postal_code": "30062"}, "capProviderId": null, "distance": null, "has_offers": false, "name": "Longhorns Buffalo Wings", "longitude": -84.497978, "has_menu": false, "awards": null, "user_review_count": 0}, {"business_operation_status": 1, "rating": null, "neighborhood": null, "image": null, "scorecard": null, "featured": false, "sample_categories": "Restaurants, Caribbean", "public_id": "caribbean-cafe-dallas", "id": 732148300, "votes": null, "tagline": null, "has_video": false, "website": null, "offers": null, "latitude": 33.909628, "politanName": "Atlanta, GA Metro ", "phone_number": "7702228844", "tags": [{"primary": false, "id": 11195, "name": "Caribbean"}, {"primary": true, "id": 1722, "name": "Restaurants"}], "fax_number": null, "expansion": {"count": null, "uri": null}, "impression_id": "000b0000003318e3ac48e14d18bde3bb42d06dfc3d", "profile": "http://www.citysearch.com/profile/732148300/dallas_ga/caribbean_cafe.html", "address": {"city": "Dallas", "state": "GA", "street": "1336 Hiram Acworth Hwy", "postal_code": "30157"}, "capProviderId": null, "distance": null, "has_offers": false, "name": "Caribbean Cafe", "longitude": -84.746817, "has_menu": false, "awards": null, "user_review_count": 0}, {"business_operation_status": 1, "rating": null, "neighborhood": null, "image": null, "scorecard": null, "featured": false, "sample_categories": "Restaurants", "public_id": "tin-drum-asiacafe-marietta", "id": 614029774, "votes": null, "tagline": null, "has_video": false, "website": null, "offers": null, "latitude": 34.013358, "politanName": "Atlanta, GA Metro ", "phone_number": "6785403471", "tags": [{"primary": true, "id": 1722, "name": "Restaurants"}], "fax_number": null, "expansion": {"count": null, "uri": null}, "impression_id": "000b000000054e778f89db48279145e9b565576e1d", "profile": "http://www.citysearch.com/profile/614029774/marietta_ga/tin_drum_asiacafe.html", "address": {"city": "Marietta", "state": "GA", "street": "125 Ernest Barrett Pkwy NW", "postal_code": "30066"}, "capProviderId": null, "distance": null, "has_offers": false, "name": "Tin Drum Asiacafe", "longitude": -84.553529, "has_menu": false, "awards": null, "user_review_count": 0}, {"business_operation_status": 1, "rating": null, "neighborhood": null, "image": null, "scorecard": null, "featured": false, "sample_categories": "Bakeries, Restaurants", "public_id": "flowers-baking-co-marietta-2", "id": 2909781, "votes": null, "tagline": null, "has_video": false, "website": "http://www.citysearch.com/profile/external/2909781/marietta_ga/flowers_baking_co.html", "offers": null, "latitude": 33.948214, "politanName": "Atlanta, GA Metro ", "phone_number": "7709735200", "tags": [{"primary": false, "id": 1722, "name": "Restaurants"}, {"primary": true, "id": 1685, "name": "Bakeries"}], "fax_number": null, "expansion": {"count": null, "uri": null}, "impression_id": "000b000000b433ebe44ed44a8cb8a99f92ef1d1440", "profile": "http://www.citysearch.com/profile/2909781/marietta_ga/flowers_baking_co.html", "address": {"city": "Marietta", "state": "GA", "street": "146 Powers Ferry Rd SE", "postal_code": "30067"}, "capProviderId": null, "distance": null, "has_offers": false, "name": "Flowers Baking Co", "longitude": -84.505792, "has_menu": false, "awards": null, "user_review_count": 0}, {"business_operation_status": 1, "rating": null, "neighborhood": null, "image": null, "scorecard": null, "featured": false, "sample_categories": "Restaurants, Bakeries, Delis And Delicatessens, MasterCard, Visa", "public_id": "sunnys-bagel-deli-kennesaw", "id": 2954916, "votes": null, "tagline": null, "has_video": false, "website": "http://www.citysearch.com/profile/external/2954916/kennesaw_ga/sunny_s_bagel_deli.html", "offers": null, "latitude": 34.012738, "politanName": "Atlanta, GA Metro ", "phone_number": "7707950099", "tags": [{"primary": false, "id": 1685, "name": "Bakeries"}, {"primary": false, "id": 1727, "name": "Delis And Delicatessens"}, {"primary": false, "id": 11361, "name": "MasterCard"}, {"primary": false, "id": 11382, "name": "Visa"}, {"primary": true, "id": 1722, "name": "Restaurants"}], "fax_number": null, "expansion": {"count": null, "uri": null}, "impression_id": "000b000000442e6275906445c2883dc0dd34c8e214", "profile": "http://www.citysearch.com/profile/2954916/kennesaw_ga/sunny_s_bagel_deli.html", "address": {"city": "Kennesaw", "state": "GA", "street": "440 Ernest W Barrett Pkwy NW # 8", "postal_code": "30144"}, "capProviderId": null, "distance": null, "has_offers": false, "name": "Sunny's Bagel & Deli", "longitude": -84.5643, "has_menu": false, "awards": null, "user_review_count": 0}, {"business_operation_status": 1, "rating": null, "neighborhood": null, "image": null, "scorecard": null, "featured": false, "sample_categories": "Restaurants, Pizza", "public_id": "marios-ny-pizza-smyrna", "id": 764838040, "votes": null, "tagline": null, "has_video": false, "website": null, "offers": null, "latitude": 33.883027, "politanName": "Atlanta, GA Metro ", "phone_number": "7704379199", "tags": [{"primary": false, "id": 11299, "name": "Pizza"}, {"primary": true, "id": 1722, "name": "Restaurants"}], "fax_number": null, "expansion": {"count": null, "uri": null}, "impression_id": "000b000000c02aa7bca5654304ab9262372459afb1", "profile": "http://www.citysearch.com/profile/764838040/smyrna_ga/marios_ny_pizza.html", "address": {"city": "Smyrna", "state": "GA", "street": "2930 S Cobb Dr SE", "postal_code": "30080"}, "capProviderId": null, "distance": null, "has_offers": false, "name": "Marios Ny Pizza", "longitude": -84.534643, "has_menu": false, "awards": null, "user_review_count": 0}], "histograms": [], "tag_ids": [1722], "uri": "http://api.citygridmedia.com:8080/search/places/v2/search/where?has_offers=false&type=restaurant&format=json&page=14&where=30008&rpp=50&histograms=false&publisher=10000009598&region_type=circle", "did_you_mean": "", "regions": [{"latitude": 33.895376999999996, "default_radius": 3.24, "type": "postal_code", "name": "30008", "longitude": -84.588844}], "call_id": "000b000000cf0f73fdc88542ad8ea7ee7c2bf3deb4", "first_hit": 651, "total_hits": 1349, "geo_ids": [26364], "page": 14, "last_hit": 700}}