{"results": {"rpp": 50, "locations": [{"business_operation_status": 1, "rating": null, "neighborhood": null, "image": null, "scorecard": null, "featured": false, "sample_categories": "Restaurants", "public_id": "mandarin-express-chinese-marietta", "id": 807555420, "votes": null, "tagline": null, "has_video": false, "website": null, "offers": null, "latitude": 33.928543, "politanName": "Atlanta, GA Metro ", "phone_number": "7709842233", "tags": [{"primary": true, "id": 1722, "name": "Restaurants"}], "fax_number": null, "expansion": {"count": null, "uri": null}, "impression_id": "000b000000a3a6c61131d94231bfa80302c41a41d8", "profile": "http://www.citysearch.com/profile/807555420/marietta_ga/mandarin_express_chinese.html", "address": {"city": "Marietta", "state": "GA", "street": "1033 Franklin Rd SE", "postal_code": "30067"}, "capProviderId": null, "distance": null, "has_offers": false, "name": "Mandarin Express Chinese", "longitude": -84.492609, "has_menu": false, "awards": null, "user_review_count": 0}, {"business_operation_status": 1, "rating": null, "neighborhood": null, "image": null, "scorecard": null, "featured": false, "sample_categories": "Restaurants, Ice Cream Parlors, Carry Out", "public_id": "mc-donalds-marietta-21", "id": 764880600, "votes": null, "tagline": null, "has_video": false, "website": null, "offers": null, "latitude": 33.952602, "politanName": "Atlanta, GA Metro ", "phone_number": "4047846909", "tags": [{"primary": false, "id": 1730, "name": "Ice Cream Parlors"}, {"primary": false, "id": 11247, "name": "Carry Out"}, {"primary": true, "id": 1722, "name": "Restaurants"}], "fax_number": null, "expansion": {"count": null, "uri": null}, "impression_id": "000b0000004769bcd4ff504e9fba8bb26a4c098bc6", "profile": "http://www.citysearch.com/profile/764880600/marietta_ga/mc_donald_s.html", "address": {"city": "Marietta", "state": "GA", "street": "PO Box 965370", "postal_code": "30066"}, "capProviderId": null, "distance": null, "has_offers": false, "name": "Mc Donald's", "longitude": -84.549933, "has_menu": false, "awards": null, "user_review_count": 0}, {"business_operation_status": 1, "rating": null, "neighborhood": null, "image": null, "scorecard": null, "featured": false, "sample_categories": "Restaurants, Cajun & Creole", "public_id": "franks-cajun-soul-kitchen-marietta", "id": 754804990, "votes": null, "tagline": null, "has_video": false, "website": "http://www.citysearch.com/profile/external/754804990/marietta_ga/frank_s_cajun_soul_kitchen.html", "offers": null, "latitude": 33.92448, "politanName": "Atlanta, GA Metro ", "phone_number": "6783836703", "tags": [{"primary": false, "id": 11245, "name": "Cajun & Creole"}, {"primary": true, "id": 1722, "name": "Restaurants"}], "fax_number": null, "expansion": {"count": null, "uri": null}, "impression_id": "000b000000524fc8e342c2403988a526f52661a06a", "profile": "http://www.citysearch.com/profile/754804990/marietta_ga/frank_s_cajun_soul_kitchen.html", "address": {"city": "Marietta", "state": "GA", "street": "1175 Powder Springs St", "postal_code": "30064"}, "capProviderId": null, "distance": null, "has_offers": false, "name": "Frank's Cajun & Soul Kitchen", "longitude": -84.574615, "has_menu": true, "awards": null, "user_review_count": 1}, {"business_operation_status": 1, "rating": null, "neighborhood": null, "image": null, "scorecard": null, "featured": false, "sample_categories": "Restaurants, Chinese", "public_id": "manchu-wok-kennesaw", "id": 2955024, "votes": null, "tagline": null, "has_video": false, "website": null, "offers": null, "latitude": 34.019128, "politanName": "Atlanta, GA Metro ", "phone_number": "7704239488", "tags": [{"primary": false, "id": 11252, "name": "Chinese"}, {"primary": true, "id": 1722, "name": "Restaurants"}], "fax_number": null, "expansion": {"count": null, "uri": null}, "impression_id": "000b000000b7f3403cf9254d6ea958492467082e26", "profile": "http://www.citysearch.com/profile/2955024/kennesaw_ga/manchu_wok.html", "address": {"city": "Kennesaw", "state": "GA", "street": "400 Ernest W Barrett Pkwy NW", "postal_code": "30144"}, "capProviderId": null, "distance": null, "has_offers": false, "name": "Manchu Wok", "longitude": -84.563608, "has_menu": true, "awards": null, "user_review_count": 0}, {"business_operation_status": 1, "rating": null, "neighborhood": null, "image": null, "scorecard": null, "featured": false, "sample_categories": "Restaurants", "public_id": "pyramid-restaurant-hookah-marietta", "id": 777743980, "votes": null, "tagline": null, "has_video": false, "website": null, "offers": null, "latitude": 33.942926, "politanName": "Atlanta, GA Metro ", "phone_number": "6782131030", "tags": [{"primary": true, "id": 1722, "name": "Restaurants"}], "fax_number": null, "expansion": {"count": null, "uri": null}, "impression_id": "000b000000d92d1dde7e744a72935a5f3d4fecf2fe", "profile": "http://www.citysearch.com/profile/777743980/marietta_ga/pyramid_restaurant_hookah.html", "address": {"city": "Marietta", "state": "GA", "street": "600 S Marietta Pkwy Se", "postal_code": "30060"}, "capProviderId": null, "distance": null, "has_offers": false, "name": "Pyramid Restaurant & Hookah", "longitude": -84.534635, "has_menu": false, "awards": null, "user_review_count": 0}, {"business_operation_status": 1, "rating": null, "neighborhood": null, "image": null, "scorecard": null, "featured": false, "sample_categories": "Restaurants, Indian", "public_id": "haveli-indian-cuisine-smyrna", "id": 787102840, "votes": null, "tagline": null, "has_video": false, "website": null, "offers": null, "latitude": 33.895335, "politanName": "Atlanta, GA Metro ", "phone_number": "7709554525", "tags": [{"primary": false, "id": 11277, "name": "Indian"}, {"primary": true, "id": 1722, "name": "Restaurants"}], "fax_number": null, "expansion": {"count": null, "uri": null}, "impression_id": "000b0000009ca85df7e46840b09cb5f16b607276ee", "profile": "http://www.citysearch.com/profile/787102840/smyrna_ga/haveli_indian_cuisine.html", "address": {"city": "Smyrna", "state": "GA", "street": "2706 Cobb Pkwy Se", "postal_code": "30080"}, "capProviderId": null, "distance": null, "has_offers": false, "name": "Haveli Indian Cuisine", "longitude": -84.480413, "has_menu": false, "awards": null, "user_review_count": 0}, {"business_operation_status": 1, "rating": null, "neighborhood": null, "image": null, "scorecard": null, "featured": false, "sample_categories": "Restaurants, Chinese", "public_id": "china-station-marietta", "id": 793243160, "votes": null, "tagline": null, "has_video": false, "website": null, "offers": null, "latitude": 33.904705, "politanName": "Atlanta, GA Metro ", "phone_number": "7708501234", "tags": [{"primary": false, "id": 11252, "name": "Chinese"}, {"primary": true, "id": 1722, "name": "Restaurants"}], "fax_number": null, "expansion": {"count": null, "uri": null}, "impression_id": "000b00000001629d46a5614417aeb8512d8f954b07", "profile": "http://www.citysearch.com/profile/793243160/marietta_ga/china_station.html", "address": {"city": "Marietta", "state": "GA", "street": "2359 Windy Hill Rd Se", "postal_code": "30067"}, "capProviderId": null, "distance": null, "has_offers": false, "name": "China Station", "longitude": -84.484545, "has_menu": false, "awards": null, "user_review_count": 0}, {"business_operation_status": 1, "rating": null, "neighborhood": null, "image": null, "scorecard": null, "featured": false, "sample_categories": "Restaurants", "public_id": "julias-cafe-marietta", "id": 787109210, "votes": null, "tagline": null, "has_video": false, "website": null, "offers": null, "latitude": 33.938568, "politanName": "Atlanta, GA Metro ", "phone_number": "7704284400", "tags": [{"primary": true, "id": 1722, "name": "Restaurants"}], "fax_number": null, "expansion": {"count": null, "uri": null}, "impression_id": "000b0000009deae90b80c14f00b8c6a0df430adb95", "profile": "http://www.citysearch.com/profile/787109210/marietta_ga/julia_s_cafe.html", "address": {"city": "Marietta", "state": "GA", "street": "1775 Pkwy Pl NW", "postal_code": "30067"}, "capProviderId": null, "distance": null, "has_offers": false, "name": "Julia's Cafe", "longitude": -84.505213, "has_menu": false, "awards": null, "user_review_count": 0}, {"business_operation_status": 1, "rating": null, "neighborhood": null, "image": null, "scorecard": null, "featured": false, "sample_categories": "Restaurants, Italian", "public_id": "medici-italian-restaurant-atlanta", "id": 787133330, "votes": null, "tagline": null, "has_video": false, "website": null, "offers": null, "latitude": 33.885023, "politanName": "Atlanta, GA Metro ", "phone_number": "7709534500", "tags": [{"primary": false, "id": 11279, "name": "Italian"}, {"primary": true, "id": 1722, "name": "Restaurants"}], "fax_number": null, "expansion": {"count": null, "uri": null}, "impression_id": "000b000000bb9fc257084e4408836742bcfd05a841", "profile": "http://www.citysearch.com/profile/787133330/atlanta_ga/medici_italian_restaurant.html", "address": {"city": "Atlanta", "state": "GA", "street": "2450 Galleria Pkwy Se", "postal_code": "30339"}, "capProviderId": null, "distance": null, "has_offers": false, "name": "Medici Italian Restaurant", "longitude": -84.464652, "has_menu": false, "awards": null, "user_review_count": 0}, {"business_operation_status": 1, "rating": null, "neighborhood": null, "image": null, "scorecard": null, "featured": false, "sample_categories": "Ice Cream Parlors", "public_id": "rafiq-inc-smyrna", "id": 808300710, "votes": null, "tagline": null, "has_video": false, "website": null, "offers": null, "latitude": 33.878681, "politanName": "Atlanta, GA Metro ", "phone_number": "7708050214", "tags": [{"primary": true, "id": 1730, "name": "Ice Cream Parlors"}], "fax_number": null, "expansion": {"count": null, "uri": null}, "impression_id": "000b000000c2ac0e0adec742a59544010145993ce1", "profile": "http://www.citysearch.com/profile/808300710/smyrna_ga/rafiq_inc.html", "address": {"city": "Smyrna", "state": "GA", "street": "2216 Goodwood Blvd SE", "postal_code": "30080"}, "capProviderId": null, "distance": null, "has_offers": false, "name": "Rafiq Inc", "longitude": -84.493022, "has_menu": false, "awards": null, "user_review_count": 0}, {"business_operation_status": 1, "rating": null, "neighborhood": null, "image": null, "scorecard": null, "featured": false, "sample_categories": "Restaurants", "public_id": "jonesgissendanner-catfish-smyrna", "id": 827366690, "votes": null, "tagline": null, "has_video": false, "website": null, "offers": null, "latitude": 33.869097, "politanName": "Atlanta, GA Metro ", "phone_number": "6785943257", "tags": [{"primary": true, "id": 1722, "name": "Restaurants"}], "fax_number": null, "expansion": {"count": null, "uri": null}, "impression_id": "000b0000005cac9cddb7844ad491c59b4c49d265c3", "profile": "http://www.citysearch.com/profile/827366690/smyrna_ga/jones_gissendanner_catfish.html", "address": {"city": "Smyrna", "state": "GA", "street": "2 Villa CT SE", "postal_code": "30080"}, "capProviderId": null, "distance": null, "has_offers": false, "name": "Jones-Gissendanner Catfish", "longitude": -84.495999, "has_menu": false, "awards": null, "user_review_count": 0}, {"business_operation_status": 1, "rating": null, "neighborhood": null, "image": null, "scorecard": null, "featured": false, "sample_categories": "Restaurants", "public_id": "finca-bonita-mexican-grill-marietta", "id": 838631820, "votes": null, "tagline": null, "has_video": false, "website": null, "offers": null, "latitude": 33.951258, "politanName": "Atlanta, GA Metro ", "phone_number": "7704198290", "tags": [{"primary": true, "id": 1722, "name": "Restaurants"}], "fax_number": null, "expansion": {"count": null, "uri": null}, "impression_id": "000b0000008e8d9d38bf5f4a259f819079be4ae704", "profile": "http://www.citysearch.com/profile/838631820/marietta_ga/finca_bonita_mexican_grill.html", "address": {"city": "Marietta", "state": "GA", "street": "1157 Roswell Rd", "postal_code": "30062"}, "capProviderId": null, "distance": null, "has_offers": false, "name": "Finca Bonita Mexican Grill", "longitude": -84.517723, "has_menu": false, "awards": null, "user_review_count": 1}, {"business_operation_status": 1, "rating": null, "neighborhood": null, "image": null, "scorecard": null, "featured": false, "sample_categories": "Restaurants", "public_id": "whitcher-street-caf-marietta", "id": 713628600, "votes": null, "tagline": null, "has_video": false, "website": null, "offers": null, "latitude": 33.967469, "politanName": "Atlanta, GA Metro ", "phone_number": "6785813888", "tags": [{"primary": true, "id": 1722, "name": "Restaurants"}], "fax_number": null, "expansion": {"count": null, "uri": null}, "impression_id": "000b0000005f9fe7c1b41a49c0be1766b9ee72adc2", "profile": "http://www.citysearch.com/profile/713628600/marietta_ga/whitcher_street_caf.html", "address": {"city": "Marietta", "state": "GA", "street": "55 Whitcher St Ne", "postal_code": "30060"}, "capProviderId": null, "distance": null, "has_offers": false, "name": "Whitcher Street Caf", "longitude": -84.551412, "has_menu": false, "awards": null, "user_review_count": 0}, {"business_operation_status": 1, "rating": null, "neighborhood": null, "image": null, "scorecard": null, "featured": false, "sample_categories": "Restaurants, Delis And Delicatessens", "public_id": "d-w-cafe-marietta", "id": 775198490, "votes": null, "tagline": null, "has_video": false, "website": null, "offers": null, "latitude": 33.972386, "politanName": "Atlanta, GA Metro ", "phone_number": "6784018966", "tags": [{"primary": false, "id": 1727, "name": "Delis And Delicatessens"}, {"primary": true, "id": 1722, "name": "Restaurants"}], "fax_number": null, "expansion": {"count": null, "uri": null}, "impression_id": "000b0000009f144d0c34c04245a7875c0cd95b3517", "profile": "http://www.citysearch.com/profile/775198490/marietta_ga/d_w_cafe.html", "address": {"city": "Marietta", "state": "GA", "street": "833 Campbell Hill St NW", "postal_code": "30060"}, "capProviderId": null, "distance": null, "has_offers": false, "name": "D W Cafe", "longitude": -84.552023, "has_menu": false, "awards": null, "user_review_count": 0}, {"business_operation_status": 1, "rating": null, "neighborhood": null, "image": null, "scorecard": null, "featured": false, "sample_categories": "Food Stores, Restaurants", "public_id": "atlanta-smokehouse-prodcuts-marietta", "id": 793290190, "votes": null, "tagline": null, "has_video": false, "website": null, "offers": null, "latitude": 33.912568, "politanName": "Atlanta, GA Metro ", "phone_number": "7706934435", "tags": [{"primary": false, "id": 1722, "name": "Restaurants"}, {"primary": true, "id": 1706, "name": "Food Stores"}], "fax_number": null, "expansion": {"count": null, "uri": null}, "impression_id": "000b00000029be23f6c4da4622b6df0c793db621a7", "profile": "http://www.citysearch.com/profile/793290190/marietta_ga/atlanta_smokehouse_prodcuts.html", "address": {"city": "Marietta", "state": "GA", "street": "1700 Enterprise Way Se", "postal_code": "30067"}, "capProviderId": null, "distance": null, "has_offers": false, "name": "Atlanta Smokehouse Prodcuts", "longitude": -84.492151, "has_menu": false, "awards": null, "user_review_count": 0}, {"business_operation_status": 1, "rating": null, "neighborhood": null, "image": null, "scorecard": null, "featured": false, "sample_categories": "Restaurants, Diners, Cafes", "public_id": "campus-cafe-marietta", "id": 33669246, "votes": null, "tagline": null, "has_video": false, "website": null, "offers": null, "latitude": 33.930756, "politanName": "Atlanta, GA Metro ", "phone_number": "7707926042", "tags": [{"primary": false, "id": 1732, "name": "Diners"}, {"primary": false, "id": 6190, "name": "Cafes"}, {"primary": true, "id": 1722, "name": "Restaurants"}], "fax_number": null, "expansion": {"count": null, "uri": null}, "impression_id": "000b000000d9cb05bbb26245baaca3819d4e6aa191", "profile": "http://www.citysearch.com/profile/33669246/marietta_ga/campus_cafe.html", "address": {"city": "Marietta", "state": "GA", "street": "1269 Barclay Cir SE", "postal_code": "30060"}, "capProviderId": null, "distance": null, "has_offers": false, "name": "Campus Cafe", "longitude": -84.514539, "has_menu": false, "awards": null, "user_review_count": 0}, {"business_operation_status": 1, "rating": 10.0, "neighborhood": null, "image": null, "scorecard": null, "featured": false, "sample_categories": "Catering, Restaurants", "public_id": "williamson-brothers-catering-marietta", "id": 2901685, "votes": null, "tagline": null, "has_video": false, "website": "http://www.citysearch.com/profile/external/2901685/marietta_ga/williamson_brothers_catering.html", "offers": null, "latitude": 33.942617, "politanName": "Atlanta, GA Metro ", "phone_number": "7704251739", "tags": [{"primary": false, "id": 1705, "name": "Catering"}, {"primary": true, "id": 1722, "name": "Restaurants"}], "fax_number": null, "expansion": {"count": null, "uri": null}, "impression_id": "000b000000669a4f8383464e478ceedc77dc6d90ab", "profile": "http://www.citysearch.com/profile/2901685/marietta_ga/williamson_brothers_catering.html", "address": {"city": "Marietta", "state": "GA", "street": "403 Sycamore St SE", "postal_code": "30060"}, "capProviderId": null, "distance": null, "has_offers": false, "name": "Williamson Brothers Catering", "longitude": -84.541082, "has_menu": false, "awards": null, "user_review_count": 1}, {"business_operation_status": 1, "rating": null, "neighborhood": null, "image": null, "scorecard": null, "featured": false, "sample_categories": "Restaurants", "public_id": "drive-time-marrietta", "id": 831886880, "votes": null, "tagline": null, "has_video": false, "website": null, "offers": null, "latitude": 33.939976, "politanName": "Atlanta, GA Metro ", "phone_number": "7705773077", "tags": [{"primary": true, "id": 1722, "name": "Restaurants"}], "fax_number": null, "expansion": {"count": null, "uri": null}, "impression_id": "000b000000d5d6bb26216546c0a4f9424181a9c6dc", "profile": "http://www.citysearch.com/profile/831886880/marrietta_ga/drive_time.html", "address": {"city": "Marrietta", "state": "GA", "street": "502 S Cobb Parkway", "postal_code": "30060"}, "capProviderId": null, "distance": null, "has_offers": false, "name": "Drive Time", "longitude": -84.515396, "has_menu": false, "awards": null, "user_review_count": 0}, {"business_operation_status": 1, "rating": null, "neighborhood": null, "image": null, "scorecard": null, "featured": false, "sample_categories": "Restaurants", "public_id": "j-christophers-corporate-marietta", "id": 838483640, "votes": null, "tagline": null, "has_video": false, "website": null, "offers": null, "latitude": 33.921701, "politanName": "Atlanta, GA Metro ", "phone_number": "7707381170", "tags": [{"primary": true, "id": 1722, "name": "Restaurants"}], "fax_number": null, "expansion": {"count": null, "uri": null}, "impression_id": "000b0000002eeb42e2024942aea5c7f822d3fc2a97", "profile": "http://www.citysearch.com/profile/838483640/marietta_ga/j_christopher_s_corporate.html", "address": {"city": "Marietta", "state": "GA", "street": "1275 Powers Ferry Rd SE", "postal_code": "30067"}, "capProviderId": null, "distance": null, "has_offers": false, "name": "J Christopher's Corporate", "longitude": -84.466483, "has_menu": false, "awards": null, "user_review_count": 0}, {"business_operation_status": 1, "rating": null, "neighborhood": null, "image": null, "scorecard": null, "featured": false, "sample_categories": "Restaurants, Pizza, Carry Out", "public_id": "little-caesars-pizza-marietta-2", "id": 653582070, "votes": null, "tagline": null, "has_video": false, "website": "http://www.citysearch.com/profile/external/653582070/marietta_ga/little_caesars_pizza.html", "offers": null, "latitude": 33.952972, "politanName": "Atlanta, GA Metro ", "phone_number": "6784014181", "tags": [{"primary": false, "id": 1722, "name": "Restaurants"}, {"primary": false, "id": 11247, "name": "Carry Out"}, {"primary": true, "id": 11299, "name": "Pizza"}], "fax_number": null, "expansion": {"count": null, "uri": null}, "impression_id": "000b00000010b715e9b6ae45ed99a63fbd9f128eb7", "profile": "http://www.citysearch.com/profile/653582070/marietta_ga/little_caesars_pizza.html", "address": {"city": "Marietta", "state": "GA", "street": "3405 Dallas Hwy Sw", "postal_code": "30064"}, "capProviderId": null, "distance": null, "has_offers": false, "name": "Little Caesars Pizza", "longitude": -84.651096, "has_menu": false, "awards": null, "user_review_count": 0}, {"business_operation_status": 1, "rating": null, "neighborhood": null, "image": null, "scorecard": null, "featured": false, "sample_categories": "Restaurants", "public_id": "silver-lodestone-inc-marietta-2", "id": 682289320, "votes": null, "tagline": null, "has_video": false, "website": null, "offers": null, "latitude": 33.938198, "politanName": "Atlanta, GA Metro ", "phone_number": "7705907778", "tags": [{"primary": true, "id": 1722, "name": "Restaurants"}], "fax_number": null, "expansion": {"count": null, "uri": null}, "impression_id": "000b000000dbeb5195e16d4ff6b043a7c6a35929da", "profile": "http://www.citysearch.com/profile/682289320/marietta_ga/silver_lodestone_inc.html", "address": {"city": "Marietta", "state": "GA", "street": "10 Garrison Rd Se", "postal_code": "30008"}, "capProviderId": null, "distance": null, "has_offers": false, "name": "Silver Lodestone INC", "longitude": -84.553364, "has_menu": false, "awards": null, "user_review_count": 0}, {"business_operation_status": 1, "rating": null, "neighborhood": null, "image": null, "scorecard": null, "featured": false, "sample_categories": "Restaurants", "public_id": "thg-holdings-atlanta", "id": 813270480, "votes": null, "tagline": null, "has_video": false, "website": null, "offers": null, "latitude": 33.908822, "politanName": "Atlanta, GA Metro ", "phone_number": "7709538334", "tags": [{"primary": true, "id": 1722, "name": "Restaurants"}], "fax_number": null, "expansion": {"count": null, "uri": null}, "impression_id": "000b00000010d1db0e58744768b6d2dd75164634d5", "profile": "http://www.citysearch.com/profile/813270480/atlanta_ga/thg_holdings.html", "address": {"city": "Atlanta", "state": "GA", "street": "1770 The Exchange SE # 220", "postal_code": "30339"}, "capProviderId": null, "distance": null, "has_offers": false, "name": "THG Holdings", "longitude": -84.480468, "has_menu": false, "awards": null, "user_review_count": 0}, {"business_operation_status": 1, "rating": null, "neighborhood": null, "image": null, "scorecard": null, "featured": false, "sample_categories": "Restaurants, Carry Out", "public_id": "long-john-silvers-marietta-3", "id": 764851430, "votes": null, "tagline": null, "has_video": false, "website": null, "offers": null, "latitude": 33.950876, "politanName": "Atlanta, GA Metro ", "phone_number": "7704247755", "tags": [{"primary": false, "id": 11247, "name": "Carry Out"}, {"primary": true, "id": 1722, "name": "Restaurants"}], "fax_number": null, "expansion": {"count": null, "uri": null}, "impression_id": "000b00000043f5d168e2844ad5ac27577371b3d6aa", "profile": "http://www.citysearch.com/profile/764851430/marietta_ga/long_john_silver_s.html", "address": {"city": "Marietta", "state": "GA", "street": "1176 Roswell Rd", "postal_code": "30062"}, "capProviderId": null, "distance": null, "has_offers": false, "name": "Long John Silver's", "longitude": -84.518285, "has_menu": true, "awards": null, "user_review_count": 0}, {"business_operation_status": 1, "rating": null, "neighborhood": null, "image": null, "scorecard": null, "featured": false, "sample_categories": "Restaurants", "public_id": "cafe-210-smyrna", "id": 821687430, "votes": null, "tagline": null, "has_video": false, "website": null, "offers": null, "latitude": 33.89467, "politanName": "Atlanta, GA Metro ", "phone_number": "7704380077", "tags": [{"primary": true, "id": 1722, "name": "Restaurants"}], "fax_number": null, "expansion": {"count": null, "uri": null}, "impression_id": "000b0000002101303c81c64a0088365674efd995c4", "profile": "http://www.citysearch.com/profile/821687430/smyrna_ga/cafe_210.html", "address": {"city": "Smyrna", "state": "GA", "street": "2233 Lake Park Dr SE", "postal_code": "30080"}, "capProviderId": null, "distance": null, "has_offers": false, "name": "Cafe 210", "longitude": -84.484401, "has_menu": false, "awards": null, "user_review_count": 0}, {"business_operation_status": 1, "rating": null, "neighborhood": null, "image": null, "scorecard": null, "featured": false, "sample_categories": "Restaurants", "public_id": "atlanta-halftime-cafe-marietta", "id": 838782380, "votes": null, "tagline": null, "has_video": false, "website": null, "offers": null, "latitude": 33.900651, "politanName": "Atlanta, GA Metro ", "phone_number": "7708500868", "tags": [{"primary": true, "id": 1722, "name": "Restaurants"}], "fax_number": null, "expansion": {"count": null, "uri": null}, "impression_id": "000b0000009f48a054b5bd4049b69b18bd951a44f8", "profile": "http://www.citysearch.com/profile/838782380/marietta_ga/atlanta_halftime_cafe.html", "address": {"city": "Marietta", "state": "GA", "street": "2580 Windy Hill Rd SE", "postal_code": "30067"}, "capProviderId": null, "distance": null, "has_offers": false, "name": "Atlanta Halftime Cafe", "longitude": -84.477783, "has_menu": false, "awards": null, "user_review_count": 0}, {"business_operation_status": 1, "rating": null, "neighborhood": null, "image": null, "scorecard": null, "featured": false, "sample_categories": "Restaurants", "public_id": "cafe-amazonia-marietta", "id": 808265410, "votes": null, "tagline": null, "has_video": false, "website": null, "offers": null, "latitude": 33.952198, "politanName": "Atlanta, GA Metro ", "phone_number": "7705796773", "tags": [{"primary": true, "id": 1722, "name": "Restaurants"}], "fax_number": null, "expansion": {"count": null, "uri": null}, "impression_id": "000b0000003116fcc47d0b44ae8685bcee5c079949", "profile": "http://www.citysearch.com/profile/808265410/marietta_ga/cafe_amazonia.html", "address": {"city": "Marietta", "state": "GA", "street": "1355 Roswell Rd # 152", "postal_code": "30062"}, "capProviderId": null, "distance": null, "has_offers": false, "name": "Cafe Amazonia", "longitude": -84.512302, "has_menu": false, "awards": null, "user_review_count": 0}, {"business_operation_status": 1, "rating": null, "neighborhood": null, "image": null, "scorecard": null, "featured": false, "sample_categories": "Restaurants", "public_id": "jocks-jills-sports-grill-atlanta-3", "id": 626460694, "votes": null, "tagline": null, "has_video": false, "website": null, "offers": null, "latitude": 33.878815, "politanName": "Atlanta, GA Metro ", "phone_number": "7709528401", "tags": [{"primary": true, "id": 1722, "name": "Restaurants"}], "fax_number": null, "expansion": {"count": null, "uri": null}, "impression_id": "000b0000003a5dd84ec2e54e98b61069ecb37065c3", "profile": "http://www.citysearch.com/profile/626460694/atlanta_ga/jocks_jills_sports_grill.html", "address": {"city": "Atlanta", "state": "GA", "street": "1 Galleria Pkwy SE 1D17A", "postal_code": "30339"}, "capProviderId": null, "distance": null, "has_offers": false, "name": "Jocks & Jills Sports Grill", "longitude": -84.464518, "has_menu": false, "awards": null, "user_review_count": 0}, {"business_operation_status": 1, "rating": null, "neighborhood": null, "image": null, "scorecard": null, "featured": false, "sample_categories": "Restaurants", "public_id": "suniece-cafe-marietta", "id": 655897070, "votes": null, "tagline": null, "has_video": false, "website": null, "offers": null, "latitude": 33.972386, "politanName": "Atlanta, GA Metro ", "phone_number": "7704272005", "tags": [{"primary": true, "id": 1722, "name": "Restaurants"}], "fax_number": null, "expansion": {"count": null, "uri": null}, "impression_id": "000b000000ff8e2e07236049f1a08e26a509ab38ef", "profile": "http://www.citysearch.com/profile/655897070/marietta_ga/suniece_cafe.html", "address": {"city": "Marietta", "state": "GA", "street": "833 Campbell Hill St Nw", "postal_code": "30060"}, "capProviderId": null, "distance": null, "has_offers": false, "name": "Suniece Cafe", "longitude": -84.552023, "has_menu": false, "awards": null, "user_review_count": 0}, {"business_operation_status": 1, "rating": null, "neighborhood": null, "image": null, "scorecard": null, "featured": false, "sample_categories": "Restaurants", "public_id": "vaqueros-marietta", "id": 672714020, "votes": null, "tagline": null, "has_video": false, "website": null, "offers": null, "latitude": 33.953033, "politanName": "Atlanta, GA Metro ", "phone_number": "6787385431", "tags": [{"primary": true, "id": 1722, "name": "Restaurants"}], "fax_number": null, "expansion": {"count": null, "uri": null}, "impression_id": "000b000000bd07a2d0b262407b87ad9181d99b89ed", "profile": "http://www.citysearch.com/profile/672714020/marietta_ga/vaqueros.html", "address": {"city": "Marietta", "state": "GA", "street": "1000 Whitlock Ave. #400", "postal_code": "30064"}, "capProviderId": null, "distance": null, "has_offers": false, "name": "Vaqueros", "longitude": -84.581202, "has_menu": false, "awards": null, "user_review_count": 0}, {"business_operation_status": 1, "rating": null, "neighborhood": null, "image": null, "scorecard": null, "featured": false, "sample_categories": "Restaurants", "public_id": "presto-latin-restaurant-marietta", "id": 672230170, "votes": null, "tagline": null, "has_video": false, "website": null, "offers": null, "latitude": 33.951248, "politanName": "Atlanta, GA Metro ", "phone_number": "7709731282", "tags": [{"primary": true, "id": 1722, "name": "Restaurants"}], "fax_number": null, "expansion": {"count": null, "uri": null}, "impression_id": "000b0000006609b0116a1f444590f83edbdd8eabb3", "profile": "http://www.citysearch.com/profile/672230170/marietta_ga/presto_latin_restaurant.html", "address": {"city": "Marietta", "state": "GA", "street": "1392-B Roswell Road", "postal_code": "30062"}, "capProviderId": null, "distance": null, "has_offers": false, "name": "Presto Latin Restaurant", "longitude": -84.508172, "has_menu": false, "awards": null, "user_review_count": 0}, {"business_operation_status": 1, "rating": null, "neighborhood": null, "image": null, "scorecard": null, "featured": false, "sample_categories": "Restaurants, Carry Out, American Express, Discover, MasterCard", "public_id": "churchs-chicken-marietta-4", "id": 682647720, "votes": null, "tagline": null, "has_video": false, "website": "http://www.citysearch.com/profile/external/682647720/marietta_ga/church_s_chicken.html", "offers": null, "latitude": 33.94964, "politanName": "Atlanta, GA Metro ", "phone_number": "7704241193", "tags": [{"primary": false, "id": 11247, "name": "Carry Out"}, {"primary": false, "id": 11333, "name": "American Express"}, {"primary": false, "id": 11349, "name": "Discover"}, {"primary": false, "id": 11361, "name": "MasterCard"}, {"primary": false, "id": 11382, "name": "Visa"}, {"primary": false, "id": 12839, "name": "Chicken"}, {"primary": true, "id": 1722, "name": "Restaurants"}], "fax_number": null, "expansion": {"count": null, "uri": null}, "impression_id": "000b0000004d5bd462aea34fcf93be923cb7ba7f2d", "profile": "http://www.citysearch.com/profile/682647720/marietta_ga/church_s_chicken.html", "address": {"city": "Marietta", "state": "GA", "street": "75 S Marietta Pkwy Sw", "postal_code": "30064"}, "capProviderId": null, "distance": null, "has_offers": false, "name": "Church's Chicken", "longitude": -84.55079, "has_menu": false, "awards": null, "user_review_count": 0}, {"business_operation_status": 1, "rating": 6.0, "neighborhood": null, "image": null, "scorecard": null, "featured": false, "sample_categories": "Restaurants", "public_id": "back-porch-of-marietta-marietta", "id": 37646043, "votes": null, "tagline": null, "has_video": false, "website": "http://www.citysearch.com/profile/external/37646043/marietta_ga/back_porch_of_marietta.html", "offers": null, "latitude": 33.951281, "politanName": "Atlanta, GA Metro ", "phone_number": "7707926666", "tags": [{"primary": true, "id": 1722, "name": "Restaurants"}], "fax_number": null, "expansion": {"count": null, "uri": null}, "impression_id": "000b00000025037e8bb2b14936a0063a97fedd6814", "profile": "http://www.citysearch.com/profile/37646043/marietta_ga/back_porch_of_marietta.html", "address": {"city": "Marietta", "state": "GA", "street": "645 Whitlock Ave SW", "postal_code": "30064"}, "capProviderId": null, "distance": null, "has_offers": false, "name": "Back Porch Of Marietta", "longitude": -84.571275, "has_menu": false, "awards": null, "user_review_count": 1}, {"business_operation_status": 1, "rating": null, "neighborhood": null, "image": null, "scorecard": null, "featured": false, "sample_categories": "Restaurants", "public_id": "real-cabana-restaurant-inc-marietta", "id": 764845910, "votes": null, "tagline": null, "has_video": false, "website": null, "offers": null, "latitude": 33.905083, "politanName": "Atlanta, GA Metro ", "phone_number": "7704364079", "tags": [{"primary": true, "id": 1722, "name": "Restaurants"}], "fax_number": null, "expansion": {"count": null, "uri": null}, "impression_id": "000b0000009a5e4d77b37a4a228151915f58098159", "profile": "http://www.citysearch.com/profile/764845910/marietta_ga/real_cabana_restaurant_inc.html", "address": {"city": "Marietta", "state": "GA", "street": "1977 S Cobb Dr SE", "postal_code": "30060"}, "capProviderId": null, "distance": null, "has_offers": false, "name": "Real Cabana Restaurant Inc", "longitude": -84.542545, "has_menu": false, "awards": null, "user_review_count": 0}, {"business_operation_status": 1, "rating": null, "neighborhood": null, "image": null, "scorecard": null, "featured": false, "sample_categories": "Restaurants, Bars & Pubs", "public_id": "breaking-point-sports-bar-marietta", "id": 764906570, "votes": null, "tagline": null, "has_video": false, "website": null, "offers": null, "latitude": 33.936757, "politanName": "Atlanta, GA Metro ", "phone_number": "7704264199", "tags": [{"primary": false, "id": 1686, "name": "Bars & Pubs"}, {"primary": true, "id": 1722, "name": "Restaurants"}], "fax_number": null, "expansion": {"count": null, "uri": null}, "impression_id": "000b00000076790b256ab34e4db1309329d8e417f6", "profile": "http://www.citysearch.com/profile/764906570/marietta_ga/breaking_point_sports_bar.html", "address": {"city": "Marietta", "state": "GA", "street": "680 Powder Springs St", "postal_code": "30064"}, "capProviderId": null, "distance": null, "has_offers": false, "name": "Breaking Point Sports Bar", "longitude": -84.557357, "has_menu": false, "awards": null, "user_review_count": 0}, {"business_operation_status": 1, "rating": null, "neighborhood": null, "image": null, "scorecard": null, "featured": false, "sample_categories": "Restaurants", "public_id": "wave-restaurant-lounge-marietta", "id": 828326640, "votes": null, "tagline": null, "has_video": false, "website": null, "offers": null, "latitude": 33.914806, "politanName": "Atlanta, GA Metro ", "phone_number": "6784263250", "tags": [{"primary": true, "id": 1722, "name": "Restaurants"}], "fax_number": null, "expansion": {"count": null, "uri": null}, "impression_id": "000b000000a5a0ed5865504ddeaf61f64d564d1af0", "profile": "http://www.citysearch.com/profile/828326640/marietta_ga/wave_restaurant_lounge.html", "address": {"city": "Marietta", "state": "GA", "street": "2767 Windy Hill Rd SE", "postal_code": "30067"}, "capProviderId": null, "distance": null, "has_offers": false, "name": "Wave Restaurant & Lounge", "longitude": -84.45906, "has_menu": false, "awards": null, "user_review_count": 0}, {"business_operation_status": 1, "rating": null, "neighborhood": null, "image": null, "scorecard": null, "featured": false, "sample_categories": "Restaurants", "public_id": "hms-host-atlanta-7", "id": 813608660, "votes": null, "tagline": null, "has_video": false, "website": null, "offers": null, "latitude": 33.878815, "politanName": "Atlanta, GA Metro ", "phone_number": "4045303680", "tags": [{"primary": true, "id": 1722, "name": "Restaurants"}], "fax_number": null, "expansion": {"count": null, "uri": null}, "impression_id": "000b000000941ca57d855e40c9810147bdff71530b", "profile": "http://www.citysearch.com/profile/813608660/atlanta_ga/hms_host.html", "address": {"city": "Atlanta", "state": "GA", "street": "215 I North Pkwy SE", "postal_code": "30339"}, "capProviderId": null, "distance": null, "has_offers": false, "name": "Hms Host", "longitude": -84.464518, "has_menu": false, "awards": null, "user_review_count": 0}, {"business_operation_status": 1, "rating": null, "neighborhood": null, "image": null, "scorecard": null, "featured": false, "sample_categories": "Ice Cream Parlors", "public_id": "marble-slab-creamery-smyrna", "id": 822378770, "votes": null, "tagline": null, "has_video": false, "website": null, "offers": null, "latitude": 33.884889, "politanName": "Atlanta, GA Metro ", "phone_number": "7704333336", "tags": [{"primary": true, "id": 1730, "name": "Ice Cream Parlors"}], "fax_number": null, "expansion": {"count": null, "uri": null}, "impression_id": "000b000000b29234b9ceee4899a449a22a2c69c537", "profile": "http://www.citysearch.com/profile/822378770/smyrna_ga/marble_slab_creamery.html", "address": {"city": "Smyrna", "state": "GA", "street": "400 Village Green Cir SE", "postal_code": "30080"}, "capProviderId": null, "distance": null, "has_offers": false, "name": "Marble Slab Creamery", "longitude": -84.516415, "has_menu": false, "awards": null, "user_review_count": 0}, {"business_operation_status": 1, "rating": null, "neighborhood": null, "image": null, "scorecard": null, "featured": false, "sample_categories": "Restaurants", "public_id": "great-wraps-atlanta-12", "id": 836734760, "votes": null, "tagline": null, "has_video": false, "website": null, "offers": null, "latitude": 33.881743, "politanName": "Atlanta, GA Metro ", "phone_number": "7704323946", "tags": [{"primary": true, "id": 1722, "name": "Restaurants"}], "fax_number": null, "expansion": {"count": null, "uri": null}, "impression_id": "000b00000009977967c0aa4b56935b17678d3ae4cf", "profile": "http://www.citysearch.com/profile/836734760/atlanta_ga/great_wraps.html", "address": {"city": "Atlanta", "state": "GA", "street": "1000 Cumberland Mall SE", "postal_code": "30339"}, "capProviderId": null, "distance": null, "has_offers": false, "name": "Great Wraps", "longitude": -84.470084, "has_menu": true, "awards": null, "user_review_count": 0}, {"business_operation_status": 1, "rating": null, "neighborhood": null, "image": null, "scorecard": null, "featured": false, "sample_categories": "Restaurants", "public_id": "wings-burger-haven-marietta-2", "id": 836916740, "votes": null, "tagline": null, "has_video": false, "website": null, "offers": null, "latitude": 33.948939, "politanName": "Atlanta, GA Metro ", "phone_number": "7709771411", "tags": [{"primary": true, "id": 1722, "name": "Restaurants"}], "fax_number": null, "expansion": {"count": null, "uri": null}, "impression_id": "000b00000097a0bdb87d124b93afbda7f30bc50c18", "profile": "http://www.citysearch.com/profile/836916740/marietta_ga/wings_burger_haven.html", "address": {"city": "Marietta", "state": "GA", "street": "279 Powers Ferry Rd SE", "postal_code": "30067"}, "capProviderId": null, "distance": null, "has_offers": false, "name": "Wings & Burger Haven", "longitude": -84.503582, "has_menu": true, "awards": null, "user_review_count": 0}, {"business_operation_status": 1, "rating": null, "neighborhood": null, "image": null, "scorecard": null, "featured": false, "sample_categories": "Restaurants", "public_id": "bridgetown-grill-kennesaw", "id": 622308600, "votes": null, "tagline": null, "has_video": false, "website": null, "offers": null, "latitude": 34.019128, "politanName": "Atlanta, GA Metro ", "phone_number": "6782900450", "tags": [{"primary": true, "id": 1722, "name": "Restaurants"}], "fax_number": null, "expansion": {"count": null, "uri": null}, "impression_id": "000b0000003aa8298bd4dc4f3cafde0bb2b4104f39", "profile": "http://www.citysearch.com/profile/622308600/kennesaw_ga/bridgetown_grill.html", "address": {"city": "Kennesaw", "state": "GA", "street": "400 Ernest W Barrett Pkwy Nw", "postal_code": "30144"}, "capProviderId": null, "distance": null, "has_offers": false, "name": "Bridgetown Grill", "longitude": -84.563608, "has_menu": false, "awards": null, "user_review_count": 1}, {"business_operation_status": 1, "rating": null, "neighborhood": null, "image": null, "scorecard": null, "featured": false, "sample_categories": "Restaurants, Luaus", "public_id": "soup-garden-atlanta", "id": 809055650, "votes": null, "tagline": null, "has_video": false, "website": null, "offers": null, "latitude": 33.883196, "politanName": "Atlanta, GA Metro ", "phone_number": "7709555726", "tags": [{"primary": false, "id": 11285, "name": "Luaus"}, {"primary": true, "id": 1722, "name": "Restaurants"}], "fax_number": null, "expansion": {"count": null, "uri": null}, "impression_id": "000b00000063e488eabbe5415f988c19cb61830252", "profile": "http://www.citysearch.com/profile/809055650/atlanta_ga/soup_garden.html", "address": {"city": "Atlanta", "state": "GA", "street": "2955 Cobb Pkwy SE # 240", "postal_code": "30339"}, "capProviderId": null, "distance": null, "has_offers": false, "name": "Soup Garden", "longitude": -84.461616, "has_menu": false, "awards": null, "user_review_count": 0}, {"business_operation_status": 1, "rating": null, "neighborhood": null, "image": null, "scorecard": null, "featured": false, "sample_categories": "Restaurants", "public_id": "statewide-development-atlanta", "id": 808723820, "votes": null, "tagline": null, "has_video": false, "website": null, "offers": null, "latitude": 33.9093, "politanName": "Atlanta, GA Metro ", "phone_number": "6785466070", "tags": [{"primary": true, "id": 1722, "name": "Restaurants"}], "fax_number": null, "expansion": {"count": null, "uri": null}, "impression_id": "000b0000002250f54c53e04fd498f8c2ffeb17d607", "profile": "http://www.citysearch.com/profile/808723820/atlanta_ga/statewide_development.html", "address": {"city": "Atlanta", "state": "GA", "street": "1775 The Exchange SE # 190", "postal_code": "30339"}, "capProviderId": null, "distance": null, "has_offers": false, "name": "Statewide Development", "longitude": -84.480035, "has_menu": false, "awards": null, "user_review_count": 0}, {"business_operation_status": 1, "rating": 8.0, "neighborhood": null, "image": null, "scorecard": null, "featured": false, "sample_categories": "Restaurants, Pizza", "public_id": "marietta-pizza-company-kennesaw", "id": 41424081, "votes": null, "tagline": null, "has_video": false, "website": null, "offers": null, "latitude": 34.016024, "politanName": "Atlanta, GA Metro ", "phone_number": "6782856722", "tags": [{"primary": false, "id": 1722, "name": "Restaurants"}, {"primary": true, "id": 11299, "name": "Pizza"}], "fax_number": null, "expansion": {"count": null, "uri": null}, "impression_id": "000b0000009bd6eccf34ca4fa3bb8d4a4b9b41d144", "profile": "http://www.citysearch.com/profile/41424081/kennesaw_ga/marietta_pizza_company.html", "address": {"city": "Kennesaw", "state": "GA", "street": "2500 Cobb Place Ln NW", "postal_code": "30144"}, "capProviderId": null, "distance": null, "has_offers": false, "name": "Marietta Pizza Company", "longitude": -84.571897, "has_menu": true, "awards": null, "user_review_count": 0}, {"business_operation_status": 1, "rating": null, "neighborhood": null, "image": null, "scorecard": null, "featured": false, "sample_categories": "Restaurants, Ice Cream Parlors", "public_id": "tcby-marietta-3", "id": 814186530, "votes": null, "tagline": null, "has_video": false, "website": "http://www.citysearch.com/profile/external/814186530/marietta_ga/tcby.html", "offers": null, "latitude": 33.969806, "politanName": "Atlanta, GA Metro ", "phone_number": "7705798833", "tags": [{"primary": false, "id": 1730, "name": "Ice Cream Parlors"}, {"primary": true, "id": 1722, "name": "Restaurants"}], "fax_number": null, "expansion": {"count": null, "uri": null}, "impression_id": "000b000000859fdd0c1fed41ac9b576a80b17c6037", "profile": "http://www.citysearch.com/profile/814186530/marietta_ga/tcby.html", "address": {"city": "Marietta", "state": "GA", "street": "2200 Roswell Rd", "postal_code": "30062"}, "capProviderId": null, "distance": null, "has_offers": false, "name": "TCBY", "longitude": -84.487911, "has_menu": true, "awards": null, "user_review_count": 0}, {"business_operation_status": 1, "rating": null, "neighborhood": null, "image": null, "scorecard": null, "featured": false, "sample_categories": "Restaurants", "public_id": "unsukay-inc-atlanta", "id": 793286370, "votes": null, "tagline": null, "has_video": false, "website": null, "offers": null, "latitude": 33.907787, "politanName": "Atlanta, GA Metro ", "phone_number": "6784028471", "tags": [{"primary": true, "id": 1722, "name": "Restaurants"}], "fax_number": null, "expansion": {"count": null, "uri": null}, "impression_id": "000b0000007e85ff3e92a645ff96959ba8c2025591", "profile": "http://www.citysearch.com/profile/793286370/atlanta_ga/unsukay_inc.html", "address": {"city": "Atlanta", "state": "GA", "street": "1899 Powers Ferry Rd Se", "postal_code": "30339"}, "capProviderId": null, "distance": null, "has_offers": false, "name": "Unsukay INC", "longitude": -84.463769, "has_menu": false, "awards": null, "user_review_count": 0}, {"business_operation_status": 1, "rating": null, "neighborhood": null, "image": null, "scorecard": null, "featured": false, "sample_categories": "Restaurants", "public_id": "wing-enterprises-inc-atlanta", "id": 816766630, "votes": null, "tagline": null, "has_video": false, "website": null, "offers": null, "latitude": 33.887519, "politanName": "Atlanta, GA Metro ", "phone_number": "4048751688", "tags": [{"primary": true, "id": 1722, "name": "Restaurants"}], "fax_number": null, "expansion": {"count": null, "uri": null}, "impression_id": "000b0000006e010dd7417f4285a1c68e1b8ca2741c", "profile": "http://www.citysearch.com/profile/816766630/atlanta_ga/wing_enterprises_inc.html", "address": {"city": "Atlanta", "state": "GA", "street": "900 Circle 75 Pkwy SE # 930", "postal_code": "30339"}, "capProviderId": null, "distance": null, "has_offers": false, "name": "Wing Enterprises Inc", "longitude": -84.467593, "has_menu": false, "awards": null, "user_review_count": 0}, {"business_operation_status": 1, "rating": null, "neighborhood": null, "image": null, "scorecard": null, "featured": false, "sample_categories": "Restaurants, Coffeehouses", "public_id": "starbucks-smyrna-6", "id": 834619900, "votes": null, "tagline": null, "has_video": false, "website": null, "offers": null, "latitude": 33.887919, "politanName": "Atlanta, GA Metro ", "phone_number": "7709550322", "tags": [{"primary": false, "id": 1726, "name": "Coffeehouses"}, {"primary": true, "id": 1722, "name": "Restaurants"}], "fax_number": null, "expansion": {"count": null, "uri": null}, "impression_id": "000b000000c3d76e852b544f61838a7821b55da88f", "profile": "http://www.citysearch.com/profile/834619900/smyrna_ga/starbucks.html", "address": {"city": "Smyrna", "state": "GA", "street": "2670 Cobb Pkwy SE", "postal_code": "30080"}, "capProviderId": null, "distance": null, "has_offers": false, "name": "Starbucks", "longitude": -84.474232, "has_menu": true, "awards": null, "user_review_count": 0}, {"business_operation_status": 1, "rating": null, "neighborhood": null, "image": null, "scorecard": null, "featured": false, "sample_categories": "Coffeehouses", "public_id": "starbucks-marietta-15", "id": 781239340, "votes": null, "tagline": null, "has_video": false, "website": "http://www.citysearch.com/profile/external/781239340/marietta_ga/starbucks.html", "offers": null, "latitude": 33.91616, "politanName": "Atlanta, GA Metro ", "phone_number": "7708509807", "tags": [{"primary": true, "id": 1726, "name": "Coffeehouses"}], "fax_number": null, "expansion": {"count": null, "uri": null}, "impression_id": "000b000000113c45dbaa644483bfc7ebf9ea145e8f", "profile": "http://www.citysearch.com/profile/781239340/marietta_ga/starbucks.html", "address": {"city": "Marietta", "state": "GA", "street": "1453 Terrell Mill Rd Se", "postal_code": "30067"}, "capProviderId": null, "distance": null, "has_offers": false, "name": "Starbucks", "longitude": -84.467925, "has_menu": false, "awards": null, "user_review_count": 0}, {"business_operation_status": 1, "rating": null, "neighborhood": null, "image": null, "scorecard": null, "featured": false, "sample_categories": "Restaurants, Bakeries, Carry Out", "public_id": "cheesecake-factory-atlanta", "id": 793249980, "votes": null, "tagline": null, "has_video": false, "website": "http://www.citysearch.com/profile/external/793249980/atlanta_ga/cheesecake_factory.html", "offers": null, "latitude": 33.881743, "politanName": "Atlanta, GA Metro ", "phone_number": "7703195515", "tags": [{"primary": false, "id": 1685, "name": "Bakeries"}, {"primary": false, "id": 11247, "name": "Carry Out"}, {"primary": true, "id": 1722, "name": "Restaurants"}], "fax_number": null, "expansion": {"count": null, "uri": null}, "impression_id": "000b000000fbf4d369037441f4961a8d00219d5bed", "profile": "http://www.citysearch.com/profile/793249980/atlanta_ga/cheesecake_factory.html", "address": {"city": "Atlanta", "state": "GA", "street": "1000 Cumberland Mall Se", "postal_code": "30339"}, "capProviderId": null, "distance": null, "has_offers": false, "name": "Cheesecake Factory", "longitude": -84.470084, "has_menu": true, "awards": null, "user_review_count": 0}, {"business_operation_status": 1, "rating": null, "neighborhood": null, "image": null, "scorecard": null, "featured": false, "sample_categories": "Restaurants, Delis And Delicatessens, Sandwich Shops, Carry Out, Soups", "public_id": "subway-marietta-33", "id": 43851179, "votes": null, "tagline": null, "has_video": false, "website": "http://www.citysearch.com/profile/external/43851179/marietta_ga/subway.html", "offers": null, "latitude": 34.019217, "politanName": "Atlanta, GA Metro ", "phone_number": "7705289499", "tags": [{"primary": false, "id": 1727, "name": "Delis And Delicatessens"}, {"primary": false, "id": 1736, "name": "Sandwich Shops"}, {"primary": false, "id": 11247, "name": "Carry Out"}, {"primary": false, "id": 11311, "name": "Soups"}, {"primary": false, "id": 11361, "name": "MasterCard"}, {"primary": false, "id": 11382, "name": "Visa"}, {"primary": true, "id": 1722, "name": "Restaurants"}], "fax_number": null, "expansion": {"count": null, "uri": null}, "impression_id": "000b0000003f41b7297fab452395226ad60140ff6c", "profile": "http://www.citysearch.com/profile/43851179/marietta_ga/subway.html", "address": {"city": "Marietta", "state": "GA", "street": "2795 Chastain Meadows Pkwy", "postal_code": "30066"}, "capProviderId": null, "distance": null, "has_offers": false, "name": "Subway", "longitude": -84.556431, "has_menu": true, "awards": null, "user_review_count": 0}], "histograms": [], "tag_ids": [1722], "uri": "http://api.citygridmedia.com:8080/search/places/v2/search/where?has_offers=false&type=restaurant&format=json&page=5&where=30006&rpp=50&histograms=false&publisher=10000009598&region_type=circle", "did_you_mean": "", "regions": [{"latitude": 33.9527, "default_radius": 0.25, "type": "postal_code", "name": "30006", "longitude": -84.5502}], "call_id": "000b0000000f7f5708b51e436e90229c2df2908328", "first_hit": 201, "total_hits": 509, "geo_ids": [137009], "page": 5, "last_hit": 250}}