{"results": {"rpp": 50, "locations": [{"business_operation_status": 1, "rating": null, "neighborhood": null, "image": null, "scorecard": null, "featured": false, "sample_categories": "Restaurants, Pizza", "public_id": "pizza-sorrento-buffet-marietta", "id": 814485390, "votes": null, "tagline": null, "has_video": false, "website": null, "offers": null, "latitude": 34.017913, "politanName": "Atlanta, GA Metro ", "phone_number": "6783834986", "tags": [{"primary": false, "id": 1722, "name": "Restaurants"}, {"primary": true, "id": 11299, "name": "Pizza"}], "fax_number": null, "expansion": {"count": null, "uri": null}, "impression_id": "000b000000319e373a3b0645c4bda49e86506fc105", "profile": "http://www.citysearch.com/profile/814485390/marietta_ga/pizza_sorrento_buffet.html", "address": {"city": "Marietta", "state": "GA", "street": "2745 Sandy Plains Rd # 106", "postal_code": "30066"}, "capProviderId": null, "distance": null, "has_offers": false, "name": "Pizza Sorrento Buffet", "longitude": -84.492683, "has_menu": false, "awards": null, "user_review_count": 0}, {"business_operation_status": 1, "rating": null, "neighborhood": null, "image": null, "scorecard": null, "featured": false, "sample_categories": "Restaurants, Pizza", "public_id": "wolfies-pizza-kennesaw", "id": 819131230, "votes": null, "tagline": null, "has_video": false, "website": null, "offers": null, "latitude": 33.999345, "politanName": "Atlanta, GA Metro ", "phone_number": "7704261229", "tags": [{"primary": false, "id": 1722, "name": "Restaurants"}, {"primary": true, "id": 11299, "name": "Pizza"}], "fax_number": null, "expansion": {"count": null, "uri": null}, "impression_id": "000b00000040da5535ef744e44b49a0b3970938637", "profile": "http://www.citysearch.com/profile/819131230/kennesaw_ga/wolfie_s_pizza.html", "address": {"city": "Kennesaw", "state": "GA", "street": "1200 Ernest W Barrett NW # 6", "postal_code": "30144"}, "capProviderId": null, "distance": null, "has_offers": false, "name": "WOLFIE'S PIZZA", "longitude": -84.586888, "has_menu": false, "awards": null, "user_review_count": 0}, {"business_operation_status": 1, "rating": null, "neighborhood": null, "image": null, "scorecard": null, "featured": false, "sample_categories": "Restaurants", "public_id": "yogoday-marietta", "id": 828480390, "votes": null, "tagline": null, "has_video": false, "website": null, "offers": null, "latitude": 34.013868, "politanName": "Atlanta, GA Metro ", "phone_number": "7707951522", "tags": [{"primary": true, "id": 1722, "name": "Restaurants"}], "fax_number": null, "expansion": {"count": null, "uri": null}, "impression_id": "000b000000220a1f9c9743452fb46a7e0db2692fde", "profile": "http://www.citysearch.com/profile/828480390/marietta_ga/yogoday.html", "address": {"city": "Marietta", "state": "GA", "street": "125 Ernest W Barrett Pkwy NW", "postal_code": "30060"}, "capProviderId": null, "distance": null, "has_offers": false, "name": "Yogoday", "longitude": -84.55453, "has_menu": false, "awards": null, "user_review_count": 0}, {"business_operation_status": 1, "rating": 8.0, "neighborhood": null, "image": null, "scorecard": null, "featured": false, "sample_categories": "Ice Cream Parlors, Dessert Shops", "public_id": "bambi-ice-cream-smyrna", "id": 37647413, "votes": null, "tagline": null, "has_video": false, "website": null, "offers": null, "latitude": 33.902095, "politanName": "Atlanta, GA Metro ", "phone_number": "7703191929", "tags": [{"primary": false, "id": 1728, "name": "Dessert Shops"}, {"primary": true, "id": 1730, "name": "Ice Cream Parlors"}], "fax_number": null, "expansion": {"count": null, "uri": null}, "impression_id": "000b000000e635d39152d44ddaafa88167fb4c110b", "profile": "http://www.citysearch.com/profile/37647413/smyrna_ga/bambi_ice_cream.html", "address": {"city": "Smyrna", "state": "GA", "street": "441 Pat Mell Rd SE", "postal_code": "30080"}, "capProviderId": null, "distance": null, "has_offers": false, "name": "Bambi Ice Cream", "longitude": -84.540382, "has_menu": false, "awards": null, "user_review_count": 1}, {"business_operation_status": 1, "rating": null, "neighborhood": null, "image": null, "scorecard": null, "featured": false, "sample_categories": "Restaurants", "public_id": "moore-moore-investments-inc-dallas", "id": 601315709, "votes": null, "tagline": null, "has_video": false, "website": null, "offers": null, "latitude": 33.935025, "politanName": "Atlanta, GA Metro ", "phone_number": "7704432856", "tags": [{"primary": true, "id": 1722, "name": "Restaurants"}], "fax_number": null, "expansion": {"count": null, "uri": null}, "impression_id": "000b0000006a45f0b5f02041308b807847e3e05e4a", "profile": "http://www.citysearch.com/profile/601315709/dallas_ga/moore_moore_investments_inc.html", "address": {"city": "Dallas", "state": "GA", "street": "3615 Marietta Hwy", "postal_code": "30157"}, "capProviderId": null, "distance": null, "has_offers": false, "name": "Moore & Moore Investments Inc", "longitude": -84.73087, "has_menu": false, "awards": null, "user_review_count": 0}, {"business_operation_status": 1, "rating": null, "neighborhood": null, "image": null, "scorecard": null, "featured": false, "sample_categories": "Restaurants, Food Service Management", "public_id": "la-cosecha-food-svc-marietta", "id": 44771149, "votes": null, "tagline": null, "has_video": false, "website": null, "offers": null, "latitude": 33.986297, "politanName": "Atlanta, GA Metro ", "phone_number": "7702189859", "tags": [{"primary": false, "id": 1722, "name": "Restaurants"}, {"primary": true, "id": 11120, "name": "Food Service Management"}], "fax_number": null, "expansion": {"count": null, "uri": null}, "impression_id": "000b000000e0de58d5f1744f8f9274d3836c42bdba", "profile": "http://www.citysearch.com/profile/44771149/marietta_ga/la_cosecha_food_service.html", "address": {"city": "Marietta", "state": "GA", "street": "1123 Cobb Pkwy S", "postal_code": "30060"}, "capProviderId": null, "distance": null, "has_offers": false, "name": "La Cosecha Food Service", "longitude": -84.569936, "has_menu": false, "awards": null, "user_review_count": 0}, {"business_operation_status": 1, "rating": null, "neighborhood": null, "image": null, "scorecard": null, "featured": false, "sample_categories": "Restaurants", "public_id": "sparkmans-powder", "id": 827802510, "votes": null, "tagline": null, "has_video": false, "website": null, "offers": null, "latitude": 33.859155, "politanName": "Atlanta, GA Metro ", "phone_number": "7704394588", "tags": [{"primary": true, "id": 1722, "name": "Restaurants"}], "fax_number": null, "expansion": {"count": null, "uri": null}, "impression_id": "000b0000007ac2fdd45ef842dfbeffaf6000fd9e3b", "profile": "http://www.citysearch.com/profile/827802510/powder_springs_ga/sparkman_s.html", "address": {"city": "Powder Springs", "state": "GA", "street": "4136 Austell Powder Springs Rd", "postal_code": "30127"}, "capProviderId": null, "distance": null, "has_offers": false, "name": "Sparkman's", "longitude": -84.65957, "has_menu": false, "awards": null, "user_review_count": 0}, {"business_operation_status": 1, "rating": null, "neighborhood": null, "image": null, "scorecard": null, "featured": false, "sample_categories": "Restaurants, Chinese, American Express, Discover, MasterCard", "public_id": "hong-kong-star-chinese-rstrnt-marietta", "id": 601297114, "votes": null, "tagline": null, "has_video": false, "website": null, "offers": null, "latitude": 33.943454, "politanName": "Atlanta, GA Metro ", "phone_number": "7704280988", "tags": [{"primary": false, "id": 11252, "name": "Chinese"}, {"primary": false, "id": 11333, "name": "American Express"}, {"primary": false, "id": 11349, "name": "Discover"}, {"primary": false, "id": 11361, "name": "MasterCard"}, {"primary": false, "id": 11382, "name": "Visa"}, {"primary": true, "id": 1722, "name": "Restaurants"}], "fax_number": null, "expansion": {"count": null, "uri": null}, "impression_id": "000b00000032d30ba6a2c44d379c4ea5f28de24c54", "profile": "http://www.citysearch.com/profile/601297114/marietta_ga/hong_kong_star_chinese_rstrnt.html", "address": {"city": "Marietta", "state": "GA", "street": "557 S Marietta Pkwy Se", "postal_code": "30060"}, "capProviderId": null, "distance": null, "has_offers": false, "name": "Hong Kong Star Chinese Rstrnt", "longitude": -84.536796, "has_menu": true, "awards": null, "user_review_count": 1}, {"business_operation_status": 1, "rating": null, "neighborhood": null, "image": null, "scorecard": null, "featured": false, "sample_categories": "Restaurants", "public_id": "scotts-eats-sweets-mableton", "id": 608948894, "votes": null, "tagline": null, "has_video": false, "website": null, "offers": null, "latitude": 33.817787, "politanName": "Atlanta, GA Metro ", "phone_number": "4045145322", "tags": [{"primary": true, "id": 1722, "name": "Restaurants"}], "fax_number": null, "expansion": {"count": null, "uri": null}, "impression_id": "000b00000037466d051d074d6ebe1b935725e61941", "profile": "http://www.citysearch.com/profile/608948894/mableton_ga/scott_s_eats_sweets.html", "address": {"city": "Mableton", "state": "GA", "street": "1150 Veterans Memorial Hwy SW", "postal_code": "30126"}, "capProviderId": null, "distance": null, "has_offers": false, "name": "Scott's Eats & Sweets", "longitude": -84.587972, "has_menu": false, "awards": null, "user_review_count": 0}, {"business_operation_status": 1, "rating": 8.0, "neighborhood": null, "image": null, "scorecard": null, "featured": false, "sample_categories": "Restaurants, American Express, Discover, MasterCard, Visa", "public_id": "carols-cafe-marietta", "id": 2908298, "votes": null, "tagline": null, "has_video": false, "website": null, "offers": null, "latitude": 34.013278, "politanName": "Atlanta, GA Metro ", "phone_number": "7704224641", "tags": [{"primary": false, "id": 11333, "name": "American Express"}, {"primary": false, "id": 11349, "name": "Discover"}, {"primary": false, "id": 11361, "name": "MasterCard"}, {"primary": false, "id": 11382, "name": "Visa"}, {"primary": true, "id": 1722, "name": "Restaurants"}], "fax_number": null, "expansion": {"count": null, "uri": null}, "impression_id": "000b000000aefcebc0f4804fc292d331d75651ae3d", "profile": "http://www.citysearch.com/profile/2908298/marietta_ga/carol_s_cafe.html", "address": {"city": "Marietta", "state": "GA", "street": "2543 Bells Ferry Rd", "postal_code": "30066"}, "capProviderId": null, "distance": null, "has_offers": false, "name": "Carol's Cafe", "longitude": -84.549897, "has_menu": false, "awards": null, "user_review_count": 2}, {"business_operation_status": 1, "rating": null, "neighborhood": null, "image": null, "scorecard": null, "featured": false, "sample_categories": "Restaurants, Pizza", "public_id": "all-star-pizza-marietta", "id": 757929600, "votes": null, "tagline": null, "has_video": false, "website": null, "offers": null, "latitude": 33.922673, "politanName": "Atlanta, GA Metro ", "phone_number": "7709525254", "tags": [{"primary": false, "id": 11299, "name": "Pizza"}, {"primary": true, "id": 1722, "name": "Restaurants"}], "fax_number": null, "expansion": {"count": null, "uri": null}, "impression_id": "000b00000053dc169857c24dfd9d6aced2eedcb5ce", "profile": "http://www.citysearch.com/profile/757929600/marietta_ga/all_star_pizza.html", "address": {"city": "Marietta", "state": "GA", "street": "2555 Delk Rd SE", "postal_code": "30067"}, "capProviderId": null, "distance": null, "has_offers": false, "name": "All Star Pizza", "longitude": -84.478383, "has_menu": false, "awards": null, "user_review_count": 0}, {"business_operation_status": 1, "rating": null, "neighborhood": null, "image": null, "scorecard": null, "featured": false, "sample_categories": "Restaurants", "public_id": "car-checkers-powder-spgs", "id": 2950697, "votes": null, "tagline": null, "has_video": false, "website": null, "offers": null, "latitude": 33.935913, "politanName": "Atlanta, GA Metro ", "phone_number": "7705148100", "tags": [{"primary": true, "id": 1722, "name": "Restaurants"}], "fax_number": null, "expansion": {"count": null, "uri": null}, "impression_id": "000b000000d7baa689c101463bb0a70a5375578d23", "profile": "http://www.citysearch.com/profile/2950697/powder_springs_ga/car_checkers.html", "address": {"city": "Powder Springs", "state": "GA", "street": "591 Leah Dr", "postal_code": "30127"}, "capProviderId": null, "distance": null, "has_offers": false, "name": "Car Checkers", "longitude": -84.663484, "has_menu": false, "awards": null, "user_review_count": 0}, {"business_operation_status": 1, "rating": null, "neighborhood": null, "image": null, "scorecard": null, "featured": false, "sample_categories": "Restaurants", "public_id": "mexican-taqueria-smyrna", "id": 623985844, "votes": null, "tagline": null, "has_video": false, "website": null, "offers": null, "latitude": 33.889788, "politanName": "Atlanta, GA Metro ", "phone_number": "7709891248", "tags": [{"primary": true, "id": 1722, "name": "Restaurants"}], "fax_number": null, "expansion": {"count": null, "uri": null}, "impression_id": "000b000000395c0abc06e84b9b8a6614695dec53dd", "profile": "http://www.citysearch.com/profile/623985844/smyrna_ga/mexican_taqueria.html", "address": {"city": "Smyrna", "state": "GA", "street": "2599 S Cobb Dr SE", "postal_code": "30080"}, "capProviderId": null, "distance": null, "has_offers": false, "name": "Mexican Taqueria", "longitude": -84.536114, "has_menu": false, "awards": null, "user_review_count": 0}, {"business_operation_status": 1, "rating": null, "neighborhood": null, "image": null, "scorecard": null, "featured": false, "sample_categories": "Restaurants, Cajun & Creole", "public_id": "on-the-bayou-smyrna", "id": 764832940, "votes": null, "tagline": null, "has_video": false, "website": null, "offers": null, "latitude": 33.879071, "politanName": "Atlanta, GA Metro ", "phone_number": "7704343329", "tags": [{"primary": false, "id": 11245, "name": "Cajun & Creole"}, {"primary": true, "id": 1722, "name": "Restaurants"}], "fax_number": null, "expansion": {"count": null, "uri": null}, "impression_id": "000b000000fb2ba60c3a5c49d3a101667cbca589cd", "profile": "http://www.citysearch.com/profile/764832940/smyrna_ga/on_the_bayou.html", "address": {"city": "Smyrna", "state": "GA", "street": "3120 S Cobb Dr SE", "postal_code": "30080"}, "capProviderId": null, "distance": null, "has_offers": false, "name": "On the Bayou", "longitude": -84.532683, "has_menu": false, "awards": null, "user_review_count": 0}, {"business_operation_status": 1, "rating": null, "neighborhood": null, "image": null, "scorecard": null, "featured": false, "sample_categories": "Delis And Delicatessens, Restaurants", "public_id": "deli-dellghts-marietta", "id": 764838340, "votes": null, "tagline": null, "has_video": false, "website": null, "offers": null, "latitude": 33.952594, "politanName": "Atlanta, GA Metro ", "phone_number": "6784016001", "tags": [{"primary": false, "id": 1722, "name": "Restaurants"}, {"primary": true, "id": 1727, "name": "Delis And Delicatessens"}], "fax_number": null, "expansion": {"count": null, "uri": null}, "impression_id": "000b000000a9bc639b6dc641cc99b9d9d3c18570a4", "profile": "http://www.citysearch.com/profile/764838340/marietta_ga/deli_dellghts.html", "address": {"city": "Marietta", "state": "GA", "street": "800 Whitlock Ave NW", "postal_code": "30064"}, "capProviderId": null, "distance": null, "has_offers": false, "name": "Deli Dellghts", "longitude": -84.575881, "has_menu": false, "awards": null, "user_review_count": 0}, {"business_operation_status": 1, "rating": null, "neighborhood": null, "image": null, "scorecard": null, "featured": false, "sample_categories": "Restaurants", "public_id": "culture-lab-marietta", "id": 764843290, "votes": null, "tagline": null, "has_video": false, "website": null, "offers": null, "latitude": 33.883313, "politanName": "Atlanta, GA Metro ", "phone_number": "7705750926", "tags": [{"primary": true, "id": 1722, "name": "Restaurants"}], "fax_number": null, "expansion": {"count": null, "uri": null}, "impression_id": "000b00000071ca66ec8e894b92a2627af333c669ec", "profile": "http://www.citysearch.com/profile/764843290/marietta_ga/culture_lab.html", "address": {"city": "Marietta", "state": "GA", "street": "2200 Powder Springs Rd SW", "postal_code": "30064"}, "capProviderId": null, "distance": null, "has_offers": false, "name": "Culture Lab", "longitude": -84.620092, "has_menu": false, "awards": null, "user_review_count": 0}, {"business_operation_status": 1, "rating": null, "neighborhood": null, "image": null, "scorecard": null, "featured": false, "sample_categories": "Juice & Smoothie Shops, Restaurants, Carry Out", "public_id": "orange-julius-smyrna", "id": 764893330, "votes": null, "tagline": null, "has_video": false, "website": null, "offers": null, "latitude": 33.882258, "politanName": "Atlanta, GA Metro ", "phone_number": "7704323809", "tags": [{"primary": false, "id": 1722, "name": "Restaurants"}, {"primary": false, "id": 11247, "name": "Carry Out"}, {"primary": true, "id": 1735, "name": "Juice & Smoothie Shops"}], "fax_number": null, "expansion": {"count": null, "uri": null}, "impression_id": "000b0000002be1bdc9025d4daa9d3c135fb2de7c24", "profile": "http://www.citysearch.com/profile/764893330/smyrna_ga/orange_julius.html", "address": {"city": "Smyrna", "state": "GA", "street": "1641 Spring Rd SE", "postal_code": "30080"}, "capProviderId": null, "distance": null, "has_offers": false, "name": "Orange Julius", "longitude": -84.505572, "has_menu": false, "awards": null, "user_review_count": 0}, {"business_operation_status": 1, "rating": null, "neighborhood": null, "image": null, "scorecard": null, "featured": false, "sample_categories": "Restaurants", "public_id": "vineyard-cafe-marietta", "id": 766766850, "votes": null, "tagline": null, "has_video": false, "website": null, "offers": null, "latitude": 33.950297, "politanName": "Atlanta, GA Metro ", "phone_number": "6785813771", "tags": [{"primary": true, "id": 1722, "name": "Restaurants"}], "fax_number": null, "expansion": {"count": null, "uri": null}, "impression_id": "000b00000042b29ade499446ea84741167f5e9dd41", "profile": "http://www.citysearch.com/profile/766766850/marietta_ga/vineyard_cafe.html", "address": {"city": "Marietta", "state": "GA", "street": "21 Park St SE", "postal_code": "30060"}, "capProviderId": null, "distance": null, "has_offers": false, "name": "Vineyard Cafe", "longitude": -84.533173, "has_menu": true, "awards": null, "user_review_count": 0}, {"business_operation_status": 1, "rating": null, "neighborhood": null, "image": null, "scorecard": null, "featured": false, "sample_categories": "Restaurants, Carry Out, Chicken", "public_id": "popeyes-marietta", "id": 775201320, "votes": null, "tagline": null, "has_video": false, "website": null, "offers": null, "latitude": 33.9485, "politanName": "Atlanta, GA Metro ", "phone_number": "7704208800", "tags": [{"primary": false, "id": 11247, "name": "Carry Out"}, {"primary": false, "id": 12839, "name": "Chicken"}, {"primary": true, "id": 1722, "name": "Restaurants"}], "fax_number": null, "expansion": {"count": null, "uri": null}, "impression_id": "000b000000cfe51722df674c80a93cbbf09de346d6", "profile": "http://www.citysearch.com/profile/775201320/marietta_ga/popeyes.html", "address": {"city": "Marietta", "state": "GA", "street": "155 Cobb Pkwy S", "postal_code": "30060"}, "capProviderId": null, "distance": null, "has_offers": false, "name": "Popeyes", "longitude": -84.518323, "has_menu": false, "awards": null, "user_review_count": 0}, {"business_operation_status": 1, "rating": null, "neighborhood": null, "image": null, "scorecard": null, "featured": false, "sample_categories": "Restaurants", "public_id": "rancho-el-molcajete-mableton", "id": 728113990, "votes": null, "tagline": null, "has_video": false, "website": null, "offers": null, "latitude": 33.816965, "politanName": "Atlanta, GA Metro ", "phone_number": "7708966031", "tags": [{"primary": true, "id": 1722, "name": "Restaurants"}], "fax_number": null, "expansion": {"count": null, "uri": null}, "impression_id": "000b000000f6a39ef279dd4ed499f5cf8a851f191b", "profile": "http://www.citysearch.com/profile/728113990/mableton_ga/rancho_el_molcajete.html", "address": {"city": "Mableton", "state": "GA", "street": "499 Veterans Memorial Hwy Sw", "postal_code": "30126"}, "capProviderId": null, "distance": null, "has_offers": false, "name": "Rancho El Molcajete", "longitude": -84.568558, "has_menu": false, "awards": null, "user_review_count": 0}, {"business_operation_status": 1, "rating": null, "neighborhood": null, "image": null, "scorecard": null, "featured": false, "sample_categories": "Restaurants", "public_id": "tropical-eats-mableton", "id": 787139770, "votes": null, "tagline": null, "has_video": false, "website": null, "offers": null, "latitude": 33.815312, "politanName": "Atlanta, GA Metro ", "phone_number": "7709480044", "tags": [{"primary": true, "id": 1722, "name": "Restaurants"}], "fax_number": null, "expansion": {"count": null, "uri": null}, "impression_id": "000b00000022e34f12d52640f3abb4ed5a97a053ab", "profile": "http://www.citysearch.com/profile/787139770/mableton_ga/tropical_eats.html", "address": {"city": "Mableton", "state": "GA", "street": "302 Veterans Memorial Hwy Sw", "postal_code": "30126"}, "capProviderId": null, "distance": null, "has_offers": false, "name": "Tropical Eats", "longitude": -84.561339, "has_menu": false, "awards": null, "user_review_count": 0}, {"business_operation_status": 1, "rating": null, "neighborhood": null, "image": null, "scorecard": null, "featured": false, "sample_categories": "Restaurants", "public_id": "sun-dried-restaurant-marietta", "id": 790803840, "votes": null, "tagline": null, "has_video": false, "website": null, "offers": null, "latitude": 34.015118, "politanName": "Atlanta, GA Metro ", "phone_number": "6785406642", "tags": [{"primary": true, "id": 1722, "name": "Restaurants"}], "fax_number": null, "expansion": {"count": null, "uri": null}, "impression_id": "000b000000b70533b166b443b0839686fbe3398a57", "profile": "http://www.citysearch.com/profile/790803840/marietta_ga/sun_dried_restaurant.html", "address": {"city": "Marietta", "state": "GA", "street": "2635 Sandy Plains Rd", "postal_code": "30066"}, "capProviderId": null, "distance": null, "has_offers": false, "name": "Sun Dried Restaurant", "longitude": -84.495187, "has_menu": true, "awards": null, "user_review_count": 0}, {"business_operation_status": 1, "rating": null, "neighborhood": null, "image": null, "scorecard": null, "featured": false, "sample_categories": "Restaurants, Steakhouse", "public_id": "skips-steaks-marietta", "id": 743983550, "votes": null, "tagline": null, "has_video": false, "website": null, "offers": null, "latitude": 33.928458, "politanName": "Atlanta, GA Metro ", "phone_number": "7702269046", "tags": [{"primary": false, "id": 11316, "name": "Steakhouse"}, {"primary": true, "id": 1722, "name": "Restaurants"}], "fax_number": null, "expansion": {"count": null, "uri": null}, "impression_id": "000b000000fbc82022fbff41009f20653d87a882a0", "profile": "http://www.citysearch.com/profile/743983550/marietta_ga/skip_s_steaks.html", "address": {"city": "Marietta", "state": "GA", "street": "1033 Franklin Rd Se", "postal_code": "30067"}, "capProviderId": null, "distance": null, "has_offers": false, "name": "Skip's Steaks", "longitude": -84.492995, "has_menu": false, "awards": null, "user_review_count": 0}, {"business_operation_status": 0, "rating": null, "neighborhood": null, "image": null, "scorecard": null, "featured": false, "sample_categories": "Restaurants", "public_id": "sweet-pea-cafe-deli-marietta", "id": 655825170, "votes": null, "tagline": null, "has_video": false, "website": null, "offers": null, "latitude": 33.951248, "politanName": "Atlanta, GA Metro ", "phone_number": "7709777167", "tags": [{"primary": true, "id": 1722, "name": "Restaurants"}], "fax_number": null, "expansion": {"count": null, "uri": null}, "impression_id": "000b0000000c1ad24bc02943c683cf1e2193d4e5c3", "profile": "http://www.citysearch.com/profile/655825170/marietta_ga/sweet_pea_cafe_deli.html", "address": {"city": "Marietta", "state": "GA", "street": "1516 Roswell Rd", "postal_code": "30062"}, "capProviderId": null, "distance": null, "has_offers": false, "name": "Sweet Pea Cafe & Deli", "longitude": -84.508172, "has_menu": true, "awards": null, "user_review_count": 0}, {"business_operation_status": 1, "rating": null, "neighborhood": null, "image": null, "scorecard": null, "featured": false, "sample_categories": "Restaurants, Caribbean", "public_id": "tassa-authentic-caribbean-marietta", "id": 655828500, "votes": null, "tagline": null, "has_video": false, "website": null, "offers": null, "latitude": 33.947468, "politanName": "Atlanta, GA Metro ", "phone_number": "7705781480", "tags": [{"primary": false, "id": 11195, "name": "Caribbean"}, {"primary": true, "id": 1722, "name": "Restaurants"}], "fax_number": null, "expansion": {"count": null, "uri": null}, "impression_id": "000b00000057f18cec333a439b896fd7800b7f2cc3", "profile": "http://www.citysearch.com/profile/655828500/marietta_ga/tassa_authentic_caribbean.html", "address": {"city": "Marietta", "state": "GA", "street": "224 Powers Ferry Rd Se", "postal_code": "30067"}, "capProviderId": null, "distance": null, "has_offers": false, "name": "Tassa Authentic Caribbean", "longitude": -84.500926, "has_menu": false, "awards": null, "user_review_count": 0}, {"business_operation_status": 1, "rating": null, "neighborhood": null, "image": null, "scorecard": null, "featured": false, "sample_categories": "Soda Fountain Shops", "public_id": "soda-stream-marietta", "id": 655833090, "votes": null, "tagline": null, "has_video": false, "website": null, "offers": null, "latitude": 33.916607, "politanName": "Atlanta, GA Metro ", "phone_number": "7709521637", "tags": [{"primary": true, "id": 1731, "name": "Soda Fountain Shops"}], "fax_number": null, "expansion": {"count": null, "uri": null}, "impression_id": "000b000000d530457a8cbf4a639d71d334b8c7df16", "profile": "http://www.citysearch.com/profile/655833090/marietta_ga/soda_stream.html", "address": {"city": "Marietta", "state": "GA", "street": "2051 Franklin Way Se", "postal_code": "30067"}, "capProviderId": null, "distance": null, "has_offers": false, "name": "Soda Stream", "longitude": -84.491622, "has_menu": false, "awards": null, "user_review_count": 0}, {"business_operation_status": 1, "rating": null, "neighborhood": null, "image": null, "scorecard": null, "featured": false, "sample_categories": "Restaurants, Pizza, Carry Out", "public_id": "pizza-hut-kennesaw-4", "id": 808398210, "votes": null, "tagline": null, "has_video": false, "website": null, "offers": null, "latitude": 34.014009, "politanName": "Atlanta, GA Metro ", "phone_number": "7704210752", "tags": [{"primary": false, "id": 1722, "name": "Restaurants"}, {"primary": false, "id": 11247, "name": "Carry Out"}, {"primary": true, "id": 11299, "name": "Pizza"}], "fax_number": null, "expansion": {"count": null, "uri": null}, "impression_id": "000b0000009fc0364bcca444128ea6236b79be45c4", "profile": "http://www.citysearch.com/profile/808398210/kennesaw_ga/pizza_hut.html", "address": {"city": "Kennesaw", "state": "GA", "street": "400 Ernest W Barrett Pkwy NW", "postal_code": "30144"}, "capProviderId": null, "distance": null, "has_offers": false, "name": "Pizza Hut", "longitude": -84.561425, "has_menu": false, "awards": null, "user_review_count": 0}, {"business_operation_status": 1, "rating": null, "neighborhood": null, "image": null, "scorecard": null, "featured": false, "sample_categories": "Restaurants", "public_id": "los-dorados-grill-marietta", "id": 810451910, "votes": null, "tagline": null, "has_video": false, "website": null, "offers": null, "latitude": 33.980787, "politanName": "Atlanta, GA Metro ", "phone_number": "7705788013", "tags": [{"primary": true, "id": 1722, "name": "Restaurants"}], "fax_number": null, "expansion": {"count": null, "uri": null}, "impression_id": "000b0000003349ff1fb05d4c86af444cef8b17bf50", "profile": "http://www.citysearch.com/profile/810451910/marietta_ga/los_dorados_grill.html", "address": {"city": "Marietta", "state": "GA", "street": "3101 Roswell Rd", "postal_code": "30062"}, "capProviderId": null, "distance": null, "has_offers": false, "name": "Los Dorados Grill", "longitude": -84.464028, "has_menu": false, "awards": null, "user_review_count": 0}, {"business_operation_status": 1, "rating": null, "neighborhood": null, "image": null, "scorecard": null, "featured": false, "sample_categories": "Restaurants, Carry Out", "public_id": "arbys-marietta-15", "id": 764873610, "votes": null, "tagline": null, "has_video": false, "website": null, "offers": null, "latitude": 33.967279, "politanName": "Atlanta, GA Metro ", "phone_number": "7704240784", "tags": [{"primary": false, "id": 11247, "name": "Carry Out"}, {"primary": true, "id": 1722, "name": "Restaurants"}], "fax_number": null, "expansion": {"count": null, "uri": null}, "impression_id": "000b00000073274e9cc3ca444cbf098e51421850d3", "profile": "http://www.citysearch.com/profile/764873610/marietta_ga/arby_s.html", "address": {"city": "Marietta", "state": "GA", "street": "643 Cobb Pkwy N", "postal_code": "30062"}, "capProviderId": null, "distance": null, "has_offers": false, "name": "Arby's", "longitude": -84.535738, "has_menu": false, "awards": null, "user_review_count": 0}, {"business_operation_status": 1, "rating": null, "neighborhood": null, "image": null, "scorecard": null, "featured": false, "sample_categories": "Restaurants, Traditional American, Carry Out", "public_id": "mr-philly-marietta", "id": 764893230, "votes": null, "tagline": null, "has_video": false, "website": null, "offers": null, "latitude": 33.953033, "politanName": "Atlanta, GA Metro ", "phone_number": "7705750615", "tags": [{"primary": false, "id": 11190, "name": "Traditional American"}, {"primary": false, "id": 11247, "name": "Carry Out"}, {"primary": true, "id": 1722, "name": "Restaurants"}], "fax_number": null, "expansion": {"count": null, "uri": null}, "impression_id": "000b00000051bcde7390ae414f9546703d4633e1ce", "profile": "http://www.citysearch.com/profile/764893230/marietta_ga/mr_philly.html", "address": {"city": "Marietta", "state": "GA", "street": "1000 Whitlock Ave NW # 110", "postal_code": "30064"}, "capProviderId": null, "distance": null, "has_offers": false, "name": "Mr Philly", "longitude": -84.581202, "has_menu": false, "awards": null, "user_review_count": 0}, {"business_operation_status": 1, "rating": null, "neighborhood": null, "image": null, "scorecard": null, "featured": false, "sample_categories": "Restaurants, Carry Out, Chicken", "public_id": "popeyes-chicken-biscuits-marietta-3", "id": 764903940, "votes": null, "tagline": null, "has_video": false, "website": null, "offers": null, "latitude": 33.922747, "politanName": "Atlanta, GA Metro ", "phone_number": "7707947031", "tags": [{"primary": false, "id": 11247, "name": "Carry Out"}, {"primary": false, "id": 12839, "name": "Chicken"}, {"primary": true, "id": 1722, "name": "Restaurants"}], "fax_number": null, "expansion": {"count": null, "uri": null}, "impression_id": "000b000000c4a30d460139420aab488c2f94d99899", "profile": "http://www.citysearch.com/profile/764903940/marietta_ga/popeye_s_chicken_biscuits.html", "address": {"city": "Marietta", "state": "GA", "street": "1444 Livingston Dr SW", "postal_code": "30064"}, "capProviderId": null, "distance": null, "has_offers": false, "name": "Popeye's Chicken & Biscuits", "longitude": -84.596038, "has_menu": false, "awards": null, "user_review_count": 0}, {"business_operation_status": 0, "rating": null, "neighborhood": null, "image": null, "scorecard": null, "featured": false, "sample_categories": "Restaurants, Pizza", "public_id": "brooklyn-pizza-department-austell", "id": 764860920, "votes": null, "tagline": null, "has_video": false, "website": null, "offers": null, "latitude": 33.860912, "politanName": "Atlanta, GA Metro ", "phone_number": "6783840980", "tags": [{"primary": false, "id": 11299, "name": "Pizza"}, {"primary": true, "id": 1722, "name": "Restaurants"}], "fax_number": null, "expansion": {"count": null, "uri": null}, "impression_id": "000b00000060e151203c464b7dab881e595f1de811", "profile": "http://www.citysearch.com/profile/764860920/austell_ga/brooklyn_pizza_department.html", "address": {"city": "Austell", "state": "GA", "street": "2495 E West Connector", "postal_code": "30106"}, "capProviderId": null, "distance": null, "has_offers": false, "name": "Brooklyn Pizza Department", "longitude": -84.620637, "has_menu": false, "awards": null, "user_review_count": 2}, {"business_operation_status": 1, "rating": null, "neighborhood": null, "image": null, "scorecard": null, "featured": false, "sample_categories": "Restaurants", "public_id": "taqueria-marietta", "id": 812914130, "votes": null, "tagline": null, "has_video": false, "website": null, "offers": null, "latitude": 33.942474, "politanName": "Atlanta, GA Metro ", "phone_number": "7704289797", "tags": [{"primary": true, "id": 1722, "name": "Restaurants"}], "fax_number": null, "expansion": {"count": null, "uri": null}, "impression_id": "000b0000007f20ef0a77ba41c58c7af43f43374039", "profile": "http://www.citysearch.com/profile/812914130/marietta_ga/taqueria.html", "address": {"city": "Marietta", "state": "GA", "street": "641 S Marietta Pkwy SE", "postal_code": "30060"}, "capProviderId": null, "distance": null, "has_offers": false, "name": "Taqueria", "longitude": -84.518447, "has_menu": false, "awards": null, "user_review_count": 0}, {"business_operation_status": 1, "rating": null, "neighborhood": null, "image": null, "scorecard": null, "featured": false, "sample_categories": "Restaurants, Pizza", "public_id": "salerno-pizza-kennesaw", "id": 790725350, "votes": null, "tagline": null, "has_video": false, "website": null, "offers": null, "latitude": 34.009664, "politanName": "Atlanta, GA Metro ", "phone_number": "7704997600", "tags": [{"primary": false, "id": 1722, "name": "Restaurants"}, {"primary": true, "id": 11299, "name": "Pizza"}], "fax_number": null, "expansion": {"count": null, "uri": null}, "impression_id": "000b00000096c1ef02954f4cf0bf7e29cd522358d7", "profile": "http://www.citysearch.com/profile/790725350/kennesaw_ga/salerno_pizza.html", "address": {"city": "Kennesaw", "state": "GA", "street": "950 Cobb Place Blvd NW", "postal_code": "30144"}, "capProviderId": null, "distance": null, "has_offers": false, "name": "Salerno Pizza", "longitude": -84.582459, "has_menu": false, "awards": null, "user_review_count": 0}, {"business_operation_status": 1, "rating": null, "neighborhood": null, "image": null, "scorecard": null, "featured": false, "sample_categories": "Restaurants, Carry Out, Chicken", "public_id": "zaxbys-marietta-7", "id": 790860350, "votes": null, "tagline": null, "has_video": false, "website": "http://www.citysearch.com/profile/external/790860350/marietta_ga/zaxby_s.html", "offers": null, "latitude": 33.97374, "politanName": "Atlanta, GA Metro ", "phone_number": "6787339300", "tags": [{"primary": false, "id": 11247, "name": "Carry Out"}, {"primary": false, "id": 12839, "name": "Chicken"}, {"primary": true, "id": 1722, "name": "Restaurants"}], "fax_number": null, "expansion": {"count": null, "uri": null}, "impression_id": "000b00000018de042e9ca14b35b9aa3c7f7eb80da5", "profile": "http://www.citysearch.com/profile/790860350/marietta_ga/zaxby_s.html", "address": {"city": "Marietta", "state": "GA", "street": "1347 Church Street Ext Ne", "postal_code": "30060"}, "capProviderId": null, "distance": null, "has_offers": false, "name": "Zaxby's", "longitude": -84.552385, "has_menu": true, "awards": null, "user_review_count": 0}, {"business_operation_status": 1, "rating": null, "neighborhood": null, "image": null, "scorecard": null, "featured": false, "sample_categories": "Restaurants, Barbecue Restaurants", "public_id": "boyds-bar-be-que-smyrna", "id": 793283860, "votes": null, "tagline": null, "has_video": false, "website": null, "offers": null, "latitude": 33.890044, "politanName": "Atlanta, GA Metro ", "phone_number": "6783099726", "tags": [{"primary": false, "id": 1724, "name": "Barbecue Restaurants"}, {"primary": true, "id": 1722, "name": "Restaurants"}], "fax_number": null, "expansion": {"count": null, "uri": null}, "impression_id": "000b000000653aa0501d044a02ad49c04ec2dea524", "profile": "http://www.citysearch.com/profile/793283860/smyrna_ga/boyd_s_bar_be_que.html", "address": {"city": "Smyrna", "state": "GA", "street": "2599 S Cobb Dr Se", "postal_code": "30080"}, "capProviderId": null, "distance": null, "has_offers": false, "name": "Boyd's Bar Be Que", "longitude": -84.536832, "has_menu": false, "awards": null, "user_review_count": 0}, {"business_operation_status": 1, "rating": 10.0, "neighborhood": null, "image": null, "scorecard": null, "featured": false, "sample_categories": "Restaurants, Food Delivery, Traditional American, Carry Out", "public_id": "jolly-joes-cafe-mableton", "id": 2949724, "votes": null, "tagline": null, "has_video": false, "website": null, "offers": null, "latitude": 33.81733, "politanName": "Atlanta, GA Metro ", "phone_number": "7709410484", "tags": [{"primary": false, "id": 1722, "name": "Restaurants"}, {"primary": false, "id": 11190, "name": "Traditional American"}, {"primary": false, "id": 11247, "name": "Carry Out"}, {"primary": true, "id": 11267, "name": "Food Delivery"}], "fax_number": null, "expansion": {"count": null, "uri": null}, "impression_id": "000b000000ebfbe8ce4feb4e1794f5ada00599a56e", "profile": "http://www.citysearch.com/profile/2949724/mableton_ga/jolly_joes_cafe.html", "address": {"city": "Mableton", "state": "GA", "street": "1153 Veterans Memorial Hwy SW", "postal_code": "30126"}, "capProviderId": null, "distance": null, "has_offers": false, "name": "Jolly Joes Cafe", "longitude": -84.588134, "has_menu": false, "awards": null, "user_review_count": 2}, {"business_operation_status": 1, "rating": null, "neighborhood": null, "image": null, "scorecard": null, "featured": false, "sample_categories": "Restaurants", "public_id": "cafe-ventures-inc-marietta", "id": 766783500, "votes": null, "tagline": null, "has_video": false, "website": null, "offers": null, "latitude": 33.939834, "politanName": "Atlanta, GA Metro ", "phone_number": "7704230045", "tags": [{"primary": true, "id": 1722, "name": "Restaurants"}], "fax_number": null, "expansion": {"count": null, "uri": null}, "impression_id": "000b0000009d9232b4b8064df7ac1eb79c423ea705", "profile": "http://www.citysearch.com/profile/766783500/marietta_ga/cafe_ventures_inc.html", "address": {"city": "Marietta", "state": "GA", "street": "490 Franklin Rd SE", "postal_code": "30067"}, "capProviderId": null, "distance": null, "has_offers": false, "name": "Cafe Ventures Inc", "longitude": -84.50842, "has_menu": false, "awards": null, "user_review_count": 0}, {"business_operation_status": 1, "rating": null, "neighborhood": null, "image": null, "scorecard": null, "featured": false, "sample_categories": "Restaurants, Bars & Clubs, Bars & Pubs", "public_id": "boomers-bar-grill-smyrna", "id": 764862000, "votes": null, "tagline": null, "has_video": false, "website": null, "offers": null, "latitude": 33.899075, "politanName": "Atlanta, GA Metro ", "phone_number": "7709569555", "tags": [{"primary": false, "id": 164, "name": "Bars & Clubs"}, {"primary": false, "id": 1686, "name": "Bars & Pubs"}, {"primary": true, "id": 1722, "name": "Restaurants"}], "fax_number": null, "expansion": {"count": null, "uri": null}, "impression_id": "000b00000043912bc254a64d83bbdcfc468f2fb9bb", "profile": "http://www.citysearch.com/profile/764862000/smyrna_ga/boomer_s_bar_grill.html", "address": {"city": "Smyrna", "state": "GA", "street": "2105 S Cobb Dr SE", "postal_code": "30080"}, "capProviderId": null, "distance": null, "has_offers": false, "name": "Boomer's Bar & Grill", "longitude": -84.54028, "has_menu": false, "awards": null, "user_review_count": 0}, {"business_operation_status": 0, "rating": null, "neighborhood": null, "image": null, "scorecard": null, "featured": false, "sample_categories": "Restaurants, Delis And Delicatessens", "public_id": "cajuns-cookin-po-boys-marietta", "id": 787117810, "votes": null, "tagline": null, "has_video": false, "website": null, "offers": null, "latitude": 33.991982, "politanName": "Atlanta, GA Metro ", "phone_number": "6783326262", "tags": [{"primary": false, "id": 1727, "name": "Delis And Delicatessens"}, {"primary": true, "id": 1722, "name": "Restaurants"}], "fax_number": null, "expansion": {"count": null, "uri": null}, "impression_id": "000b000000dd5aae5c63084c8c9299597ef9d0c12a", "profile": "http://www.citysearch.com/profile/787117810/marietta_ga/cajun_s_cookin_po_boys.html", "address": {"city": "Marietta", "state": "GA", "street": "1199 Sandra Dr", "postal_code": "30062"}, "capProviderId": null, "distance": null, "has_offers": false, "name": "Cajun's Cookin' Po Boys", "longitude": -84.516441, "has_menu": false, "awards": null, "user_review_count": 0}, {"business_operation_status": 1, "rating": null, "neighborhood": null, "image": null, "scorecard": null, "featured": false, "sample_categories": "Restaurants, Mexican", "public_id": "taqueria-la-avelita-marietta", "id": 793328060, "votes": null, "tagline": null, "has_video": false, "website": null, "offers": null, "latitude": 33.934292, "politanName": "Atlanta, GA Metro ", "phone_number": "7707944551", "tags": [{"primary": false, "id": 11208, "name": "Mexican"}, {"primary": true, "id": 1722, "name": "Restaurants"}], "fax_number": null, "expansion": {"count": null, "uri": null}, "impression_id": "000b00000094877ab82d0a4785a0814b56ee193eb8", "profile": "http://www.citysearch.com/profile/793328060/marietta_ga/taqueria_la_avelita.html", "address": {"city": "Marietta", "state": "GA", "street": "739 Franklin Rd Se # C", "postal_code": "30067"}, "capProviderId": null, "distance": null, "has_offers": false, "name": "Taqueria La Avelita", "longitude": -84.502546, "has_menu": false, "awards": null, "user_review_count": 0}, {"business_operation_status": 1, "rating": null, "neighborhood": null, "image": null, "scorecard": null, "featured": false, "sample_categories": "Restaurants", "public_id": "purple-restaurant-ent-marietta", "id": 793332920, "votes": null, "tagline": null, "has_video": false, "website": null, "offers": null, "latitude": 33.931495, "politanName": "Atlanta, GA Metro ", "phone_number": "7706727087", "tags": [{"primary": true, "id": 1722, "name": "Restaurants"}], "fax_number": null, "expansion": {"count": null, "uri": null}, "impression_id": "000b00000003c0aee737934e2f8f4920673429ef7f", "profile": "http://www.citysearch.com/profile/793332920/marietta_ga/purple_restaurant_ent.html", "address": {"city": "Marietta", "state": "GA", "street": "2012 Powers Ferry Trce Se", "postal_code": "30067"}, "capProviderId": null, "distance": null, "has_offers": false, "name": "Purple Restaurant Ent", "longitude": -84.478312, "has_menu": false, "awards": null, "user_review_count": 0}, {"business_operation_status": 1, "rating": null, "neighborhood": null, "image": null, "scorecard": null, "featured": false, "sample_categories": "Restaurants", "public_id": "mamas-soulfood-kitchen-smyrna", "id": 777797920, "votes": null, "tagline": null, "has_video": false, "website": null, "offers": null, "latitude": 33.891089, "politanName": "Atlanta, GA Metro ", "phone_number": "7704357779", "tags": [{"primary": true, "id": 1722, "name": "Restaurants"}], "fax_number": null, "expansion": {"count": null, "uri": null}, "impression_id": "000b00000086fdefcbc8504504b79aa7b17e6c3f50", "profile": "http://www.citysearch.com/profile/777797920/smyrna_ga/mama_s_soulfood_kitchen.html", "address": {"city": "Smyrna", "state": "GA", "street": "1651 Roswell St Se", "postal_code": "30080"}, "capProviderId": null, "distance": null, "has_offers": false, "name": "Mama's Soulfood Kitchen", "longitude": -84.504679, "has_menu": false, "awards": null, "user_review_count": 1}, {"business_operation_status": 1, "rating": null, "neighborhood": null, "image": null, "scorecard": null, "featured": false, "sample_categories": "Barbecue Restaurants", "public_id": "sams-bbq-one-marietta", "id": 787089000, "votes": null, "tagline": null, "has_video": false, "website": null, "offers": null, "latitude": 33.955116, "politanName": "Atlanta, GA Metro ", "phone_number": "6783241518", "tags": [{"primary": true, "id": 1724, "name": "Barbecue Restaurants"}], "fax_number": null, "expansion": {"count": null, "uri": null}, "impression_id": "000b000000515d0db861bb45a18d03a72e0457dc18", "profile": "http://www.citysearch.com/profile/787089000/marietta_ga/sam_s_bbq_one.html", "address": {"city": "Marietta", "state": "GA", "street": "3600 Dallas Hwy Sw", "postal_code": "30064"}, "capProviderId": null, "distance": null, "has_offers": false, "name": "Sam's BBQ One", "longitude": -84.656027, "has_menu": false, "awards": null, "user_review_count": 0}, {"business_operation_status": 1, "rating": null, "neighborhood": null, "image": null, "scorecard": null, "featured": false, "sample_categories": "Restaurants, Carry Out, Hamburgers", "public_id": "mc-donalds-austell-3", "id": 742217920, "votes": null, "tagline": null, "has_video": false, "website": "http://www.citysearch.com/profile/external/742217920/austell_ga/mc_donald_s.html", "offers": null, "latitude": 33.866346, "politanName": "Atlanta, GA Metro ", "phone_number": "7702221927", "tags": [{"primary": false, "id": 11247, "name": "Carry Out"}, {"primary": false, "id": 11270, "name": "Hamburgers"}, {"primary": true, "id": 1722, "name": "Restaurants"}], "fax_number": null, "expansion": {"count": null, "uri": null}, "impression_id": "000b000000b35078aac69d482481d6b626f3595c12", "profile": "http://www.citysearch.com/profile/742217920/austell_ga/mc_donald_s.html", "address": {"city": "Austell", "state": "GA", "street": "E West Connector & Marathon", "postal_code": "30106"}, "capProviderId": null, "distance": null, "has_offers": false, "name": "Mc Donald's", "longitude": -84.626708, "has_menu": false, "awards": null, "user_review_count": 0}, {"business_operation_status": 1, "rating": null, "neighborhood": null, "image": null, "scorecard": null, "featured": false, "sample_categories": "Restaurants, Carry Out", "public_id": "churchs-chicken-marietta-5", "id": 809894000, "votes": null, "tagline": null, "has_video": false, "website": null, "offers": null, "latitude": 33.951817, "politanName": "Atlanta, GA Metro ", "phone_number": "7704228166", "tags": [{"primary": false, "id": 11247, "name": "Carry Out"}, {"primary": true, "id": 1722, "name": "Restaurants"}], "fax_number": null, "expansion": {"count": null, "uri": null}, "impression_id": "000b00000086240270bf564a71b1a7614c2b39c35e", "profile": "http://www.citysearch.com/profile/809894000/marietta_ga/church_s_chicken.html", "address": {"city": "Marietta", "state": "GA", "street": "23 S Marietta Pkwy SW", "postal_code": "30064"}, "capProviderId": null, "distance": null, "has_offers": false, "name": "Church's Chicken", "longitude": -84.551523, "has_menu": false, "awards": null, "user_review_count": 0}, {"business_operation_status": 1, "rating": null, "neighborhood": null, "image": null, "scorecard": null, "featured": false, "sample_categories": "Restaurants", "public_id": "p-l-p-restaurant-marietta", "id": 796108680, "votes": null, "tagline": null, "has_video": false, "website": null, "offers": null, "latitude": 33.952602, "politanName": "Atlanta, GA Metro ", "phone_number": "7704990139", "tags": [{"primary": true, "id": 1722, "name": "Restaurants"}], "fax_number": null, "expansion": {"count": null, "uri": null}, "impression_id": "000b000000a71d7a614c5b445a81ee8c8b6c6ddf2f", "profile": "http://www.citysearch.com/profile/796108680/marietta_ga/p_l_p_restaurant.html", "address": {"city": "Marietta", "state": "GA", "street": "3960 Mary Eliza Trce NW", "postal_code": "30064"}, "capProviderId": null, "distance": null, "has_offers": false, "name": "P L P Restaurant", "longitude": -84.549933, "has_menu": false, "awards": null, "user_review_count": 0}, {"business_operation_status": 1, "rating": 8.0, "neighborhood": null, "image": null, "scorecard": null, "featured": false, "sample_categories": "Restaurants, Mexican", "public_id": "el-dorado-restaurant-marietta", "id": 2901664, "votes": null, "tagline": null, "has_video": false, "website": null, "offers": null, "latitude": 33.902097, "politanName": "Atlanta, GA Metro ", "phone_number": "7704347772", "tags": [{"primary": false, "id": 1722, "name": "Restaurants"}, {"primary": true, "id": 11208, "name": "Mexican"}], "fax_number": null, "expansion": {"count": null, "uri": null}, "impression_id": "000b0000007f6cccf8fce64b9c9c25154666b7d15d", "profile": "http://www.citysearch.com/profile/2901664/marietta_ga/el_dorado_restaurant.html", "address": {"city": "Marietta", "state": "GA", "street": "325 Pat Mell Rd SE", "postal_code": "30060"}, "capProviderId": null, "distance": null, "has_offers": false, "name": "El Dorado Restaurant", "longitude": -84.546463, "has_menu": true, "awards": null, "user_review_count": 0}, {"business_operation_status": 1, "rating": null, "neighborhood": null, "image": null, "scorecard": null, "featured": false, "sample_categories": "Restaurants", "public_id": "tropical-smoothie-cafe-smyrna", "id": 807164030, "votes": null, "tagline": null, "has_video": false, "website": null, "offers": null, "latitude": 33.884019, "politanName": "Atlanta, GA Metro ", "phone_number": "7704369980", "tags": [{"primary": true, "id": 1722, "name": "Restaurants"}], "fax_number": null, "expansion": {"count": null, "uri": null}, "impression_id": "000b000000760910df642b4578b8089a7abcf97498", "profile": "http://www.citysearch.com/profile/807164030/smyrna_ga/tropical_smoothie_cafe.html", "address": {"city": "Smyrna", "state": "GA", "street": "1265 W Spring St SE", "postal_code": "30080"}, "capProviderId": null, "distance": null, "has_offers": false, "name": "Tropical Smoothie Cafe", "longitude": -84.515924, "has_menu": false, "awards": null, "user_review_count": 0}, {"business_operation_status": 1, "rating": null, "neighborhood": null, "image": null, "scorecard": null, "featured": false, "sample_categories": "Restaurants", "public_id": "planet-smoothie-marietta-6", "id": 808830020, "votes": null, "tagline": null, "has_video": false, "website": null, "offers": null, "latitude": 33.952602, "politanName": "Atlanta, GA Metro ", "phone_number": "7704272700", "tags": [{"primary": true, "id": 1722, "name": "Restaurants"}], "fax_number": null, "expansion": {"count": null, "uri": null}, "impression_id": "000b000000347e628cab9c4810a0222778410dda02", "profile": "http://www.citysearch.com/profile/808830020/marietta_ga/planet_smoothie.html", "address": {"city": "Marietta", "state": "GA", "street": "23451 Ernest Barrett Pkwy", "postal_code": "30064"}, "capProviderId": null, "distance": null, "has_offers": false, "name": "Planet Smoothie", "longitude": -84.549933, "has_menu": false, "awards": null, "user_review_count": 0}], "histograms": [], "tag_ids": [1722], "uri": "http://api.citygridmedia.com:8080/search/places/v2/search/where?has_offers=false&type=restaurant&format=json&page=17&where=30008&rpp=50&histograms=false&publisher=10000009598&region_type=circle", "did_you_mean": "", "regions": [{"latitude": 33.895376999999996, "default_radius": 3.24, "type": "postal_code", "name": "30008", "longitude": -84.588844}], "call_id": "000b0000007f0876af268e4a239269c47d67c10933", "first_hit": 801, "total_hits": 1349, "geo_ids": [26364], "page": 17, "last_hit": 850}}