{"results": {"rpp": 50, "locations": [{"business_operation_status": 1, "rating": null, "neighborhood": null, "image": null, "scorecard": null, "featured": false, "sample_categories": "Frozen Yogurt Shops, Grocery Stores, Restaurants", "public_id": "oolala-marietta", "id": 732204990, "votes": null, "tagline": null, "has_video": false, "website": "http://www.citysearch.com/profile/external/732204990/marietta_ga/oolala.html", "offers": null, "latitude": 33.950252, "politanName": "Atlanta, GA Metro ", "phone_number": "6783836129", "tags": [{"primary": false, "id": 1713, "name": "Grocery Stores"}, {"primary": false, "id": 1722, "name": "Restaurants"}, {"primary": true, "id": 1729, "name": "Frozen Yogurt Shops"}], "fax_number": null, "expansion": {"count": null, "uri": null}, "impression_id": "000b0000008177520bd0bd4d50bd1c43fb95127a40", "profile": "http://www.citysearch.com/profile/732204990/marietta_ga/oolala.html", "address": {"city": "Marietta", "state": "GA", "street": "2500 Dallas Hwy SW # 650", "postal_code": "30064"}, "capProviderId": null, "distance": null, "has_offers": false, "name": "Oolala", "longitude": -84.638093, "has_menu": false, "awards": null, "user_review_count": 0}, {"business_operation_status": 1, "rating": null, "neighborhood": null, "image": null, "scorecard": null, "featured": false, "sample_categories": "Coffeehouses", "public_id": "volcanica-coffee-inc-coral", "id": 732048930, "votes": null, "tagline": null, "has_video": false, "website": null, "offers": "Free Shipping", "latitude": 33.988892, "politanName": "Atlanta, GA Metro ", "phone_number": "8774547031", "tags": [{"primary": true, "id": 1726, "name": "Coffeehouses"}], "fax_number": null, "expansion": {"count": null, "uri": null}, "impression_id": "000b0000003feece10aa094cc2806512721546dcd1", "profile": "http://www.citysearch.com/profile/732048930/atlanta_ga/volcanica_coffee_inc.html", "address": {"city": "Atlanta", "state": "GA", "street": "1831-C West Oak Parkway", "postal_code": "30062"}, "capProviderId": null, "distance": null, "has_offers": true, "name": "Volcanica Coffee Inc", "longitude": -84.525273, "has_menu": false, "awards": null, "user_review_count": 0}, {"business_operation_status": 1, "rating": null, "neighborhood": null, "image": null, "scorecard": null, "featured": false, "sample_categories": "Restaurants, Ice Cream Parlors", "public_id": "smoothie-express-marietta", "id": 653592070, "votes": null, "tagline": null, "has_video": false, "website": "http://www.citysearch.com/profile/external/653592070/marietta_ga/smoothie_express.html", "offers": null, "latitude": 33.899518, "politanName": "Atlanta, GA Metro ", "phone_number": "7705901900", "tags": [{"primary": false, "id": 1730, "name": "Ice Cream Parlors"}, {"primary": true, "id": 1722, "name": "Restaurants"}], "fax_number": null, "expansion": {"count": null, "uri": null}, "impression_id": "000b000000e92a9805e1e64c64b71a2948a588ad50", "profile": "http://www.citysearch.com/profile/653592070/marietta_ga/smoothie_express.html", "address": {"city": "Marietta", "state": "GA", "street": "1812 Powder Springs Rd Sw#1107", "postal_code": "30064"}, "capProviderId": null, "distance": null, "has_offers": false, "name": "Smoothie Express", "longitude": -84.606801, "has_menu": false, "awards": null, "user_review_count": 0}, {"business_operation_status": 1, "rating": null, "neighborhood": null, "image": null, "scorecard": null, "featured": false, "sample_categories": "Restaurants, Chinese, American Express, Discover, MasterCard", "public_id": "one-sixty-eight-dragon-marietta", "id": 747470520, "votes": null, "tagline": null, "has_video": false, "website": null, "offers": null, "latitude": 33.903742, "politanName": "Atlanta, GA Metro ", "phone_number": "7704275599", "tags": [{"primary": false, "id": 11252, "name": "Chinese"}, {"primary": false, "id": 11333, "name": "American Express"}, {"primary": false, "id": 11349, "name": "Discover"}, {"primary": false, "id": 11361, "name": "MasterCard"}, {"primary": false, "id": 11382, "name": "Visa"}, {"primary": true, "id": 1722, "name": "Restaurants"}], "fax_number": null, "expansion": {"count": null, "uri": null}, "impression_id": "000b000000f771f5bb5a8642418ea083abe7f91f72", "profile": "http://www.citysearch.com/profile/747470520/marietta_ga/one_sixty_eight_dragon.html", "address": {"city": "Marietta", "state": "GA", "street": "1750 Powder Springs Rd # 240", "postal_code": "30064"}, "capProviderId": null, "distance": null, "has_offers": false, "name": "One Sixty Eight Dragon", "longitude": -84.606517, "has_menu": false, "awards": null, "user_review_count": 0}, {"business_operation_status": 1, "rating": null, "neighborhood": null, "image": null, "scorecard": null, "featured": false, "sample_categories": "Restaurants", "public_id": "royal-waffle-king-marietta", "id": 775234230, "votes": null, "tagline": null, "has_video": false, "website": "http://www.citysearch.com/profile/external/775234230/marietta_ga/royal_waffle_king.html", "offers": null, "latitude": 33.987292, "politanName": "Atlanta, GA Metro ", "phone_number": "7704423800", "tags": [{"primary": true, "id": 1722, "name": "Restaurants"}], "fax_number": null, "expansion": {"count": null, "uri": null}, "impression_id": "000b0000004cc8525cd6ef4e22a1aa83bf2bf79ca4", "profile": "http://www.citysearch.com/profile/775234230/marietta_ga/royal_waffle_king.html", "address": {"city": "Marietta", "state": "GA", "street": "1459 Field Park Cir", "postal_code": "30066"}, "capProviderId": null, "distance": null, "has_offers": false, "name": "Royal Waffle King", "longitude": -84.563324, "has_menu": true, "awards": null, "user_review_count": 0}, {"business_operation_status": 1, "rating": null, "neighborhood": null, "image": null, "scorecard": null, "featured": false, "sample_categories": "Restaurants, New American, Carry Out, Cooking, Soul", "public_id": "chads-place-marietta", "id": 753259210, "votes": null, "tagline": null, "has_video": false, "website": null, "offers": null, "latitude": 33.964105, "politanName": "Atlanta, GA Metro ", "phone_number": "7704278226", "tags": [{"primary": false, "id": 11189, "name": "New American"}, {"primary": false, "id": 11247, "name": "Carry Out"}, {"primary": false, "id": 11254, "name": "Cooking"}, {"primary": false, "id": 15140, "name": "Soul"}, {"primary": true, "id": 1722, "name": "Restaurants"}], "fax_number": null, "expansion": {"count": null, "uri": null}, "impression_id": "000b0000003a2f7734cc6f4d4b9ab6c0a32c487057", "profile": "http://www.citysearch.com/profile/753259210/marietta_ga/chad_s_place.html", "address": {"city": "Marietta", "state": "GA", "street": "531 Roselane St NW Suite 520 NW", "postal_code": "30060"}, "capProviderId": null, "distance": null, "has_offers": false, "name": "Chad's Place", "longitude": -84.557337, "has_menu": false, "awards": null, "user_review_count": 0}, {"business_operation_status": 1, "rating": null, "neighborhood": null, "image": null, "scorecard": null, "featured": false, "sample_categories": "Restaurants, Delis And Delicatessens, Sandwich Shops, Carry Out", "public_id": "subway-marietta-50", "id": 764879610, "votes": null, "tagline": null, "has_video": false, "website": "http://www.citysearch.com/profile/external/764879610/marietta_ga/subway.html", "offers": null, "latitude": 33.925399, "politanName": "Atlanta, GA Metro ", "phone_number": "7704225412", "tags": [{"primary": false, "id": 1727, "name": "Delis And Delicatessens"}, {"primary": false, "id": 1736, "name": "Sandwich Shops"}, {"primary": false, "id": 11247, "name": "Carry Out"}, {"primary": true, "id": 1722, "name": "Restaurants"}], "fax_number": null, "expansion": {"count": null, "uri": null}, "impression_id": "000b0000008ca801cd09ad4c1cba797a7cef17444b", "profile": "http://www.citysearch.com/profile/764879610/marietta_ga/subway.html", "address": {"city": "Marietta", "state": "GA", "street": "1135 Powder Springs St", "postal_code": "30064"}, "capProviderId": null, "distance": null, "has_offers": false, "name": "SUBWAY", "longitude": -84.573233, "has_menu": false, "awards": null, "user_review_count": 0}, {"business_operation_status": 1, "rating": null, "neighborhood": null, "image": null, "scorecard": null, "featured": false, "sample_categories": "Restaurants, Chicken", "public_id": "chicken-salad-chick-marietta", "id": 803535140, "votes": null, "tagline": null, "has_video": false, "website": null, "offers": null, "latitude": 33.980574, "politanName": "Atlanta, GA Metro ", "phone_number": "7705653985", "tags": [{"primary": false, "id": 12839, "name": "Chicken"}, {"primary": true, "id": 1722, "name": "Restaurants"}], "fax_number": null, "expansion": {"count": null, "uri": null}, "impression_id": "000b000000a2f09ab7f1434ca39ed32ceb61cc8c3f", "profile": "http://www.citysearch.com/profile/803535140/marietta_ga/chicken_salad_chick.html", "address": {"city": "Marietta", "state": "GA", "street": "4101 Roswell Rd", "postal_code": "30062"}, "capProviderId": null, "distance": null, "has_offers": false, "name": "Chicken Salad Chick", "longitude": -84.433488, "has_menu": false, "awards": null, "user_review_count": 0}, {"business_operation_status": 1, "rating": null, "neighborhood": null, "image": null, "scorecard": null, "featured": false, "sample_categories": "Coffeehouses", "public_id": "insomnia-marietta", "id": 37646047, "votes": null, "tagline": null, "has_video": false, "website": null, "offers": null, "latitude": 33.948083, "politanName": "Atlanta, GA Metro ", "phone_number": "7705147442", "tags": [{"primary": true, "id": 1726, "name": "Coffeehouses"}], "fax_number": null, "expansion": {"count": null, "uri": null}, "impression_id": "000b000000d0c8fd52749744d18d7171e0dc0709d4", "profile": "http://www.citysearch.com/profile/37646047/marietta_ga/insomnia.html", "address": {"city": "Marietta", "state": "GA", "street": "245 Ridgeway Rd", "postal_code": "30064"}, "capProviderId": null, "distance": null, "has_offers": false, "name": "Insomnia", "longitude": -84.626672, "has_menu": false, "awards": null, "user_review_count": 0}, {"business_operation_status": 1, "rating": null, "neighborhood": null, "image": null, "scorecard": null, "featured": false, "sample_categories": "Restaurants", "public_id": "mrs-winners-chicken-biscuits-marietta-2", "id": 806356350, "votes": null, "tagline": null, "has_video": false, "website": null, "offers": null, "latitude": 33.982266, "politanName": "Atlanta, GA Metro ", "phone_number": "7709710888", "tags": [{"primary": true, "id": 1722, "name": "Restaurants"}], "fax_number": null, "expansion": {"count": null, "uri": null}, "impression_id": "000b000000cb72e196a15b475693d36cfbf2789449", "profile": "http://www.citysearch.com/profile/806356350/marietta_ga/mrs_winners_chicken_biscuits.html", "address": {"city": "Marietta", "state": "GA", "street": "1333 Johnson Ferry Rd", "postal_code": "30068"}, "capProviderId": null, "distance": null, "has_offers": false, "name": "Mrs Winners Chicken & Biscuits", "longitude": -84.427409, "has_menu": true, "awards": null, "user_review_count": 0}, {"business_operation_status": 1, "rating": null, "neighborhood": null, "image": null, "scorecard": null, "featured": false, "sample_categories": "Grocery Stores, Restaurants", "public_id": "global-food-nuts-marietta", "id": 748312370, "votes": null, "tagline": null, "has_video": false, "website": null, "offers": null, "latitude": 33.929154, "politanName": "Atlanta, GA Metro ", "phone_number": "7704282222", "tags": [{"primary": false, "id": 1722, "name": "Restaurants"}, {"primary": true, "id": 1713, "name": "Grocery Stores"}], "fax_number": null, "expansion": {"count": null, "uri": null}, "impression_id": "000b0000007992b46b5f444f51a433f60e6b09614d", "profile": "http://www.citysearch.com/profile/748312370/marietta_ga/global_food_nuts.html", "address": {"city": "Marietta", "state": "GA", "street": "950 Cobb Pkwy S", "postal_code": "30060"}, "capProviderId": null, "distance": null, "has_offers": false, "name": "Global Food & Nuts", "longitude": -84.510376, "has_menu": false, "awards": null, "user_review_count": 0}, {"business_operation_status": 1, "rating": 8.0, "neighborhood": null, "image": null, "scorecard": null, "featured": false, "sample_categories": "Restaurants, Pizza", "public_id": "uncle-vitos-new-york-pizza-marietta", "id": 37646046, "votes": null, "tagline": null, "has_video": false, "website": null, "offers": null, "latitude": 33.950252, "politanName": "Atlanta, GA Metro ", "phone_number": "6787668486", "tags": [{"primary": false, "id": 1722, "name": "Restaurants"}, {"primary": true, "id": 11299, "name": "Pizza"}], "fax_number": null, "expansion": {"count": null, "uri": null}, "impression_id": "000b000000f796abe5f42240c0beec7b9037e931cd", "profile": "http://www.citysearch.com/profile/37646046/marietta_ga/uncle_vitos_new_york_pizza.html", "address": {"city": "Marietta", "state": "GA", "street": "2500 Dallas Hwy SW", "postal_code": "30064"}, "capProviderId": null, "distance": null, "has_offers": false, "name": "Uncle Vitos New York Pizza", "longitude": -84.638093, "has_menu": true, "awards": null, "user_review_count": 2}, {"business_operation_status": 1, "rating": null, "neighborhood": null, "image": null, "scorecard": null, "featured": false, "sample_categories": "Restaurants", "public_id": "mughals-marietta", "id": 672132640, "votes": null, "tagline": null, "has_video": false, "website": null, "offers": null, "latitude": 33.907587, "politanName": "Atlanta, GA Metro ", "phone_number": "7709553130", "tags": [{"primary": true, "id": 1722, "name": "Restaurants"}], "fax_number": null, "expansion": {"count": null, "uri": null}, "impression_id": "000b00000035000b2005cd4f2cad2e9d2dee937e96", "profile": "http://www.citysearch.com/profile/672132640/marietta_ga/mughals.html", "address": {"city": "Marietta", "state": "GA", "street": "1869 S Cobb Dr SE", "postal_code": "30060"}, "capProviderId": null, "distance": null, "has_offers": false, "name": "Mughals", "longitude": -84.543502, "has_menu": false, "awards": null, "user_review_count": 0}, {"business_operation_status": 1, "rating": null, "neighborhood": null, "image": null, "scorecard": null, "featured": false, "sample_categories": "Restaurants, Delis And Delicatessens, Sandwich Shops, Carry Out", "public_id": "blimpie-subs-salads-kennesaw-2", "id": 713401400, "votes": null, "tagline": null, "has_video": false, "website": "http://www.citysearch.com/profile/external/713401400/kennesaw_ga/blimpie_subs_salads.html", "offers": null, "latitude": 34.00436, "politanName": "Atlanta, GA Metro ", "phone_number": "7704245088", "tags": [{"primary": false, "id": 1727, "name": "Delis And Delicatessens"}, {"primary": false, "id": 1736, "name": "Sandwich Shops"}, {"primary": false, "id": 11247, "name": "Carry Out"}, {"primary": true, "id": 1722, "name": "Restaurants"}], "fax_number": null, "expansion": {"count": null, "uri": null}, "impression_id": "000b000000e59e3a607c3c43fc828fff63139d45f2", "profile": "http://www.citysearch.com/profile/713401400/kennesaw_ga/blimpie_subs_salads.html", "address": {"city": "Kennesaw", "state": "GA", "street": "667 Ernest W Barrett Pkwy NW", "postal_code": "30144"}, "capProviderId": null, "distance": null, "has_offers": false, "name": "Blimpie Subs & Salads", "longitude": -84.572087, "has_menu": false, "awards": null, "user_review_count": 0}, {"business_operation_status": 1, "rating": null, "neighborhood": null, "image": null, "scorecard": null, "featured": false, "sample_categories": "Restaurants, Mexican, Carry Out", "public_id": "taco-bell-marietta-10", "id": 775210570, "votes": null, "tagline": null, "has_video": false, "website": "http://www.citysearch.com/profile/external/775210570/marietta_ga/taco_bell.html", "offers": null, "latitude": 33.924583, "politanName": "Atlanta, GA Metro ", "phone_number": "7705907481", "tags": [{"primary": false, "id": 11208, "name": "Mexican"}, {"primary": false, "id": 11247, "name": "Carry Out"}, {"primary": true, "id": 1722, "name": "Restaurants"}], "fax_number": null, "expansion": {"count": null, "uri": null}, "impression_id": "000b0000008c0b7d89c38e4dfab455aacfb13c24a0", "profile": "http://www.citysearch.com/profile/775210570/marietta_ga/taco_bell.html", "address": {"city": "Marietta", "state": "GA", "street": "1180 Powder Springs St", "postal_code": "30064"}, "capProviderId": null, "distance": null, "has_offers": false, "name": "Taco Bell", "longitude": -84.575231, "has_menu": false, "awards": null, "user_review_count": 0}, {"business_operation_status": 1, "rating": null, "neighborhood": null, "image": null, "scorecard": null, "featured": false, "sample_categories": "Restaurants", "public_id": "cafe-internet-marietta", "id": 775213360, "votes": null, "tagline": null, "has_video": false, "website": null, "offers": null, "latitude": 33.938913, "politanName": "Atlanta, GA Metro ", "phone_number": "6785940304", "tags": [{"primary": true, "id": 1722, "name": "Restaurants"}], "fax_number": null, "expansion": {"count": null, "uri": null}, "impression_id": "000b000000fd9b3b1d78f1438f8f66eea91eed6785", "profile": "http://www.citysearch.com/profile/775213360/marietta_ga/cafe_internet.html", "address": {"city": "Marietta", "state": "GA", "street": "550 Franklin Rd SE", "postal_code": "30067"}, "capProviderId": null, "distance": null, "has_offers": false, "name": "Cafe Internet", "longitude": -84.507658, "has_menu": false, "awards": null, "user_review_count": 0}, {"business_operation_status": 1, "rating": null, "neighborhood": null, "image": null, "scorecard": null, "featured": false, "sample_categories": "Restaurants, Pizza", "public_id": "pizzano-s-pizzeria-inc-roswell", "id": 807569560, "votes": null, "tagline": null, "has_video": false, "website": null, "offers": null, "latitude": 34.003826, "politanName": "Atlanta, GA Metro ", "phone_number": "7706401511", "tags": [{"primary": false, "id": 1722, "name": "Restaurants"}, {"primary": true, "id": 11299, "name": "Pizza"}], "fax_number": null, "expansion": {"count": null, "uri": null}, "impression_id": "000b0000007be4b1b9d9a54f249cea04a1ef3db900", "profile": "http://www.citysearch.com/profile/807569560/roswell_ga/pizzano_s_pizzeria_inc.html", "address": {"city": "Roswell", "state": "GA", "street": "880 Marietta Hwy # 600", "postal_code": "30075"}, "capProviderId": null, "distance": null, "has_offers": false, "name": "Pizzano S Pizzeria Inc", "longitude": -84.391437, "has_menu": false, "awards": null, "user_review_count": 0}, {"business_operation_status": 1, "rating": null, "neighborhood": null, "image": null, "scorecard": null, "featured": false, "sample_categories": "Restaurants, Carry Out", "public_id": "checkers-drivein-restaurant-roswell", "id": 824602510, "votes": null, "tagline": null, "has_video": false, "website": null, "offers": null, "latitude": 34.063874, "politanName": "Atlanta, GA Metro ", "phone_number": "7705184419", "tags": [{"primary": false, "id": 11247, "name": "Carry Out"}, {"primary": true, "id": 1722, "name": "Restaurants"}], "fax_number": null, "expansion": {"count": null, "uri": null}, "impression_id": "000b000000e9134425e4714c0c9cfd67b174640438", "profile": "http://www.citysearch.com/profile/824602510/roswell_ga/checkers_drive_in_restaurant.html", "address": {"city": "Roswell", "state": "GA", "street": "4795 Woodstock Rd", "postal_code": "30075"}, "capProviderId": null, "distance": null, "has_offers": false, "name": "Checkers Drive-In Restaurant", "longitude": -84.423358, "has_menu": false, "awards": null, "user_review_count": 0}, {"business_operation_status": 1, "rating": null, "neighborhood": null, "image": null, "scorecard": null, "featured": false, "sample_categories": "Restaurants", "public_id": "the-mad-italian-marietta", "id": 826162680, "votes": null, "tagline": null, "has_video": false, "website": null, "offers": null, "latitude": 33.974656, "politanName": "Atlanta, GA Metro ", "phone_number": "6782130564", "tags": [{"primary": true, "id": 1722, "name": "Restaurants"}], "fax_number": null, "expansion": {"count": null, "uri": null}, "impression_id": "000b0000001f39618852a74cafbfffec6a52bb14e1", "profile": "http://www.citysearch.com/profile/826162680/marietta_ga/the_mad_italian.html", "address": {"city": "Marietta", "state": "GA", "street": "980 E Piedmont Rd", "postal_code": "30062"}, "capProviderId": null, "distance": null, "has_offers": false, "name": "The Mad Italian", "longitude": -84.479091, "has_menu": true, "awards": null, "user_review_count": 0}, {"business_operation_status": 1, "rating": null, "neighborhood": null, "image": null, "scorecard": null, "featured": false, "sample_categories": "Ice Cream Parlors, Restaurants, Dessert Shops", "public_id": "dippin-dots-kennesaw", "id": 36642606, "votes": null, "tagline": null, "has_video": false, "website": "http://www.citysearch.com/profile/external/36642606/kennesaw_ga/dippin_dots.html", "offers": null, "latitude": 34.019128, "politanName": "Atlanta, GA Metro ", "phone_number": "7709191015", "tags": [{"primary": false, "id": 1722, "name": "Restaurants"}, {"primary": false, "id": 1728, "name": "Dessert Shops"}, {"primary": true, "id": 1730, "name": "Ice Cream Parlors"}], "fax_number": null, "expansion": {"count": null, "uri": null}, "impression_id": "000b000000e03e2941117d4e9f805d31f2d9068fea", "profile": "http://www.citysearch.com/profile/36642606/kennesaw_ga/dippin_dots.html", "address": {"city": "Kennesaw", "state": "GA", "street": "400 Ernest W Barrett Pkwy NW", "postal_code": "30144"}, "capProviderId": null, "distance": null, "has_offers": false, "name": "Dippin' Dots", "longitude": -84.563608, "has_menu": true, "awards": null, "user_review_count": 0}, {"business_operation_status": 1, "rating": null, "neighborhood": null, "image": null, "scorecard": null, "featured": false, "sample_categories": "Restaurants", "public_id": "reisner-restaurants-inc-marietta", "id": 751332090, "votes": null, "tagline": null, "has_video": false, "website": null, "offers": null, "latitude": 33.9495, "politanName": "Atlanta, GA Metro ", "phone_number": "6782908012", "tags": [{"primary": true, "id": 1722, "name": "Restaurants"}], "fax_number": null, "expansion": {"count": null, "uri": null}, "impression_id": "000b000000a8dc0a99e8fb447184a50d0907cdafde", "profile": "http://www.citysearch.com/profile/751332090/marietta_ga/reisner_restaurants_inc.html", "address": {"city": "Marietta", "state": "GA", "street": "51 Cobb Pkwy S", "postal_code": "30060"}, "capProviderId": null, "distance": null, "has_offers": false, "name": "Reisner Restaurants Inc", "longitude": -84.519437, "has_menu": false, "awards": null, "user_review_count": 0}, {"business_operation_status": 1, "rating": null, "neighborhood": null, "image": null, "scorecard": null, "featured": false, "sample_categories": "Restaurants, Eclectic & International", "public_id": "presto-latin-intl-cuisine-marietta", "id": 751337040, "votes": null, "tagline": null, "has_video": false, "website": null, "offers": null, "latitude": 33.951043, "politanName": "Atlanta, GA Metro ", "phone_number": "7709731280", "tags": [{"primary": false, "id": 11259, "name": "Eclectic & International"}, {"primary": true, "id": 1722, "name": "Restaurants"}], "fax_number": null, "expansion": {"count": null, "uri": null}, "impression_id": "000b000000824bdd1bd2984d1981e771db9f62a3b3", "profile": "http://www.citysearch.com/profile/751337040/marietta_ga/presto_latin_intl_cuisine.html", "address": {"city": "Marietta", "state": "GA", "street": "1157 Roswell Rd", "postal_code": "30062"}, "capProviderId": null, "distance": null, "has_offers": false, "name": "Presto Latin & Intl Cuisine", "longitude": -84.517842, "has_menu": false, "awards": null, "user_review_count": 0}, {"business_operation_status": 1, "rating": null, "neighborhood": null, "image": null, "scorecard": null, "featured": false, "sample_categories": "Restaurants, Delis And Delicatessens, Carry Out, Pizza, Shop Online", "public_id": "jimmy-johns-marietta-2", "id": 682359830, "votes": null, "tagline": null, "has_video": false, "website": "http://www.citysearch.com/profile/external/682359830/marietta_ga/jimmy_john_s.html", "offers": null, "latitude": 33.971846, "politanName": "Atlanta, GA Metro ", "phone_number": "6785814550", "tags": [{"primary": false, "id": 1727, "name": "Delis And Delicatessens"}, {"primary": false, "id": 11247, "name": "Carry Out"}, {"primary": false, "id": 11299, "name": "Pizza"}, {"primary": false, "id": 11375, "name": "Shop Online"}, {"primary": true, "id": 1722, "name": "Restaurants"}], "fax_number": null, "expansion": {"count": null, "uri": null}, "impression_id": "000b0000003f11607f30254a21b59289deb7878674", "profile": "http://www.citysearch.com/profile/682359830/marietta_ga/jimmy_john_s.html", "address": {"city": "Marietta", "state": "GA", "street": "825 Church St Ne", "postal_code": "30060"}, "capProviderId": null, "distance": null, "has_offers": false, "name": "Jimmy John's", "longitude": -84.551204, "has_menu": false, "awards": null, "user_review_count": 0}, {"business_operation_status": 1, "rating": null, "neighborhood": null, "image": null, "scorecard": null, "featured": false, "sample_categories": "Restaurants", "public_id": "nuccis-italian-ice-gelato-marietta", "id": 810739460, "votes": null, "tagline": null, "has_video": false, "website": null, "offers": null, "latitude": 33.976739, "politanName": "Atlanta, GA Metro ", "phone_number": "7703210954", "tags": [{"primary": true, "id": 1722, "name": "Restaurants"}], "fax_number": null, "expansion": {"count": null, "uri": null}, "impression_id": "000b000000d950c8a61fde4cc2b304b61bdf5c088c", "profile": "http://www.citysearch.com/profile/810739460/marietta_ga/nucci_s_italian_ice_gelato.html", "address": {"city": "Marietta", "state": "GA", "street": "1050 E Piedmont Rd # 146", "postal_code": "30062"}, "capProviderId": null, "distance": null, "has_offers": false, "name": "Nucci's Italian Ice & Gelato", "longitude": -84.479676, "has_menu": true, "awards": null, "user_review_count": 1}, {"business_operation_status": 1, "rating": null, "neighborhood": null, "image": null, "scorecard": null, "featured": false, "sample_categories": "Restaurants", "public_id": "ocharleys-regional-office-marietta", "id": 826459340, "votes": null, "tagline": null, "has_video": false, "website": null, "offers": null, "latitude": 34.009709, "politanName": "Atlanta, GA Metro ", "phone_number": "7705098868", "tags": [{"primary": true, "id": 1722, "name": "Restaurants"}], "fax_number": null, "expansion": {"count": null, "uri": null}, "impression_id": "000b000000637d1f59d11f4305857066d92dc17650", "profile": "http://www.citysearch.com/profile/826459340/marietta_ga/o_charley_s_regional_office.html", "address": {"city": "Marietta", "state": "GA", "street": "2440 Sandy Plains Rd", "postal_code": "30066"}, "capProviderId": null, "distance": null, "has_offers": false, "name": "O'Charley's Regional Office", "longitude": -84.496627, "has_menu": true, "awards": null, "user_review_count": 0}, {"business_operation_status": 1, "rating": null, "neighborhood": null, "image": null, "scorecard": null, "featured": false, "sample_categories": "Barbecue Restaurants", "public_id": "sherrods-barbeque-seafood-marietta", "id": 830343550, "votes": null, "tagline": null, "has_video": false, "website": null, "offers": null, "latitude": 33.963728, "politanName": "Atlanta, GA Metro ", "phone_number": "7704286604", "tags": [{"primary": true, "id": 1724, "name": "Barbecue Restaurants"}], "fax_number": null, "expansion": {"count": null, "uri": null}, "impression_id": "000b00000045e6b8fff90e4c7a96ab6f08de532d2e", "profile": "http://www.citysearch.com/profile/830343550/marietta_ga/sherrods_barbeque_seafood.html", "address": {"city": "Marietta", "state": "GA", "street": "601 Parkaire Xing", "postal_code": "30068"}, "capProviderId": null, "distance": null, "has_offers": false, "name": "Sherrods Barbeque & Seafood", "longitude": -84.40402, "has_menu": false, "awards": null, "user_review_count": 0}, {"business_operation_status": 1, "rating": null, "neighborhood": null, "image": null, "scorecard": null, "featured": false, "sample_categories": "Restaurants", "public_id": "cheeseburger-bobbys-marietta", "id": 672561730, "votes": null, "tagline": null, "has_video": false, "website": "http://www.citysearch.com/profile/external/672561730/marietta_ga/cheeseburger_bobby_s.html", "offers": null, "latitude": 34.013539, "politanName": "Atlanta, GA Metro ", "phone_number": "7709199110", "tags": [{"primary": true, "id": 1722, "name": "Restaurants"}], "fax_number": null, "expansion": {"count": null, "uri": null}, "impression_id": "000b000000f4af3141c35345e4a6c5fc16c97c28e8", "profile": "http://www.citysearch.com/profile/672561730/marietta_ga/cheeseburger_bobby_s.html", "address": {"city": "Marietta", "state": "GA", "street": "125 Barrett Parkway", "postal_code": "30066"}, "capProviderId": null, "distance": null, "has_offers": false, "name": "Cheeseburger Bobby's", "longitude": -84.552923, "has_menu": true, "awards": null, "user_review_count": 0}, {"business_operation_status": 1, "rating": null, "neighborhood": null, "image": null, "scorecard": null, "featured": false, "sample_categories": "Ice Cream Parlors", "public_id": "haagendazs-shop-marietta", "id": 621882610, "votes": null, "tagline": null, "has_video": false, "website": "http://www.citysearch.com/profile/external/621882610/marietta_ga/haagen_dazs_shop.html", "offers": null, "latitude": 34.019128, "politanName": "Atlanta, GA Metro ", "phone_number": "7705903120", "tags": [{"primary": true, "id": 1730, "name": "Ice Cream Parlors"}], "fax_number": null, "expansion": {"count": null, "uri": null}, "impression_id": "000b000000e3013a13083a4df892540f9597224cd6", "profile": "http://www.citysearch.com/profile/621882610/marietta_ga/haagen_dazs_shop.html", "address": {"city": "Marietta", "state": "GA", "street": "400 Ernest Barrett Pkwy Nw", "postal_code": "30060"}, "capProviderId": null, "distance": null, "has_offers": false, "name": "Haagen-Dazs Shop", "longitude": -84.563608, "has_menu": false, "awards": null, "user_review_count": 0}, {"business_operation_status": 1, "rating": null, "neighborhood": null, "image": null, "scorecard": null, "featured": false, "sample_categories": "Restaurants", "public_id": "nagoya-roswell", "id": 625538904, "votes": null, "tagline": null, "has_video": false, "website": null, "offers": null, "latitude": 34.004732, "politanName": "Atlanta, GA Metro ", "phone_number": "7709988899", "tags": [{"primary": true, "id": 1722, "name": "Restaurants"}], "fax_number": null, "expansion": {"count": null, "uri": null}, "impression_id": "000b000000244a46856c1842e98531dd887f1df233", "profile": "http://www.citysearch.com/profile/625538904/roswell_ga/nagoya.html", "address": {"city": "Roswell", "state": "GA", "street": "910 Marietta Hwy", "postal_code": "30075"}, "capProviderId": null, "distance": null, "has_offers": false, "name": "Nagoya", "longitude": -84.389163, "has_menu": false, "awards": null, "user_review_count": 0}, {"business_operation_status": 1, "rating": null, "neighborhood": null, "image": null, "scorecard": null, "featured": false, "sample_categories": "Restaurants, Pizza", "public_id": "pizza-314-marietta", "id": 754799300, "votes": null, "tagline": null, "has_video": false, "website": null, "offers": null, "latitude": 34.011742, "politanName": "Atlanta, GA Metro ", "phone_number": "7709712929", "tags": [{"primary": false, "id": 11299, "name": "Pizza"}, {"primary": true, "id": 1722, "name": "Restaurants"}], "fax_number": null, "expansion": {"count": null, "uri": null}, "impression_id": "000b0000000e5814e30c4341f2920dad6db5c78869", "profile": "http://www.citysearch.com/profile/754799300/marietta_ga/pizza_314.html", "address": {"city": "Marietta", "state": "GA", "street": "2550 Sandy Plains Rd", "postal_code": "30066"}, "capProviderId": null, "distance": null, "has_offers": false, "name": "Pizza 314", "longitude": -84.495056, "has_menu": false, "awards": null, "user_review_count": 0}, {"business_operation_status": 1, "rating": 10.0, "neighborhood": null, "image": null, "scorecard": null, "featured": false, "sample_categories": "Catering, Restaurants", "public_id": "a-delightful-bitefull-catering-marietta", "id": 43855795, "votes": null, "tagline": null, "has_video": false, "website": "http://www.citysearch.com/profile/external/43855795/marietta_ga/a_delightful_bitefull_catering.html", "offers": null, "latitude": 33.973087, "politanName": "Atlanta, GA Metro ", "phone_number": "7705654146", "tags": [{"primary": false, "id": 1705, "name": "Catering"}, {"primary": true, "id": 1722, "name": "Restaurants"}], "fax_number": null, "expansion": {"count": null, "uri": null}, "impression_id": "000b000000a782ca41bb8b4648b6ef4d7152054bb7", "profile": "http://www.citysearch.com/profile/43855795/marietta_ga/a_delightful_bitefull_catering.html", "address": {"city": "Marietta", "state": "GA", "street": "2235 Sewell Mill Rd", "postal_code": "30062"}, "capProviderId": null, "distance": null, "has_offers": false, "name": "A Delightful Bitefull Catering", "longitude": -84.486914, "has_menu": false, "awards": null, "user_review_count": 1}, {"business_operation_status": 1, "rating": null, "neighborhood": null, "image": null, "scorecard": null, "featured": false, "sample_categories": "Restaurants", "public_id": "the-crepe-chefs-roswell", "id": 826309590, "votes": null, "tagline": null, "has_video": false, "website": null, "offers": null, "latitude": 34.056687, "politanName": "Atlanta, GA Metro ", "phone_number": "7706490261", "tags": [{"primary": true, "id": 1722, "name": "Restaurants"}], "fax_number": null, "expansion": {"count": null, "uri": null}, "impression_id": "000b0000003bc8dd6dc1d6451686c03aa84b33e1cb", "profile": "http://www.citysearch.com/profile/826309590/roswell_ga/the_crepe_chefs.html", "address": {"city": "Roswell", "state": "GA", "street": "11405 West Rd", "postal_code": "30075"}, "capProviderId": null, "distance": null, "has_offers": false, "name": "The Crepe Chefs", "longitude": -84.413411, "has_menu": false, "awards": null, "user_review_count": 0}, {"business_operation_status": 1, "rating": null, "neighborhood": null, "image": null, "scorecard": null, "featured": false, "sample_categories": "Restaurants, Cajun & Creole", "public_id": "cajun-johns-restaurant-marietta", "id": 45988795, "votes": null, "tagline": null, "has_video": false, "website": null, "offers": null, "latitude": 33.937014, "politanName": "Atlanta, GA Metro ", "phone_number": "7704998700", "tags": [{"primary": false, "id": 11245, "name": "Cajun & Creole"}, {"primary": true, "id": 1722, "name": "Restaurants"}], "fax_number": null, "expansion": {"count": null, "uri": null}, "impression_id": "000b000000c59ee5084c31447a90cd1084b1f72c74", "profile": "http://www.citysearch.com/profile/45988795/marietta_ga/cajun_john_s_restaurant.html", "address": {"city": "Marietta", "state": "GA", "street": "1123 Powder Springs St", "postal_code": "30064"}, "capProviderId": null, "distance": null, "has_offers": false, "name": "Cajun John's Restaurant", "longitude": -84.554706, "has_menu": false, "awards": null, "user_review_count": 0}, {"business_operation_status": 1, "rating": null, "neighborhood": null, "image": null, "scorecard": null, "featured": false, "sample_categories": "Grocery Stores, Food Delivery", "public_id": "mobile-meat-and-seafood-marietta", "id": 839073310, "votes": null, "tagline": null, "has_video": false, "website": null, "offers": null, "latitude": 33.970819, "politanName": "Atlanta, GA Metro ", "phone_number": "7708732733", "tags": [{"primary": false, "id": 1713, "name": "Grocery Stores"}, {"primary": true, "id": 11267, "name": "Food Delivery"}], "fax_number": null, "expansion": {"count": null, "uri": null}, "impression_id": "000b0000002a6de8a1a3984e738c33b3f18ffdb487", "profile": "http://www.citysearch.com/profile/839073310/marietta_ga/mobile_meat_and_seafood.html", "address": {"city": "Marietta", "state": "GA", "street": "893 Fawn Way", "postal_code": "30068"}, "capProviderId": null, "distance": null, "has_offers": false, "name": "Mobile Meat And Seafood", "longitude": -84.436351, "has_menu": false, "awards": null, "user_review_count": 0}, {"business_operation_status": 1, "rating": null, "neighborhood": null, "image": null, "scorecard": null, "featured": false, "sample_categories": "Restaurants, Pizza", "public_id": "the-real-fix-pizzeria-roswell", "id": 608445304, "votes": null, "tagline": null, "has_video": false, "website": null, "offers": null, "latitude": 34.024111, "politanName": "Atlanta, GA Metro ", "phone_number": "7702991657", "tags": [{"primary": false, "id": 11299, "name": "Pizza"}, {"primary": true, "id": 1722, "name": "Restaurants"}], "fax_number": null, "expansion": {"count": null, "uri": null}, "impression_id": "000b000000f16052a298c64b15a0b26a474d096df0", "profile": "http://www.citysearch.com/profile/608445304/roswell_ga/the_real_fix_pizzeria.html", "address": {"city": "Roswell", "state": "GA", "street": "14 Elizabeth Way", "postal_code": "30075"}, "capProviderId": null, "distance": null, "has_offers": false, "name": "The Real Fix Pizzeria", "longitude": -84.361099, "has_menu": false, "awards": null, "user_review_count": 0}, {"business_operation_status": 1, "rating": null, "neighborhood": null, "image": null, "scorecard": null, "featured": false, "sample_categories": "Restaurants", "public_id": "bound-south-inc-marietta", "id": 728020120, "votes": null, "tagline": null, "has_video": false, "website": null, "offers": null, "latitude": 33.977868, "politanName": "Atlanta, GA Metro ", "phone_number": "7704223953", "tags": [{"primary": true, "id": 1722, "name": "Restaurants"}], "fax_number": null, "expansion": {"count": null, "uri": null}, "impression_id": "000b000000492e0510e70e416a91627117120d794a", "profile": "http://www.citysearch.com/profile/728020120/marietta_ga/bound_south_inc.html", "address": {"city": "Marietta", "state": "GA", "street": "850 Kennesaw Ave NW # C6", "postal_code": "30060"}, "capProviderId": null, "distance": null, "has_offers": false, "name": "Bound South INC", "longitude": -84.568453, "has_menu": false, "awards": null, "user_review_count": 0}, {"business_operation_status": 1, "rating": null, "neighborhood": null, "image": null, "scorecard": null, "featured": false, "sample_categories": "Restaurants", "public_id": "twisted-kitchen-marietta", "id": 745026280, "votes": null, "tagline": null, "has_video": false, "website": null, "offers": null, "latitude": 34.013539, "politanName": "Atlanta, GA Metro ", "phone_number": "4049929432", "tags": [{"primary": true, "id": 1722, "name": "Restaurants"}], "fax_number": null, "expansion": {"count": null, "uri": null}, "impression_id": "000b00000062f7d6ef40ba42758ebebb49ac355005", "profile": "http://www.citysearch.com/profile/745026280/marietta_ga/twisted_kitchen.html", "address": {"city": "Marietta", "state": "GA", "street": "125 Barrett Pkwy # 111", "postal_code": "30066"}, "capProviderId": null, "distance": null, "has_offers": false, "name": "Twisted Kitchen", "longitude": -84.552923, "has_menu": true, "awards": null, "user_review_count": 0}, {"business_operation_status": 1, "rating": null, "neighborhood": null, "image": null, "scorecard": null, "featured": false, "sample_categories": "Delis And Delicatessens", "public_id": "psycha-deli-marietta", "id": 748309660, "votes": null, "tagline": null, "has_video": false, "website": null, "offers": null, "latitude": 33.964105, "politanName": "Atlanta, GA Metro ", "phone_number": "7707921320", "tags": [{"primary": true, "id": 1727, "name": "Delis And Delicatessens"}], "fax_number": null, "expansion": {"count": null, "uri": null}, "impression_id": "000b00000093fde465fc754449b7c15d465f174e68", "profile": "http://www.citysearch.com/profile/748309660/marietta_ga/psycha_deli.html", "address": {"city": "Marietta", "state": "GA", "street": "531 Roselane St NW # 520", "postal_code": "30060"}, "capProviderId": null, "distance": null, "has_offers": false, "name": "Psycha Deli", "longitude": -84.557337, "has_menu": false, "awards": null, "user_review_count": 0}, {"business_operation_status": 1, "rating": null, "neighborhood": null, "image": null, "scorecard": null, "featured": false, "sample_categories": "Restaurants", "public_id": "la-pachanga-marietta", "id": 775202790, "votes": null, "tagline": null, "has_video": false, "website": null, "offers": null, "latitude": 33.905088, "politanName": "Atlanta, GA Metro ", "phone_number": "7708054048", "tags": [{"primary": true, "id": 1722, "name": "Restaurants"}], "fax_number": null, "expansion": {"count": null, "uri": null}, "impression_id": "000b00000019ded01344b74193ba2d63321538b6df", "profile": "http://www.citysearch.com/profile/775202790/marietta_ga/la_pachanga.html", "address": {"city": "Marietta", "state": "GA", "street": "1977 S Cobb Dr SE", "postal_code": "30060"}, "capProviderId": null, "distance": null, "has_offers": false, "name": "La Pachanga", "longitude": -84.542528, "has_menu": false, "awards": null, "user_review_count": 0}, {"business_operation_status": 1, "rating": null, "neighborhood": null, "image": null, "scorecard": null, "featured": false, "sample_categories": "Restaurants", "public_id": "cajun-johns-marietta", "id": 672215460, "votes": null, "tagline": null, "has_video": false, "website": null, "offers": null, "latitude": 33.937014, "politanName": "Atlanta, GA Metro ", "phone_number": null, "tags": [{"primary": true, "id": 1722, "name": "Restaurants"}], "fax_number": null, "expansion": {"count": null, "uri": null}, "impression_id": "000b000000aee30e3c28774c3c81a959069ded612d", "profile": "http://www.citysearch.com/profile/672215460/marietta_ga/cajun_john_s.html", "address": {"city": "Marietta", "state": "GA", "street": "1123 Powder Springs St. SE", "postal_code": "30064"}, "capProviderId": null, "distance": null, "has_offers": false, "name": "Cajun John's", "longitude": -84.554706, "has_menu": false, "awards": null, "user_review_count": 0}, {"business_operation_status": 1, "rating": null, "neighborhood": null, "image": null, "scorecard": null, "featured": false, "sample_categories": "Restaurants, Pizza, Carry Out", "public_id": "mellow-mushroom-marietta-4", "id": 777735910, "votes": null, "tagline": null, "has_video": false, "website": "http://www.citysearch.com/profile/external/777735910/marietta_ga/mellow_mushroom.html", "offers": null, "latitude": 33.908085, "politanName": "Atlanta, GA Metro ", "phone_number": "7704255511", "tags": [{"primary": false, "id": 1722, "name": "Restaurants"}, {"primary": false, "id": 11247, "name": "Carry Out"}, {"primary": true, "id": 11299, "name": "Pizza"}], "fax_number": null, "expansion": {"count": null, "uri": null}, "impression_id": "000b00000084ab77e393d94fcb82b1d3eb67da16a2", "profile": "http://www.citysearch.com/profile/777735910/marietta_ga/mellow_mushroom.html", "address": {"city": "Marietta", "state": "GA", "street": "1690 Powder Springs Rd Sw #214", "postal_code": "30064"}, "capProviderId": null, "distance": null, "has_offers": false, "name": "Mellow Mushroom", "longitude": -84.602757, "has_menu": true, "awards": null, "user_review_count": 0}, {"business_operation_status": 1, "rating": null, "neighborhood": null, "image": null, "scorecard": null, "featured": false, "sample_categories": "Restaurants, Barbecue Restaurants", "public_id": "wings-inc-kennesaw", "id": 777815920, "votes": null, "tagline": null, "has_video": false, "website": null, "offers": null, "latitude": 34.008395, "politanName": "Atlanta, GA Metro ", "phone_number": "6782903950", "tags": [{"primary": false, "id": 1724, "name": "Barbecue Restaurants"}, {"primary": true, "id": 1722, "name": "Restaurants"}], "fax_number": null, "expansion": {"count": null, "uri": null}, "impression_id": "000b0000002352bb43c27a494cafebb4dac6e918b9", "profile": "http://www.citysearch.com/profile/777815920/kennesaw_ga/wings_inc.html", "address": {"city": "Kennesaw", "state": "GA", "street": "319 Heritage Park Trce NW", "postal_code": "30144"}, "capProviderId": null, "distance": null, "has_offers": false, "name": "Wings INC", "longitude": -84.56101, "has_menu": false, "awards": null, "user_review_count": 0}, {"business_operation_status": 1, "rating": null, "neighborhood": null, "image": null, "scorecard": null, "featured": false, "sample_categories": "Restaurants, Barbecue Restaurants", "public_id": "hot-wings-marietta", "id": 682287680, "votes": null, "tagline": null, "has_video": false, "website": null, "offers": null, "latitude": 33.941419, "politanName": "Atlanta, GA Metro ", "phone_number": "7702181589", "tags": [{"primary": false, "id": 1724, "name": "Barbecue Restaurants"}, {"primary": true, "id": 1722, "name": "Restaurants"}], "fax_number": null, "expansion": {"count": null, "uri": null}, "impression_id": "000b00000004b9cadc76f44a79b4d950d39a4790cd", "profile": "http://www.citysearch.com/profile/682287680/marietta_ga/hot_wings.html", "address": {"city": "Marietta", "state": "GA", "street": "981 S Marietta Pkwy Se", "postal_code": "30060"}, "capProviderId": null, "distance": null, "has_offers": false, "name": "Hot Wings", "longitude": -84.522978, "has_menu": true, "awards": null, "user_review_count": 2}, {"business_operation_status": 1, "rating": null, "neighborhood": null, "image": null, "scorecard": null, "featured": false, "sample_categories": "Restaurants, Cajun & Creole", "public_id": "ji-bou-te-marietta", "id": 777783530, "votes": null, "tagline": null, "has_video": false, "website": null, "offers": null, "latitude": 33.952594, "politanName": "Atlanta, GA Metro ", "phone_number": "7707940772", "tags": [{"primary": false, "id": 11245, "name": "Cajun & Creole"}, {"primary": true, "id": 1722, "name": "Restaurants"}], "fax_number": null, "expansion": {"count": null, "uri": null}, "impression_id": "000b0000003bb45f9222774e01a1dd96b458a582ce", "profile": "http://www.citysearch.com/profile/777783530/marietta_ga/ji_bou_te.html", "address": {"city": "Marietta", "state": "GA", "street": "800 Whitlock Ave NW # 103", "postal_code": "30064"}, "capProviderId": null, "distance": null, "has_offers": false, "name": "Ji Bou Te", "longitude": -84.575881, "has_menu": false, "awards": null, "user_review_count": 0}, {"business_operation_status": 1, "rating": null, "neighborhood": null, "image": null, "scorecard": null, "featured": false, "sample_categories": "Restaurants, South American", "public_id": "el-hondureno-billares-marietta", "id": 777670670, "votes": null, "tagline": null, "has_video": false, "website": null, "offers": null, "latitude": 33.928458, "politanName": "Atlanta, GA Metro ", "phone_number": "7709532737", "tags": [{"primary": false, "id": 15490, "name": "South American"}, {"primary": true, "id": 1722, "name": "Restaurants"}], "fax_number": null, "expansion": {"count": null, "uri": null}, "impression_id": "000b0000007eef7a1c37d54c828f9e8737663293aa", "profile": "http://www.citysearch.com/profile/777670670/marietta_ga/el_hondureno_billares.html", "address": {"city": "Marietta", "state": "GA", "street": "1033 Franklin Rd Se", "postal_code": "30067"}, "capProviderId": null, "distance": null, "has_offers": false, "name": "El Hondureno Billares", "longitude": -84.492995, "has_menu": false, "awards": null, "user_review_count": 0}, {"business_operation_status": 1, "rating": null, "neighborhood": null, "image": null, "scorecard": null, "featured": false, "sample_categories": "Restaurants", "public_id": "chili-dog-factory-marietta", "id": 672271920, "votes": null, "tagline": null, "has_video": false, "website": null, "offers": null, "latitude": 33.940571, "politanName": "Atlanta, GA Metro ", "phone_number": "6782131114", "tags": [{"primary": true, "id": 1722, "name": "Restaurants"}], "fax_number": null, "expansion": {"count": null, "uri": null}, "impression_id": "000b000000e4b6463422a74b67b161ffdf00bc668e", "profile": "http://www.citysearch.com/profile/672271920/marietta_ga/chili_dog_factory.html", "address": {"city": "Marietta", "state": "GA", "street": "940 South Marietta Parkway", "postal_code": "30060"}, "capProviderId": null, "distance": null, "has_offers": false, "name": "Chili Dog Factory", "longitude": -84.525094, "has_menu": false, "awards": null, "user_review_count": 0}, {"business_operation_status": 1, "rating": null, "neighborhood": null, "image": null, "scorecard": null, "featured": false, "sample_categories": "Restaurants", "public_id": "niche-private-diningcatering-marietta", "id": 773444390, "votes": null, "tagline": null, "has_video": false, "website": null, "offers": null, "latitude": 34.010385, "politanName": "Atlanta, GA Metro ", "phone_number": "4049019840", "tags": [{"primary": true, "id": 1722, "name": "Restaurants"}], "fax_number": null, "expansion": {"count": null, "uri": null}, "impression_id": "000b0000000a0e157ffa3949c88e0fd97f7738b760", "profile": "http://www.citysearch.com/profile/773444390/marietta_ga/niche_private_dining_catering.html", "address": {"city": "Marietta", "state": "GA", "street": "2287 Nottley Dr", "postal_code": "30066"}, "capProviderId": null, "distance": null, "has_offers": false, "name": "Niche Private Dining-Catering", "longitude": -84.557109, "has_menu": false, "awards": null, "user_review_count": 0}, {"business_operation_status": 1, "rating": null, "neighborhood": null, "image": null, "scorecard": null, "featured": false, "sample_categories": "Restaurants", "public_id": "dominicks-of-roswell-roswell", "id": 779688750, "votes": null, "tagline": null, "has_video": false, "website": null, "offers": null, "latitude": 34.009785, "politanName": "Atlanta, GA Metro ", "phone_number": "7705181430", "tags": [{"primary": true, "id": 1722, "name": "Restaurants"}], "fax_number": null, "expansion": {"count": null, "uri": null}, "impression_id": "000b000000b3a7238ff614481a96e350239db61a58", "profile": "http://www.citysearch.com/profile/779688750/roswell_ga/dominick_s_of_roswell.html", "address": {"city": "Roswell", "state": "GA", "street": "408 S Atlanta St", "postal_code": "30075"}, "capProviderId": null, "distance": null, "has_offers": false, "name": "Dominick's of Roswell", "longitude": -84.361532, "has_menu": false, "awards": null, "user_review_count": 0}, {"business_operation_status": 1, "rating": null, "neighborhood": null, "image": null, "scorecard": null, "featured": false, "sample_categories": "Restaurants, Bars & Clubs, Mexican", "public_id": "bogeys-kennesaw", "id": 775191750, "votes": null, "tagline": null, "has_video": false, "website": null, "offers": null, "latitude": 34.013172, "politanName": "Atlanta, GA Metro ", "phone_number": "7704261515", "tags": [{"primary": false, "id": 164, "name": "Bars & Clubs"}, {"primary": false, "id": 11208, "name": "Mexican"}, {"primary": true, "id": 1722, "name": "Restaurants"}], "fax_number": null, "expansion": {"count": null, "uri": null}, "impression_id": "000b00000032e7e9dee5444cdcb3d01bd610a6cb39", "profile": "http://www.citysearch.com/profile/775191750/kennesaw_ga/bogey_s.html", "address": {"city": "Kennesaw", "state": "GA", "street": "2615 George Busbee Pkwy NW", "postal_code": "30144"}, "capProviderId": null, "distance": null, "has_offers": false, "name": "Bogey's", "longitude": -84.567215, "has_menu": false, "awards": null, "user_review_count": 0}, {"business_operation_status": 1, "rating": null, "neighborhood": null, "image": null, "scorecard": null, "featured": false, "sample_categories": "Restaurants, Mexican", "public_id": "desperados-tex-mex-rstrnt-marietta", "id": 775196520, "votes": null, "tagline": null, "has_video": false, "website": null, "offers": null, "latitude": 33.99637, "politanName": "Atlanta, GA Metro ", "phone_number": "7704202550", "tags": [{"primary": false, "id": 11208, "name": "Mexican"}, {"primary": true, "id": 1722, "name": "Restaurants"}], "fax_number": null, "expansion": {"count": null, "uri": null}, "impression_id": "000b000000d294cfec14744b868e21eea0b41eb2af", "profile": "http://www.citysearch.com/profile/775196520/marietta_ga/desperado_s_tex_mex_rstrnt.html", "address": {"city": "Marietta", "state": "GA", "street": "700 Sandy Plains Rd", "postal_code": "30066"}, "capProviderId": null, "distance": null, "has_offers": false, "name": "Desperado's Tex Mex Rstrnt", "longitude": -84.528753, "has_menu": false, "awards": null, "user_review_count": 0}], "histograms": [], "tag_ids": [1722], "uri": "http://api.citygridmedia.com:8080/search/places/v2/search/where?has_offers=false&type=restaurant&format=json&page=6&where=30007&rpp=50&histograms=false&publisher=10000009598&region_type=circle", "did_you_mean": "", "regions": [{"latitude": 33.9527, "default_radius": 0.25, "type": "postal_code", "name": "30007", "longitude": -84.5502}], "call_id": "000b0000003855ae3773494341bd826721231dc662", "first_hit": 251, "total_hits": 446, "geo_ids": [137010], "page": 6, "last_hit": 300}}