{"results": {"rpp": 50, "locations": [{"business_operation_status": 1, "rating": null, "neighborhood": null, "image": null, "scorecard": null, "featured": false, "sample_categories": "Restaurants, Food Delivery", "public_id": "cafe-vena-atlanta", "id": 764875900, "votes": null, "tagline": null, "has_video": false, "website": "http://www.citysearch.com/profile/external/764875900/atlanta_ga/vena_at_vinings.html", "offers": null, "latitude": 33.872565, "politanName": "Atlanta, GA Metro ", "phone_number": "7709379089", "tags": [{"primary": false, "id": 11267, "name": "Food Delivery"}, {"primary": true, "id": 1722, "name": "Restaurants"}], "fax_number": null, "expansion": {"count": null, "uri": null}, "impression_id": "000b0000003a5b90baed7947479f124d19e89619d7", "profile": "http://www.citysearch.com/profile/764875900/atlanta_ga/vena_at_vinings.html", "address": {"city": "Atlanta", "state": "GA", "street": "3300 Cobb Pkwy SE 104", "postal_code": "30339"}, "capProviderId": null, "distance": null, "has_offers": false, "name": "Vena at Vinings", "longitude": -84.457681, "has_menu": false, "awards": null, "user_review_count": 0}, {"business_operation_status": 1, "rating": null, "neighborhood": null, "image": null, "scorecard": null, "featured": false, "sample_categories": "Restaurants, Barbecue Restaurants", "public_id": "reds-backwoods-barbecue-kennesaw", "id": 775234200, "votes": null, "tagline": null, "has_video": false, "website": null, "offers": null, "latitude": 33.999345, "politanName": "Atlanta, GA Metro ", "phone_number": "6782909055", "tags": [{"primary": false, "id": 1724, "name": "Barbecue Restaurants"}, {"primary": true, "id": 1722, "name": "Restaurants"}], "fax_number": null, "expansion": {"count": null, "uri": null}, "impression_id": "000b0000009076ef98c8194a689042a1e245a5a0b4", "profile": "http://www.citysearch.com/profile/775234200/kennesaw_ga/reds_backwoods_barbecue.html", "address": {"city": "Kennesaw", "state": "GA", "street": "1200 Ernest W Barrett Pkwy NW", "postal_code": "30144"}, "capProviderId": null, "distance": null, "has_offers": false, "name": "Reds Backwoods Barbecue", "longitude": -84.586888, "has_menu": false, "awards": null, "user_review_count": 0}, {"business_operation_status": 1, "rating": null, "neighborhood": null, "image": null, "scorecard": null, "featured": false, "sample_categories": "Restaurants", "public_id": "southern-flavor-kennesaw", "id": 777652400, "votes": null, "tagline": null, "has_video": false, "website": null, "offers": null, "latitude": 34.014009, "politanName": "Atlanta, GA Metro ", "phone_number": "7704228400", "tags": [{"primary": true, "id": 1722, "name": "Restaurants"}], "fax_number": null, "expansion": {"count": null, "uri": null}, "impression_id": "000b000000fd3b3f0d5e1d4f689e9f0e3f073575f7", "profile": "http://www.citysearch.com/profile/777652400/kennesaw_ga/southern_flavor.html", "address": {"city": "Kennesaw", "state": "GA", "street": "400 Ernest W Barrett NW # 119", "postal_code": "30144"}, "capProviderId": null, "distance": null, "has_offers": false, "name": "Southern Flavor", "longitude": -84.561425, "has_menu": false, "awards": null, "user_review_count": 0}, {"business_operation_status": 1, "rating": null, "neighborhood": null, "image": null, "scorecard": null, "featured": false, "sample_categories": "Restaurants, Traditional American", "public_id": "come-get-it-marietta", "id": 655806390, "votes": null, "tagline": null, "has_video": false, "website": "http://www.citysearch.com/profile/external/655806390/marietta_ga/come_get_it.html", "offers": null, "latitude": 33.97734, "politanName": "Atlanta, GA Metro ", "phone_number": "7704230010", "tags": [{"primary": false, "id": 11190, "name": "Traditional American"}, {"primary": true, "id": 1722, "name": "Restaurants"}], "fax_number": null, "expansion": {"count": null, "uri": null}, "impression_id": "000b000000b84d6b4b9711405994f5bc4b97eeacfc", "profile": "http://www.citysearch.com/profile/655806390/marietta_ga/come_get_it.html", "address": {"city": "Marietta", "state": "GA", "street": "1409 Church Street Ext Ne # E", "postal_code": "30060"}, "capProviderId": null, "distance": null, "has_offers": false, "name": "Come & Get It", "longitude": -84.555829, "has_menu": false, "awards": null, "user_review_count": 0}, {"business_operation_status": 1, "rating": null, "neighborhood": null, "image": null, "scorecard": null, "featured": false, "sample_categories": "Restaurants, Carry Out, Hamburgers, American Express, Discover", "public_id": "burger-king-marietta-11", "id": 682637510, "votes": null, "tagline": null, "has_video": false, "website": "http://www.citysearch.com/profile/external/682637510/marietta_ga/burger_king.html", "offers": null, "latitude": 33.945546, "politanName": "Atlanta, GA Metro ", "phone_number": "6783541084", "tags": [{"primary": false, "id": 1722, "name": "Restaurants"}, {"primary": false, "id": 11270, "name": "Hamburgers"}, {"primary": false, "id": 11333, "name": "American Express"}, {"primary": false, "id": 11349, "name": "Discover"}, {"primary": false, "id": 11361, "name": "MasterCard"}, {"primary": false, "id": 11382, "name": "Visa"}, {"primary": true, "id": 11247, "name": "Carry Out"}], "fax_number": null, "expansion": {"count": null, "uri": null}, "impression_id": "000b0000008921a827b22040ce823ebd6908ea8fa9", "profile": "http://www.citysearch.com/profile/682637510/marietta_ga/burger_king.html", "address": {"city": "Marietta", "state": "GA", "street": "2495 Dallas Hwy SW", "postal_code": "30064"}, "capProviderId": null, "distance": null, "has_offers": false, "name": "Burger King", "longitude": -84.624745, "has_menu": true, "awards": null, "user_review_count": 0}, {"business_operation_status": 1, "rating": null, "neighborhood": null, "image": null, "scorecard": null, "featured": false, "sample_categories": "Restaurants", "public_id": "metropolis-wing-station-marietta", "id": 682470740, "votes": null, "tagline": null, "has_video": false, "website": null, "offers": null, "latitude": 33.927554, "politanName": "Atlanta, GA Metro ", "phone_number": "6783545450", "tags": [{"primary": true, "id": 1722, "name": "Restaurants"}], "fax_number": null, "expansion": {"count": null, "uri": null}, "impression_id": "000b0000007b8e6274dfa845c49a8953ef47d8fa98", "profile": "http://www.citysearch.com/profile/682470740/marietta_ga/metropolis_wing_station.html", "address": {"city": "Marietta", "state": "GA", "street": "1038 Franklin Rd Se", "postal_code": "30067"}, "capProviderId": null, "distance": null, "has_offers": false, "name": "Metropolis Wing Station", "longitude": -84.493666, "has_menu": false, "awards": null, "user_review_count": 0}, {"business_operation_status": 0, "rating": null, "neighborhood": null, "image": null, "scorecard": null, "featured": false, "sample_categories": "Restaurants, Pizza", "public_id": "macs-pizza-pasta-marietta", "id": 807737810, "votes": null, "tagline": null, "has_video": false, "website": null, "offers": null, "latitude": 33.929154, "politanName": "Atlanta, GA Metro ", "phone_number": "7704997600", "tags": [{"primary": false, "id": 1722, "name": "Restaurants"}, {"primary": true, "id": 11299, "name": "Pizza"}], "fax_number": null, "expansion": {"count": null, "uri": null}, "impression_id": "000b000000ba4d69cb0bef4759be847c10445562fb", "profile": "http://www.citysearch.com/profile/807737810/marietta_ga/mac_s_pizza_pasta.html", "address": {"city": "Marietta", "state": "GA", "street": "950 Cobb Pkwy S # 230", "postal_code": "30060"}, "capProviderId": null, "distance": null, "has_offers": false, "name": "Mac's Pizza & Pasta", "longitude": -84.510376, "has_menu": true, "awards": null, "user_review_count": 0}, {"business_operation_status": 1, "rating": null, "neighborhood": null, "image": null, "scorecard": null, "featured": false, "sample_categories": "Restaurants", "public_id": "kabanas-bar-grille-marietta", "id": 628071894, "votes": null, "tagline": null, "has_video": false, "website": null, "offers": null, "latitude": 33.915701, "politanName": "Atlanta, GA Metro ", "phone_number": "7706932382", "tags": [{"primary": true, "id": 1722, "name": "Restaurants"}], "fax_number": null, "expansion": {"count": null, "uri": null}, "impression_id": "000b00000090d128f48c4548df8c6e3f74367c4365", "profile": "http://www.citysearch.com/profile/628071894/marietta_ga/kabanas_bar_grille.html", "address": {"city": "Marietta", "state": "GA", "street": "1475 Terrell Mill Rd SE", "postal_code": "30067"}, "capProviderId": null, "distance": null, "has_offers": false, "name": "Kabanas Bar & Grille", "longitude": -84.4689, "has_menu": false, "awards": null, "user_review_count": 0}, {"business_operation_status": 1, "rating": null, "neighborhood": null, "image": null, "scorecard": null, "featured": false, "sample_categories": "Grocery Stores, Health Food Stores, Restaurants", "public_id": "bambinos-nutritional-ctr-marietta", "id": 631964510, "votes": null, "tagline": null, "has_video": false, "website": null, "offers": null, "latitude": 33.906963, "politanName": "Atlanta, GA Metro ", "phone_number": "7709512267", "tags": [{"primary": false, "id": 1716, "name": "Health Food Stores"}, {"primary": false, "id": 1722, "name": "Restaurants"}, {"primary": true, "id": 1713, "name": "Grocery Stores"}], "fax_number": null, "expansion": {"count": null, "uri": null}, "impression_id": "000b00000041eeee1b9c4543fcbbe4b210c878615b", "profile": "http://www.citysearch.com/profile/631964510/marietta_ga/bambinos_nutritional_ctr.html", "address": {"city": "Marietta", "state": "GA", "street": "1869 Cobb Pkwy S 700", "postal_code": "30060"}, "capProviderId": null, "distance": null, "has_offers": false, "name": "Bambinos Nutritional Ctr", "longitude": -84.488987, "has_menu": false, "awards": null, "user_review_count": 0}, {"business_operation_status": 1, "rating": null, "neighborhood": null, "image": null, "scorecard": null, "featured": false, "sample_categories": "Restaurants, Barbecue Restaurants", "public_id": "wings-burger-haven-marietta", "id": 653579150, "votes": null, "tagline": null, "has_video": false, "website": null, "offers": null, "latitude": 33.988155, "politanName": "Atlanta, GA Metro ", "phone_number": "6784679223", "tags": [{"primary": false, "id": 1724, "name": "Barbecue Restaurants"}, {"primary": true, "id": 1722, "name": "Restaurants"}], "fax_number": null, "expansion": {"count": null, "uri": null}, "impression_id": "000b000000adcda5d508524886b82ff5c6759a44c4", "profile": "http://www.citysearch.com/profile/653579150/marietta_ga/wings_burger_haven.html", "address": {"city": "Marietta", "state": "GA", "street": "1410 Glenover Cir", "postal_code": "30062"}, "capProviderId": null, "distance": null, "has_offers": false, "name": "Wings & Burger Haven", "longitude": -84.511569, "has_menu": false, "awards": null, "user_review_count": 0}, {"business_operation_status": 1, "rating": null, "neighborhood": null, "image": null, "scorecard": null, "featured": false, "sample_categories": "Restaurants, Carry Out", "public_id": "golden-corral-buffet-grill-marietta-2", "id": 811738440, "votes": null, "tagline": null, "has_video": false, "website": null, "offers": null, "latitude": 33.93149, "politanName": "Atlanta, GA Metro ", "phone_number": "7709551779", "tags": [{"primary": false, "id": 11247, "name": "Carry Out"}, {"primary": true, "id": 1722, "name": "Restaurants"}], "fax_number": null, "expansion": {"count": null, "uri": null}, "impression_id": "000b0000009739bbe5de4a4390b9530c984c33fd8a", "profile": "http://www.citysearch.com/profile/811738440/marietta_ga/golden_corral_buffet_grill.html", "address": {"city": "Marietta", "state": "GA", "street": "2024 Powers Ferry Trce SE", "postal_code": "30067"}, "capProviderId": null, "distance": null, "has_offers": false, "name": "Golden Corral Buffet & Grill", "longitude": -84.478299, "has_menu": false, "awards": null, "user_review_count": 0}, {"business_operation_status": 1, "rating": null, "neighborhood": null, "image": null, "scorecard": null, "featured": false, "sample_categories": "Restaurants", "public_id": "jen-pal-smyrna", "id": 611103124, "votes": null, "tagline": null, "has_video": false, "website": null, "offers": null, "latitude": 33.884162, "politanName": "Atlanta, GA Metro ", "phone_number": "7704319620", "tags": [{"primary": true, "id": 1722, "name": "Restaurants"}], "fax_number": null, "expansion": {"count": null, "uri": null}, "impression_id": "000b0000000afef729d3a64b96af0b13def3d7913a", "profile": "http://www.citysearch.com/profile/611103124/smyrna_ga/jen_pal.html", "address": {"city": "Smyrna", "state": "GA", "street": "1260 W Spring St SE # D", "postal_code": "30080"}, "capProviderId": null, "distance": null, "has_offers": false, "name": "Jen Pal", "longitude": -84.515885, "has_menu": false, "awards": null, "user_review_count": 0}, {"business_operation_status": 1, "rating": null, "neighborhood": null, "image": null, "scorecard": null, "featured": false, "sample_categories": "Restaurants", "public_id": "wings-101-smyrna", "id": 621900654, "votes": null, "tagline": null, "has_video": false, "website": null, "offers": null, "latitude": 33.894038, "politanName": "Atlanta, GA Metro ", "phone_number": "7709891520", "tags": [{"primary": true, "id": 1722, "name": "Restaurants"}], "fax_number": null, "expansion": {"count": null, "uri": null}, "impression_id": "000b00000041c3c9cf61224f87abf35a7a98f803d7", "profile": "http://www.citysearch.com/profile/621900654/smyrna_ga/wings_101.html", "address": {"city": "Smyrna", "state": "GA", "street": "998 Windy Hill Rd SE", "postal_code": "30080"}, "capProviderId": null, "distance": null, "has_offers": false, "name": "Wings 101", "longitude": -84.524382, "has_menu": false, "awards": null, "user_review_count": 0}, {"business_operation_status": 1, "rating": null, "neighborhood": null, "image": null, "scorecard": null, "featured": false, "sample_categories": "Restaurants, Fast Food, Carry Out, MasterCard, Visa", "public_id": "bojangles-famous-chicken-marietta", "id": 43849344, "votes": null, "tagline": null, "has_video": false, "website": "http://www.citysearch.com/profile/external/43849344/marietta_ga/bojangles_famous_chicken.html", "offers": null, "latitude": 33.935998, "politanName": "Atlanta, GA Metro ", "phone_number": "7704226222", "tags": [{"primary": false, "id": 11199, "name": "Fast Food"}, {"primary": false, "id": 11247, "name": "Carry Out"}, {"primary": false, "id": 11361, "name": "MasterCard"}, {"primary": false, "id": 11382, "name": "Visa"}, {"primary": false, "id": 12839, "name": "Chicken"}, {"primary": true, "id": 1722, "name": "Restaurants"}], "fax_number": null, "expansion": {"count": null, "uri": null}, "impression_id": "000b0000002571ea6802914b169ed51dd9b00b72b9", "profile": "http://www.citysearch.com/profile/43849344/marietta_ga/bojangles_famous_chicken.html", "address": {"city": "Marietta", "state": "GA", "street": "681 Cobb Pkwy N", "postal_code": "30062"}, "capProviderId": null, "distance": null, "has_offers": false, "name": "Bojangles' Famous Chicken", "longitude": -84.511888, "has_menu": false, "awards": null, "user_review_count": 0}, {"business_operation_status": 1, "rating": null, "neighborhood": null, "image": null, "scorecard": null, "featured": false, "sample_categories": "Restaurants", "public_id": "stoney-river-legendary-steaks-marietta", "id": 732164930, "votes": null, "tagline": null, "has_video": false, "website": null, "offers": null, "latitude": 34.009709, "politanName": "Atlanta, GA Metro ", "phone_number": "7706671201", "tags": [{"primary": true, "id": 1722, "name": "Restaurants"}], "fax_number": null, "expansion": {"count": null, "uri": null}, "impression_id": "000b000000dd8d491218dc43569d74998591e8b373", "profile": "http://www.citysearch.com/profile/732164930/marietta_ga/stoney_river_legendary_steaks.html", "address": {"city": "Marietta", "state": "GA", "street": "2440 Sandy Plains Rd # 1-150", "postal_code": "30066"}, "capProviderId": null, "distance": null, "has_offers": false, "name": "Stoney River Legendary Steaks", "longitude": -84.496627, "has_menu": false, "awards": null, "user_review_count": 0}, {"business_operation_status": 1, "rating": null, "neighborhood": null, "image": null, "scorecard": null, "featured": false, "sample_categories": "Restaurants", "public_id": "corner-taqueria-smyrna", "id": 837793660, "votes": null, "tagline": null, "has_video": false, "website": "http://www.citysearch.com/profile/external/837793660/smyrna_ga/corner_taqueria.html", "offers": null, "latitude": 33.883705, "politanName": "Atlanta, GA Metro ", "phone_number": "6788420050", "tags": [{"primary": true, "id": 1722, "name": "Restaurants"}], "fax_number": null, "expansion": {"count": null, "uri": null}, "impression_id": "000b0000008b2287adc980404ebef66ff2f875c0c5", "profile": "http://www.citysearch.com/profile/837793660/smyrna_ga/corner_taqueria.html", "address": {"city": "Smyrna", "state": "GA", "street": "2860 Atlanta Rd SE", "postal_code": "30080"}, "capProviderId": null, "distance": null, "has_offers": false, "name": "Corner Taqueria", "longitude": -84.514807, "has_menu": false, "awards": null, "user_review_count": 0}, {"business_operation_status": 1, "rating": null, "neighborhood": null, "image": null, "scorecard": null, "featured": false, "sample_categories": "Restaurants, Delis And Delicatessens, Sandwich Shops, Carry Out, American Express", "public_id": "schlotzskys-deli-kennesaw", "id": 2955979, "votes": null, "tagline": null, "has_video": false, "website": "http://www.citysearch.com/profile/external/2955979/kennesaw_ga/schlotzsky_s_deli.html", "offers": null, "latitude": 34.014321, "politanName": "Atlanta, GA Metro ", "phone_number": "7705140571", "tags": [{"primary": false, "id": 1727, "name": "Delis And Delicatessens"}, {"primary": false, "id": 1736, "name": "Sandwich Shops"}, {"primary": false, "id": 11247, "name": "Carry Out"}, {"primary": false, "id": 11333, "name": "American Express"}, {"primary": false, "id": 11349, "name": "Discover"}, {"primary": false, "id": 11361, "name": "MasterCard"}, {"primary": false, "id": 11382, "name": "Visa"}, {"primary": true, "id": 1722, "name": "Restaurants"}], "fax_number": null, "expansion": {"count": null, "uri": null}, "impression_id": "000b00000032d8ece1ef6e416eba1bd8418d950172", "profile": "http://www.citysearch.com/profile/2955979/kennesaw_ga/schlotzsky_s_deli.html", "address": {"city": "Kennesaw", "state": "GA", "street": "440 Ernest W Barrett Pkwy NW", "postal_code": "30144"}, "capProviderId": null, "distance": null, "has_offers": false, "name": "Schlotzsky's Deli", "longitude": -84.562111, "has_menu": true, "awards": null, "user_review_count": 0}, {"business_operation_status": 1, "rating": null, "neighborhood": null, "image": null, "scorecard": null, "featured": false, "sample_categories": "Food Stores, Restaurants", "public_id": "halal-meats-marietta", "id": 696523330, "votes": null, "tagline": null, "has_video": false, "website": null, "offers": null, "latitude": 33.937797, "politanName": "Atlanta, GA Metro ", "phone_number": "6782900211", "tags": [{"primary": false, "id": 1722, "name": "Restaurants"}, {"primary": true, "id": 1706, "name": "Food Stores"}], "fax_number": null, "expansion": {"count": null, "uri": null}, "impression_id": "000b000000cf5b755a4ab64ddfbdf67e94ebdd799f", "profile": "http://www.citysearch.com/profile/696523330/marietta_ga/halal_meats.html", "address": {"city": "Marietta", "state": "GA", "street": "585 Franklin Rd Se", "postal_code": "30067"}, "capProviderId": null, "distance": null, "has_offers": false, "name": "Halal Meats", "longitude": -84.506993, "has_menu": false, "awards": null, "user_review_count": 0}, {"business_operation_status": 1, "rating": null, "neighborhood": null, "image": null, "scorecard": null, "featured": false, "sample_categories": "Restaurants, Eclectic & International", "public_id": "eagle-cafe-intl-marietta", "id": 775215710, "votes": null, "tagline": null, "has_video": false, "website": null, "offers": null, "latitude": 33.924963, "politanName": "Atlanta, GA Metro ", "phone_number": "7704222056", "tags": [{"primary": false, "id": 11259, "name": "Eclectic & International"}, {"primary": true, "id": 1722, "name": "Restaurants"}], "fax_number": null, "expansion": {"count": null, "uri": null}, "impression_id": "000b000000df19588c8727433983e1084c60e59ee7", "profile": "http://www.citysearch.com/profile/775215710/marietta_ga/eagle_cafe_intl.html", "address": {"city": "Marietta", "state": "GA", "street": "1150 Powder Springs St", "postal_code": "30064"}, "capProviderId": null, "distance": null, "has_offers": false, "name": "Eagle Cafe Intl", "longitude": -84.573919, "has_menu": false, "awards": null, "user_review_count": 0}, {"business_operation_status": 1, "rating": null, "neighborhood": null, "image": null, "scorecard": null, "featured": false, "sample_categories": "Restaurants, Carry Out", "public_id": "burger-king-powder", "id": 764855980, "votes": null, "tagline": null, "has_video": false, "website": null, "offers": null, "latitude": 33.906794, "politanName": "Atlanta, GA Metro ", "phone_number": "7704391489", "tags": [{"primary": false, "id": 11247, "name": "Carry Out"}, {"primary": true, "id": 1722, "name": "Restaurants"}], "fax_number": null, "expansion": {"count": null, "uri": null}, "impression_id": "000b000000d50b94521d824a63a9c92ba2d4b7878a", "profile": "http://www.citysearch.com/profile/764855980/powder_springs_ga/burger_king.html", "address": {"city": "Powder Springs", "state": "GA", "street": "3640 Velma Dr", "postal_code": "30127"}, "capProviderId": null, "distance": null, "has_offers": false, "name": "Burger King", "longitude": -84.660285, "has_menu": false, "awards": null, "user_review_count": 0}, {"business_operation_status": 1, "rating": null, "neighborhood": null, "image": null, "scorecard": null, "featured": false, "sample_categories": "Restaurants", "public_id": "t-n-restaurant-group-marietta", "id": 764858770, "votes": null, "tagline": null, "has_video": false, "website": null, "offers": null, "latitude": 33.948575, "politanName": "Atlanta, GA Metro ", "phone_number": "7704255074", "tags": [{"primary": true, "id": 1722, "name": "Restaurants"}], "fax_number": null, "expansion": {"count": null, "uri": null}, "impression_id": "000b000000a3b651cc073f40a7a99ab1994ae0373d", "profile": "http://www.citysearch.com/profile/764858770/marietta_ga/t_n_restaurant_group.html", "address": {"city": "Marietta", "state": "GA", "street": "2650 Dallas Hwy SW", "postal_code": "30064"}, "capProviderId": null, "distance": null, "has_offers": false, "name": "T N Restaurant Group", "longitude": -84.628298, "has_menu": false, "awards": null, "user_review_count": 0}, {"business_operation_status": 1, "rating": null, "neighborhood": null, "image": null, "scorecard": null, "featured": false, "sample_categories": "Restaurants", "public_id": "w-k-r-d-the-blaze-power-house-marietta", "id": 779694540, "votes": null, "tagline": null, "has_video": false, "website": null, "offers": null, "latitude": 33.938913, "politanName": "Atlanta, GA Metro ", "phone_number": "6784018567", "tags": [{"primary": true, "id": 1722, "name": "Restaurants"}], "fax_number": null, "expansion": {"count": null, "uri": null}, "impression_id": "000b000000a22f86f5b9974402a0d73bf2d2e8e155", "profile": "http://www.citysearch.com/profile/779694540/marietta_ga/w_k_r_d_the_blaze_power_house.html", "address": {"city": "Marietta", "state": "GA", "street": "550 Franklin Rd Se", "postal_code": "30067"}, "capProviderId": null, "distance": null, "has_offers": false, "name": "W K R D The Blaze Power House", "longitude": -84.507658, "has_menu": false, "awards": null, "user_review_count": 0}, {"business_operation_status": 1, "rating": null, "neighborhood": null, "image": null, "scorecard": null, "featured": false, "sample_categories": "Restaurants, Mexican, Carry Out, American Express, MasterCard", "public_id": "taco-bell-kennesaw-4", "id": 682713980, "votes": null, "tagline": null, "has_video": false, "website": "http://www.citysearch.com/profile/external/682713980/kennesaw_ga/taco_bell.html", "offers": null, "latitude": 34.018145, "politanName": "Atlanta, GA Metro ", "phone_number": "7704240007", "tags": [{"primary": false, "id": 11208, "name": "Mexican"}, {"primary": false, "id": 11247, "name": "Carry Out"}, {"primary": false, "id": 11333, "name": "American Express"}, {"primary": false, "id": 11361, "name": "MasterCard"}, {"primary": false, "id": 11382, "name": "Visa"}, {"primary": true, "id": 1722, "name": "Restaurants"}], "fax_number": null, "expansion": {"count": null, "uri": null}, "impression_id": "000b000000a14406cef3964685ba875eed884df905", "profile": "http://www.citysearch.com/profile/682713980/kennesaw_ga/taco_bell.html", "address": {"city": "Kennesaw", "state": "GA", "street": "400 Barrett Pkwy # 127", "postal_code": "30144"}, "capProviderId": null, "distance": null, "has_offers": false, "name": "Taco Bell", "longitude": -84.561896, "has_menu": false, "awards": null, "user_review_count": 0}, {"business_operation_status": 1, "rating": null, "neighborhood": null, "image": null, "scorecard": null, "featured": false, "sample_categories": "Restaurants", "public_id": "banquet-hall-de-las-america-marietta", "id": 775210860, "votes": null, "tagline": null, "has_video": false, "website": null, "offers": null, "latitude": 33.951285, "politanName": "Atlanta, GA Metro ", "phone_number": "7707941080", "tags": [{"primary": true, "id": 1722, "name": "Restaurants"}], "fax_number": null, "expansion": {"count": null, "uri": null}, "impression_id": "000b000000e46c44f513114ddda75a0d9594cac016", "profile": "http://www.citysearch.com/profile/775210860/marietta_ga/banquet_hall_de_las_america.html", "address": {"city": "Marietta", "state": "GA", "street": "737 Roswell St NE", "postal_code": "30060"}, "capProviderId": null, "distance": null, "has_offers": false, "name": "Banquet Hall De Las America", "longitude": -84.530697, "has_menu": false, "awards": null, "user_review_count": 0}, {"business_operation_status": 1, "rating": null, "neighborhood": null, "image": null, "scorecard": null, "featured": false, "sample_categories": "Restaurants, Pizza, Carry Out", "public_id": "johnnys-pizza-marietta", "id": 790893290, "votes": null, "tagline": null, "has_video": false, "website": null, "offers": null, "latitude": 33.968758, "politanName": "Atlanta, GA Metro ", "phone_number": "7705658665", "tags": [{"primary": false, "id": 1722, "name": "Restaurants"}, {"primary": false, "id": 11247, "name": "Carry Out"}, {"primary": true, "id": 11299, "name": "Pizza"}], "fax_number": null, "expansion": {"count": null, "uri": null}, "impression_id": "000b000000fe0921d3fcbc460da0d0fb26b59f3ac7", "profile": "http://www.citysearch.com/profile/790893290/marietta_ga/johnnys_pizza.html", "address": {"city": "Marietta", "state": "GA", "street": "2100 Roswell Rd # 1100", "postal_code": "30062"}, "capProviderId": null, "distance": null, "has_offers": false, "name": "Johnnys Pizza", "longitude": -84.488447, "has_menu": false, "awards": null, "user_review_count": 0}, {"business_operation_status": 1, "rating": null, "neighborhood": null, "image": null, "scorecard": null, "featured": false, "sample_categories": "Restaurants", "public_id": "chazzs-place-marietta", "id": 732185840, "votes": null, "tagline": null, "has_video": false, "website": null, "offers": null, "latitude": 33.964105, "politanName": "Atlanta, GA Metro ", "phone_number": "7706932334", "tags": [{"primary": true, "id": 1722, "name": "Restaurants"}], "fax_number": null, "expansion": {"count": null, "uri": null}, "impression_id": "000b000000a15ef3ffb7e44edd9827c2e8bb062f15", "profile": "http://www.citysearch.com/profile/732185840/marietta_ga/chazz_s_place.html", "address": {"city": "Marietta", "state": "GA", "street": "531 Roselane St NW", "postal_code": "30060"}, "capProviderId": null, "distance": null, "has_offers": false, "name": "Chazz's Place", "longitude": -84.557337, "has_menu": false, "awards": null, "user_review_count": 0}, {"business_operation_status": 1, "rating": null, "neighborhood": null, "image": null, "scorecard": null, "featured": false, "sample_categories": "Restaurants", "public_id": "olgas-porch-inc-marietta", "id": 732189800, "votes": null, "tagline": null, "has_video": false, "website": null, "offers": null, "latitude": 33.962903, "politanName": "Atlanta, GA Metro ", "phone_number": "6786374595", "tags": [{"primary": true, "id": 1722, "name": "Restaurants"}], "fax_number": null, "expansion": {"count": null, "uri": null}, "impression_id": "000b000000a56e24396a6e48479440bf741f7b85f1", "profile": "http://www.citysearch.com/profile/732189800/marietta_ga/olgas_porch_inc.html", "address": {"city": "Marietta", "state": "GA", "street": "1591 Gresham Rd", "postal_code": "30062"}, "capProviderId": null, "distance": null, "has_offers": false, "name": "Olgas Porch Inc", "longitude": -84.50563, "has_menu": false, "awards": null, "user_review_count": 0}, {"business_operation_status": 1, "rating": null, "neighborhood": null, "image": null, "scorecard": null, "featured": false, "sample_categories": "Restaurants, Delis And Delicatessens, Carry Out", "public_id": "firehouse-subs-marietta-2", "id": 745603500, "votes": null, "tagline": null, "has_video": false, "website": null, "offers": null, "latitude": 33.95896, "politanName": "Atlanta, GA Metro ", "phone_number": "7707925993", "tags": [{"primary": false, "id": 1727, "name": "Delis And Delicatessens"}, {"primary": false, "id": 11247, "name": "Carry Out"}, {"primary": true, "id": 1722, "name": "Restaurants"}], "fax_number": null, "expansion": {"count": null, "uri": null}, "impression_id": "000b0000002af3474d6d844784a2cebf373b103fe2", "profile": "http://www.citysearch.com/profile/745603500/marietta_ga/firehouse_subs.html", "address": {"city": "Marietta", "state": "GA", "street": "145 N Marietta Pkwy NE", "postal_code": "30060"}, "capProviderId": null, "distance": null, "has_offers": false, "name": "Firehouse Subs", "longitude": -84.546879, "has_menu": false, "awards": null, "user_review_count": 0}, {"business_operation_status": 1, "rating": null, "neighborhood": null, "image": null, "scorecard": null, "featured": false, "sample_categories": "Restaurants", "public_id": "mamafus-smyrna", "id": 828608580, "votes": null, "tagline": null, "has_video": false, "website": null, "offers": null, "latitude": 33.884889, "politanName": "Atlanta, GA Metro ", "phone_number": "6782133663", "tags": [{"primary": true, "id": 1722, "name": "Restaurants"}], "fax_number": null, "expansion": {"count": null, "uri": null}, "impression_id": "000b000000383ad4a23d27420ebb5c8f07bb9ed17a", "profile": "http://www.citysearch.com/profile/828608580/smyrna_ga/mamafu_s.html", "address": {"city": "Smyrna", "state": "GA", "street": "400 Village Green Cir SE", "postal_code": "30080"}, "capProviderId": null, "distance": null, "has_offers": false, "name": "Mamafu's", "longitude": -84.516415, "has_menu": false, "awards": null, "user_review_count": 0}, {"business_operation_status": 1, "rating": null, "neighborhood": null, "image": null, "scorecard": null, "featured": false, "sample_categories": "Restaurants", "public_id": "bennigans-corp-atlanta", "id": 825862700, "votes": null, "tagline": null, "has_video": false, "website": null, "offers": null, "latitude": 33.904439, "politanName": "Atlanta, GA Metro ", "phone_number": "7709523004", "tags": [{"primary": true, "id": 1722, "name": "Restaurants"}], "fax_number": null, "expansion": {"count": null, "uri": null}, "impression_id": "000b000000f49164de609043949a243a1f02c216a2", "profile": "http://www.citysearch.com/profile/825862700/atlanta_ga/bennigan_s_corp.html", "address": {"city": "Atlanta", "state": "GA", "street": "5525 Interstate North Pkwy", "postal_code": "30328"}, "capProviderId": null, "distance": null, "has_offers": false, "name": "Bennigan's Corp", "longitude": -84.437055, "has_menu": false, "awards": null, "user_review_count": 0}, {"business_operation_status": 1, "rating": null, "neighborhood": null, "image": null, "scorecard": null, "featured": false, "sample_categories": "Restaurants, Carry Out", "public_id": "ruby-tuesday-atlanta-6", "id": 833545440, "votes": null, "tagline": null, "has_video": false, "website": null, "offers": null, "latitude": 33.907783, "politanName": "Atlanta, GA Metro ", "phone_number": "6785744550", "tags": [{"primary": false, "id": 11247, "name": "Carry Out"}, {"primary": true, "id": 1722, "name": "Restaurants"}], "fax_number": null, "expansion": {"count": null, "uri": null}, "impression_id": "000b0000005a4cec43d8764d0e94afb42e7edff305", "profile": "http://www.citysearch.com/profile/833545440/atlanta_ga/ruby_tuesday.html", "address": {"city": "Atlanta", "state": "GA", "street": "3318 Cobb Pkwy SE", "postal_code": "30339"}, "capProviderId": null, "distance": null, "has_offers": false, "name": "Ruby Tuesday", "longitude": -84.492298, "has_menu": true, "awards": null, "user_review_count": 0}, {"business_operation_status": 1, "rating": null, "neighborhood": null, "image": null, "scorecard": null, "featured": false, "sample_categories": "Restaurants, Delis And Delicatessens, Sandwich Shops, Carry Out", "public_id": "quiznos-marietta-7", "id": 832339260, "votes": null, "tagline": null, "has_video": false, "website": null, "offers": null, "latitude": 33.905926, "politanName": "Atlanta, GA Metro ", "phone_number": "7709800268", "tags": [{"primary": false, "id": 1727, "name": "Delis And Delicatessens"}, {"primary": false, "id": 1736, "name": "Sandwich Shops"}, {"primary": false, "id": 11247, "name": "Carry Out"}, {"primary": true, "id": 1722, "name": "Restaurants"}], "fax_number": null, "expansion": {"count": null, "uri": null}, "impression_id": "000b0000006676a5b8fefa40d69187566cf9e6a698", "profile": "http://www.citysearch.com/profile/832339260/marietta_ga/quiznos.html", "address": {"city": "Marietta", "state": "GA", "street": "2000 Powers Ferry Rd SE # 1-11", "postal_code": "30067"}, "capProviderId": null, "distance": null, "has_offers": false, "name": "Quiznos", "longitude": -84.465323, "has_menu": true, "awards": null, "user_review_count": 0}, {"business_operation_status": 1, "rating": null, "neighborhood": null, "image": null, "scorecard": null, "featured": false, "sample_categories": "Ice Cream Parlors, Dairy Products", "public_id": "flavorich-inc-marietta", "id": 764859740, "votes": null, "tagline": null, "has_video": false, "website": "http://www.citysearch.com/profile/external/764859740/marietta_ga/flav_o_rich_inc.html", "offers": null, "latitude": 33.986137, "politanName": "Atlanta, GA Metro ", "phone_number": "6782901326", "tags": [{"primary": false, "id": 1730, "name": "Ice Cream Parlors"}, {"primary": true, "id": 12837, "name": "Dairy Products"}], "fax_number": null, "expansion": {"count": null, "uri": null}, "impression_id": "000b000000b51921e28ce8431597fe37ebcad8869f", "profile": "http://www.citysearch.com/profile/764859740/marietta_ga/flav_o_rich_inc.html", "address": {"city": "Marietta", "state": "GA", "street": "1449 Cobb Pkwy N", "postal_code": "30062"}, "capProviderId": null, "distance": null, "has_offers": false, "name": "Flav-O-Rich Inc", "longitude": -84.571376, "has_menu": false, "awards": null, "user_review_count": 0}, {"business_operation_status": 1, "rating": null, "neighborhood": null, "image": null, "scorecard": null, "featured": false, "sample_categories": "Restaurants, Chinese, American Express, Discover, MasterCard", "public_id": "hong-kong-chinese-restaurant-marietta", "id": 775206160, "votes": null, "tagline": null, "has_video": false, "website": null, "offers": null, "latitude": 33.993754, "politanName": "Atlanta, GA Metro ", "phone_number": "7704256212", "tags": [{"primary": false, "id": 11252, "name": "Chinese"}, {"primary": false, "id": 11333, "name": "American Express"}, {"primary": false, "id": 11349, "name": "Discover"}, {"primary": false, "id": 11361, "name": "MasterCard"}, {"primary": false, "id": 11382, "name": "Visa"}, {"primary": true, "id": 1722, "name": "Restaurants"}], "fax_number": null, "expansion": {"count": null, "uri": null}, "impression_id": "000b000000322bd23072f74e41a974703ffb0be75f", "profile": "http://www.citysearch.com/profile/775206160/marietta_ga/hong_kong_chinese_restaurant.html", "address": {"city": "Marietta", "state": "GA", "street": "2774 Cobb Pkwy NW", "postal_code": "30060"}, "capProviderId": null, "distance": null, "has_offers": false, "name": "Hong Kong Chinese Restaurant", "longitude": -84.581248, "has_menu": false, "awards": null, "user_review_count": 0}, {"business_operation_status": 1, "rating": null, "neighborhood": null, "image": null, "scorecard": null, "featured": false, "sample_categories": "Restaurants, Pizza, Carry Out", "public_id": "pizza-hut-marietta-12", "id": 775223530, "votes": null, "tagline": null, "has_video": false, "website": null, "offers": null, "latitude": 33.952602, "politanName": "Atlanta, GA Metro ", "phone_number": "7709716932", "tags": [{"primary": false, "id": 1722, "name": "Restaurants"}, {"primary": false, "id": 11247, "name": "Carry Out"}, {"primary": true, "id": 11299, "name": "Pizza"}], "fax_number": null, "expansion": {"count": null, "uri": null}, "impression_id": "000b00000025af68b244fd49c7aac483baf0ff9a44", "profile": "http://www.citysearch.com/profile/775223530/marietta_ga/pizza_hut.html", "address": {"city": "Marietta", "state": "GA", "street": "2204 Roswell Rd", "postal_code": "30062"}, "capProviderId": null, "distance": null, "has_offers": false, "name": "Pizza Hut", "longitude": -84.549933, "has_menu": false, "awards": null, "user_review_count": 0}, {"business_operation_status": 1, "rating": null, "neighborhood": null, "image": null, "scorecard": null, "featured": false, "sample_categories": "Restaurants", "public_id": "cafe-1100-atlanta-2", "id": 805596080, "votes": null, "tagline": null, "has_video": false, "website": null, "offers": null, "latitude": 33.887519, "politanName": "Atlanta, GA Metro ", "phone_number": "7709334141", "tags": [{"primary": true, "id": 1722, "name": "Restaurants"}], "fax_number": null, "expansion": {"count": null, "uri": null}, "impression_id": "000b000000133ef7dfc0bc4e13892a5c277890b57c", "profile": "http://www.citysearch.com/profile/805596080/atlanta_ga/cafe_1100.html", "address": {"city": "Atlanta", "state": "GA", "street": "900 Circle 75 Pkwy SE # 25", "postal_code": "30339"}, "capProviderId": null, "distance": null, "has_offers": false, "name": "Cafe 1100", "longitude": -84.467593, "has_menu": false, "awards": null, "user_review_count": 0}, {"business_operation_status": 0, "rating": null, "neighborhood": null, "image": null, "scorecard": null, "featured": false, "sample_categories": "Restaurants", "public_id": "the-party-q-bbq-restaurant-marietta", "id": 672617170, "votes": null, "tagline": null, "has_video": false, "website": null, "offers": null, "latitude": 34.016708, "politanName": "Atlanta, GA Metro ", "phone_number": "7704242225", "tags": [{"primary": true, "id": 1722, "name": "Restaurants"}], "fax_number": null, "expansion": {"count": null, "uri": null}, "impression_id": "000b000000bcfe4ceef7e34dbb889f2e58a5cd6a32", "profile": "http://www.citysearch.com/profile/672617170/marietta_ga/the_party_q_bbq_restaurant.html", "address": {"city": "Marietta", "state": "GA", "street": "2821 Chastain Meadows Pkwy", "postal_code": "30066"}, "capProviderId": null, "distance": null, "has_offers": false, "name": "The Party Q! BBQ Restaurant", "longitude": -84.556251, "has_menu": false, "awards": null, "user_review_count": 0}, {"business_operation_status": 1, "rating": null, "neighborhood": null, "image": null, "scorecard": null, "featured": false, "sample_categories": "Restaurants, Bars & Clubs", "public_id": "cave-tapas-bar-and-lounge-kennesaw", "id": 672692320, "votes": null, "tagline": null, "has_video": false, "website": null, "offers": null, "latitude": 33.991946, "politanName": "Atlanta, GA Metro ", "phone_number": "6783917011", "tags": [{"primary": false, "id": 164, "name": "Bars & Clubs"}, {"primary": true, "id": 1722, "name": "Restaurants"}], "fax_number": null, "expansion": {"count": null, "uri": null}, "impression_id": "000b000000654ab6c7e493418898d5cf1e0295e67a", "profile": "http://www.citysearch.com/profile/672692320/kennesaw_ga/cave_tapas_bar_and_lounge.html", "address": {"city": "Kennesaw", "state": "GA", "street": "1619 Collins Rd NW", "postal_code": "30152"}, "capProviderId": null, "distance": null, "has_offers": false, "name": "Cave Tapas Bar and Lounge", "longitude": -84.59912, "has_menu": false, "awards": null, "user_review_count": 0}, {"business_operation_status": 1, "rating": null, "neighborhood": null, "image": null, "scorecard": null, "featured": false, "sample_categories": "Restaurants, Carry Out", "public_id": "zaxbys-smyrna-4", "id": 625733364, "votes": null, "tagline": null, "has_video": false, "website": null, "offers": null, "latitude": 33.879925, "politanName": "Atlanta, GA Metro ", "phone_number": "6788704000", "tags": [{"primary": false, "id": 11247, "name": "Carry Out"}, {"primary": true, "id": 1722, "name": "Restaurants"}], "fax_number": null, "expansion": {"count": null, "uri": null}, "impression_id": "000b000000e1babdfcd00b42d293f193e7d103f11d", "profile": "http://www.citysearch.com/profile/625733364/smyrna_ga/zaxby_s.html", "address": {"city": "Smyrna", "state": "GA", "street": "1420 Spring Rd SE", "postal_code": "30080"}, "capProviderId": null, "distance": null, "has_offers": false, "name": "Zaxby's", "longitude": -84.51175, "has_menu": false, "awards": null, "user_review_count": 0}, {"business_operation_status": 1, "rating": null, "neighborhood": null, "image": null, "scorecard": null, "featured": false, "sample_categories": "Restaurants", "public_id": "r-cs-southern-cooking-marietta", "id": 754855600, "votes": null, "tagline": null, "has_video": false, "website": null, "offers": null, "latitude": 33.951248, "politanName": "Atlanta, GA Metro ", "phone_number": "7704854668", "tags": [{"primary": true, "id": 1722, "name": "Restaurants"}], "fax_number": null, "expansion": {"count": null, "uri": null}, "impression_id": "000b000000d3f334a225b24c3d9be7134c591bdaf2", "profile": "http://www.citysearch.com/profile/754855600/marietta_ga/r_c_s_southern_cooking.html", "address": {"city": "Marietta", "state": "GA", "street": "1516 Roswell Rd", "postal_code": "30062"}, "capProviderId": null, "distance": null, "has_offers": false, "name": "R C's Southern Cooking", "longitude": -84.508172, "has_menu": false, "awards": null, "user_review_count": 0}, {"business_operation_status": 1, "rating": null, "neighborhood": null, "image": null, "scorecard": null, "featured": false, "sample_categories": "Restaurants", "public_id": "la-hispaniola-marietta", "id": 672780210, "votes": null, "tagline": null, "has_video": false, "website": null, "offers": null, "latitude": 33.952062, "politanName": "Atlanta, GA Metro ", "phone_number": "7704240093", "tags": [{"primary": true, "id": 1722, "name": "Restaurants"}], "fax_number": null, "expansion": {"count": null, "uri": null}, "impression_id": "000b00000042bdbcb2bde24e5c972e631b48ee94f8", "profile": "http://www.citysearch.com/profile/672780210/marietta_ga/la_hispaniola.html", "address": {"city": "Marietta", "state": "GA", "street": "168 Roswell St NE", "postal_code": "30060"}, "capProviderId": null, "distance": null, "has_offers": false, "name": "La Hispaniola", "longitude": -84.548376, "has_menu": false, "awards": null, "user_review_count": 0}, {"business_operation_status": 1, "rating": null, "neighborhood": null, "image": null, "scorecard": null, "featured": false, "sample_categories": "Restaurants, Carry Out, Pizza", "public_id": "jimmy-johns-marietta", "id": 672132390, "votes": null, "tagline": null, "has_video": false, "website": null, "offers": null, "latitude": 33.970943, "politanName": "Atlanta, GA Metro ", "phone_number": "6785814550", "tags": [{"primary": false, "id": 11247, "name": "Carry Out"}, {"primary": false, "id": 11299, "name": "Pizza"}, {"primary": true, "id": 1722, "name": "Restaurants"}], "fax_number": null, "expansion": {"count": null, "uri": null}, "impression_id": "000b0000007e27ffdd828944119034e10bbe343c0f", "profile": "http://www.citysearch.com/profile/672132390/marietta_ga/jimmy_john_s.html", "address": {"city": "Marietta", "state": "GA", "street": "801 Church St NE Ste A", "postal_code": "30060"}, "capProviderId": null, "distance": null, "has_offers": false, "name": "Jimmy John's", "longitude": -84.550624, "has_menu": false, "awards": null, "user_review_count": 0}, {"business_operation_status": 1, "rating": null, "neighborhood": null, "image": null, "scorecard": null, "featured": false, "sample_categories": "Barbecue Restaurants", "public_id": "wanyes-brother-bbq-marietta", "id": 777668500, "votes": null, "tagline": null, "has_video": false, "website": null, "offers": null, "latitude": 33.977691, "politanName": "Atlanta, GA Metro ", "phone_number": "6783313892", "tags": [{"primary": true, "id": 1724, "name": "Barbecue Restaurants"}], "fax_number": null, "expansion": {"count": null, "uri": null}, "impression_id": "000b000000f43e9fca6836403b854e8a43b9163b22", "profile": "http://www.citysearch.com/profile/777668500/marietta_ga/wanye_s_brother_bbq.html", "address": {"city": "Marietta", "state": "GA", "street": "1160 Hayes Industrial Dr", "postal_code": "30062"}, "capProviderId": null, "distance": null, "has_offers": false, "name": "Wanye's Brother BBQ", "longitude": -84.542327, "has_menu": false, "awards": null, "user_review_count": 0}, {"business_operation_status": 1, "rating": null, "neighborhood": null, "image": null, "scorecard": null, "featured": false, "sample_categories": "Restaurants", "public_id": "hoboken-cafe-marietta", "id": 777676340, "votes": null, "tagline": null, "has_video": false, "website": null, "offers": null, "latitude": 33.951914, "politanName": "Atlanta, GA Metro ", "phone_number": "6789093375", "tags": [{"primary": true, "id": 1722, "name": "Restaurants"}], "fax_number": null, "expansion": {"count": null, "uri": null}, "impression_id": "000b000000e536e7d0d3d84750b806543535b63cab", "profile": "http://www.citysearch.com/profile/777676340/marietta_ga/hoboken_cafe.html", "address": {"city": "Marietta", "state": "GA", "street": "688 Whitlock Ave NW", "postal_code": "30064"}, "capProviderId": null, "distance": null, "has_offers": false, "name": "Hoboken Cafe", "longitude": -84.57265, "has_menu": false, "awards": null, "user_review_count": 0}, {"business_operation_status": 1, "rating": null, "neighborhood": null, "image": null, "scorecard": null, "featured": false, "sample_categories": "Restaurants, Catering, Delis And Delicatessens, Carry Out", "public_id": "jimmy-johns-marietta-3", "id": 796130460, "votes": null, "tagline": null, "has_video": false, "website": "http://www.citysearch.com/profile/external/796130460/marietta_ga/jimmy_john_s.html", "offers": null, "latitude": 33.91914, "politanName": "Atlanta, GA Metro ", "phone_number": "6783243630", "tags": [{"primary": false, "id": 1705, "name": "Catering"}, {"primary": false, "id": 1727, "name": "Delis And Delicatessens"}, {"primary": false, "id": 11247, "name": "Carry Out"}, {"primary": true, "id": 1722, "name": "Restaurants"}], "fax_number": null, "expansion": {"count": null, "uri": null}, "impression_id": "000b00000087ae572297f64c5b9f8da870a2c4bf7f", "profile": "http://www.citysearch.com/profile/796130460/marietta_ga/jimmy_john_s.html", "address": {"city": "Marietta", "state": "GA", "street": "1337 Powers Ferry Rd Se", "postal_code": "30067"}, "capProviderId": null, "distance": null, "has_offers": false, "name": "Jimmy John's", "longitude": -84.466839, "has_menu": false, "awards": null, "user_review_count": 0}, {"business_operation_status": 1, "rating": null, "neighborhood": null, "image": null, "scorecard": null, "featured": false, "sample_categories": "Restaurants", "public_id": "las-drisas-number-2-marietta", "id": 713600220, "votes": null, "tagline": null, "has_video": false, "website": null, "offers": null, "latitude": 33.935213, "politanName": "Atlanta, GA Metro ", "phone_number": "6783542220", "tags": [{"primary": true, "id": 1722, "name": "Restaurants"}], "fax_number": null, "expansion": {"count": null, "uri": null}, "impression_id": "000b0000009b602912668a4985a9f968f9091f4e13", "profile": "http://www.citysearch.com/profile/713600220/marietta_ga/las_drisas_number_2.html", "address": {"city": "Marietta", "state": "GA", "street": "715 Sandtown Rd Sw", "postal_code": "30008"}, "capProviderId": null, "distance": null, "has_offers": false, "name": "Las Drisas Number 2", "longitude": -84.555821, "has_menu": false, "awards": null, "user_review_count": 0}, {"business_operation_status": 1, "rating": null, "neighborhood": null, "image": null, "scorecard": null, "featured": false, "sample_categories": "Restaurants", "public_id": "pete-sneaky-inc-marietta", "id": 821568530, "votes": null, "tagline": null, "has_video": false, "website": null, "offers": null, "latitude": 33.906504, "politanName": "Atlanta, GA Metro ", "phone_number": "7709714838", "tags": [{"primary": true, "id": 1722, "name": "Restaurants"}], "fax_number": null, "expansion": {"count": null, "uri": null}, "impression_id": "000b00000081476200f01d4e03805c12251eed771d", "profile": "http://www.citysearch.com/profile/821568530/marietta_ga/pete_sneaky_inc.html", "address": {"city": "Marietta", "state": "GA", "street": "PO Box 6572", "postal_code": "30065"}, "capProviderId": null, "distance": null, "has_offers": false, "name": "Pete Sneaky Inc", "longitude": -84.488386, "has_menu": false, "awards": null, "user_review_count": 0}, {"business_operation_status": 1, "rating": null, "neighborhood": null, "image": null, "scorecard": null, "featured": false, "sample_categories": "Restaurants", "public_id": "saporitos-kennesaw", "id": 682453180, "votes": null, "tagline": null, "has_video": false, "website": null, "offers": null, "latitude": 33.999345, "politanName": "Atlanta, GA Metro ", "phone_number": "7704251970", "tags": [{"primary": true, "id": 1722, "name": "Restaurants"}], "fax_number": null, "expansion": {"count": null, "uri": null}, "impression_id": "000b00000091061ff8efca467ab4cf00a24a45f196", "profile": "http://www.citysearch.com/profile/682453180/kennesaw_ga/saporito_s.html", "address": {"city": "Kennesaw", "state": "GA", "street": "1200 Ernest W Barrett Pkwy NW", "postal_code": "30144"}, "capProviderId": null, "distance": null, "has_offers": false, "name": "Saporito's", "longitude": -84.586888, "has_menu": false, "awards": null, "user_review_count": 0}, {"business_operation_status": 1, "rating": null, "neighborhood": null, "image": null, "scorecard": null, "featured": false, "sample_categories": "Restaurants, Carry Out, Hamburgers", "public_id": "five-guys-burgers-fries-atlanta-6", "id": 622023500, "votes": null, "tagline": null, "has_video": false, "website": "http://www.citysearch.com/profile/external/622023500/atlanta_ga/five_guys_burgers_fries.html", "offers": null, "latitude": 33.894565, "politanName": "Atlanta, GA Metro ", "phone_number": "4046296577", "tags": [{"primary": false, "id": 11247, "name": "Carry Out"}, {"primary": false, "id": 11270, "name": "Hamburgers"}, {"primary": true, "id": 1722, "name": "Restaurants"}], "fax_number": null, "expansion": {"count": null, "uri": null}, "impression_id": "000b000000c480b1fea459491788f474a5f824c50f", "profile": "http://www.citysearch.com/profile/622023500/atlanta_ga/five_guys_burgers_fries.html", "address": {"city": "Atlanta", "state": "GA", "street": "2400 Herodian Way", "postal_code": "30331"}, "capProviderId": null, "distance": null, "has_offers": false, "name": "Five Guys Burgers & Fries", "longitude": -84.472334, "has_menu": false, "awards": null, "user_review_count": 0}, {"business_operation_status": 1, "rating": null, "neighborhood": null, "image": null, "scorecard": null, "featured": false, "sample_categories": "Restaurants, Delis And Delicatessens, American Express, Debit Card, Discover", "public_id": "great-wraps-kennesaw", "id": 682599740, "votes": null, "tagline": null, "has_video": false, "website": null, "offers": null, "latitude": 34.018145, "politanName": "Atlanta, GA Metro ", "phone_number": "7704287788", "tags": [{"primary": false, "id": 1727, "name": "Delis And Delicatessens"}, {"primary": false, "id": 11333, "name": "American Express"}, {"primary": false, "id": 11347, "name": "Debit Card"}, {"primary": false, "id": 11349, "name": "Discover"}, {"primary": false, "id": 11361, "name": "MasterCard"}, {"primary": false, "id": 11382, "name": "Visa"}, {"primary": true, "id": 1722, "name": "Restaurants"}], "fax_number": null, "expansion": {"count": null, "uri": null}, "impression_id": "000b0000004853cf9ea4b04b17b278d9a8419c549f", "profile": "http://www.citysearch.com/profile/682599740/kennesaw_ga/great_wraps.html", "address": {"city": "Kennesaw", "state": "GA", "street": "400 Barrett Pkwy # 130", "postal_code": "30144"}, "capProviderId": null, "distance": null, "has_offers": false, "name": "Great Wraps", "longitude": -84.561896, "has_menu": false, "awards": null, "user_review_count": 2}], "histograms": [], "tag_ids": [1722], "uri": "http://api.citygridmedia.com:8080/search/places/v2/search/where?has_offers=false&type=restaurant&format=json&page=10&where=30006&rpp=50&histograms=false&publisher=10000009598&region_type=circle", "did_you_mean": "", "regions": [{"latitude": 33.9527, "default_radius": 0.25, "type": "postal_code", "name": "30006", "longitude": -84.5502}], "call_id": "000b000000fe5ec22c57024c4b8f540b2684b5a26c", "first_hit": 451, "total_hits": 509, "geo_ids": [137009], "page": 10, "last_hit": 500}}