{"results": {"rpp": 50, "locations": [{"business_operation_status": 1, "rating": null, "neighborhood": null, "image": null, "scorecard": null, "featured": false, "sample_categories": "Restaurants", "public_id": "barkers-hot-charcaol-broiled-marietta", "id": 817747590, "votes": null, "tagline": null, "has_video": false, "website": null, "offers": null, "latitude": 33.964344, "politanName": "Atlanta, GA Metro ", "phone_number": "7705140806", "tags": [{"primary": true, "id": 1722, "name": "Restaurants"}], "fax_number": null, "expansion": {"count": null, "uri": null}, "impression_id": "000b000000bd9fb9cebff245369c311b9a482b5b7e", "profile": "http://www.citysearch.com/profile/817747590/marietta_ga/barkers_hot_charcaol_broiled.html", "address": {"city": "Marietta", "state": "GA", "street": "84 Radium St NW", "postal_code": "30060"}, "capProviderId": null, "distance": null, "has_offers": false, "name": "Barkers Hot Charcaol Broiled", "longitude": -84.554127, "has_menu": false, "awards": null, "user_review_count": 0}, {"business_operation_status": 1, "rating": null, "neighborhood": null, "image": null, "scorecard": null, "featured": false, "sample_categories": "Restaurants", "public_id": "johnnys-new-york-style-roswell", "id": 822128780, "votes": null, "tagline": null, "has_video": false, "website": null, "offers": null, "latitude": 34.054243, "politanName": "Atlanta, GA Metro ", "phone_number": "7705520505", "tags": [{"primary": true, "id": 1722, "name": "Restaurants"}], "fax_number": null, "expansion": {"count": null, "uri": null}, "impression_id": "000b00000071769c5c8bcc4e41bae2cd70a7bdff98", "profile": "http://www.citysearch.com/profile/822128780/roswell_ga/johnny_s_new_york_style.html", "address": {"city": "Roswell", "state": "GA", "street": "580 W Crossville Rd", "postal_code": "30075"}, "capProviderId": null, "distance": null, "has_offers": false, "name": "Johnny's New York Style", "longitude": -84.378213, "has_menu": false, "awards": null, "user_review_count": 0}, {"business_operation_status": 1, "rating": null, "neighborhood": null, "image": null, "scorecard": null, "featured": false, "sample_categories": "Restaurants, Bars & Pubs", "public_id": "montego-cafe-lounge-sandy", "id": 764913830, "votes": null, "tagline": null, "has_video": false, "website": null, "offers": null, "latitude": 34.002099, "politanName": "Atlanta, GA Metro ", "phone_number": "7709928188", "tags": [{"primary": false, "id": 1686, "name": "Bars & Pubs"}, {"primary": true, "id": 1722, "name": "Restaurants"}], "fax_number": null, "expansion": {"count": null, "uri": null}, "impression_id": "000b000000c38ade214e48490fafe24398a488e04c", "profile": "http://www.citysearch.com/profile/764913830/sandy_springs_ga/montego_cafe_lounge.html", "address": {"city": "Sandy Springs", "state": "GA", "street": "8883 Roswell Rd", "postal_code": "30350"}, "capProviderId": null, "distance": null, "has_offers": false, "name": "Montego Cafe & Lounge", "longitude": -84.350438, "has_menu": false, "awards": null, "user_review_count": 0}, {"business_operation_status": 1, "rating": null, "neighborhood": null, "image": null, "scorecard": null, "featured": false, "sample_categories": "Restaurants, Delis And Delicatessens, Sandwich Shops, Carry Out", "public_id": "firehouse-subs-marietta-3", "id": 764915450, "votes": null, "tagline": null, "has_video": false, "website": null, "offers": null, "latitude": 33.92306, "politanName": "Atlanta, GA Metro ", "phone_number": "7706908103", "tags": [{"primary": false, "id": 1727, "name": "Delis And Delicatessens"}, {"primary": false, "id": 1736, "name": "Sandwich Shops"}, {"primary": false, "id": 11247, "name": "Carry Out"}, {"primary": true, "id": 1722, "name": "Restaurants"}], "fax_number": null, "expansion": {"count": null, "uri": null}, "impression_id": "000b000000a70801758e1f4e5c8a99396e76c04d6e", "profile": "http://www.citysearch.com/profile/764915450/marietta_ga/firehouse_subs.html", "address": {"city": "Marietta", "state": "GA", "street": "2900 Delk Rd SE", "postal_code": "30067"}, "capProviderId": null, "distance": null, "has_offers": false, "name": "Firehouse Subs", "longitude": -84.467405, "has_menu": true, "awards": null, "user_review_count": 0}, {"business_operation_status": 1, "rating": null, "neighborhood": null, "image": null, "scorecard": null, "featured": false, "sample_categories": "Grocery Stores, Convenience Stores, Pizza", "public_id": "muhamed-firoj-roswell", "id": 764835080, "votes": null, "tagline": null, "has_video": false, "website": "http://www.citysearch.com/profile/external/764835080/roswell_ga/muhamed_firoj.html", "offers": null, "latitude": 34.005292, "politanName": "Atlanta, GA Metro ", "phone_number": "7705186000", "tags": [{"primary": false, "id": 1714, "name": "Convenience Stores"}, {"primary": false, "id": 11299, "name": "Pizza"}, {"primary": true, "id": 1713, "name": "Grocery Stores"}], "fax_number": null, "expansion": {"count": null, "uri": null}, "impression_id": "000b000000a13f88a010d64cdb94c61bc4493437e4", "profile": "http://www.citysearch.com/profile/764835080/roswell_ga/muhamed_firoj.html", "address": {"city": "Roswell", "state": "GA", "street": "1000 Marietta Hwy", "postal_code": "30075"}, "capProviderId": null, "distance": null, "has_offers": false, "name": "Muhamed Firoj", "longitude": -84.390859, "has_menu": false, "awards": null, "user_review_count": 0}, {"business_operation_status": 1, "rating": null, "neighborhood": null, "image": null, "scorecard": null, "featured": false, "sample_categories": "Restaurants, Delis And Delicatessens", "public_id": "planet-sub-marietta", "id": 770774340, "votes": null, "tagline": null, "has_video": false, "website": null, "offers": null, "latitude": 34.013859, "politanName": "Atlanta, GA Metro ", "phone_number": "7705750206", "tags": [{"primary": false, "id": 1727, "name": "Delis And Delicatessens"}, {"primary": true, "id": 1722, "name": "Restaurants"}], "fax_number": null, "expansion": {"count": null, "uri": null}, "impression_id": "000b00000013b3c1c35a2a4d90b4554f1cd09863ff", "profile": "http://www.citysearch.com/profile/770774340/marietta_ga/planet_sub.html", "address": {"city": "Marietta", "state": "GA", "street": "125 Barrett Pkwy", "postal_code": "30066"}, "capProviderId": null, "distance": null, "has_offers": false, "name": "Planet Sub", "longitude": -84.554543, "has_menu": false, "awards": null, "user_review_count": 0}, {"business_operation_status": 1, "rating": 9.0, "neighborhood": null, "image": null, "scorecard": null, "featured": false, "sample_categories": "Restaurants, Greek", "public_id": "bobs-kebobs-kennesaw", "id": 41612270, "votes": null, "tagline": null, "has_video": false, "website": null, "offers": null, "latitude": 33.999764, "politanName": "Atlanta, GA Metro ", "phone_number": "7704224362", "tags": [{"primary": false, "id": 1722, "name": "Restaurants"}, {"primary": true, "id": 11268, "name": "Greek"}], "fax_number": null, "expansion": {"count": null, "uri": null}, "impression_id": "000b00000054566f51becd49db8ecb2f6da1828a59", "profile": "http://www.citysearch.com/profile/41612270/kennesaw_ga/bob_s_kebobs.html", "address": {"city": "Kennesaw", "state": "GA", "street": "1200 Earnest Barrett Pkwy", "postal_code": "30144"}, "capProviderId": null, "distance": null, "has_offers": false, "name": "Bob's Kebobs", "longitude": -84.585396, "has_menu": false, "awards": null, "user_review_count": 0}, {"business_operation_status": 1, "rating": null, "neighborhood": null, "image": null, "scorecard": null, "featured": false, "sample_categories": "Juice & Smoothie Shops", "public_id": "odwalla-inc-woodstock", "id": 781242340, "votes": null, "tagline": null, "has_video": false, "website": null, "offers": null, "latitude": 34.13719, "politanName": "Atlanta, GA Metro ", "phone_number": "7705170429", "tags": [{"primary": true, "id": 1735, "name": "Juice & Smoothie Shops"}], "fax_number": null, "expansion": {"count": null, "uri": null}, "impression_id": "000b000000356731bb91764c35b3c0c6977e259cb8", "profile": "http://www.citysearch.com/profile/781242340/woodstock_ga/odwalla_inc.html", "address": {"city": "Woodstock", "state": "GA", "street": "303 Heritage Overlook", "postal_code": "30188"}, "capProviderId": null, "distance": null, "has_offers": false, "name": "Odwalla INC", "longitude": -84.444396, "has_menu": false, "awards": null, "user_review_count": 0}, {"business_operation_status": 1, "rating": null, "neighborhood": null, "image": null, "scorecard": null, "featured": false, "sample_categories": "Restaurants", "public_id": "las-tortas-locas-marietta", "id": 43851541, "votes": null, "tagline": null, "has_video": false, "website": null, "offers": null, "latitude": 33.902096, "politanName": "Atlanta, GA Metro ", "phone_number": "7708030303", "tags": [{"primary": true, "id": 1722, "name": "Restaurants"}], "fax_number": null, "expansion": {"count": null, "uri": null}, "impression_id": "000b0000004335702a90c1402fa9df8efcbd7dceb4", "profile": "http://www.citysearch.com/profile/43851541/marietta_ga/las_tortas_locas.html", "address": {"city": "Marietta", "state": "GA", "street": "345 Pat Mell Rd SE", "postal_code": "30060"}, "capProviderId": null, "distance": null, "has_offers": false, "name": "Las Tortas Locas", "longitude": -84.546397, "has_menu": false, "awards": null, "user_review_count": 0}, {"business_operation_status": 1, "rating": null, "neighborhood": null, "image": null, "scorecard": null, "featured": false, "sample_categories": "Coffeehouses", "public_id": "coffeeamcom-woodstock", "id": 810900540, "votes": null, "tagline": null, "has_video": false, "website": null, "offers": null, "latitude": 34.080772, "politanName": "Atlanta, GA Metro ", "phone_number": "6784943575", "tags": [{"primary": true, "id": 1726, "name": "Coffeehouses"}], "fax_number": null, "expansion": {"count": null, "uri": null}, "impression_id": "000b000000c08ef9567c1b4423a78b377c94d4936a", "profile": "http://www.citysearch.com/profile/810900540/woodstock_ga/coffeeam_com.html", "address": {"city": "Woodstock", "state": "GA", "street": "100 Londonderry CT", "postal_code": "30188"}, "capProviderId": null, "distance": null, "has_offers": false, "name": "COFFEEAM.COM", "longitude": -84.501362, "has_menu": false, "awards": null, "user_review_count": 0}, {"business_operation_status": 1, "rating": null, "neighborhood": null, "image": null, "scorecard": null, "featured": false, "sample_categories": "Restaurants, Catering, Hispanic Food Products, Carry Out", "public_id": "buzy-burrito-mexican-grill-roswell-2", "id": 609098774, "votes": null, "tagline": null, "has_video": false, "website": "http://www.citysearch.com/profile/external/609098774/roswell_ga/buzy_burrito_mexican_restaurant.html", "offers": null, "latitude": 34.04, "politanName": "Atlanta, GA Metro ", "phone_number": "6788784620", "tags": [{"primary": false, "id": 1705, "name": "Catering"}, {"primary": false, "id": 11153, "name": "Hispanic Food Products"}, {"primary": false, "id": 11247, "name": "Carry Out"}, {"primary": true, "id": 1722, "name": "Restaurants"}], "fax_number": null, "expansion": {"count": null, "uri": null}, "impression_id": "000b000000ca24f9a37cd84b4f99c053158d939146", "profile": "http://www.citysearch.com/profile/609098774/roswell_ga/buzy_burrito_mexican_restaurant.html", "address": {"city": "Roswell", "state": "GA", "street": "10684 Alpharetta Hwy 400", "postal_code": "30076"}, "capProviderId": null, "distance": null, "has_offers": false, "name": "Buzy Burrito Mexican Restaurant", "longitude": -84.343053, "has_menu": false, "awards": null, "user_review_count": 0}, {"business_operation_status": 1, "rating": null, "neighborhood": null, "image": null, "scorecard": null, "featured": false, "sample_categories": "Restaurants", "public_id": "soups-on-marietta", "id": 822863480, "votes": null, "tagline": null, "has_video": false, "website": null, "offers": null, "latitude": 33.952258, "politanName": "Atlanta, GA Metro ", "phone_number": "7704297687", "tags": [{"primary": true, "id": 1722, "name": "Restaurants"}], "fax_number": null, "expansion": {"count": null, "uri": null}, "impression_id": "000b000000b85432a6a5584920a98e1d8be989944b", "profile": "http://www.citysearch.com/profile/822863480/marietta_ga/soup_s_on.html", "address": {"city": "Marietta", "state": "GA", "street": "154 Roswell St SE", "postal_code": "30060"}, "capProviderId": null, "distance": null, "has_offers": false, "name": "Soup's On", "longitude": -84.54874, "has_menu": false, "awards": null, "user_review_count": 0}, {"business_operation_status": 1, "rating": null, "neighborhood": null, "image": null, "scorecard": null, "featured": false, "sample_categories": "Restaurants", "public_id": "savory-corner-kennesaw-2", "id": 839498940, "votes": null, "tagline": null, "has_video": false, "website": null, "offers": null, "latitude": 34.006214, "politanName": "Atlanta, GA Metro ", "phone_number": "7703295419", "tags": [{"primary": true, "id": 1722, "name": "Restaurants"}], "fax_number": null, "expansion": {"count": null, "uri": null}, "impression_id": "000b0000003bc59c7ca11643f7808dfe5e5fab1d44", "profile": "http://www.citysearch.com/profile/839498940/kennesaw_ga/savory_corner.html", "address": {"city": "Kennesaw", "state": "GA", "street": "2120 Barrett Park Dr NW", "postal_code": "30144"}, "capProviderId": null, "distance": null, "has_offers": false, "name": "Savory Corner", "longitude": -84.595772, "has_menu": false, "awards": null, "user_review_count": 0}, {"business_operation_status": 1, "rating": null, "neighborhood": null, "image": null, "scorecard": null, "featured": false, "sample_categories": "Restaurants", "public_id": "emidios-atlanta", "id": 748330160, "votes": null, "tagline": null, "has_video": false, "website": null, "offers": null, "latitude": 33.991253, "politanName": "Atlanta, GA Metro ", "phone_number": "7708373373", "tags": [{"primary": true, "id": 1722, "name": "Restaurants"}], "fax_number": null, "expansion": {"count": null, "uri": null}, "impression_id": "000b00000070642e05fb96439eb98e03207db31af2", "profile": "http://www.citysearch.com/profile/748330160/atlanta_ga/emidio_s.html", "address": {"city": "Atlanta", "state": "GA", "street": "8610 Roswell Rd", "postal_code": "30350"}, "capProviderId": null, "distance": null, "has_offers": false, "name": "Emidio's", "longitude": -84.351975, "has_menu": false, "awards": null, "user_review_count": 0}, {"business_operation_status": 1, "rating": null, "neighborhood": null, "image": null, "scorecard": null, "featured": false, "sample_categories": "Restaurants", "public_id": "american-wing-co-kennesaw", "id": 839999600, "votes": null, "tagline": null, "has_video": false, "website": null, "offers": null, "latitude": 34.017369, "politanName": "Atlanta, GA Metro ", "phone_number": "7706357648", "tags": [{"primary": true, "id": 1722, "name": "Restaurants"}], "fax_number": null, "expansion": {"count": null, "uri": null}, "impression_id": "000b000000baf1fdd5fb2e40b786c3bf1d191be20d", "profile": "http://www.citysearch.com/profile/839999600/kennesaw_ga/american_wing_co.html", "address": {"city": "Kennesaw", "state": "GA", "street": "400 Ernest W Barrett Pkwy NW", "postal_code": "30144"}, "capProviderId": null, "distance": null, "has_offers": false, "name": "American Wing Co", "longitude": -84.564255, "has_menu": false, "awards": null, "user_review_count": 0}, {"business_operation_status": 1, "rating": null, "neighborhood": null, "image": null, "scorecard": null, "featured": false, "sample_categories": "Bars & Clubs, Restaurants, Mexican", "public_id": "three-amigos-mexican-bar-marietta", "id": 764927450, "votes": null, "tagline": null, "has_video": false, "website": null, "offers": null, "latitude": 33.953033, "politanName": "Atlanta, GA Metro ", "phone_number": "7704855947", "tags": [{"primary": false, "id": 164, "name": "Bars & Clubs"}, {"primary": false, "id": 11208, "name": "Mexican"}, {"primary": true, "id": 1722, "name": "Restaurants"}], "fax_number": null, "expansion": {"count": null, "uri": null}, "impression_id": "000b000000c4c14169bef2468686e9a616a4ac439a", "profile": "http://www.citysearch.com/profile/764927450/marietta_ga/three_amigos_mexican_bar.html", "address": {"city": "Marietta", "state": "GA", "street": "1000 Whitlock Ave NW # 410", "postal_code": "30064"}, "capProviderId": null, "distance": null, "has_offers": false, "name": "Three Amigos Mexican Bar", "longitude": -84.581202, "has_menu": false, "awards": null, "user_review_count": 0}, {"business_operation_status": 1, "rating": null, "neighborhood": null, "image": null, "scorecard": null, "featured": false, "sample_categories": "Restaurants, Bars & Clubs, Bars & Pubs", "public_id": "two-monkies-tavern-marietta", "id": 764934920, "votes": null, "tagline": null, "has_video": false, "website": null, "offers": null, "latitude": 33.951899, "politanName": "Atlanta, GA Metro ", "phone_number": "7704220108", "tags": [{"primary": false, "id": 164, "name": "Bars & Clubs"}, {"primary": false, "id": 1686, "name": "Bars & Pubs"}, {"primary": true, "id": 1722, "name": "Restaurants"}], "fax_number": null, "expansion": {"count": null, "uri": null}, "impression_id": "000b000000e2f29bd52c7c4b51a74b8d09288a9cb7", "profile": "http://www.citysearch.com/profile/764934920/marietta_ga/two_monkies_tavern.html", "address": {"city": "Marietta", "state": "GA", "street": "688 Whitlock Ave NW", "postal_code": "30064"}, "capProviderId": null, "distance": null, "has_offers": false, "name": "Two Monkies Tavern", "longitude": -84.57265, "has_menu": false, "awards": null, "user_review_count": 0}, {"business_operation_status": 1, "rating": null, "neighborhood": null, "image": null, "scorecard": null, "featured": false, "sample_categories": "Restaurants, Carry Out, Pizza", "public_id": "papa-johns-pizza-marietta-18", "id": 764880830, "votes": null, "tagline": null, "has_video": false, "website": null, "offers": null, "latitude": 34.058171, "politanName": "Atlanta, GA Metro ", "phone_number": "7709771194", "tags": [{"primary": false, "id": 11247, "name": "Carry Out"}, {"primary": false, "id": 11299, "name": "Pizza"}, {"primary": true, "id": 1722, "name": "Restaurants"}], "fax_number": null, "expansion": {"count": null, "uri": null}, "impression_id": "000b00000045bb4623389a4b9cbc745a63b2f1cc10", "profile": "http://www.citysearch.com/profile/764880830/marietta_ga/papa_john_s_pizza.html", "address": {"city": "Marietta", "state": "GA", "street": "4524 Club House Dr", "postal_code": "30066"}, "capProviderId": null, "distance": null, "has_offers": false, "name": "Papa John's Pizza", "longitude": -84.44555, "has_menu": false, "awards": null, "user_review_count": 0}, {"business_operation_status": 1, "rating": null, "neighborhood": null, "image": null, "scorecard": null, "featured": false, "sample_categories": "Restaurants, Delis And Delicatessens, Carry Out, Food Delivery, Shop Online", "public_id": "jimmy-johns-woodstock-3", "id": 770779230, "votes": null, "tagline": null, "has_video": false, "website": "http://www.citysearch.com/profile/external/770779230/woodstock_ga/jimmy_john_s.html", "offers": null, "latitude": 34.088057, "politanName": "Atlanta, GA Metro ", "phone_number": "7706939140", "tags": [{"primary": false, "id": 1727, "name": "Delis And Delicatessens"}, {"primary": false, "id": 11247, "name": "Carry Out"}, {"primary": false, "id": 11267, "name": "Food Delivery"}, {"primary": false, "id": 11375, "name": "Shop Online"}, {"primary": true, "id": 1722, "name": "Restaurants"}], "fax_number": null, "expansion": {"count": null, "uri": null}, "impression_id": "000b000000b4916767832e458896345d306a718006", "profile": "http://www.citysearch.com/profile/770779230/woodstock_ga/jimmy_john_s.html", "address": {"city": "Woodstock", "state": "GA", "street": "12201 Highway 92", "postal_code": "30188"}, "capProviderId": null, "distance": null, "has_offers": false, "name": "Jimmy John's", "longitude": -84.48162, "has_menu": false, "awards": null, "user_review_count": 0}, {"business_operation_status": 1, "rating": null, "neighborhood": null, "image": null, "scorecard": null, "featured": false, "sample_categories": "Restaurants", "public_id": "tricon-global-restaurants-roswell", "id": 777740310, "votes": null, "tagline": null, "has_video": false, "website": null, "offers": null, "latitude": 34.04192, "politanName": "Atlanta, GA Metro ", "phone_number": "7709905000", "tags": [{"primary": true, "id": 1722, "name": "Restaurants"}], "fax_number": null, "expansion": {"count": null, "uri": null}, "impression_id": "000b000000dbd8cf15e9344d598974605662b36671", "profile": "http://www.citysearch.com/profile/777740310/roswell_ga/tricon_global_restaurants.html", "address": {"city": "Roswell", "state": "GA", "street": "675 Mansell Rd # 200", "postal_code": "30076"}, "capProviderId": null, "distance": null, "has_offers": false, "name": "Tricon Global Restaurants", "longitude": -84.344642, "has_menu": false, "awards": null, "user_review_count": 0}, {"business_operation_status": 1, "rating": 8.0, "neighborhood": null, "image": null, "scorecard": null, "featured": false, "sample_categories": "Bakeries, Restaurants", "public_id": "krystalins-bakery-marietta", "id": 43850357, "votes": null, "tagline": null, "has_video": false, "website": null, "offers": null, "latitude": 34.041856, "politanName": "Atlanta, GA Metro ", "phone_number": "6784940944", "tags": [{"primary": false, "id": 1722, "name": "Restaurants"}, {"primary": true, "id": 1685, "name": "Bakeries"}], "fax_number": null, "expansion": {"count": null, "uri": null}, "impression_id": "000b000000973e1ef805b54e2bbf1fec07e625ab65", "profile": "http://www.citysearch.com/profile/43850357/marietta_ga/krystalins_bakery.html", "address": {"city": "Marietta", "state": "GA", "street": "2525 Shallowford Rd", "postal_code": "30066"}, "capProviderId": null, "distance": null, "has_offers": false, "name": "Krystalins Bakery", "longitude": -84.477499, "has_menu": false, "awards": null, "user_review_count": 1}, {"business_operation_status": 1, "rating": 8.0, "neighborhood": null, "image": null, "scorecard": null, "featured": false, "sample_categories": "Restaurants, Traditional American, Carry Out, American Express, Discover", "public_id": "ruby-tuesday-marietta", "id": 43851545, "votes": null, "tagline": null, "has_video": false, "website": "http://www.citysearch.com/profile/external/43851545/marietta_ga/ruby_tuesday.html", "offers": null, "latitude": 33.922906, "politanName": "Atlanta, GA Metro ", "phone_number": "7709339050", "tags": [{"primary": false, "id": 11190, "name": "Traditional American"}, {"primary": false, "id": 11247, "name": "Carry Out"}, {"primary": false, "id": 11333, "name": "American Express"}, {"primary": false, "id": 11349, "name": "Discover"}, {"primary": false, "id": 11361, "name": "MasterCard"}, {"primary": false, "id": 11375, "name": "Shop Online"}, {"primary": false, "id": 11382, "name": "Visa"}, {"primary": true, "id": 1722, "name": "Restaurants"}], "fax_number": null, "expansion": {"count": null, "uri": null}, "impression_id": "000b000000ad5f230bd964452aa3764a22f3202a62", "profile": "http://www.citysearch.com/profile/43851545/marietta_ga/ruby_tuesday.html", "address": {"city": "Marietta", "state": "GA", "street": "2435 Delk Rd SE", "postal_code": "30067"}, "capProviderId": null, "distance": null, "has_offers": false, "name": "Ruby Tuesday", "longitude": -84.485017, "has_menu": true, "awards": null, "user_review_count": 2}, {"business_operation_status": 0, "rating": null, "neighborhood": null, "image": null, "scorecard": null, "featured": false, "sample_categories": "Restaurants, Pizza", "public_id": "mangia-pizza-alpharetta", "id": 43840816, "votes": null, "tagline": null, "has_video": false, "website": null, "offers": null, "latitude": 34.082328, "politanName": "Atlanta, GA Metro ", "phone_number": "6788670200", "tags": [{"primary": false, "id": 1722, "name": "Restaurants"}, {"primary": true, "id": 11299, "name": "Pizza"}], "fax_number": null, "expansion": {"count": null, "uri": null}, "impression_id": "000b000000ad5708094f67487d801d5ff658661131", "profile": "http://www.citysearch.com/profile/43840816/alpharetta_ga/mangia_pizza.html", "address": {"city": "Alpharetta", "state": "GA", "street": "12350 Arnold Mill Rd", "postal_code": "30004"}, "capProviderId": null, "distance": null, "has_offers": false, "name": "Mangia Pizza", "longitude": -84.358117, "has_menu": true, "awards": null, "user_review_count": 0}, {"business_operation_status": 1, "rating": null, "neighborhood": null, "image": null, "scorecard": null, "featured": false, "sample_categories": "Restaurants, Delis And Delicatessens, Sandwich Shops", "public_id": "blimpie-subs-sandwiches-kennesaw", "id": 43863262, "votes": null, "tagline": null, "has_video": false, "website": null, "offers": null, "latitude": 34.031732, "politanName": "Atlanta, GA Metro ", "phone_number": "7704291173", "tags": [{"primary": false, "id": 1727, "name": "Delis And Delicatessens"}, {"primary": false, "id": 1736, "name": "Sandwich Shops"}, {"primary": true, "id": 1722, "name": "Restaurants"}], "fax_number": null, "expansion": {"count": null, "uri": null}, "impression_id": "000b000000513247d246f143fe96c865bc3883246e", "profile": "http://www.citysearch.com/profile/43863262/kennesaw_ga/blimpie_subs_sandwiches.html", "address": {"city": "Kennesaw", "state": "GA", "street": "1025 Chastain Rd NW", "postal_code": "30144"}, "capProviderId": null, "distance": null, "has_offers": false, "name": "Blimpie Subs & Sandwiches", "longitude": -84.580243, "has_menu": true, "awards": null, "user_review_count": 0}, {"business_operation_status": 1, "rating": null, "neighborhood": null, "image": null, "scorecard": null, "featured": false, "sample_categories": "Restaurants", "public_id": "hacienda-los-mariachis-smyrna", "id": 806154260, "votes": null, "tagline": null, "has_video": false, "website": null, "offers": null, "latitude": 33.87498, "politanName": "Atlanta, GA Metro ", "phone_number": "7704324730", "tags": [{"primary": true, "id": 1722, "name": "Restaurants"}], "fax_number": null, "expansion": {"count": null, "uri": null}, "impression_id": "000b00000004ae5ac586c84d328e0f1dbd11893b16", "profile": "http://www.citysearch.com/profile/806154260/smyrna_ga/hacienda_los_mariachis.html", "address": {"city": "Smyrna", "state": "GA", "street": "821 Concord Rd SE", "postal_code": "30080"}, "capProviderId": null, "distance": null, "has_offers": false, "name": "Hacienda Los Mariachis", "longitude": -84.529694, "has_menu": false, "awards": null, "user_review_count": 0}, {"business_operation_status": 1, "rating": null, "neighborhood": null, "image": null, "scorecard": null, "featured": false, "sample_categories": "Bakeries, Grocery Stores, Delis And Delicatessens, Florists, Department Stores", "public_id": "kroger-bakery-roswell", "id": 601300865, "votes": null, "tagline": null, "has_video": false, "website": "http://www.citysearch.com/profile/external/601300865/roswell_ga/kroger_bakery.html", "offers": null, "latitude": 34.004136, "politanName": "Atlanta, GA Metro ", "phone_number": "7706409199", "tags": [{"primary": false, "id": 1713, "name": "Grocery Stores"}, {"primary": false, "id": 1727, "name": "Delis And Delicatessens"}, {"primary": false, "id": 3921, "name": "Florists"}, {"primary": false, "id": 3924, "name": "Department Stores"}, {"primary": false, "id": 11333, "name": "American Express"}, {"primary": false, "id": 11349, "name": "Discover"}, {"primary": false, "id": 11361, "name": "MasterCard"}, {"primary": false, "id": 11382, "name": "Visa"}, {"primary": true, "id": 1685, "name": "Bakeries"}], "fax_number": null, "expansion": {"count": null, "uri": null}, "impression_id": "000b00000028dbcbac63a74a748901b6e092644582", "profile": "http://www.citysearch.com/profile/601300865/roswell_ga/kroger_bakery.html", "address": {"city": "Roswell", "state": "GA", "street": "900 Marietta Hwy", "postal_code": "30075"}, "capProviderId": null, "distance": null, "has_offers": false, "name": "Kroger Bakery", "longitude": -84.389686, "has_menu": false, "awards": null, "user_review_count": 0}, {"business_operation_status": 1, "rating": null, "neighborhood": null, "image": null, "scorecard": null, "featured": false, "sample_categories": "Restaurants, Carry Out, American Express, Discover, MasterCard", "public_id": "zaxbys-marietta-3", "id": 45992346, "votes": null, "tagline": null, "has_video": false, "website": "http://www.citysearch.com/profile/external/45992346/marietta_ga/zaxby_s.html", "offers": null, "latitude": 33.966731, "politanName": "Atlanta, GA Metro ", "phone_number": "6785608100", "tags": [{"primary": false, "id": 11247, "name": "Carry Out"}, {"primary": false, "id": 11333, "name": "American Express"}, {"primary": false, "id": 11349, "name": "Discover"}, {"primary": false, "id": 11361, "name": "MasterCard"}, {"primary": false, "id": 11382, "name": "Visa"}, {"primary": false, "id": 12839, "name": "Chicken"}, {"primary": true, "id": 1722, "name": "Restaurants"}], "fax_number": null, "expansion": {"count": null, "uri": null}, "impression_id": "000b000000f899910e84c9409798dc7d5392c1bfba", "profile": "http://www.citysearch.com/profile/45992346/marietta_ga/zaxby_s.html", "address": {"city": "Marietta", "state": "GA", "street": "730 Johnson Ferry Rd", "postal_code": "30068"}, "capProviderId": null, "distance": null, "has_offers": false, "name": "Zaxby's", "longitude": -84.411978, "has_menu": true, "awards": null, "user_review_count": 0}, {"business_operation_status": 1, "rating": null, "neighborhood": null, "image": null, "scorecard": null, "featured": false, "sample_categories": "Restaurants", "public_id": "nathans-hotdog-kennesaw", "id": 812541450, "votes": null, "tagline": null, "has_video": false, "website": null, "offers": null, "latitude": 34.033088, "politanName": "Atlanta, GA Metro ", "phone_number": "7704255554", "tags": [{"primary": true, "id": 1722, "name": "Restaurants"}], "fax_number": null, "expansion": {"count": null, "uri": null}, "impression_id": "000b0000005e90dc0d0b2f43caa111f31b251e0c59", "profile": "http://www.citysearch.com/profile/812541450/kennesaw_ga/nathans_hotdog.html", "address": {"city": "Kennesaw", "state": "GA", "street": "2430 George Busbee Pkwy NW", "postal_code": "30144"}, "capProviderId": null, "distance": null, "has_offers": false, "name": "Nathans Hotdog", "longitude": -84.568648, "has_menu": false, "awards": null, "user_review_count": 0}, {"business_operation_status": 1, "rating": null, "neighborhood": null, "image": null, "scorecard": null, "featured": false, "sample_categories": "Restaurants", "public_id": "chinese-rasoi-roswell", "id": 819967770, "votes": null, "tagline": null, "has_video": false, "website": null, "offers": null, "latitude": 34.040134, "politanName": "Atlanta, GA Metro ", "phone_number": "7706507963", "tags": [{"primary": true, "id": 1722, "name": "Restaurants"}], "fax_number": null, "expansion": {"count": null, "uri": null}, "impression_id": "000b000000923875ababf741968205b900857534e0", "profile": "http://www.citysearch.com/profile/819967770/roswell_ga/chinese_rasoi.html", "address": {"city": "Roswell", "state": "GA", "street": "10684 Alpharetta Hwy", "postal_code": "30076"}, "capProviderId": null, "distance": null, "has_offers": false, "name": "Chinese Rasoi", "longitude": -84.342945, "has_menu": false, "awards": null, "user_review_count": 1}, {"business_operation_status": 1, "rating": null, "neighborhood": null, "image": null, "scorecard": null, "featured": false, "sample_categories": "Restaurants", "public_id": "japanese-wing-cafe-roswell", "id": 828640280, "votes": null, "tagline": null, "has_video": false, "website": null, "offers": null, "latitude": 34.034118, "politanName": "Atlanta, GA Metro ", "phone_number": "7706426915", "tags": [{"primary": true, "id": 1722, "name": "Restaurants"}], "fax_number": null, "expansion": {"count": null, "uri": null}, "impression_id": "000b000000f511178d6e514e8f9920ffe51d5c1e52", "profile": "http://www.citysearch.com/profile/828640280/roswell_ga/japanese_wing_cafe.html", "address": {"city": "Roswell", "state": "GA", "street": "10479 Alpharetta St", "postal_code": "30075"}, "capProviderId": null, "distance": null, "has_offers": false, "name": "Japanese Wing Cafe", "longitude": -84.345528, "has_menu": false, "awards": null, "user_review_count": 0}, {"business_operation_status": 1, "rating": null, "neighborhood": null, "image": null, "scorecard": null, "featured": false, "sample_categories": "Restaurants", "public_id": "guacamoles-atlanta", "id": 3045210, "votes": null, "tagline": null, "has_video": false, "website": null, "offers": null, "latitude": 33.988814, "politanName": "Atlanta, GA Metro ", "phone_number": "7709937979", "tags": [{"primary": true, "id": 1722, "name": "Restaurants"}], "fax_number": null, "expansion": {"count": null, "uri": null}, "impression_id": "000b0000003f6a5fcfd66e40eeb648ee9c8d113c1b", "profile": "http://www.citysearch.com/profile/3045210/atlanta_ga/guacamole_s.html", "address": {"city": "Atlanta", "state": "GA", "street": "8599 Roswell Rd Ste F", "postal_code": "30350"}, "capProviderId": null, "distance": null, "has_offers": false, "name": "Guacamole's", "longitude": -84.351452, "has_menu": false, "awards": null, "user_review_count": 0}, {"business_operation_status": 1, "rating": null, "neighborhood": null, "image": null, "scorecard": null, "featured": false, "sample_categories": "Restaurants", "public_id": "nine-restaurant-wine-bar-roswell", "id": 834332670, "votes": null, "tagline": null, "has_video": false, "website": "http://www.citysearch.com/profile/external/834332670/roswell_ga/nine_restaurant_wine_bar.html", "offers": null, "latitude": 34.024321, "politanName": "Atlanta, GA Metro ", "phone_number": "7705876707", "tags": [{"primary": true, "id": 1722, "name": "Restaurants"}], "fax_number": null, "expansion": {"count": null, "uri": null}, "impression_id": "000b00000005d7cf12227c4d15b17ae7ffc7267fc8", "profile": "http://www.citysearch.com/profile/834332670/roswell_ga/nine_restaurant_wine_bar.html", "address": {"city": "Roswell", "state": "GA", "street": "946 Canton St", "postal_code": "30075"}, "capProviderId": null, "distance": null, "has_offers": false, "name": "Nine Restaurant & Wine Bar", "longitude": -84.361786, "has_menu": true, "awards": null, "user_review_count": 3}, {"business_operation_status": 1, "rating": null, "neighborhood": null, "image": null, "scorecard": null, "featured": false, "sample_categories": "Restaurants", "public_id": "party-q-marietta", "id": 618063354, "votes": null, "tagline": null, "has_video": false, "website": null, "offers": null, "latitude": 34.020818, "politanName": "Atlanta, GA Metro ", "phone_number": "6786977808", "tags": [{"primary": true, "id": 1722, "name": "Restaurants"}], "fax_number": null, "expansion": {"count": null, "uri": null}, "impression_id": "000b000000f591e93666ca47bea869b335b1969e08", "profile": "http://www.citysearch.com/profile/618063354/marietta_ga/party_q.html", "address": {"city": "Marietta", "state": "GA", "street": "2821 Chastain Meadows Pkwy", "postal_code": "30066"}, "capProviderId": null, "distance": null, "has_offers": false, "name": "Party Q", "longitude": -84.55554, "has_menu": false, "awards": null, "user_review_count": 0}, {"business_operation_status": 1, "rating": null, "neighborhood": null, "image": null, "scorecard": null, "featured": false, "sample_categories": "Restaurants, Delis And Delicatessens, Sandwich Shops, Carry Out, Soups", "public_id": "subway-marietta-41", "id": 43853244, "votes": null, "tagline": null, "has_video": false, "website": "http://www.citysearch.com/profile/external/43853244/marietta_ga/subway.html", "offers": null, "latitude": 33.945791, "politanName": "Atlanta, GA Metro ", "phone_number": "7704277107", "tags": [{"primary": false, "id": 1727, "name": "Delis And Delicatessens"}, {"primary": false, "id": 1736, "name": "Sandwich Shops"}, {"primary": false, "id": 11247, "name": "Carry Out"}, {"primary": false, "id": 11311, "name": "Soups"}, {"primary": false, "id": 11361, "name": "MasterCard"}, {"primary": false, "id": 11382, "name": "Visa"}, {"primary": true, "id": 1722, "name": "Restaurants"}], "fax_number": null, "expansion": {"count": null, "uri": null}, "impression_id": "000b000000e8b2cd0bcf80413d837d3dd32ec14c4c", "profile": "http://www.citysearch.com/profile/43853244/marietta_ga/subway.html", "address": {"city": "Marietta", "state": "GA", "street": "2475 Dallas Hwy SW", "postal_code": "30064"}, "capProviderId": null, "distance": null, "has_offers": false, "name": "Subway", "longitude": -84.623056, "has_menu": true, "awards": null, "user_review_count": 0}, {"business_operation_status": 1, "rating": null, "neighborhood": null, "image": null, "scorecard": null, "featured": false, "sample_categories": "Restaurants", "public_id": "mocha-delights-marietta", "id": 45551238, "votes": null, "tagline": null, "has_video": false, "website": null, "offers": null, "latitude": 33.902448, "politanName": "Atlanta, GA Metro ", "phone_number": "7709567612", "tags": [{"primary": true, "id": 1722, "name": "Restaurants"}], "fax_number": null, "expansion": {"count": null, "uri": null}, "impression_id": "000b000000f2ca1ad4d304412ca28abd4f8ea8abf8", "profile": "http://www.citysearch.com/profile/45551238/marietta_ga/mocha_delights.html", "address": {"city": "Marietta", "state": "GA", "street": "2470 Windy Hill Rd SE Ste 148", "postal_code": "30067"}, "capProviderId": null, "distance": null, "has_offers": false, "name": "Mocha Delights", "longitude": -84.480786, "has_menu": false, "awards": null, "user_review_count": 0}, {"business_operation_status": 1, "rating": null, "neighborhood": null, "image": null, "scorecard": null, "featured": false, "sample_categories": "Restaurants", "public_id": "smoothie-paradise-roswell", "id": 655836590, "votes": null, "tagline": null, "has_video": false, "website": null, "offers": null, "latitude": 34.059979, "politanName": "Atlanta, GA Metro ", "phone_number": "6787959419", "tags": [{"primary": true, "id": 1722, "name": "Restaurants"}], "fax_number": null, "expansion": {"count": null, "uri": null}, "impression_id": "000b0000008d7d271be9694c6393c4a146f507abe4", "profile": "http://www.citysearch.com/profile/655836590/roswell_ga/smoothie_paradise.html", "address": {"city": "Roswell", "state": "GA", "street": "855 Woodstock Rd", "postal_code": "30075"}, "capProviderId": null, "distance": null, "has_offers": false, "name": "Smoothie Paradise", "longitude": -84.383984, "has_menu": false, "awards": null, "user_review_count": 0}, {"business_operation_status": 1, "rating": null, "neighborhood": null, "image": null, "scorecard": null, "featured": false, "sample_categories": "Restaurants, Vegetarian", "public_id": "loving-hut-ii-vegetarian-kennesaw", "id": 655872850, "votes": null, "tagline": null, "has_video": false, "website": null, "offers": null, "latitude": 34.014516, "politanName": "Atlanta, GA Metro ", "phone_number": "7704290666", "tags": [{"primary": false, "id": 11230, "name": "Vegetarian"}, {"primary": true, "id": 1722, "name": "Restaurants"}], "fax_number": null, "expansion": {"count": null, "uri": null}, "impression_id": "000b000000422a202fc6d942c2a5a7220c46519cd8", "profile": "http://www.citysearch.com/profile/655872850/kennesaw_ga/loving_hut_ii_vegetarian.html", "address": {"city": "Kennesaw", "state": "GA", "street": "2700 Town Center Dr Nw", "postal_code": "30144"}, "capProviderId": null, "distance": null, "has_offers": false, "name": "Loving Hut Ii Vegetarian", "longitude": -84.56447, "has_menu": false, "awards": null, "user_review_count": 0}, {"business_operation_status": 1, "rating": null, "neighborhood": null, "image": null, "scorecard": null, "featured": false, "sample_categories": "Restaurants, Bars & Clubs, Bars & Pubs, Hamburgers", "public_id": "luckys-burgers-brew-roswell", "id": 655906960, "votes": null, "tagline": null, "has_video": false, "website": "http://www.citysearch.com/profile/external/655906960/roswell_ga/lucky_s_burgers_brew.html", "offers": null, "latitude": 34.030369, "politanName": "Atlanta, GA Metro ", "phone_number": "7705185695", "tags": [{"primary": false, "id": 164, "name": "Bars & Clubs"}, {"primary": false, "id": 1686, "name": "Bars & Pubs"}, {"primary": false, "id": 11270, "name": "Hamburgers"}, {"primary": true, "id": 1722, "name": "Restaurants"}], "fax_number": null, "expansion": {"count": null, "uri": null}, "impression_id": "000b000000730b283bc8964b2faf1f8209c6bd9495", "profile": "http://www.citysearch.com/profile/655906960/roswell_ga/lucky_s_burgers_brew.html", "address": {"city": "Roswell", "state": "GA", "street": "1144 Alpharetta St", "postal_code": "30075"}, "capProviderId": null, "distance": null, "has_offers": false, "name": "Lucky's Burgers & Brew", "longitude": -84.355476, "has_menu": false, "awards": null, "user_review_count": 0}, {"business_operation_status": 1, "rating": null, "neighborhood": null, "image": null, "scorecard": null, "featured": false, "sample_categories": "Restaurants", "public_id": "bubbalinis-marietta", "id": 672813110, "votes": null, "tagline": null, "has_video": false, "website": "http://www.citysearch.com/profile/external/672813110/marietta_ga/bubbalini_s.html", "offers": null, "latitude": 33.952594, "politanName": "Atlanta, GA Metro ", "phone_number": "6785947770", "tags": [{"primary": true, "id": 1722, "name": "Restaurants"}], "fax_number": null, "expansion": {"count": null, "uri": null}, "impression_id": "000b0000005d363925ca1640ce864e23cd91869b35", "profile": "http://www.citysearch.com/profile/672813110/marietta_ga/bubbalini_s.html", "address": {"city": "Marietta", "state": "GA", "street": "800 Whitlock Ave NW", "postal_code": "30064"}, "capProviderId": null, "distance": null, "has_offers": false, "name": "Bubbalini's", "longitude": -84.575881, "has_menu": false, "awards": null, "user_review_count": 0}, {"business_operation_status": 0, "rating": null, "neighborhood": null, "image": null, "scorecard": null, "featured": false, "sample_categories": "Restaurants", "public_id": "fratellis-ny-pizza-pasta-roswell", "id": 673010840, "votes": null, "tagline": null, "has_video": false, "website": null, "offers": null, "latitude": 34.04631, "politanName": "Atlanta, GA Metro ", "phone_number": "6785850208", "tags": [{"primary": true, "id": 1722, "name": "Restaurants"}], "fax_number": null, "expansion": {"count": null, "uri": null}, "impression_id": "000b0000001d35f05ca5904771a7558d02fe414706", "profile": "http://www.citysearch.com/profile/673010840/roswell_ga/fratelli_s_ny_pizza_pasta.html", "address": {"city": "Roswell", "state": "GA", "street": "10930 Crabapple Rd", "postal_code": "30075"}, "capProviderId": null, "distance": null, "has_offers": false, "name": "Fratelli's NY Pizza & Pasta", "longitude": -84.361208, "has_menu": false, "awards": null, "user_review_count": 0}, {"business_operation_status": 1, "rating": null, "neighborhood": null, "image": null, "scorecard": null, "featured": false, "sample_categories": "Delis And Delicatessens", "public_id": "kroger-deli-woodstock-4", "id": 700303470, "votes": null, "tagline": null, "has_video": false, "website": "http://www.citysearch.com/profile/external/700303470/woodstock_ga/kroger_deli.html", "offers": null, "latitude": 34.086774, "politanName": "Atlanta, GA Metro ", "phone_number": "7705912890", "tags": [{"primary": true, "id": 1727, "name": "Delis And Delicatessens"}], "fax_number": null, "expansion": {"count": null, "uri": null}, "impression_id": "000b0000005b6136fc473a4ed0aa290176817a1497", "profile": "http://www.citysearch.com/profile/700303470/woodstock_ga/kroger_deli.html", "address": {"city": "Woodstock", "state": "GA", "street": "12050 Highway 92 # 112", "postal_code": "30188"}, "capProviderId": null, "distance": null, "has_offers": false, "name": "Kroger Deli", "longitude": -84.485922, "has_menu": false, "awards": null, "user_review_count": 0}, {"business_operation_status": 1, "rating": null, "neighborhood": null, "image": null, "scorecard": null, "featured": false, "sample_categories": "Ice Cream Parlors", "public_id": "dlites-emporium-marietta", "id": 699923930, "votes": null, "tagline": null, "has_video": false, "website": "http://www.citysearch.com/profile/external/699923930/marietta_ga/d_lites_emporium.html", "offers": null, "latitude": 33.97713, "politanName": "Atlanta, GA Metro ", "phone_number": "6789969966", "tags": [{"primary": true, "id": 1730, "name": "Ice Cream Parlors"}], "fax_number": null, "expansion": {"count": null, "uri": null}, "impression_id": "000b000000f4e9996cb59f47a8a207eb1c2a618765", "profile": "http://www.citysearch.com/profile/699923930/marietta_ga/d_lites_emporium.html", "address": {"city": "Marietta", "state": "GA", "street": "1100 Johnson Ferry Rd", "postal_code": "30068"}, "capProviderId": null, "distance": null, "has_offers": false, "name": "D'lites Emporium", "longitude": -84.414566, "has_menu": false, "awards": null, "user_review_count": 0}, {"business_operation_status": 1, "rating": null, "neighborhood": null, "image": null, "scorecard": null, "featured": false, "sample_categories": "Grocery Stores, Restaurants, Restaurant Management", "public_id": "peterson-foods-llc-marietta", "id": 706581950, "votes": null, "tagline": null, "has_video": false, "website": null, "offers": null, "latitude": 33.952164, "politanName": "Atlanta, GA Metro ", "phone_number": "7704288333", "tags": [{"primary": false, "id": 1722, "name": "Restaurants"}, {"primary": false, "id": 11122, "name": "Restaurant Management"}, {"primary": true, "id": 1713, "name": "Grocery Stores"}], "fax_number": null, "expansion": {"count": null, "uri": null}, "impression_id": "000b0000007852c09710b9455392beecd5454ac149", "profile": "http://www.citysearch.com/profile/706581950/marietta_ga/peterson_foods_llc.html", "address": {"city": "Marietta", "state": "GA", "street": "3625 Dallas Hwy Sw", "postal_code": "30064"}, "capProviderId": null, "distance": null, "has_offers": false, "name": "Peterson Foods LLC", "longitude": -84.657799, "has_menu": false, "awards": null, "user_review_count": 0}, {"business_operation_status": 1, "rating": null, "neighborhood": null, "image": null, "scorecard": null, "featured": false, "sample_categories": "Delis And Delicatessens", "public_id": "kroger-deli-marietta-10", "id": 706675460, "votes": null, "tagline": null, "has_video": false, "website": null, "offers": null, "latitude": 33.954848, "politanName": "Atlanta, GA Metro ", "phone_number": "7704240040", "tags": [{"primary": true, "id": 1727, "name": "Delis And Delicatessens"}], "fax_number": null, "expansion": {"count": null, "uri": null}, "impression_id": "000b000000ee365f0f9e47448a9cbd8a6f3587a4e1", "profile": "http://www.citysearch.com/profile/706675460/marietta_ga/kroger_deli.html", "address": {"city": "Marietta", "state": "GA", "street": "3600 Dallas Hwy Sw # 180", "postal_code": "30064"}, "capProviderId": null, "distance": null, "has_offers": false, "name": "Kroger Deli", "longitude": -84.655682, "has_menu": false, "awards": null, "user_review_count": 0}, {"business_operation_status": 0, "rating": null, "neighborhood": null, "image": null, "scorecard": null, "featured": false, "sample_categories": "Restaurants, Delis And Delicatessens", "public_id": "philly-connection-marietta", "id": 2909538, "votes": null, "tagline": null, "has_video": false, "website": null, "offers": null, "latitude": 33.921284, "politanName": "Atlanta, GA Metro ", "phone_number": "7709849633", "tags": [{"primary": false, "id": 1727, "name": "Delis And Delicatessens"}, {"primary": true, "id": 1722, "name": "Restaurants"}], "fax_number": null, "expansion": {"count": null, "uri": null}, "impression_id": "000b00000098ce00513cab4e05a10c1522286cc78e", "profile": "http://www.citysearch.com/profile/2909538/marietta_ga/philly_connection.html", "address": {"city": "Marietta", "state": "GA", "street": "1260 Powers Ferry Rd SE Ste E", "postal_code": "30067"}, "capProviderId": null, "distance": null, "has_offers": false, "name": "Philly Connection", "longitude": -84.467848, "has_menu": true, "awards": null, "user_review_count": 0}, {"business_operation_status": 0, "rating": null, "neighborhood": null, "image": null, "scorecard": null, "featured": false, "sample_categories": "Restaurants", "public_id": "scooters-kennesaw", "id": 632003970, "votes": null, "tagline": null, "has_video": false, "website": null, "offers": null, "latitude": 34.004435, "politanName": "Atlanta, GA Metro ", "phone_number": "7709179909", "tags": [{"primary": true, "id": 1722, "name": "Restaurants"}], "fax_number": null, "expansion": {"count": null, "uri": null}, "impression_id": "000b000000ee4802c8b6dc44b7bd4f69c0a5a8b4a8", "profile": "http://www.citysearch.com/profile/632003970/kennesaw_ga/scooter_s.html", "address": {"city": "Kennesaw", "state": "GA", "street": "3161 Cobb Pkwy Nw", "postal_code": "30152"}, "capProviderId": null, "distance": null, "has_offers": false, "name": "Scooter's", "longitude": -84.612627, "has_menu": false, "awards": null, "user_review_count": 0}, {"business_operation_status": 1, "rating": null, "neighborhood": null, "image": null, "scorecard": null, "featured": false, "sample_categories": "Restaurants, Carry Out, Shop Online, Chicken", "public_id": "kfc-roswell-7", "id": 764920480, "votes": null, "tagline": null, "has_video": false, "website": null, "offers": null, "latitude": 34.04192, "politanName": "Atlanta, GA Metro ", "phone_number": "7709904000", "tags": [{"primary": false, "id": 11247, "name": "Carry Out"}, {"primary": false, "id": 11375, "name": "Shop Online"}, {"primary": false, "id": 12839, "name": "Chicken"}, {"primary": true, "id": 1722, "name": "Restaurants"}], "fax_number": null, "expansion": {"count": null, "uri": null}, "impression_id": "000b000000e525e74f98ed41949778c8d6c9706aee", "profile": "http://www.citysearch.com/profile/764920480/roswell_ga/kfc.html", "address": {"city": "Roswell", "state": "GA", "street": "675 Mansell Rd # 200", "postal_code": "30076"}, "capProviderId": null, "distance": null, "has_offers": false, "name": "KFC", "longitude": -84.344642, "has_menu": true, "awards": null, "user_review_count": 0}, {"business_operation_status": 1, "rating": null, "neighborhood": null, "image": null, "scorecard": null, "featured": false, "sample_categories": "Restaurants, Bars & Clubs, Bars & Pubs, General Government Offices, Traditional American", "public_id": "pub-marietta", "id": 764931910, "votes": null, "tagline": null, "has_video": false, "website": null, "offers": null, "latitude": 33.943645, "politanName": "Atlanta, GA Metro ", "phone_number": "7704272500", "tags": [{"primary": false, "id": 1722, "name": "Restaurants"}, {"primary": false, "id": 164, "name": "Bars & Clubs"}, {"primary": false, "id": 1686, "name": "Bars & Pubs"}, {"primary": false, "id": 1756, "name": "General Government Offices"}, {"primary": false, "id": 11190, "name": "Traditional American"}, {"primary": false, "id": 12736, "name": "Wedding Supplies"}], "fax_number": null, "expansion": {"count": null, "uri": null}, "impression_id": "000b0000004e637b4ce0b14b9181b46f017a8a3566", "profile": "http://www.citysearch.com/profile/764931910/marietta_ga/pub.html", "address": {"city": "Marietta", "state": "GA", "street": "500 Powder Springs St", "postal_code": "30064"}, "capProviderId": null, "distance": null, "has_offers": false, "name": "Pub", "longitude": -84.552498, "has_menu": true, "awards": null, "user_review_count": 0}, {"business_operation_status": 0, "rating": null, "neighborhood": null, "image": null, "scorecard": null, "featured": false, "sample_categories": "Restaurants, Carry Out", "public_id": "back-yard-burgers-marietta-2", "id": 2909690, "votes": null, "tagline": null, "has_video": false, "website": "http://www.citysearch.com/profile/external/2909690/marietta_ga/back_yard_burgers.html", "offers": null, "latitude": 33.914806, "politanName": "Atlanta, GA Metro ", "phone_number": "7709161888", "tags": [{"primary": false, "id": 11247, "name": "Carry Out"}, {"primary": true, "id": 1722, "name": "Restaurants"}], "fax_number": null, "expansion": {"count": null, "uri": null}, "impression_id": "000b0000003be0f6683d1b4a8aad5c4baf928d1545", "profile": "http://www.citysearch.com/profile/2909690/marietta_ga/back_yard_burgers.html", "address": {"city": "Marietta", "state": "GA", "street": "2340 Windy Hill Rd SE", "postal_code": "30067"}, "capProviderId": null, "distance": null, "has_offers": false, "name": "Back Yard Burgers", "longitude": -84.459043, "has_menu": true, "awards": null, "user_review_count": 0}, {"business_operation_status": 1, "rating": 7.0, "neighborhood": null, "image": null, "scorecard": null, "featured": false, "sample_categories": "Restaurants, Family-Friendly Dining", "public_id": "fowl-play-cafe-kennesaw", "id": 2957534, "votes": null, "tagline": null, "has_video": false, "website": null, "offers": null, "latitude": 34.004435, "politanName": "Atlanta, GA Metro ", "phone_number": "7709669686", "tags": [{"primary": false, "id": 11263, "name": "Family-Friendly Dining"}, {"primary": true, "id": 1722, "name": "Restaurants"}], "fax_number": null, "expansion": {"count": null, "uri": null}, "impression_id": "000b000000bdcdaf7111604ddbba45706fcc5a0a8a", "profile": "http://www.citysearch.com/profile/2957534/kennesaw_ga/fowl_play_cafe.html", "address": {"city": "Kennesaw", "state": "GA", "street": "3161 Cobb Pkwy NW Ste 410", "postal_code": "30152"}, "capProviderId": null, "distance": null, "has_offers": false, "name": "Fowl Play Cafe", "longitude": -84.612627, "has_menu": false, "awards": null, "user_review_count": 0}], "histograms": [], "tag_ids": [1722], "uri": "http://api.citygridmedia.com:8080/search/places/v2/search/where?has_offers=false&type=restaurant&format=json&page=38&where=30062&rpp=50&histograms=false&publisher=10000009598&region_type=circle", "did_you_mean": "", "regions": [{"latitude": 34.001368, "default_radius": 5.22, "type": "postal_code", "name": "30062", "longitude": -84.466397}], "call_id": "000b000000b7da6c8b34544f61961a74bea92ca937", "first_hit": 1851, "total_hits": 2160, "geo_ids": [26292], "page": 38, "last_hit": 1900}}