{"results": {"rpp": 50, "locations": [{"business_operation_status": 1, "rating": null, "neighborhood": null, "image": null, "scorecard": null, "featured": false, "sample_categories": "Restaurants", "public_id": "saigon-pearl-marietta", "id": 672478560, "votes": null, "tagline": null, "has_video": false, "website": null, "offers": null, "latitude": 34.018696, "politanName": "Atlanta, GA Metro ", "phone_number": "7705147555", "tags": [{"primary": true, "id": 1722, "name": "Restaurants"}], "fax_number": null, "expansion": {"count": null, "uri": null}, "impression_id": "000b00000038a8fc383ee94286b8d1359b817f402f", "profile": "http://www.citysearch.com/profile/672478560/marietta_ga/saigon_pearl.html", "address": {"city": "Marietta", "state": "GA", "street": "2755 Canton Rd NE", "postal_code": "30066"}, "capProviderId": null, "distance": null, "has_offers": false, "name": "Saigon Pearl", "longitude": -84.528341, "has_menu": false, "awards": null, "user_review_count": 0}, {"business_operation_status": 1, "rating": null, "neighborhood": null, "image": null, "scorecard": null, "featured": false, "sample_categories": "Restaurants", "public_id": "o-u-for-u-atlanta-2", "id": 682311530, "votes": null, "tagline": null, "has_video": false, "website": null, "offers": null, "latitude": 33.918234, "politanName": "Atlanta, GA Metro ", "phone_number": "7703965533", "tags": [{"primary": true, "id": 1722, "name": "Restaurants"}], "fax_number": null, "expansion": {"count": null, "uri": null}, "impression_id": "000b0000001717c582c71e4dfeb0f0b20b84e9481a", "profile": "http://www.citysearch.com/profile/682311530/atlanta_ga/o_u_for_u.html", "address": {"city": "Atlanta", "state": "GA", "street": "1155 Hammond Dr Ne", "postal_code": "30328"}, "capProviderId": null, "distance": null, "has_offers": false, "name": "O U For U", "longitude": -84.349996, "has_menu": false, "awards": null, "user_review_count": 0}, {"business_operation_status": 1, "rating": null, "neighborhood": null, "image": null, "scorecard": null, "featured": false, "sample_categories": "Sandwich Shops, Restaurants", "public_id": "my-friends-place-dunwoody", "id": 3027498, "votes": null, "tagline": null, "has_video": false, "website": "http://www.citysearch.com/profile/external/3027498/dunwoody_ga/my_friend_s_place.html", "offers": null, "latitude": 33.947515, "politanName": "Atlanta, GA Metro ", "phone_number": "7703961128", "tags": [{"primary": false, "id": 1722, "name": "Restaurants"}, {"primary": true, "id": 1736, "name": "Sandwich Shops"}], "fax_number": null, "expansion": {"count": null, "uri": null}, "impression_id": "000b000000f06b5da10844409798b3c70724c76a3e", "profile": "http://www.citysearch.com/profile/3027498/dunwoody_ga/my_friend_s_place.html", "address": {"city": "Dunwoody", "state": "GA", "street": "5533 Chamblee Dunwoody Rd", "postal_code": "30338"}, "capProviderId": null, "distance": null, "has_offers": false, "name": "My Friend's Place", "longitude": -84.33541, "has_menu": true, "awards": null, "user_review_count": 1}, {"business_operation_status": 1, "rating": null, "neighborhood": null, "image": null, "scorecard": null, "featured": false, "sample_categories": "Restaurants, Sandwich Shops, Pizza", "public_id": "peace-love-and-pizza-marietta-2", "id": 606523644, "votes": null, "tagline": null, "has_video": false, "website": "http://www.citysearch.com/profile/external/606523644/marietta_ga/peace_love_and_pizza.html", "offers": null, "latitude": 33.976429, "politanName": "Atlanta, GA Metro ", "phone_number": "7703210757", "tags": [{"primary": false, "id": 1722, "name": "Restaurants"}, {"primary": false, "id": 1736, "name": "Sandwich Shops"}, {"primary": true, "id": 11299, "name": "Pizza"}], "fax_number": null, "expansion": {"count": null, "uri": null}, "impression_id": "000b0000008e1d502a105d45a1a6dc17f1f59dd6c9", "profile": "http://www.citysearch.com/profile/606523644/marietta_ga/peace_love_and_pizza.html", "address": {"city": "Marietta", "state": "GA", "street": "1050 E Piedmont Rd 152", "postal_code": "30062"}, "capProviderId": null, "distance": null, "has_offers": false, "name": "Peace Love and Pizza", "longitude": -84.478226, "has_menu": false, "awards": null, "user_review_count": 0}, {"business_operation_status": 1, "rating": null, "neighborhood": null, "image": null, "scorecard": null, "featured": false, "sample_categories": "Restaurants, Carry Out, Pizza", "public_id": "sandy-springs-pizza-llc-atlanta", "id": 607035474, "votes": null, "tagline": null, "has_video": false, "website": "http://www.citysearch.com/profile/external/607035474/atlanta_ga/sandy_springs_pizza_llc.html", "offers": null, "latitude": 33.935143, "politanName": "Atlanta, GA Metro ", "phone_number": "4042570222", "tags": [{"primary": false, "id": 11247, "name": "Carry Out"}, {"primary": false, "id": 11299, "name": "Pizza"}, {"primary": true, "id": 1722, "name": "Restaurants"}], "fax_number": null, "expansion": {"count": null, "uri": null}, "impression_id": "000b0000000d280be6da6c4cb9964f124c75bacde8", "profile": "http://www.citysearch.com/profile/607035474/atlanta_ga/sandy_springs_pizza_llc.html", "address": {"city": "Atlanta", "state": "GA", "street": "6615 Roswell Rd", "postal_code": "30328"}, "capProviderId": null, "distance": null, "has_offers": false, "name": "Sandy Springs Pizza LLC", "longitude": -84.377801, "has_menu": false, "awards": null, "user_review_count": 0}, {"business_operation_status": 1, "rating": null, "neighborhood": null, "image": null, "scorecard": null, "featured": false, "sample_categories": "Restaurants, Pizza", "public_id": "patagonia-pizzeria-bakery-marietta", "id": 811210800, "votes": null, "tagline": null, "has_video": false, "website": null, "offers": null, "latitude": 33.938607, "politanName": "Atlanta, GA Metro ", "phone_number": "6789032597", "tags": [{"primary": false, "id": 11299, "name": "Pizza"}, {"primary": true, "id": 1722, "name": "Restaurants"}], "fax_number": null, "expansion": {"count": null, "uri": null}, "impression_id": "000b000000cf7a84427f80431cad1f87407463ba7f", "profile": "http://www.citysearch.com/profile/811210800/marietta_ga/patagonia_pizzeria_bakery.html", "address": {"city": "Marietta", "state": "GA", "street": "585 Franklin Rd SE", "postal_code": "30067"}, "capProviderId": null, "distance": null, "has_offers": false, "name": "Patagonia Pizzeria & Bakery", "longitude": -84.50623, "has_menu": false, "awards": null, "user_review_count": 0}, {"business_operation_status": 1, "rating": null, "neighborhood": null, "image": null, "scorecard": null, "featured": false, "sample_categories": "Coffeehouses", "public_id": "place-espresso-marietta", "id": 608864624, "votes": null, "tagline": null, "has_video": false, "website": null, "offers": null, "latitude": 33.919861, "politanName": "Atlanta, GA Metro ", "phone_number": "6782145303", "tags": [{"primary": true, "id": 1726, "name": "Coffeehouses"}], "fax_number": null, "expansion": {"count": null, "uri": null}, "impression_id": "000b000000c9ec9a2e1a3d4c2c944f7d899988fb53", "profile": "http://www.citysearch.com/profile/608864624/marietta_ga/place_espresso.html", "address": {"city": "Marietta", "state": "GA", "street": "1350 Terrell Mill Rd SE", "postal_code": "30067"}, "capProviderId": null, "distance": null, "has_offers": false, "name": "Place Espresso", "longitude": -84.466207, "has_menu": false, "awards": null, "user_review_count": 0}, {"business_operation_status": 1, "rating": null, "neighborhood": null, "image": null, "scorecard": null, "featured": false, "sample_categories": "Restaurants", "public_id": "caspian-grill-marietta", "id": 609045974, "votes": null, "tagline": null, "has_video": false, "website": null, "offers": null, "latitude": 34.023191, "politanName": "Atlanta, GA Metro ", "phone_number": "7702565953", "tags": [{"primary": true, "id": 1722, "name": "Restaurants"}], "fax_number": null, "expansion": {"count": null, "uri": null}, "impression_id": "000b00000009e21df96bdd49e193ebd16553825cf0", "profile": "http://www.citysearch.com/profile/609045974/marietta_ga/caspian_grill.html", "address": {"city": "Marietta", "state": "GA", "street": "3120 Johnson Ferry Rd", "postal_code": "30062"}, "capProviderId": null, "distance": null, "has_offers": false, "name": "Caspian Grill", "longitude": -84.425297, "has_menu": false, "awards": null, "user_review_count": 0}, {"business_operation_status": 1, "rating": null, "neighborhood": null, "image": null, "scorecard": null, "featured": false, "sample_categories": "Coffeehouses", "public_id": "starbucks-marietta-16", "id": 813931400, "votes": null, "tagline": null, "has_video": false, "website": "http://www.citysearch.com/profile/external/813931400/marietta_ga/starbucks.html", "offers": null, "latitude": 34.025792, "politanName": "Atlanta, GA Metro ", "phone_number": "7706506673", "tags": [{"primary": true, "id": 1726, "name": "Coffeehouses"}], "fax_number": null, "expansion": {"count": null, "uri": null}, "impression_id": "000b00000036f6ed1c213d4eabbc7c0db1f90f08e7", "profile": "http://www.citysearch.com/profile/813931400/marietta_ga/starbucks.html", "address": {"city": "Marietta", "state": "GA", "street": "3162 Johnson Ferry Rd # 300", "postal_code": "30062"}, "capProviderId": null, "distance": null, "has_offers": false, "name": "Starbucks", "longitude": -84.42248, "has_menu": false, "awards": null, "user_review_count": 0}, {"business_operation_status": 1, "rating": null, "neighborhood": null, "image": null, "scorecard": null, "featured": false, "sample_categories": "Restaurants", "public_id": "brown-bagger-atlanta", "id": 817148170, "votes": null, "tagline": null, "has_video": false, "website": null, "offers": null, "latitude": 33.918703, "politanName": "Atlanta, GA Metro ", "phone_number": "7705229900", "tags": [{"primary": true, "id": 1722, "name": "Restaurants"}], "fax_number": null, "expansion": {"count": null, "uri": null}, "impression_id": "000b00000051f9d588983243009885284ca5abaa90", "profile": "http://www.citysearch.com/profile/817148170/atlanta_ga/brown_bagger.html", "address": {"city": "Atlanta", "state": "GA", "street": "1155 Hammond Dr", "postal_code": "30328"}, "capProviderId": null, "distance": null, "has_offers": false, "name": "Brown Bagger", "longitude": -84.350593, "has_menu": false, "awards": null, "user_review_count": 0}, {"business_operation_status": 1, "rating": null, "neighborhood": null, "image": null, "scorecard": null, "featured": false, "sample_categories": "Restaurants", "public_id": "cena-roswell", "id": 621988950, "votes": null, "tagline": null, "has_video": false, "website": null, "offers": null, "latitude": 34.005286, "politanName": "Atlanta, GA Metro ", "phone_number": "7704355855", "tags": [{"primary": true, "id": 1722, "name": "Restaurants"}], "fax_number": null, "expansion": {"count": null, "uri": null}, "impression_id": "000b000000277827116be54193a10bc0bc203b9e5c", "profile": "http://www.citysearch.com/profile/621988950/roswell_ga/cena.html", "address": {"city": "Roswell", "state": "GA", "street": "920 Marietta Hwy # 300", "postal_code": "30075"}, "capProviderId": null, "distance": null, "has_offers": false, "name": "Cena", "longitude": -84.389879, "has_menu": false, "awards": null, "user_review_count": 0}, {"business_operation_status": 1, "rating": null, "neighborhood": null, "image": null, "scorecard": null, "featured": false, "sample_categories": "Restaurants", "public_id": "casual-dining-div-shoneys-marietta", "id": 838709350, "votes": null, "tagline": null, "has_video": false, "website": null, "offers": null, "latitude": 33.912514, "politanName": "Atlanta, GA Metro ", "phone_number": "6788190697", "tags": [{"primary": true, "id": 1722, "name": "Restaurants"}], "fax_number": null, "expansion": {"count": null, "uri": null}, "impression_id": "000b000000cc87c48d97d944e39091653c40871c9e", "profile": "http://www.citysearch.com/profile/838709350/marietta_ga/casual_dining_div_shoneys.html", "address": {"city": "Marietta", "state": "GA", "street": "1640 Powers Ferry Rd SE", "postal_code": "30067"}, "capProviderId": null, "distance": null, "has_offers": false, "name": "Casual Dining Div Shoneys", "longitude": -84.46689, "has_menu": true, "awards": null, "user_review_count": 0}, {"business_operation_status": 1, "rating": null, "neighborhood": null, "image": null, "scorecard": null, "featured": false, "sample_categories": "Restaurants", "public_id": "spice-it-up-cafe-marietta", "id": 839365090, "votes": null, "tagline": null, "has_video": false, "website": null, "offers": null, "latitude": 33.944775, "politanName": "Atlanta, GA Metro ", "phone_number": "6789034384", "tags": [{"primary": true, "id": 1722, "name": "Restaurants"}], "fax_number": null, "expansion": {"count": null, "uri": null}, "impression_id": "000b0000002a59dbaf03364b8ba92644afadf90a08", "profile": "http://www.citysearch.com/profile/839365090/marietta_ga/spice_it_up_cafe.html", "address": {"city": "Marietta", "state": "GA", "street": "316 S Fairground St SE", "postal_code": "30060"}, "capProviderId": null, "distance": null, "has_offers": false, "name": "Spice It Up Cafe", "longitude": -84.535719, "has_menu": true, "awards": null, "user_review_count": 0}, {"business_operation_status": 1, "rating": null, "neighborhood": null, "image": null, "scorecard": null, "featured": false, "sample_categories": "Restaurants", "public_id": "north-of-new-orleans-roswell", "id": 655942250, "votes": null, "tagline": null, "has_video": false, "website": null, "offers": null, "latitude": 34.016917, "politanName": "Atlanta, GA Metro ", "phone_number": "7709931000", "tags": [{"primary": true, "id": 1722, "name": "Restaurants"}], "fax_number": null, "expansion": {"count": null, "uri": null}, "impression_id": "000b000000c86c47eb292c42b7828f2eecadd4b060", "profile": "http://www.citysearch.com/profile/655942250/roswell_ga/north_of_new_orleans.html", "address": {"city": "Roswell", "state": "GA", "street": "659 Atlanta St", "postal_code": "30075"}, "capProviderId": null, "distance": null, "has_offers": false, "name": "North Of New Orleans", "longitude": -84.362319, "has_menu": false, "awards": null, "user_review_count": 0}, {"business_operation_status": 1, "rating": null, "neighborhood": null, "image": null, "scorecard": null, "featured": false, "sample_categories": "Restaurants", "public_id": "loaf-ladle-atlanta", "id": 44776989, "votes": null, "tagline": null, "has_video": false, "website": null, "offers": null, "latitude": 33.994607, "politanName": "Atlanta, GA Metro ", "phone_number": "7705180200", "tags": [{"primary": true, "id": 1722, "name": "Restaurants"}], "fax_number": null, "expansion": {"count": null, "uri": null}, "impression_id": "000b00000083bed561880b4b28ae69e36630656058", "profile": "http://www.citysearch.com/profile/44776989/atlanta_ga/loaf_ladle.html", "address": {"city": "Atlanta", "state": "GA", "street": "8725 Roswell Rd", "postal_code": "30350"}, "capProviderId": null, "distance": null, "has_offers": false, "name": "Loaf & Ladle", "longitude": -84.349559, "has_menu": false, "awards": null, "user_review_count": 0}, {"business_operation_status": 1, "rating": null, "neighborhood": null, "image": null, "scorecard": null, "featured": false, "sample_categories": "Restaurants, Pizza, Carry Out", "public_id": "papa-johns-pizza-marietta-2", "id": 632029900, "votes": null, "tagline": null, "has_video": false, "website": null, "offers": null, "latitude": 33.952112, "politanName": "Atlanta, GA Metro ", "phone_number": "7704267272", "tags": [{"primary": false, "id": 1722, "name": "Restaurants"}, {"primary": false, "id": 11247, "name": "Carry Out"}, {"primary": true, "id": 11299, "name": "Pizza"}], "fax_number": null, "expansion": {"count": null, "uri": null}, "impression_id": "000b00000029367a941a1b4b0291cbf83cf626c38e", "profile": "http://www.citysearch.com/profile/632029900/marietta_ga/papa_john_s_pizza.html", "address": {"city": "Marietta", "state": "GA", "street": "971 Whitlock Ave Sw", "postal_code": "30064"}, "capProviderId": null, "distance": null, "has_offers": false, "name": "Papa John's Pizza", "longitude": -84.578857, "has_menu": false, "awards": null, "user_review_count": 0}, {"business_operation_status": 1, "rating": null, "neighborhood": null, "image": null, "scorecard": null, "featured": false, "sample_categories": "Restaurants, Sushi, Japanese, Asian", "public_id": "haiku-sushi-bar-roswell", "id": 711408360, "votes": null, "tagline": null, "has_video": false, "website": null, "offers": null, "latitude": 34.073102, "politanName": "Atlanta, GA Metro ", "phone_number": "7706452887", "tags": [{"primary": false, "id": 1722, "name": "Restaurants"}, {"primary": false, "id": 11202, "name": "Japanese"}, {"primary": false, "id": 11235, "name": "Asian"}, {"primary": true, "id": 11201, "name": "Sushi"}], "fax_number": null, "expansion": {"count": null, "uri": null}, "impression_id": "000b00000041ff402280994bb2bf18f0aa10cd5c86", "profile": "http://www.citysearch.com/profile/711408360/roswell_ga/haiku_sushi_bar.html", "address": {"city": "Roswell", "state": "GA", "street": "12040 Etris Rd #150", "postal_code": "30075"}, "capProviderId": null, "distance": null, "has_offers": false, "name": "Haiku Sushi & Bar", "longitude": -84.362597, "has_menu": false, "awards": null, "user_review_count": 0}, {"business_operation_status": 1, "rating": null, "neighborhood": null, "image": null, "scorecard": null, "featured": false, "sample_categories": "Restaurants, Barbecue Restaurants", "public_id": "dickeys-barbecue-pit-atlanta", "id": 728068070, "votes": null, "tagline": null, "has_video": false, "website": "http://www.citysearch.com/profile/external/728068070/atlanta_ga/dickey_s_barbecue_pit.html", "offers": null, "latitude": 33.936313, "politanName": "Atlanta, GA Metro ", "phone_number": "4042550017", "tags": [{"primary": false, "id": 1724, "name": "Barbecue Restaurants"}, {"primary": true, "id": 1722, "name": "Restaurants"}], "fax_number": null, "expansion": {"count": null, "uri": null}, "impression_id": "000b000000fcb2f4b9a05846998a3dcfd0b8c9bd1f", "profile": "http://www.citysearch.com/profile/728068070/atlanta_ga/dickey_s_barbecue_pit.html", "address": {"city": "Atlanta", "state": "GA", "street": "6631 Roswell Rd Ne", "postal_code": "30328"}, "capProviderId": null, "distance": null, "has_offers": false, "name": "Dickey's Barbecue Pit", "longitude": -84.378811, "has_menu": true, "awards": null, "user_review_count": 0}, {"business_operation_status": 0, "rating": null, "neighborhood": null, "image": null, "scorecard": null, "featured": false, "sample_categories": "Restaurants, Barbecue Restaurants", "public_id": "longhorns-buffalo-wings-marietta", "id": 653551040, "votes": null, "tagline": null, "has_video": false, "website": null, "offers": null, "latitude": 33.986818, "politanName": "Atlanta, GA Metro ", "phone_number": "4043131588", "tags": [{"primary": false, "id": 1724, "name": "Barbecue Restaurants"}, {"primary": true, "id": 1722, "name": "Restaurants"}], "fax_number": null, "expansion": {"count": null, "uri": null}, "impression_id": "000b0000007786f8ba847b4fdfb4e1a6cfa715cacc", "profile": "http://www.citysearch.com/profile/653551040/marietta_ga/longhorns_buffalo_wings.html", "address": {"city": "Marietta", "state": "GA", "street": "1367 Sheffield Pkwy", "postal_code": "30062"}, "capProviderId": null, "distance": null, "has_offers": false, "name": "Longhorns Buffalo Wings", "longitude": -84.497978, "has_menu": false, "awards": null, "user_review_count": 0}, {"business_operation_status": 1, "rating": null, "neighborhood": null, "image": null, "scorecard": null, "featured": false, "sample_categories": "Restaurants", "public_id": "tin-drum-asiacafe-marietta", "id": 614029774, "votes": null, "tagline": null, "has_video": false, "website": null, "offers": null, "latitude": 34.013358, "politanName": "Atlanta, GA Metro ", "phone_number": "6785403471", "tags": [{"primary": true, "id": 1722, "name": "Restaurants"}], "fax_number": null, "expansion": {"count": null, "uri": null}, "impression_id": "000b000000e0414cbde3134110a92a29fc4a44c415", "profile": "http://www.citysearch.com/profile/614029774/marietta_ga/tin_drum_asiacafe.html", "address": {"city": "Marietta", "state": "GA", "street": "125 Ernest Barrett Pkwy NW", "postal_code": "30066"}, "capProviderId": null, "distance": null, "has_offers": false, "name": "Tin Drum Asiacafe", "longitude": -84.553529, "has_menu": false, "awards": null, "user_review_count": 0}, {"business_operation_status": 1, "rating": null, "neighborhood": null, "image": null, "scorecard": null, "featured": false, "sample_categories": "Restaurants", "public_id": "parish-bistro-atlanta", "id": 613960654, "votes": null, "tagline": null, "has_video": false, "website": null, "offers": null, "latitude": 33.916972, "politanName": "Atlanta, GA Metro ", "phone_number": "6785276553", "tags": [{"primary": true, "id": 1722, "name": "Restaurants"}], "fax_number": null, "expansion": {"count": null, "uri": null}, "impression_id": "000b00000050bc6cb744e74951924c311a5c7b06f2", "profile": "http://www.citysearch.com/profile/613960654/atlanta_ga/parish_bistro.html", "address": {"city": "Atlanta", "state": "GA", "street": "5 Concourse Pkwy", "postal_code": "30328"}, "capProviderId": null, "distance": null, "has_offers": false, "name": "Parish Bistro", "longitude": -84.354599, "has_menu": false, "awards": null, "user_review_count": 0}, {"business_operation_status": 1, "rating": null, "neighborhood": null, "image": null, "scorecard": null, "featured": false, "sample_categories": "Bakeries, Restaurants", "public_id": "flowers-baking-co-marietta-2", "id": 2909781, "votes": null, "tagline": null, "has_video": false, "website": "http://www.citysearch.com/profile/external/2909781/marietta_ga/flowers_baking_co.html", "offers": null, "latitude": 33.948214, "politanName": "Atlanta, GA Metro ", "phone_number": "7709735200", "tags": [{"primary": false, "id": 1722, "name": "Restaurants"}, {"primary": true, "id": 1685, "name": "Bakeries"}], "fax_number": null, "expansion": {"count": null, "uri": null}, "impression_id": "000b0000004e8ee5262a2e4a20b0159d8e5cc08970", "profile": "http://www.citysearch.com/profile/2909781/marietta_ga/flowers_baking_co.html", "address": {"city": "Marietta", "state": "GA", "street": "146 Powers Ferry Rd SE", "postal_code": "30067"}, "capProviderId": null, "distance": null, "has_offers": false, "name": "Flowers Baking Co", "longitude": -84.505792, "has_menu": false, "awards": null, "user_review_count": 0}, {"business_operation_status": 1, "rating": null, "neighborhood": null, "image": null, "scorecard": null, "featured": false, "sample_categories": "Restaurants", "public_id": "moksha-indian-cuisine-and-bar-sandy", "id": 620584454, "votes": null, "tagline": null, "has_video": false, "website": "http://www.citysearch.com/profile/external/620584454/sandy_springs_ga/moksha_indian_cuisine_and_bar.html", "offers": null, "latitude": 33.918107, "politanName": "Atlanta, GA Metro ", "phone_number": "4704405431", "tags": [{"primary": true, "id": 1722, "name": "Restaurants"}], "fax_number": null, "expansion": {"count": null, "uri": null}, "impression_id": "000b000000942311d9d7794b4aa31374e9e113ec48", "profile": "http://www.citysearch.com/profile/620584454/sandy_springs_ga/moksha_indian_cuisine_and_bar.html", "address": {"city": "Sandy Springs", "state": "GA", "street": "5975 Roswell Rd D245", "postal_code": "30328"}, "capProviderId": null, "distance": null, "has_offers": false, "name": "Moksha Indian Cuisine and Bar", "longitude": -84.377114, "has_menu": false, "awards": null, "user_review_count": 0}, {"business_operation_status": 1, "rating": null, "neighborhood": null, "image": null, "scorecard": null, "featured": false, "sample_categories": "Bars & Pubs, Bars & Clubs, Restaurants", "public_id": "milos-bar-grill-marietta-2", "id": 684764240, "votes": null, "tagline": null, "has_video": false, "website": null, "offers": null, "latitude": 33.938164, "politanName": "Atlanta, GA Metro ", "phone_number": "7704281544", "tags": [{"primary": false, "id": 164, "name": "Bars & Clubs"}, {"primary": false, "id": 1722, "name": "Restaurants"}, {"primary": true, "id": 1686, "name": "Bars & Pubs"}], "fax_number": null, "expansion": {"count": null, "uri": null}, "impression_id": "000b000000d064cee3cb964f7490cc1bbdb1baa300", "profile": "http://www.citysearch.com/profile/684764240/marietta_ga/milo_s_bar_grill.html", "address": {"city": "Marietta", "state": "GA", "street": "11 Garrison Rd Se", "postal_code": "30008"}, "capProviderId": null, "distance": null, "has_offers": false, "name": "Milo's Bar & Grill", "longitude": -84.553286, "has_menu": false, "awards": null, "user_review_count": 0}, {"business_operation_status": 1, "rating": null, "neighborhood": null, "image": null, "scorecard": null, "featured": false, "sample_categories": "Restaurants, Carry Out, Pizza", "public_id": "dominos-pizza-atlanta-26", "id": 764836600, "votes": null, "tagline": null, "has_video": false, "website": "http://www.citysearch.com/profile/external/764836600/atlanta_ga/domino_s_pizza.html", "offers": null, "latitude": 33.95676, "politanName": "Atlanta, GA Metro ", "phone_number": "7703930372", "tags": [{"primary": false, "id": 11247, "name": "Carry Out"}, {"primary": false, "id": 11299, "name": "Pizza"}, {"primary": true, "id": 1722, "name": "Restaurants"}], "fax_number": null, "expansion": {"count": null, "uri": null}, "impression_id": "000b000000104225f986594db79b369af77bb3e31d", "profile": "http://www.citysearch.com/profile/764836600/atlanta_ga/domino_s_pizza.html", "address": {"city": "Atlanta", "state": "GA", "street": "7405 Roswell Rd NE", "postal_code": "30328"}, "capProviderId": null, "distance": null, "has_offers": false, "name": "Domino's Pizza", "longitude": -84.364114, "has_menu": true, "awards": null, "user_review_count": 0}, {"business_operation_status": 1, "rating": null, "neighborhood": null, "image": null, "scorecard": null, "featured": false, "sample_categories": "Restaurants, Carry Out", "public_id": "hardees-marietta-3", "id": 764872240, "votes": null, "tagline": null, "has_video": false, "website": null, "offers": null, "latitude": 33.932198, "politanName": "Atlanta, GA Metro ", "phone_number": "7709991111", "tags": [{"primary": false, "id": 11247, "name": "Carry Out"}, {"primary": true, "id": 1722, "name": "Restaurants"}], "fax_number": null, "expansion": {"count": null, "uri": null}, "impression_id": "000b0000005b8675da7076472caea9e5aac82e81b7", "profile": "http://www.citysearch.com/profile/764872240/marietta_ga/hardee_s.html", "address": {"city": "Marietta", "state": "GA", "street": "808 Powers Ferry Rd SE", "postal_code": "30067"}, "capProviderId": null, "distance": null, "has_offers": false, "name": "Hardee's", "longitude": -84.476211, "has_menu": false, "awards": null, "user_review_count": 0}, {"business_operation_status": 0, "rating": null, "neighborhood": null, "image": null, "scorecard": null, "featured": false, "sample_categories": "Restaurants, Carry Out, Pizza", "public_id": "pizza-hut-dunwoody", "id": 764882500, "votes": null, "tagline": null, "has_video": false, "website": null, "offers": null, "latitude": 33.951345, "politanName": "Atlanta, GA Metro ", "phone_number": "7703934721", "tags": [{"primary": false, "id": 11247, "name": "Carry Out"}, {"primary": false, "id": 11299, "name": "Pizza"}, {"primary": true, "id": 1722, "name": "Restaurants"}], "fax_number": null, "expansion": {"count": null, "uri": null}, "impression_id": "000b000000b88171d24e084e509e1fbc3a071ee997", "profile": "http://www.citysearch.com/profile/764882500/dunwoody_ga/pizza_hut.html", "address": {"city": "Dunwoody", "state": "GA", "street": "5592 Chamblee Dunwoody Rd", "postal_code": "30338"}, "capProviderId": null, "distance": null, "has_offers": false, "name": "Pizza Hut", "longitude": -84.337076, "has_menu": false, "awards": null, "user_review_count": 0}, {"business_operation_status": 1, "rating": null, "neighborhood": null, "image": null, "scorecard": null, "featured": false, "sample_categories": "Restaurants, Traditional American, Carry Out", "public_id": "arbys-atlanta-22", "id": 777689990, "votes": null, "tagline": null, "has_video": false, "website": "http://www.citysearch.com/profile/external/777689990/atlanta_ga/arby_s.html", "offers": null, "latitude": 33.933792, "politanName": "Atlanta, GA Metro ", "phone_number": "4042564462", "tags": [{"primary": false, "id": 11190, "name": "Traditional American"}, {"primary": false, "id": 11247, "name": "Carry Out"}, {"primary": true, "id": 1722, "name": "Restaurants"}], "fax_number": null, "expansion": {"count": null, "uri": null}, "impression_id": "000b000000d5850c7c21cc44daa6070f9baeb5b7e9", "profile": "http://www.citysearch.com/profile/777689990/atlanta_ga/arby_s.html", "address": {"city": "Atlanta", "state": "GA", "street": "6555 Roswell Rd Ne", "postal_code": "30328"}, "capProviderId": null, "distance": null, "has_offers": false, "name": "Arby's", "longitude": -84.378969, "has_menu": true, "awards": null, "user_review_count": 0}, {"business_operation_status": 1, "rating": null, "neighborhood": null, "image": null, "scorecard": null, "featured": false, "sample_categories": "Restaurants, Chinese", "public_id": "panda-cafe-roswell", "id": 638813980, "votes": null, "tagline": null, "has_video": false, "website": null, "offers": null, "latitude": 34.042165, "politanName": "Atlanta, GA Metro ", "phone_number": "6787950437", "tags": [{"primary": false, "id": 11252, "name": "Chinese"}, {"primary": true, "id": 1722, "name": "Restaurants"}], "fax_number": null, "expansion": {"count": null, "uri": null}, "impression_id": "000b000000bf3caf8977d74dc1ac48d82b9dfd6177", "profile": "http://www.citysearch.com/profile/638813980/roswell_ga/panda_cafe.html", "address": {"city": "Roswell", "state": "GA", "street": "10779 Alpharetta Hwy", "postal_code": "30076"}, "capProviderId": null, "distance": null, "has_offers": false, "name": "Panda Cafe", "longitude": -84.339846, "has_menu": false, "awards": null, "user_review_count": 0}, {"business_operation_status": 1, "rating": null, "neighborhood": null, "image": null, "scorecard": null, "featured": false, "sample_categories": "Restaurants, Delis And Delicatessens, Pizza", "public_id": "harrys-pizza-subs-marietta", "id": 713629810, "votes": null, "tagline": null, "has_video": false, "website": null, "offers": null, "latitude": 33.933494, "politanName": "Atlanta, GA Metro ", "phone_number": "7709550991", "tags": [{"primary": false, "id": 1722, "name": "Restaurants"}, {"primary": false, "id": 1727, "name": "Delis And Delicatessens"}, {"primary": true, "id": 11299, "name": "Pizza"}], "fax_number": null, "expansion": {"count": null, "uri": null}, "impression_id": "000b000000a505a263ad7848c2878bd2f29901f7be", "profile": "http://www.citysearch.com/profile/713629810/marietta_ga/harry_s_pizza_subs.html", "address": {"city": "Marietta", "state": "GA", "street": "2150 Powers Ferry Dr Se", "postal_code": "30067"}, "capProviderId": null, "distance": null, "has_offers": false, "name": "Harry's Pizza & Subs", "longitude": -84.489988, "has_menu": false, "awards": null, "user_review_count": 0}, {"business_operation_status": 1, "rating": null, "neighborhood": null, "image": null, "scorecard": null, "featured": false, "sample_categories": "Bakeries, Restaurants", "public_id": "douceur-de-france-roswell", "id": 647342310, "votes": null, "tagline": null, "has_video": false, "website": "http://www.citysearch.com/profile/external/647342310/roswell_ga/douceur_de_france.html", "offers": null, "latitude": 34.030401, "politanName": "Atlanta, GA Metro ", "phone_number": "7706501173", "tags": [{"primary": false, "id": 1722, "name": "Restaurants"}, {"primary": true, "id": 1685, "name": "Bakeries"}], "fax_number": null, "expansion": {"count": null, "uri": null}, "impression_id": "000b000000466fda583bc245aca458a169edd02a34", "profile": "http://www.citysearch.com/profile/647342310/roswell_ga/douceur_de_france.html", "address": {"city": "Roswell", "state": "GA", "street": "1173 Alpharetta St", "postal_code": "30075"}, "capProviderId": null, "distance": null, "has_offers": false, "name": "Douceur De France", "longitude": -84.353585, "has_menu": false, "awards": null, "user_review_count": 0}, {"business_operation_status": 1, "rating": null, "neighborhood": null, "image": null, "scorecard": null, "featured": false, "sample_categories": "Restaurants", "public_id": "stricks-southern-flavor-grill-marietta", "id": 728066170, "votes": null, "tagline": null, "has_video": false, "website": null, "offers": null, "latitude": 33.955558, "politanName": "Atlanta, GA Metro ", "phone_number": "6783555538", "tags": [{"primary": true, "id": 1722, "name": "Restaurants"}], "fax_number": null, "expansion": {"count": null, "uri": null}, "impression_id": "000b0000000f7693a30ddc4d78a051c4d8c5def3b9", "profile": "http://www.citysearch.com/profile/728066170/marietta_ga/strick_s_southern_flavor_grill.html", "address": {"city": "Marietta", "state": "GA", "street": "168 Hunt St Ne", "postal_code": "30060"}, "capProviderId": null, "distance": null, "has_offers": false, "name": "Strick's Southern Flavor Grill", "longitude": -84.544275, "has_menu": false, "awards": null, "user_review_count": 0}, {"business_operation_status": 1, "rating": null, "neighborhood": null, "image": null, "scorecard": null, "featured": false, "sample_categories": "Restaurants, Luaus", "public_id": "sapporo-japanese-steak-seafood-marietta", "id": 807245910, "votes": null, "tagline": null, "has_video": false, "website": null, "offers": null, "latitude": 33.984475, "politanName": "Atlanta, GA Metro ", "phone_number": "7705657018", "tags": [{"primary": false, "id": 11285, "name": "Luaus"}, {"primary": true, "id": 1722, "name": "Restaurants"}], "fax_number": null, "expansion": {"count": null, "uri": null}, "impression_id": "000b0000006062951a149d4fc0898e81bfc8b22253", "profile": "http://www.citysearch.com/profile/807245910/marietta_ga/sapporo_japanese_steak_seafood.html", "address": {"city": "Marietta", "state": "GA", "street": "1401 Johnson Ferry Rd # 268d", "postal_code": "30062"}, "capProviderId": null, "distance": null, "has_offers": false, "name": "Sapporo Japanese Steak Seafood", "longitude": -84.427681, "has_menu": false, "awards": null, "user_review_count": 0}, {"business_operation_status": 1, "rating": null, "neighborhood": null, "image": null, "scorecard": null, "featured": false, "sample_categories": "Restaurants", "public_id": "mandarin-express-chinese-marietta", "id": 807555420, "votes": null, "tagline": null, "has_video": false, "website": null, "offers": null, "latitude": 33.928543, "politanName": "Atlanta, GA Metro ", "phone_number": "7709842233", "tags": [{"primary": true, "id": 1722, "name": "Restaurants"}], "fax_number": null, "expansion": {"count": null, "uri": null}, "impression_id": "000b0000006b4696dcb9844934bbadc5f5fbc5719d", "profile": "http://www.citysearch.com/profile/807555420/marietta_ga/mandarin_express_chinese.html", "address": {"city": "Marietta", "state": "GA", "street": "1033 Franklin Rd SE", "postal_code": "30067"}, "capProviderId": null, "distance": null, "has_offers": false, "name": "Mandarin Express Chinese", "longitude": -84.492609, "has_menu": false, "awards": null, "user_review_count": 0}, {"business_operation_status": 1, "rating": null, "neighborhood": null, "image": null, "scorecard": null, "featured": false, "sample_categories": "Restaurants", "public_id": "guacamoles-takeout-dlvry-atlanta", "id": 813437170, "votes": null, "tagline": null, "has_video": false, "website": null, "offers": null, "latitude": 33.988785, "politanName": "Atlanta, GA Metro ", "phone_number": "7709937979", "tags": [{"primary": true, "id": 1722, "name": "Restaurants"}], "fax_number": null, "expansion": {"count": null, "uri": null}, "impression_id": "000b0000006a6f228fb2d94c3995277b7726c8ee06", "profile": "http://www.citysearch.com/profile/813437170/atlanta_ga/guacamole_s_take_out_dlvry.html", "address": {"city": "Atlanta", "state": "GA", "street": "8599 Roswell Rd", "postal_code": "30350"}, "capProviderId": null, "distance": null, "has_offers": false, "name": "Guacamole's Take-Out & Dlvry", "longitude": -84.35097, "has_menu": false, "awards": null, "user_review_count": 0}, {"business_operation_status": 1, "rating": null, "neighborhood": null, "image": null, "scorecard": null, "featured": false, "sample_categories": "Restaurants, Chinese, American Express, Discover, MasterCard", "public_id": "china-sun-restaurant-marietta", "id": 2906495, "votes": null, "tagline": null, "has_video": false, "website": null, "offers": null, "latitude": 33.926201, "politanName": "Atlanta, GA Metro ", "phone_number": "7704268780", "tags": [{"primary": false, "id": 11252, "name": "Chinese"}, {"primary": false, "id": 11333, "name": "American Express"}, {"primary": false, "id": 11349, "name": "Discover"}, {"primary": false, "id": 11361, "name": "MasterCard"}, {"primary": false, "id": 11382, "name": "Visa"}, {"primary": true, "id": 1722, "name": "Restaurants"}], "fax_number": null, "expansion": {"count": null, "uri": null}, "impression_id": "000b00000033790581a189489f9f654c2d9c0cf1d8", "profile": "http://www.citysearch.com/profile/2906495/marietta_ga/china_sun_restaurant.html", "address": {"city": "Marietta", "state": "GA", "street": "1150 Powder Springs St Ste 20", "postal_code": "30064"}, "capProviderId": null, "distance": null, "has_offers": false, "name": "China Sun Restaurant", "longitude": -84.574094, "has_menu": false, "awards": null, "user_review_count": 1}, {"business_operation_status": 1, "rating": null, "neighborhood": null, "image": null, "scorecard": null, "featured": false, "sample_categories": "Restaurants", "public_id": "long-horn-steakhouse-marietta", "id": 2909609, "votes": null, "tagline": null, "has_video": false, "website": null, "offers": null, "latitude": 33.937797, "politanName": "Atlanta, GA Metro ", "phone_number": "7704244353", "tags": [{"primary": true, "id": 1722, "name": "Restaurants"}], "fax_number": null, "expansion": {"count": null, "uri": null}, "impression_id": "000b000000be9e823b2d544d70af757eae6d668f1a", "profile": "http://www.citysearch.com/profile/2909609/marietta_ga/long_horn_steakhouse.html", "address": {"city": "Marietta", "state": "GA", "street": "585 Franklin Rd SE Ste 585", "postal_code": "30067"}, "capProviderId": null, "distance": null, "has_offers": false, "name": "Long Horn Steakhouse", "longitude": -84.506993, "has_menu": true, "awards": null, "user_review_count": 0}, {"business_operation_status": 1, "rating": null, "neighborhood": null, "image": null, "scorecard": null, "featured": false, "sample_categories": "Restaurants, Pizza", "public_id": "kozros-atlanta", "id": 764851350, "votes": null, "tagline": null, "has_video": false, "website": null, "offers": null, "latitude": 33.953675, "politanName": "Atlanta, GA Metro ", "phone_number": "7708645120", "tags": [{"primary": false, "id": 11299, "name": "Pizza"}, {"primary": true, "id": 1722, "name": "Restaurants"}], "fax_number": null, "expansion": {"count": null, "uri": null}, "impression_id": "000b0000002c1be5b2e5b24dae9569e0268bef3b11", "profile": "http://www.citysearch.com/profile/764851350/atlanta_ga/kozro_s.html", "address": {"city": "Atlanta", "state": "GA", "street": "7277 Roswell Rd NE", "postal_code": "30328"}, "capProviderId": null, "distance": null, "has_offers": false, "name": "Kozro's", "longitude": -84.365666, "has_menu": false, "awards": null, "user_review_count": 0}, {"business_operation_status": 1, "rating": null, "neighborhood": null, "image": null, "scorecard": null, "featured": false, "sample_categories": "Restaurants, Ice Cream Parlors, Carry Out", "public_id": "mc-donalds-marietta-21", "id": 764880600, "votes": null, "tagline": null, "has_video": false, "website": null, "offers": null, "latitude": 33.952602, "politanName": "Atlanta, GA Metro ", "phone_number": "4047846909", "tags": [{"primary": false, "id": 1730, "name": "Ice Cream Parlors"}, {"primary": false, "id": 11247, "name": "Carry Out"}, {"primary": true, "id": 1722, "name": "Restaurants"}], "fax_number": null, "expansion": {"count": null, "uri": null}, "impression_id": "000b000000f34381ccf98c4363899bd04b2a838d96", "profile": "http://www.citysearch.com/profile/764880600/marietta_ga/mc_donald_s.html", "address": {"city": "Marietta", "state": "GA", "street": "PO Box 965370", "postal_code": "30066"}, "capProviderId": null, "distance": null, "has_offers": false, "name": "Mc Donald's", "longitude": -84.549933, "has_menu": false, "awards": null, "user_review_count": 0}, {"business_operation_status": 1, "rating": null, "neighborhood": null, "image": null, "scorecard": null, "featured": false, "sample_categories": "Dry Cleaning & Laundry Services, Restaurants, Dry Cleaners", "public_id": "morgan-falls-cleaners-atlanta", "id": 3045419, "votes": null, "tagline": null, "has_video": false, "website": null, "offers": null, "latitude": 33.972675, "politanName": "Atlanta, GA Metro ", "phone_number": "7703966939", "tags": [{"primary": false, "id": 3483, "name": "Dry Cleaning & Laundry Services"}, {"primary": false, "id": 1722, "name": "Restaurants"}, {"primary": false, "id": 3484, "name": "Dry Cleaners"}], "fax_number": null, "expansion": {"count": null, "uri": null}, "impression_id": "000b0000003745e66308ed4845abce39d40b95cfa3", "profile": "http://www.citysearch.com/profile/3045419/atlanta_ga/morgan_falls_cleaners.html", "address": {"city": "Atlanta", "state": "GA", "street": "7875 Roswell Rd Ste B", "postal_code": "30350"}, "capProviderId": null, "distance": null, "has_offers": false, "name": "Morgan Falls Cleaners", "longitude": -84.357696, "has_menu": false, "awards": null, "user_review_count": 0}, {"business_operation_status": 1, "rating": null, "neighborhood": null, "image": null, "scorecard": null, "featured": false, "sample_categories": "Restaurants", "public_id": "tpm-enterprises-roswell", "id": 766781120, "votes": null, "tagline": null, "has_video": false, "website": null, "offers": null, "latitude": 34.013938, "politanName": "Atlanta, GA Metro ", "phone_number": "7706432090", "tags": [{"primary": true, "id": 1722, "name": "Restaurants"}], "fax_number": null, "expansion": {"count": null, "uri": null}, "impression_id": "000b0000002372bbb5838049f0ae712fc3f82bc4e8", "profile": "http://www.citysearch.com/profile/766781120/roswell_ga/tpm_enterprises.html", "address": {"city": "Roswell", "state": "GA", "street": "126 Marietta Hwy", "postal_code": "30075"}, "capProviderId": null, "distance": null, "has_offers": false, "name": "TPM Enterprises", "longitude": -84.365765, "has_menu": false, "awards": null, "user_review_count": 0}, {"business_operation_status": 1, "rating": null, "neighborhood": null, "image": null, "scorecard": null, "featured": false, "sample_categories": "Restaurants", "public_id": "hooters-of-kalamazoo-inc-atlanta", "id": 766801450, "votes": null, "tagline": null, "has_video": false, "website": null, "offers": null, "latitude": 33.908131, "politanName": "Atlanta, GA Metro ", "phone_number": "7709512040", "tags": [{"primary": true, "id": 1722, "name": "Restaurants"}], "fax_number": null, "expansion": {"count": null, "uri": null}, "impression_id": "000b000000fe19b19351c446038ced98d9f597d603", "profile": "http://www.citysearch.com/profile/766801450/atlanta_ga/hooters_of_kalamazoo_inc.html", "address": {"city": "Atlanta", "state": "GA", "street": "1815 the Exchange SE", "postal_code": "30339"}, "capProviderId": null, "distance": null, "has_offers": false, "name": "Hooters of Kalamazoo Inc", "longitude": -84.479005, "has_menu": false, "awards": null, "user_review_count": 0}, {"business_operation_status": 1, "rating": null, "neighborhood": null, "image": null, "scorecard": null, "featured": false, "sample_categories": "Restaurants", "public_id": "pyramid-restaurant-hookah-marietta", "id": 777743980, "votes": null, "tagline": null, "has_video": false, "website": null, "offers": null, "latitude": 33.942926, "politanName": "Atlanta, GA Metro ", "phone_number": "6782131030", "tags": [{"primary": true, "id": 1722, "name": "Restaurants"}], "fax_number": null, "expansion": {"count": null, "uri": null}, "impression_id": "000b0000001c5e1e111afc40a58484f747d3a3b0aa", "profile": "http://www.citysearch.com/profile/777743980/marietta_ga/pyramid_restaurant_hookah.html", "address": {"city": "Marietta", "state": "GA", "street": "600 S Marietta Pkwy Se", "postal_code": "30060"}, "capProviderId": null, "distance": null, "has_offers": false, "name": "Pyramid Restaurant & Hookah", "longitude": -84.534635, "has_menu": false, "awards": null, "user_review_count": 0}, {"business_operation_status": 1, "rating": null, "neighborhood": null, "image": null, "scorecard": null, "featured": false, "sample_categories": "Restaurants, Carry Out, Chicken", "public_id": "churchs-chicken-atlanta-32", "id": 777688460, "votes": null, "tagline": null, "has_video": false, "website": null, "offers": null, "latitude": 33.987076, "politanName": "Atlanta, GA Metro ", "phone_number": "7709927088", "tags": [{"primary": false, "id": 11247, "name": "Carry Out"}, {"primary": false, "id": 12839, "name": "Chicken"}, {"primary": true, "id": 1722, "name": "Restaurants"}], "fax_number": null, "expansion": {"count": null, "uri": null}, "impression_id": "000b000000be245cc26a4743d48a67883eb908f0e5", "profile": "http://www.citysearch.com/profile/777688460/atlanta_ga/church_s_chicken.html", "address": {"city": "Atlanta", "state": "GA", "street": "8255 Dunwoody Pl", "postal_code": "30350"}, "capProviderId": null, "distance": null, "has_offers": false, "name": "Church's Chicken", "longitude": -84.340741, "has_menu": false, "awards": null, "user_review_count": 0}, {"business_operation_status": 1, "rating": null, "neighborhood": null, "image": null, "scorecard": null, "featured": false, "sample_categories": "Restaurants, Italian", "public_id": "mad-italian-restaurant-marietta", "id": 777797900, "votes": null, "tagline": null, "has_video": false, "website": null, "offers": null, "latitude": 33.901234, "politanName": "Atlanta, GA Metro ", "phone_number": "7709521806", "tags": [{"primary": false, "id": 11279, "name": "Italian"}, {"primary": true, "id": 1722, "name": "Restaurants"}], "fax_number": null, "expansion": {"count": null, "uri": null}, "impression_id": "000b0000005404f1af8e9443189822b17048b9a410", "profile": "http://www.citysearch.com/profile/777797900/marietta_ga/mad_italian_restaurant.html", "address": {"city": "Marietta", "state": "GA", "street": "2092 Cobb Pkwy S", "postal_code": "30060"}, "capProviderId": null, "distance": null, "has_offers": false, "name": "Mad Italian Restaurant", "longitude": -84.488366, "has_menu": true, "awards": null, "user_review_count": 3}, {"business_operation_status": 1, "rating": null, "neighborhood": null, "image": null, "scorecard": null, "featured": false, "sample_categories": "Restaurants, Indian", "public_id": "haveli-indian-cuisine-smyrna", "id": 787102840, "votes": null, "tagline": null, "has_video": false, "website": null, "offers": null, "latitude": 33.895335, "politanName": "Atlanta, GA Metro ", "phone_number": "7709554525", "tags": [{"primary": false, "id": 11277, "name": "Indian"}, {"primary": true, "id": 1722, "name": "Restaurants"}], "fax_number": null, "expansion": {"count": null, "uri": null}, "impression_id": "000b000000eb7a7efce7d14d8bbb00cf6430659539", "profile": "http://www.citysearch.com/profile/787102840/smyrna_ga/haveli_indian_cuisine.html", "address": {"city": "Smyrna", "state": "GA", "street": "2706 Cobb Pkwy Se", "postal_code": "30080"}, "capProviderId": null, "distance": null, "has_offers": false, "name": "Haveli Indian Cuisine", "longitude": -84.480413, "has_menu": false, "awards": null, "user_review_count": 0}, {"business_operation_status": 1, "rating": null, "neighborhood": null, "image": null, "scorecard": null, "featured": false, "sample_categories": "Restaurants, Chinese", "public_id": "china-station-marietta", "id": 793243160, "votes": null, "tagline": null, "has_video": false, "website": null, "offers": null, "latitude": 33.904705, "politanName": "Atlanta, GA Metro ", "phone_number": "7708501234", "tags": [{"primary": false, "id": 11252, "name": "Chinese"}, {"primary": true, "id": 1722, "name": "Restaurants"}], "fax_number": null, "expansion": {"count": null, "uri": null}, "impression_id": "000b000000d42c1622bee84002b9c591b49b9d1ba3", "profile": "http://www.citysearch.com/profile/793243160/marietta_ga/china_station.html", "address": {"city": "Marietta", "state": "GA", "street": "2359 Windy Hill Rd Se", "postal_code": "30067"}, "capProviderId": null, "distance": null, "has_offers": false, "name": "China Station", "longitude": -84.484545, "has_menu": false, "awards": null, "user_review_count": 0}, {"business_operation_status": 1, "rating": null, "neighborhood": null, "image": null, "scorecard": null, "featured": false, "sample_categories": "Restaurants, Bistros, Bars & Clubs", "public_id": "north-park-bistro-marietta", "id": 777790950, "votes": null, "tagline": null, "has_video": false, "website": "http://www.citysearch.com/profile/external/777790950/marietta_ga/kish_restaurant_bar.html", "offers": null, "latitude": 33.953606, "politanName": "Atlanta, GA Metro ", "phone_number": "7706726803", "tags": [{"primary": false, "id": 13690, "name": "Bistros"}, {"primary": false, "id": 164, "name": "Bars & Clubs"}, {"primary": true, "id": 1722, "name": "Restaurants"}], "fax_number": null, "expansion": {"count": null, "uri": null}, "impression_id": "000b00000031c977e1b8e94e8a9124ea1a1f80a202", "profile": "http://www.citysearch.com/profile/777790950/marietta_ga/kish_restaurant_bar.html", "address": {"city": "Marietta", "state": "GA", "street": "105 N Park Sq NE", "postal_code": "30060"}, "capProviderId": null, "distance": null, "has_offers": false, "name": "Kish Restaurant & Bar", "longitude": -84.549403, "has_menu": false, "awards": null, "user_review_count": 0}, {"business_operation_status": 1, "rating": null, "neighborhood": null, "image": null, "scorecard": null, "featured": false, "sample_categories": "Restaurants, Carry Out, Shop Online, Chicken", "public_id": "kfc-roswell-8", "id": 801095720, "votes": null, "tagline": null, "has_video": false, "website": "http://www.citysearch.com/profile/external/801095720/roswell_ga/kfc.html", "offers": null, "latitude": 34.048413, "politanName": "Atlanta, GA Metro ", "phone_number": "7706502901", "tags": [{"primary": false, "id": 11247, "name": "Carry Out"}, {"primary": false, "id": 11375, "name": "Shop Online"}, {"primary": false, "id": 12839, "name": "Chicken"}, {"primary": true, "id": 1722, "name": "Restaurants"}], "fax_number": null, "expansion": {"count": null, "uri": null}, "impression_id": "000b000000cda75bd2969047ad869233cdf315150c", "profile": "http://www.citysearch.com/profile/801095720/roswell_ga/kfc.html", "address": {"city": "Roswell", "state": "GA", "street": "1204 Macy Dr", "postal_code": "30076"}, "capProviderId": null, "distance": null, "has_offers": false, "name": "KFC", "longitude": -84.358897, "has_menu": false, "awards": null, "user_review_count": 0}, {"business_operation_status": 1, "rating": null, "neighborhood": null, "image": null, "scorecard": null, "featured": false, "sample_categories": "Restaurants", "public_id": "julias-cafe-marietta", "id": 787109210, "votes": null, "tagline": null, "has_video": false, "website": null, "offers": null, "latitude": 33.938568, "politanName": "Atlanta, GA Metro ", "phone_number": "7704284400", "tags": [{"primary": true, "id": 1722, "name": "Restaurants"}], "fax_number": null, "expansion": {"count": null, "uri": null}, "impression_id": "000b000000e6293e2888eb4d9093f80a21ab747632", "profile": "http://www.citysearch.com/profile/787109210/marietta_ga/julia_s_cafe.html", "address": {"city": "Marietta", "state": "GA", "street": "1775 Pkwy Pl NW", "postal_code": "30067"}, "capProviderId": null, "distance": null, "has_offers": false, "name": "Julia's Cafe", "longitude": -84.505213, "has_menu": false, "awards": null, "user_review_count": 0}], "histograms": [], "tag_ids": [1722], "uri": "http://api.citygridmedia.com:8080/search/places/v2/search/where?has_offers=false&type=restaurant&format=json&page=22&where=30068&rpp=50&histograms=false&publisher=10000009598&region_type=circle", "did_you_mean": "", "regions": [{"latitude": 33.967813, "default_radius": 3.91, "type": "postal_code", "name": "30068", "longitude": -84.433422}], "call_id": "000b000000615ef394d92f43919f9759a3031f0b1a", "first_hit": 1051, "total_hits": 2028, "geo_ids": [26296], "page": 22, "last_hit": 1100}}