{"results": {"rpp": 50, "locations": [{"business_operation_status": 1, "rating": null, "neighborhood": null, "image": null, "scorecard": null, "featured": false, "sample_categories": "Restaurants", "public_id": "scholtzskys-delisandwiches-roswell", "id": 825809970, "votes": null, "tagline": null, "has_video": false, "website": null, "offers": null, "latitude": 34.034046, "politanName": "Atlanta, GA Metro ", "phone_number": "7709923332", "tags": [{"primary": true, "id": 1722, "name": "Restaurants"}], "fax_number": null, "expansion": {"count": null, "uri": null}, "impression_id": "000b0000001ab22b553ef94453a025053d4984827b", "profile": "http://www.citysearch.com/profile/825809970/roswell_ga/scholtzsky_s_deli_sandwiches.html", "address": {"city": "Roswell", "state": "GA", "street": "609 Holcomb Bridge Rd", "postal_code": "30076"}, "capProviderId": null, "distance": null, "has_offers": false, "name": "Scholtzsky's Deli/Sandwiches", "longitude": -84.342093, "has_menu": false, "awards": null, "user_review_count": 0}, {"business_operation_status": 1, "rating": null, "neighborhood": null, "image": null, "scorecard": null, "featured": false, "sample_categories": "Luaus", "public_id": "fusepnte-creative-thai-cuisine-atlanta", "id": 825967740, "votes": null, "tagline": null, "has_video": false, "website": null, "offers": null, "latitude": 33.909616, "politanName": "Atlanta, GA Metro ", "phone_number": "4042500136", "tags": [{"primary": true, "id": 11285, "name": "Luaus"}], "fax_number": null, "expansion": {"count": null, "uri": null}, "impression_id": "000b000000c73a45387cfd48a29f1d96767d519c50", "profile": "http://www.citysearch.com/profile/825967740/atlanta_ga/fusepnte_creative_thai_cuisine.html", "address": {"city": "Atlanta", "state": "GA", "street": "5651 Kingsport Dr", "postal_code": "30342"}, "capProviderId": null, "distance": null, "has_offers": false, "name": "Fusepnte Creative Thai Cuisine", "longitude": -84.384167, "has_menu": false, "awards": null, "user_review_count": 0}, {"business_operation_status": 1, "rating": null, "neighborhood": null, "image": null, "scorecard": null, "featured": false, "sample_categories": "Restaurants", "public_id": "asian-express-marietta", "id": 617926934, "votes": null, "tagline": null, "has_video": false, "website": null, "offers": null, "latitude": 34.020818, "politanName": "Atlanta, GA Metro ", "phone_number": "7704201819", "tags": [{"primary": true, "id": 1722, "name": "Restaurants"}], "fax_number": null, "expansion": {"count": null, "uri": null}, "impression_id": "000b000000b91049016ac542a8bbbe75ee4da6b05c", "profile": "http://www.citysearch.com/profile/617926934/marietta_ga/asian_express.html", "address": {"city": "Marietta", "state": "GA", "street": "2821 Chastain Meadows Pkwy", "postal_code": "30066"}, "capProviderId": null, "distance": null, "has_offers": false, "name": "Asian Express", "longitude": -84.55554, "has_menu": false, "awards": null, "user_review_count": 0}, {"business_operation_status": 1, "rating": null, "neighborhood": null, "image": null, "scorecard": null, "featured": false, "sample_categories": "Comedy Clubs, Restaurants", "public_id": "phat-comedy-atlanta-2", "id": 622991844, "votes": null, "tagline": null, "has_video": false, "website": "http://www.citysearch.com/profile/external/622991844/atlanta_ga/phat_comedy.html", "offers": null, "latitude": 33.991418, "politanName": "Atlanta, GA Metro ", "phone_number": "4049442718", "tags": [{"primary": false, "id": 1722, "name": "Restaurants"}, {"primary": true, "id": 166, "name": "Comedy Clubs"}], "fax_number": null, "expansion": {"count": null, "uri": null}, "impression_id": "000b00000051b8ef1093db46409455414a94eed678", "profile": "http://www.citysearch.com/profile/622991844/atlanta_ga/phat_comedy.html", "address": {"city": "Atlanta", "state": "GA", "street": "124 Summit Springs Dr", "postal_code": "30350"}, "capProviderId": null, "distance": null, "has_offers": false, "name": "Phat Comedy", "longitude": -84.346282, "has_menu": false, "awards": null, "user_review_count": 0}, {"business_operation_status": 1, "rating": null, "neighborhood": null, "image": null, "scorecard": null, "featured": false, "sample_categories": "Restaurants", "public_id": "chequers-seafood-steak-marietta", "id": 612034824, "votes": null, "tagline": null, "has_video": false, "website": "http://www.citysearch.com/profile/external/612034824/marietta_ga/chequers_seafood_steak.html", "offers": null, "latitude": 33.984638, "politanName": "Atlanta, GA Metro ", "phone_number": "7709779324", "tags": [{"primary": true, "id": 1722, "name": "Restaurants"}], "fax_number": null, "expansion": {"count": null, "uri": null}, "impression_id": "000b00000012d5f2ca7387434aa31d53a9b7cd0883", "profile": "http://www.citysearch.com/profile/612034824/marietta_ga/chequers_seafood_steak.html", "address": {"city": "Marietta", "state": "GA", "street": "1401 Johnson Ferry Rd", "postal_code": "30062"}, "capProviderId": null, "distance": null, "has_offers": false, "name": "Chequers Seafood & Steak", "longitude": -84.427737, "has_menu": false, "awards": null, "user_review_count": 0}, {"business_operation_status": 1, "rating": null, "neighborhood": null, "image": null, "scorecard": null, "featured": false, "sample_categories": "Restaurants, Bars & Pubs", "public_id": "mannys-bar-grill-marietta", "id": 621939080, "votes": null, "tagline": null, "has_video": false, "website": null, "offers": null, "latitude": 34.015118, "politanName": "Atlanta, GA Metro ", "phone_number": "7706932190", "tags": [{"primary": false, "id": 1686, "name": "Bars & Pubs"}, {"primary": true, "id": 1722, "name": "Restaurants"}], "fax_number": null, "expansion": {"count": null, "uri": null}, "impression_id": "000b000000c56791c2743a48dab38bcc562ec6387e", "profile": "http://www.citysearch.com/profile/621939080/marietta_ga/manny_s_bar_grill.html", "address": {"city": "Marietta", "state": "GA", "street": "2635 Sandy Plains Rd", "postal_code": "30066"}, "capProviderId": null, "distance": null, "has_offers": false, "name": "Manny's Bar & Grill", "longitude": -84.495187, "has_menu": false, "awards": null, "user_review_count": 0}, {"business_operation_status": 1, "rating": null, "neighborhood": null, "image": null, "scorecard": null, "featured": false, "sample_categories": "Restaurants", "public_id": "ippilotos-restaurant-llc-roswell", "id": 621893810, "votes": null, "tagline": null, "has_video": false, "website": null, "offers": null, "latitude": 34.03424, "politanName": "Atlanta, GA Metro ", "phone_number": "7706647000", "tags": [{"primary": true, "id": 1722, "name": "Restaurants"}], "fax_number": null, "expansion": {"count": null, "uri": null}, "impression_id": "000b0000000aaa4dbfdfb74d6fbed8d49f0da6f824", "profile": "http://www.citysearch.com/profile/621893810/roswell_ga/ippilotos_restaurant_llc.html", "address": {"city": "Roswell", "state": "GA", "street": "900 Old Roswell Lakes Pkwy", "postal_code": "30076"}, "capProviderId": null, "distance": null, "has_offers": false, "name": "Ippilotos Restaurant Llc", "longitude": -84.336995, "has_menu": false, "awards": null, "user_review_count": 1}, {"business_operation_status": 1, "rating": null, "neighborhood": null, "image": null, "scorecard": null, "featured": false, "sample_categories": "Restaurants", "public_id": "stockyard-burgers-marietta", "id": 621272344, "votes": null, "tagline": null, "has_video": false, "website": null, "offers": null, "latitude": 33.953436, "politanName": "Atlanta, GA Metro ", "phone_number": "6785032760", "tags": [{"primary": true, "id": 1722, "name": "Restaurants"}], "fax_number": null, "expansion": {"count": null, "uri": null}, "impression_id": "000b00000078f531f57769479596b85e5c06d5645b", "profile": "http://www.citysearch.com/profile/621272344/marietta_ga/stockyard_burgers.html", "address": {"city": "Marietta", "state": "GA", "street": "26 Mill St NE", "postal_code": "30060"}, "capProviderId": null, "distance": null, "has_offers": false, "name": "Stockyard Burgers", "longitude": -84.550777, "has_menu": false, "awards": null, "user_review_count": 0}, {"business_operation_status": 1, "rating": null, "neighborhood": null, "image": null, "scorecard": null, "featured": false, "sample_categories": "Restaurants", "public_id": "tme-enterprises-i-ltd-marietta", "id": 621954570, "votes": null, "tagline": null, "has_video": false, "website": "http://www.citysearch.com/profile/external/621954570/marietta_ga/tme_enterprises_i_ltd.html", "offers": null, "latitude": 34.036665, "politanName": "Atlanta, GA Metro ", "phone_number": "7705781119", "tags": [{"primary": true, "id": 1722, "name": "Restaurants"}], "fax_number": null, "expansion": {"count": null, "uri": null}, "impression_id": "000b000000e06fd58c93be42b1afd119b85fe9116d", "profile": "http://www.citysearch.com/profile/621954570/marietta_ga/tme_enterprises_i_ltd.html", "address": {"city": "Marietta", "state": "GA", "street": "2971 Shallowford Rd", "postal_code": "30066"}, "capProviderId": null, "distance": null, "has_offers": false, "name": "Tme Enterprises I Ltd", "longitude": -84.464103, "has_menu": false, "awards": null, "user_review_count": 0}, {"business_operation_status": 1, "rating": null, "neighborhood": null, "image": null, "scorecard": null, "featured": false, "sample_categories": "Restaurants", "public_id": "stars-strikes-atlantasandy-atlanta", "id": 622494084, "votes": null, "tagline": null, "has_video": false, "website": "http://www.citysearch.com/profile/external/622494084/atlanta_ga/stars_strikes_atlanta_sandy.html", "offers": null, "latitude": 34.00216, "politanName": "Atlanta, GA Metro ", "phone_number": "6789655707", "tags": [{"primary": true, "id": 1722, "name": "Restaurants"}], "fax_number": null, "expansion": {"count": null, "uri": null}, "impression_id": "000b000000d3f507bec75e43a58a1287ed607aed4c", "profile": "http://www.citysearch.com/profile/622494084/atlanta_ga/stars_strikes_atlanta_sandy.html", "address": {"city": "Atlanta", "state": "GA", "street": "8967 Roswell Rd", "postal_code": "30350"}, "capProviderId": null, "distance": null, "has_offers": false, "name": "Stars & Strikes Atlanta-Sandy", "longitude": -84.350418, "has_menu": false, "awards": null, "user_review_count": 0}, {"business_operation_status": 1, "rating": null, "neighborhood": null, "image": null, "scorecard": null, "featured": false, "sample_categories": "Restaurants, Bars & Clubs, Bars & Pubs", "public_id": "rafters-bar-grill-roswell", "id": 621882460, "votes": null, "tagline": null, "has_video": false, "website": null, "offers": null, "latitude": 34.0617, "politanName": "Atlanta, GA Metro ", "phone_number": "6784616294", "tags": [{"primary": false, "id": 164, "name": "Bars & Clubs"}, {"primary": false, "id": 1686, "name": "Bars & Pubs"}, {"primary": true, "id": 1722, "name": "Restaurants"}], "fax_number": null, "expansion": {"count": null, "uri": null}, "impression_id": "000b000000862c972333884655954baa9c7c954c78", "profile": "http://www.citysearch.com/profile/621882460/roswell_ga/rafter_s_bar_grill.html", "address": {"city": "Roswell", "state": "GA", "street": "1165 Woodstock Rd", "postal_code": "30075"}, "capProviderId": null, "distance": null, "has_offers": false, "name": "Rafter's Bar & Grill", "longitude": -84.399784, "has_menu": false, "awards": null, "user_review_count": 1}, {"business_operation_status": 1, "rating": null, "neighborhood": null, "image": null, "scorecard": null, "featured": false, "sample_categories": "Restaurants", "public_id": "cocktail-cove-grill-and-bar-sandy-spgs", "id": 672965140, "votes": null, "tagline": null, "has_video": false, "website": null, "offers": null, "latitude": 33.914678, "politanName": "Atlanta, GA Metro ", "phone_number": null, "tags": [{"primary": true, "id": 1722, "name": "Restaurants"}], "fax_number": null, "expansion": {"count": null, "uri": null}, "impression_id": "000b000000cf1341d7585840b0aceda0399655736f", "profile": "http://www.citysearch.com/profile/672965140/sandy_springs_ga/cocktail_cove_grill_and_bar.html", "address": {"city": "Sandy Springs", "state": "GA", "street": "5840 Roswell Rd NE", "postal_code": "30328"}, "capProviderId": null, "distance": null, "has_offers": false, "name": "Cocktail Cove Grill and Bar", "longitude": -84.379947, "has_menu": false, "awards": null, "user_review_count": 0}, {"business_operation_status": 1, "rating": null, "neighborhood": null, "image": null, "scorecard": null, "featured": false, "sample_categories": "Restaurants, Japanese, Steakhouse", "public_id": "fuji-hana-marietta", "id": 672884060, "votes": null, "tagline": null, "has_video": false, "website": null, "offers": null, "latitude": 34.027664, "politanName": "Atlanta, GA Metro ", "phone_number": "7709927474", "tags": [{"primary": false, "id": 11202, "name": "Japanese"}, {"primary": false, "id": 11316, "name": "Steakhouse"}, {"primary": true, "id": 1722, "name": "Restaurants"}], "fax_number": null, "expansion": {"count": null, "uri": null}, "impression_id": "000b0000003842e624c6f24053845edf5fd6563fb3", "profile": "http://www.citysearch.com/profile/672884060/marietta_ga/fuji_hana.html", "address": {"city": "Marietta", "state": "GA", "street": "3162 Johnson Ferry Rd NE Ste 420", "postal_code": "30062"}, "capProviderId": null, "distance": null, "has_offers": false, "name": "Fuji Hana", "longitude": -84.423911, "has_menu": false, "awards": null, "user_review_count": 3}, {"business_operation_status": 1, "rating": null, "neighborhood": null, "image": null, "scorecard": null, "featured": false, "sample_categories": "Delis And Delicatessens", "public_id": "kroger-deli-marietta-4", "id": 693544700, "votes": null, "tagline": null, "has_video": false, "website": null, "offers": null, "latitude": 33.953033, "politanName": "Atlanta, GA Metro ", "phone_number": "7704217676", "tags": [{"primary": true, "id": 1727, "name": "Delis And Delicatessens"}], "fax_number": null, "expansion": {"count": null, "uri": null}, "impression_id": "000b000000925e8d4e55854dd5a39461f9c500d02e", "profile": "http://www.citysearch.com/profile/693544700/marietta_ga/kroger_deli.html", "address": {"city": "Marietta", "state": "GA", "street": "1000 Whitlock Ave NW # 200", "postal_code": "30064"}, "capProviderId": null, "distance": null, "has_offers": false, "name": "Kroger Deli", "longitude": -84.581202, "has_menu": false, "awards": null, "user_review_count": 0}, {"business_operation_status": 1, "rating": null, "neighborhood": null, "image": null, "scorecard": null, "featured": false, "sample_categories": "Restaurants", "public_id": "cool-river-cafe-sandy", "id": 713318230, "votes": null, "tagline": null, "has_video": false, "website": null, "offers": null, "latitude": 33.906954, "politanName": "Atlanta, GA Metro ", "phone_number": "7709511553", "tags": [{"primary": true, "id": 1722, "name": "Restaurants"}], "fax_number": null, "expansion": {"count": null, "uri": null}, "impression_id": "000b0000009f2ce89ddce84ceb9e219427ab0bc564", "profile": "http://www.citysearch.com/profile/713318230/sandy_springs_ga/cool_river_cafe.html", "address": {"city": "Sandy Springs", "state": "GA", "street": "5500 Interstate North NW # 102", "postal_code": "30328"}, "capProviderId": null, "distance": null, "has_offers": false, "name": "Cool River Cafe", "longitude": -84.434288, "has_menu": false, "awards": null, "user_review_count": 0}, {"business_operation_status": 1, "rating": null, "neighborhood": null, "image": null, "scorecard": null, "featured": false, "sample_categories": "Restaurants", "public_id": "snack-shack-marietta", "id": 713480420, "votes": null, "tagline": null, "has_video": false, "website": null, "offers": null, "latitude": 33.938267, "politanName": "Atlanta, GA Metro ", "phone_number": "7709190010", "tags": [{"primary": true, "id": 1722, "name": "Restaurants"}], "fax_number": null, "expansion": {"count": null, "uri": null}, "impression_id": "000b000000a4e8efcf3a7b49babf70d40a50cacca2", "profile": "http://www.citysearch.com/profile/713480420/marietta_ga/snack_shack.html", "address": {"city": "Marietta", "state": "GA", "street": "601 Powder Springs St", "postal_code": "30064"}, "capProviderId": null, "distance": null, "has_offers": false, "name": "Snack Shack", "longitude": -84.553758, "has_menu": false, "awards": null, "user_review_count": 0}, {"business_operation_status": 1, "rating": null, "neighborhood": null, "image": null, "scorecard": null, "featured": false, "sample_categories": "Restaurants", "public_id": "cafe-med-marietta", "id": 2908313, "votes": null, "tagline": null, "has_video": false, "website": null, "offers": null, "latitude": 34.015118, "politanName": "Atlanta, GA Metro ", "phone_number": "7705790630", "tags": [{"primary": true, "id": 1722, "name": "Restaurants"}], "fax_number": null, "expansion": {"count": null, "uri": null}, "impression_id": "000b000000b66c3a87dbc44d14a2d65cc5b23da58c", "profile": "http://www.citysearch.com/profile/2908313/marietta_ga/cafe_med.html", "address": {"city": "Marietta", "state": "GA", "street": "2635 Sandy Plains Rd Ste A10", "postal_code": "30066"}, "capProviderId": null, "distance": null, "has_offers": false, "name": "Cafe Med", "longitude": -84.495187, "has_menu": true, "awards": null, "user_review_count": 3}, {"business_operation_status": 1, "rating": null, "neighborhood": null, "image": null, "scorecard": null, "featured": false, "sample_categories": "Restaurants", "public_id": "janouseks-restaurant-roswell", "id": 2919104, "votes": null, "tagline": null, "has_video": false, "website": null, "offers": null, "latitude": 34.018681, "politanName": "Atlanta, GA Metro ", "phone_number": "7705872075", "tags": [{"primary": true, "id": 1722, "name": "Restaurants"}], "fax_number": null, "expansion": {"count": null, "uri": null}, "impression_id": "000b00000047afc8206e554b82ae8733c6b903b4dc", "profile": "http://www.citysearch.com/profile/2919104/roswell_ga/janousek_s_restaurant.html", "address": {"city": "Roswell", "state": "GA", "street": "1475 Holcomb Bridge Rd", "postal_code": "30076"}, "capProviderId": null, "distance": null, "has_offers": false, "name": "Janousek's Restaurant", "longitude": -84.317413, "has_menu": false, "awards": null, "user_review_count": 0}, {"business_operation_status": 1, "rating": null, "neighborhood": null, "image": null, "scorecard": null, "featured": false, "sample_categories": "Restaurants", "public_id": "great-wall-marietta", "id": 622851854, "votes": null, "tagline": null, "has_video": false, "website": null, "offers": null, "latitude": 33.921719, "politanName": "Atlanta, GA Metro ", "phone_number": "7709536392", "tags": [{"primary": true, "id": 1722, "name": "Restaurants"}], "fax_number": null, "expansion": {"count": null, "uri": null}, "impression_id": "000b000000c0bba27d407f46aabf1e8ebba80ad729", "profile": "http://www.citysearch.com/profile/622851854/marietta_ga/great_wall.html", "address": {"city": "Marietta", "state": "GA", "street": "1275 Powers Ferry Rd SE Ste 18", "postal_code": "30067"}, "capProviderId": null, "distance": null, "has_offers": false, "name": "Great Wall", "longitude": -84.466106, "has_menu": false, "awards": null, "user_review_count": 0}, {"business_operation_status": 1, "rating": null, "neighborhood": null, "image": null, "scorecard": null, "featured": false, "sample_categories": "Restaurants, Carry Out, Steakhouse", "public_id": "steak-n-shake-roswell", "id": 638819600, "votes": null, "tagline": null, "has_video": false, "website": "http://www.citysearch.com/profile/external/638819600/roswell_ga/steak_n_shake.html", "offers": null, "latitude": 34.061357, "politanName": "Atlanta, GA Metro ", "phone_number": "6785343640", "tags": [{"primary": false, "id": 11247, "name": "Carry Out"}, {"primary": false, "id": 11316, "name": "Steakhouse"}, {"primary": true, "id": 1722, "name": "Restaurants"}], "fax_number": null, "expansion": {"count": null, "uri": null}, "impression_id": "000b0000002693a1aa050e4061a20a1a1edcddfdc5", "profile": "http://www.citysearch.com/profile/638819600/roswell_ga/steak_n_shake.html", "address": {"city": "Roswell", "state": "GA", "street": "895 Woodstock Rd", "postal_code": "30075"}, "capProviderId": null, "distance": null, "has_offers": false, "name": "Steak 'n Shake", "longitude": -84.388327, "has_menu": true, "awards": null, "user_review_count": 0}, {"business_operation_status": 1, "rating": null, "neighborhood": null, "image": null, "scorecard": null, "featured": false, "sample_categories": "Restaurants", "public_id": "ghenghis-grill-atlanta", "id": 655830320, "votes": null, "tagline": null, "has_video": false, "website": "http://www.citysearch.com/profile/external/655830320/atlanta_ga/ghenghis_grill.html", "offers": null, "latitude": 33.929652, "politanName": "Atlanta, GA Metro ", "phone_number": "6785870050", "tags": [{"primary": true, "id": 1722, "name": "Restaurants"}], "fax_number": null, "expansion": {"count": null, "uri": null}, "impression_id": "000b0000003d0996b20b2749428ff3ce1ed250a36f", "profile": "http://www.citysearch.com/profile/655830320/atlanta_ga/ghenghis_grill.html", "address": {"city": "Atlanta", "state": "GA", "street": "1165 Perimeter Ctr W", "postal_code": "30338"}, "capProviderId": null, "distance": null, "has_offers": false, "name": "Ghenghis Grill", "longitude": -84.347706, "has_menu": false, "awards": null, "user_review_count": 0}, {"business_operation_status": 1, "rating": null, "neighborhood": null, "image": null, "scorecard": null, "featured": false, "sample_categories": "Restaurants", "public_id": "tequilas-lounge-marietta", "id": 620246084, "votes": null, "tagline": null, "has_video": false, "website": null, "offers": null, "latitude": 33.935771, "politanName": "Atlanta, GA Metro ", "phone_number": "6789036953", "tags": [{"primary": true, "id": 1722, "name": "Restaurants"}], "fax_number": null, "expansion": {"count": null, "uri": null}, "impression_id": "000b000000a668b5fc36f94c52b341206290c644f0", "profile": "http://www.citysearch.com/profile/620246084/marietta_ga/tequilas_lounge.html", "address": {"city": "Marietta", "state": "GA", "street": "677 Franklin Rd SE", "postal_code": "30067"}, "capProviderId": null, "distance": null, "has_offers": false, "name": "Tequilas Lounge", "longitude": -84.503662, "has_menu": false, "awards": null, "user_review_count": 0}, {"business_operation_status": 1, "rating": null, "neighborhood": null, "image": null, "scorecard": null, "featured": false, "sample_categories": "Restaurants, Bars & Clubs", "public_id": "peach-the-pork-chop-roswell", "id": 622457554, "votes": null, "tagline": null, "has_video": false, "website": "http://www.citysearch.com/profile/external/622457554/roswell_ga/peach_the_porkchop.html", "offers": null, "latitude": 34.073556, "politanName": "Atlanta, GA Metro ", "phone_number": "7706965409", "tags": [{"primary": false, "id": 164, "name": "Bars & Clubs"}, {"primary": true, "id": 1722, "name": "Restaurants"}], "fax_number": null, "expansion": {"count": null, "uri": null}, "impression_id": "000b0000004baef7968460466ead667850e8a1da5b", "profile": "http://www.citysearch.com/profile/622457554/roswell_ga/peach_the_porkchop.html", "address": {"city": "Roswell", "state": "GA", "street": "12040 Etris Rd D100", "postal_code": "30075"}, "capProviderId": null, "distance": null, "has_offers": false, "name": "Peach & the Porkchop", "longitude": -84.362707, "has_menu": false, "awards": null, "user_review_count": 0}, {"business_operation_status": 1, "rating": null, "neighborhood": null, "image": null, "scorecard": null, "featured": false, "sample_categories": "Restaurants", "public_id": "zuzzu-roswell", "id": 626968874, "votes": null, "tagline": null, "has_video": false, "website": null, "offers": null, "latitude": 34.02005, "politanName": "Atlanta, GA Metro ", "phone_number": "4049834589", "tags": [{"primary": true, "id": 1722, "name": "Restaurants"}], "fax_number": null, "expansion": {"count": null, "uri": null}, "impression_id": "000b00000004a750229d9942b894186ac400197ef2", "profile": "http://www.citysearch.com/profile/626968874/roswell_ga/zuzzu.html", "address": {"city": "Roswell", "state": "GA", "street": "42 Oak St B", "postal_code": "30075"}, "capProviderId": null, "distance": null, "has_offers": false, "name": "Zuzzu", "longitude": -84.360424, "has_menu": false, "awards": null, "user_review_count": 0}, {"business_operation_status": 1, "rating": null, "neighborhood": null, "image": null, "scorecard": null, "featured": false, "sample_categories": "Restaurants, Bistros", "public_id": "botekim-brazilian-bistro-marietta", "id": 713470640, "votes": null, "tagline": null, "has_video": false, "website": null, "offers": null, "latitude": 33.917966, "politanName": "Atlanta, GA Metro ", "phone_number": "6784026329", "tags": [{"primary": false, "id": 13690, "name": "Bistros"}, {"primary": true, "id": 1722, "name": "Restaurants"}], "fax_number": null, "expansion": {"count": null, "uri": null}, "impression_id": "000b00000010a0caffd4d7434ab2dbcecfd3f1745f", "profile": "http://www.citysearch.com/profile/713470640/marietta_ga/botekim_brazilian_bistro.html", "address": {"city": "Marietta", "state": "GA", "street": "1410 Terrell Mill Rd Se", "postal_code": "30067"}, "capProviderId": null, "distance": null, "has_offers": false, "name": "Botekim Brazilian Bistro", "longitude": -84.467707, "has_menu": false, "awards": null, "user_review_count": 0}, {"business_operation_status": 1, "rating": null, "neighborhood": null, "image": null, "scorecard": null, "featured": false, "sample_categories": "Restaurants, Mexican, Carry Out", "public_id": "taco-bell-marietta-9", "id": 713633170, "votes": null, "tagline": null, "has_video": false, "website": "http://www.citysearch.com/profile/external/713633170/marietta_ga/taco_bell.html", "offers": null, "latitude": 33.911069, "politanName": "Atlanta, GA Metro ", "phone_number": "7709512472", "tags": [{"primary": false, "id": 11208, "name": "Mexican"}, {"primary": false, "id": 11247, "name": "Carry Out"}, {"primary": true, "id": 1722, "name": "Restaurants"}], "fax_number": null, "expansion": {"count": null, "uri": null}, "impression_id": "000b0000000db3339d04674ac7b0b8bd7bb7aacaa9", "profile": "http://www.citysearch.com/profile/713633170/marietta_ga/taco_bell.html", "address": {"city": "Marietta", "state": "GA", "street": "1700 Cumberland Point Dr Se", "postal_code": "30067"}, "capProviderId": null, "distance": null, "has_offers": false, "name": "Taco Bell", "longitude": -84.491182, "has_menu": true, "awards": null, "user_review_count": 0}, {"business_operation_status": 1, "rating": null, "neighborhood": null, "image": null, "scorecard": null, "featured": false, "sample_categories": "Restaurants, Pizza", "public_id": "papa-carlos-new-york-pizza-roswell", "id": 728062430, "votes": null, "tagline": null, "has_video": false, "website": null, "offers": null, "latitude": 34.060624, "politanName": "Atlanta, GA Metro ", "phone_number": "6782085000", "tags": [{"primary": false, "id": 1722, "name": "Restaurants"}, {"primary": true, "id": 11299, "name": "Pizza"}], "fax_number": null, "expansion": {"count": null, "uri": null}, "impression_id": "000b0000006d6c9f04ca7740a286760203790dc5ef", "profile": "http://www.citysearch.com/profile/728062430/roswell_ga/papa_carlos_new_york_pizza.html", "address": {"city": "Roswell", "state": "GA", "street": "885 Woodstock Rd", "postal_code": "30075"}, "capProviderId": null, "distance": null, "has_offers": false, "name": "Papa Carlos New York Pizza", "longitude": -84.385879, "has_menu": false, "awards": null, "user_review_count": 0}, {"business_operation_status": 1, "rating": null, "neighborhood": null, "image": null, "scorecard": null, "featured": false, "sample_categories": "Restaurants, Mexican", "public_id": "el-vaquero-mexican-cantina-marietta", "id": 655802400, "votes": null, "tagline": null, "has_video": false, "website": null, "offers": null, "latitude": 33.953033, "politanName": "Atlanta, GA Metro ", "phone_number": "6787385431", "tags": [{"primary": false, "id": 11208, "name": "Mexican"}, {"primary": true, "id": 1722, "name": "Restaurants"}], "fax_number": null, "expansion": {"count": null, "uri": null}, "impression_id": "000b0000004d69074a63f740159c698c0557aadb87", "profile": "http://www.citysearch.com/profile/655802400/marietta_ga/el_vaquero_mexican_cantina.html", "address": {"city": "Marietta", "state": "GA", "street": "1000 Whitlock Ave Nw # 410", "postal_code": "30064"}, "capProviderId": null, "distance": null, "has_offers": false, "name": "El Vaquero Mexican Cantina", "longitude": -84.581202, "has_menu": false, "awards": null, "user_review_count": 0}, {"business_operation_status": 1, "rating": null, "neighborhood": null, "image": null, "scorecard": null, "featured": false, "sample_categories": "Restaurants", "public_id": "soba-asian-bistro-roswell", "id": 728114260, "votes": null, "tagline": null, "has_video": false, "website": null, "offers": null, "latitude": 34.053819, "politanName": "Atlanta, GA Metro ", "phone_number": "7709711888", "tags": [{"primary": true, "id": 1722, "name": "Restaurants"}], "fax_number": null, "expansion": {"count": null, "uri": null}, "impression_id": "000b000000d8cf54dbf1ad481d896fe056c9c181ff", "profile": "http://www.citysearch.com/profile/728114260/roswell_ga/soba_asian_bistro.html", "address": {"city": "Roswell", "state": "GA", "street": "1005 Grace Hill Dr", "postal_code": "30075"}, "capProviderId": null, "distance": null, "has_offers": false, "name": "Soba Asian Bistro", "longitude": -84.373112, "has_menu": false, "awards": null, "user_review_count": 0}, {"business_operation_status": 1, "rating": null, "neighborhood": null, "image": null, "scorecard": null, "featured": false, "sample_categories": "Restaurants, Barbecue Restaurants, Carry Out", "public_id": "wingstreet-roswell", "id": 728126140, "votes": null, "tagline": null, "has_video": false, "website": "http://www.citysearch.com/profile/external/728126140/roswell_ga/wingstreet.html", "offers": null, "latitude": 34.065697, "politanName": "Atlanta, GA Metro ", "phone_number": "4049929900", "tags": [{"primary": false, "id": 1724, "name": "Barbecue Restaurants"}, {"primary": false, "id": 11247, "name": "Carry Out"}, {"primary": true, "id": 1722, "name": "Restaurants"}], "fax_number": null, "expansion": {"count": null, "uri": null}, "impression_id": "000b00000032e5a1604d0e4e8f86d6d51b4e3d9d46", "profile": "http://www.citysearch.com/profile/728126140/roswell_ga/wingstreet.html", "address": {"city": "Roswell", "state": "GA", "street": "4750 Alabama Rd Ne", "postal_code": "30075"}, "capProviderId": null, "distance": null, "has_offers": false, "name": "Wingstreet", "longitude": -84.422792, "has_menu": true, "awards": null, "user_review_count": 0}, {"business_operation_status": 1, "rating": null, "neighborhood": null, "image": null, "scorecard": null, "featured": false, "sample_categories": "Restaurants", "public_id": "kani-house-roswell", "id": 764923300, "votes": null, "tagline": null, "has_video": false, "website": null, "offers": null, "latitude": 34.00537, "politanName": "Atlanta, GA Metro ", "phone_number": "6784618831", "tags": [{"primary": true, "id": 1722, "name": "Restaurants"}], "fax_number": null, "expansion": {"count": null, "uri": null}, "impression_id": "000b000000fd8a277cb70c45e8820f722f7ed566d2", "profile": "http://www.citysearch.com/profile/764923300/roswell_ga/kani_house.html", "address": {"city": "Roswell", "state": "GA", "street": "910 Marietta Hwy # 110", "postal_code": "30075"}, "capProviderId": null, "distance": null, "has_offers": false, "name": "Kani House", "longitude": -84.389755, "has_menu": true, "awards": null, "user_review_count": 0}, {"business_operation_status": 1, "rating": null, "neighborhood": null, "image": null, "scorecard": null, "featured": false, "sample_categories": "Coffeehouses, Coffee & Tea Shops, Restaurants", "public_id": "starbucks-marietta-10", "id": 621939860, "votes": null, "tagline": null, "has_video": false, "website": "http://www.citysearch.com/profile/external/621939860/marietta_ga/starbucks.html", "offers": null, "latitude": 33.971846, "politanName": "Atlanta, GA Metro ", "phone_number": "7707941443", "tags": [{"primary": false, "id": 1711, "name": "Coffee & Tea Shops"}, {"primary": false, "id": 1722, "name": "Restaurants"}, {"primary": true, "id": 1726, "name": "Coffeehouses"}], "fax_number": null, "expansion": {"count": null, "uri": null}, "impression_id": "000b0000001acd11cc2cca48bfbd418ac74e157980", "profile": "http://www.citysearch.com/profile/621939860/marietta_ga/starbucks.html", "address": {"city": "Marietta", "state": "GA", "street": "825 Church St Ne", "postal_code": "30060"}, "capProviderId": null, "distance": null, "has_offers": false, "name": "Starbucks", "longitude": -84.551204, "has_menu": true, "awards": null, "user_review_count": 0}, {"business_operation_status": 1, "rating": null, "neighborhood": null, "image": null, "scorecard": null, "featured": false, "sample_categories": "Health Food Stores, Health Food, Vitamins", "public_id": "bigtime-fitness-woodstock", "id": 608703960, "votes": null, "tagline": null, "has_video": false, "website": null, "offers": null, "latitude": 34.078336, "politanName": "Atlanta, GA Metro ", "phone_number": "7705914825", "tags": [{"primary": false, "id": 1716, "name": "Health Food Stores"}, {"primary": false, "id": 11164, "name": "Vitamins"}, {"primary": true, "id": 11200, "name": "Health Food"}], "fax_number": null, "expansion": {"count": null, "uri": null}, "impression_id": "000b000000baef7fcc9014463781db52e5925abdb9", "profile": "http://www.citysearch.com/profile/608703960/woodstock_ga/bigtime_fitness.html", "address": {"city": "Woodstock", "state": "GA", "street": "101 Westridge Ct,", "postal_code": "30180"}, "capProviderId": null, "distance": null, "has_offers": false, "name": "Bigtime Fitness", "longitude": -84.435647, "has_menu": false, "awards": null, "user_review_count": 0}, {"business_operation_status": 1, "rating": null, "neighborhood": null, "image": null, "scorecard": null, "featured": false, "sample_categories": "Restaurants", "public_id": "chopstix-chopsticks-roswell", "id": 609062844, "votes": null, "tagline": null, "has_video": false, "website": null, "offers": null, "latitude": 34.061475, "politanName": "Atlanta, GA Metro ", "phone_number": "7705181788", "tags": [{"primary": true, "id": 1722, "name": "Restaurants"}], "fax_number": null, "expansion": {"count": null, "uri": null}, "impression_id": "000b0000006bce638091404c5bb42baf9f7b40dea5", "profile": "http://www.citysearch.com/profile/609062844/roswell_ga/chopstix_chopsticks.html", "address": {"city": "Roswell", "state": "GA", "street": "4651 Woodstock Rd", "postal_code": "30075"}, "capProviderId": null, "distance": null, "has_offers": false, "name": "Chopstix Chopsticks", "longitude": -84.422074, "has_menu": false, "awards": null, "user_review_count": 0}, {"business_operation_status": 1, "rating": null, "neighborhood": null, "image": null, "scorecard": null, "featured": false, "sample_categories": "Delis And Delicatessens", "public_id": "kroger-deli-marietta-9", "id": 706041470, "votes": null, "tagline": null, "has_video": false, "website": null, "offers": null, "latitude": 34.025792, "politanName": "Atlanta, GA Metro ", "phone_number": "7706506673", "tags": [{"primary": true, "id": 1727, "name": "Delis And Delicatessens"}], "fax_number": null, "expansion": {"count": null, "uri": null}, "impression_id": "000b0000004894efae7df14438aa773623b006fd89", "profile": "http://www.citysearch.com/profile/706041470/marietta_ga/kroger_deli.html", "address": {"city": "Marietta", "state": "GA", "street": "3162 Johnson Ferry Rd # 300", "postal_code": "30062"}, "capProviderId": null, "distance": null, "has_offers": false, "name": "Kroger Deli", "longitude": -84.42248, "has_menu": false, "awards": null, "user_review_count": 0}, {"business_operation_status": 1, "rating": null, "neighborhood": null, "image": null, "scorecard": null, "featured": false, "sample_categories": "Restaurants, Pizza", "public_id": "stevi-bs-pizza-marietta-4", "id": 713518730, "votes": null, "tagline": null, "has_video": false, "website": null, "offers": null, "latitude": 34.015975, "politanName": "Atlanta, GA Metro ", "phone_number": "7704990155", "tags": [{"primary": false, "id": 11299, "name": "Pizza"}, {"primary": true, "id": 1722, "name": "Restaurants"}], "fax_number": null, "expansion": {"count": null, "uri": null}, "impression_id": "000b00000018c2b75f39df43dea72c57b869395c01", "profile": "http://www.citysearch.com/profile/713518730/marietta_ga/stevi_b_s_pizza.html", "address": {"city": "Marietta", "state": "GA", "street": "50 Ernest Barrett Pkwy NW", "postal_code": "30060"}, "capProviderId": null, "distance": null, "has_offers": false, "name": "Stevi B's Pizza", "longitude": -84.550996, "has_menu": false, "awards": null, "user_review_count": 0}, {"business_operation_status": 0, "rating": null, "neighborhood": null, "image": null, "scorecard": null, "featured": false, "sample_categories": "Restaurants", "public_id": "taste-5-roswell", "id": 732208210, "votes": null, "tagline": null, "has_video": false, "website": null, "offers": null, "latitude": 34.034454, "politanName": "Atlanta, GA Metro ", "phone_number": "6786828882", "tags": [{"primary": true, "id": 1722, "name": "Restaurants"}], "fax_number": null, "expansion": {"count": null, "uri": null}, "impression_id": "000b00000029ac4a2447254ef18c1d1df286b84c47", "profile": "http://www.citysearch.com/profile/732208210/roswell_ga/taste_5.html", "address": {"city": "Roswell", "state": "GA", "street": "10360 Alpharetta St", "postal_code": "30075"}, "capProviderId": null, "distance": null, "has_offers": false, "name": "Taste 5", "longitude": -84.347833, "has_menu": false, "awards": null, "user_review_count": 0}, {"business_operation_status": 1, "rating": null, "neighborhood": null, "image": null, "scorecard": null, "featured": false, "sample_categories": "Restaurants", "public_id": "taquito-express-marietta", "id": 619777844, "votes": null, "tagline": null, "has_video": false, "website": null, "offers": null, "latitude": 34.026887, "politanName": "Atlanta, GA Metro ", "phone_number": "6782052661", "tags": [{"primary": true, "id": 1722, "name": "Restaurants"}], "fax_number": null, "expansion": {"count": null, "uri": null}, "impression_id": "000b000000fd73cea713d44049b4fbfc738e4aa693", "profile": "http://www.citysearch.com/profile/619777844/marietta_ga/taquito_express.html", "address": {"city": "Marietta", "state": "GA", "street": "4324 Shallowford Rd", "postal_code": "30062"}, "capProviderId": null, "distance": null, "has_offers": false, "name": "Taquito Express", "longitude": -84.42441, "has_menu": false, "awards": null, "user_review_count": 0}, {"business_operation_status": 0, "rating": null, "neighborhood": null, "image": null, "scorecard": null, "featured": false, "sample_categories": "Restaurants, Barbecue Restaurants", "public_id": "georges-grill-barbecue-marietta", "id": 621879190, "votes": null, "tagline": null, "has_video": false, "website": null, "offers": null, "latitude": 33.997727, "politanName": "Atlanta, GA Metro ", "phone_number": "7704851099", "tags": [{"primary": false, "id": 1724, "name": "Barbecue Restaurants"}, {"primary": true, "id": 1722, "name": "Restaurants"}], "fax_number": null, "expansion": {"count": null, "uri": null}, "impression_id": "000b0000005e926b84050941d1ac5c5808a3bd5909", "profile": "http://www.citysearch.com/profile/621879190/marietta_ga/georges_grill_barbecue.html", "address": {"city": "Marietta", "state": "GA", "street": "1951 Canton Rd # 330", "postal_code": "30066"}, "capProviderId": null, "distance": null, "has_offers": false, "name": "Georges Grill & Barbecue", "longitude": -84.525055, "has_menu": false, "awards": null, "user_review_count": 0}, {"business_operation_status": 1, "rating": null, "neighborhood": null, "image": null, "scorecard": null, "featured": false, "sample_categories": "Restaurants, Mexican, American Express, Discover, MasterCard", "public_id": "el-serape-mexican-restaurant-roswell", "id": 742266390, "votes": null, "tagline": null, "has_video": false, "website": null, "offers": null, "latitude": 34.022435, "politanName": "Atlanta, GA Metro ", "phone_number": "7709986553", "tags": [{"primary": false, "id": 11208, "name": "Mexican"}, {"primary": false, "id": 11333, "name": "American Express"}, {"primary": false, "id": 11349, "name": "Discover"}, {"primary": false, "id": 11361, "name": "MasterCard"}, {"primary": false, "id": 11382, "name": "Visa"}, {"primary": true, "id": 1722, "name": "Restaurants"}], "fax_number": null, "expansion": {"count": null, "uri": null}, "impression_id": "000b0000009d3dbc8801644dbebb1ddc913aca0bc2", "profile": "http://www.citysearch.com/profile/742266390/roswell_ga/el_serape_mexican_restaurant.html", "address": {"city": "Roswell", "state": "GA", "street": "880 Atlanta St", "postal_code": "30075"}, "capProviderId": null, "distance": null, "has_offers": false, "name": "El Serape Mexican Restaurant", "longitude": -84.361867, "has_menu": true, "awards": null, "user_review_count": 5}, {"business_operation_status": 1, "rating": null, "neighborhood": null, "image": null, "scorecard": null, "featured": false, "sample_categories": "Restaurants", "public_id": "slate-table-tap-roswell", "id": 764863210, "votes": null, "tagline": null, "has_video": false, "website": null, "offers": null, "latitude": 34.029548, "politanName": "Atlanta, GA Metro ", "phone_number": "7706416641", "tags": [{"primary": true, "id": 1722, "name": "Restaurants"}], "fax_number": null, "expansion": {"count": null, "uri": null}, "impression_id": "000b000000c6503bce4625470782493468c4cfe55c", "profile": "http://www.citysearch.com/profile/764863210/roswell_ga/slate_table_tap.html", "address": {"city": "Roswell", "state": "GA", "street": "1132 Canton St", "postal_code": "30075"}, "capProviderId": null, "distance": null, "has_offers": false, "name": "Slate Table & Tap", "longitude": -84.361851, "has_menu": false, "awards": null, "user_review_count": 0}, {"business_operation_status": 1, "rating": null, "neighborhood": null, "image": null, "scorecard": null, "featured": false, "sample_categories": "Restaurants, Bars & Clubs, Bars & Pubs", "public_id": "nations-cafe-lounge-sandy", "id": 764900470, "votes": null, "tagline": null, "has_video": false, "website": null, "offers": null, "latitude": 33.981228, "politanName": "Atlanta, GA Metro ", "phone_number": "7706742333", "tags": [{"primary": false, "id": 164, "name": "Bars & Clubs"}, {"primary": false, "id": 1686, "name": "Bars & Pubs"}, {"primary": true, "id": 1722, "name": "Restaurants"}], "fax_number": null, "expansion": {"count": null, "uri": null}, "impression_id": "000b00000077cddf2842824d4fb634af5dac49c255", "profile": "http://www.citysearch.com/profile/764900470/sandy_springs_ga/nations_cafe_lounge.html", "address": {"city": "Sandy Springs", "state": "GA", "street": "8290 Roswell Rd # 400", "postal_code": "30350"}, "capProviderId": null, "distance": null, "has_offers": false, "name": "Nations Cafe & Lounge", "longitude": -84.351122, "has_menu": false, "awards": null, "user_review_count": 1}, {"business_operation_status": 1, "rating": null, "neighborhood": null, "image": null, "scorecard": null, "featured": false, "sample_categories": "Restaurants, Delis And Delicatessens, Sandwich Shops, Carry Out", "public_id": "subway-sandwiches-salads-marietta", "id": 764919100, "votes": null, "tagline": null, "has_video": false, "website": "http://www.citysearch.com/profile/external/764919100/marietta_ga/subway_sandwiches_salads.html", "offers": null, "latitude": 33.949333, "politanName": "Atlanta, GA Metro ", "phone_number": "7704225412", "tags": [{"primary": false, "id": 1727, "name": "Delis And Delicatessens"}, {"primary": false, "id": 1736, "name": "Sandwich Shops"}, {"primary": false, "id": 11247, "name": "Carry Out"}, {"primary": true, "id": 1722, "name": "Restaurants"}], "fax_number": null, "expansion": {"count": null, "uri": null}, "impression_id": "000b0000000723c348011349f0b579052948a54f5a", "profile": "http://www.citysearch.com/profile/764919100/marietta_ga/subway_sandwiches_salads.html", "address": {"city": "Marietta", "state": "GA", "street": "85 S Marietta Pkwy SW", "postal_code": "30064"}, "capProviderId": null, "distance": null, "has_offers": false, "name": "Subway Sandwiches & Salads", "longitude": -84.550502, "has_menu": false, "awards": null, "user_review_count": 0}, {"business_operation_status": 1, "rating": null, "neighborhood": null, "image": null, "scorecard": null, "featured": false, "sample_categories": "Restaurants, Pizza, Carry Out", "public_id": "cicis-pizza-atlanta-2", "id": 713461570, "votes": null, "tagline": null, "has_video": false, "website": "http://www.citysearch.com/profile/external/713461570/atlanta_ga/cici_s_pizza.html", "offers": null, "latitude": 34.054243, "politanName": "Atlanta, GA Metro ", "phone_number": "7705520505", "tags": [{"primary": false, "id": 1722, "name": "Restaurants"}, {"primary": false, "id": 11247, "name": "Carry Out"}, {"primary": true, "id": 11299, "name": "Pizza"}], "fax_number": null, "expansion": {"count": null, "uri": null}, "impression_id": "000b0000008cf600df63fc4e4cbce1b2bbb90120ca", "profile": "http://www.citysearch.com/profile/713461570/atlanta_ga/cici_s_pizza.html", "address": {"city": "Atlanta", "state": "GA", "street": "580 W Crossville Rd", "postal_code": "30303"}, "capProviderId": null, "distance": null, "has_offers": false, "name": "Cici's Pizza", "longitude": -84.378213, "has_menu": false, "awards": null, "user_review_count": 0}, {"business_operation_status": 1, "rating": null, "neighborhood": null, "image": null, "scorecard": null, "featured": false, "sample_categories": "Restaurants, Mexican", "public_id": "las-toras-mex-marietta", "id": 713611870, "votes": null, "tagline": null, "has_video": false, "website": null, "offers": null, "latitude": 33.927554, "politanName": "Atlanta, GA Metro ", "phone_number": "7705149394", "tags": [{"primary": false, "id": 11208, "name": "Mexican"}, {"primary": true, "id": 1722, "name": "Restaurants"}], "fax_number": null, "expansion": {"count": null, "uri": null}, "impression_id": "000b000000445849570fa9430d808521b15b668f72", "profile": "http://www.citysearch.com/profile/713611870/marietta_ga/las_toras_mex.html", "address": {"city": "Marietta", "state": "GA", "street": "1038 Franklin Rd Se", "postal_code": "30067"}, "capProviderId": null, "distance": null, "has_offers": false, "name": "Las Toras Mex", "longitude": -84.493666, "has_menu": false, "awards": null, "user_review_count": 0}, {"business_operation_status": 1, "rating": null, "neighborhood": null, "image": null, "scorecard": null, "featured": false, "sample_categories": "Restaurants, Mexican", "public_id": "mi-rancho-mexican-restaurant-marietta", "id": 655842120, "votes": null, "tagline": null, "has_video": false, "website": null, "offers": null, "latitude": 33.933889, "politanName": "Atlanta, GA Metro ", "phone_number": "7707940330", "tags": [{"primary": false, "id": 11208, "name": "Mexican"}, {"primary": true, "id": 1722, "name": "Restaurants"}], "fax_number": null, "expansion": {"count": null, "uri": null}, "impression_id": "000b0000000722362c97804e6699996df88dd85ec0", "profile": "http://www.citysearch.com/profile/655842120/marietta_ga/mi_rancho_mexican_restaurant.html", "address": {"city": "Marietta", "state": "GA", "street": "760 Sandtown Rd Sw", "postal_code": "30008"}, "capProviderId": null, "distance": null, "has_offers": false, "name": "Mi Rancho Mexican Restaurant", "longitude": -84.555648, "has_menu": false, "awards": null, "user_review_count": 0}, {"business_operation_status": 1, "rating": null, "neighborhood": null, "image": null, "scorecard": null, "featured": false, "sample_categories": "Restaurants, Food Delivery, Online Reservations", "public_id": "saebass-kitchen-atlanta", "id": 771680680, "votes": null, "tagline": null, "has_video": false, "website": "http://www.citysearch.com/profile/external/771680680/atlanta_ga/seabass_kitchen.html", "offers": null, "latitude": 33.92312, "politanName": "Atlanta, GA Metro ", "phone_number": "4047058880", "tags": [{"primary": false, "id": 11267, "name": "Food Delivery"}, {"primary": false, "id": 11295, "name": "Online Reservations"}, {"primary": true, "id": 1722, "name": "Restaurants"}], "fax_number": null, "expansion": {"count": null, "uri": null}, "impression_id": "000b0000009e8e718873a3438f872a3f57f99af361", "profile": "http://www.citysearch.com/profile/771680680/atlanta_ga/seabass_kitchen.html", "address": {"city": "Atlanta", "state": "GA", "street": "6152 Roswell Rd", "postal_code": "30328"}, "capProviderId": null, "distance": null, "has_offers": false, "name": "SeaBass Kitchen", "longitude": -84.379493, "has_menu": false, "awards": null, "user_review_count": 0}, {"business_operation_status": 1, "rating": null, "neighborhood": null, "image": null, "scorecard": null, "featured": false, "sample_categories": "Restaurants", "public_id": "las-drisas-marietta", "id": 728109250, "votes": null, "tagline": null, "has_video": false, "website": null, "offers": null, "latitude": 33.935213, "politanName": "Atlanta, GA Metro ", "phone_number": "6783542220", "tags": [{"primary": true, "id": 1722, "name": "Restaurants"}], "fax_number": null, "expansion": {"count": null, "uri": null}, "impression_id": "000b00000037e5c5b6dcc147ceaf594361fa7e8674", "profile": "http://www.citysearch.com/profile/728109250/marietta_ga/las_drisas.html", "address": {"city": "Marietta", "state": "GA", "street": "715 Sandtown Rd Sw", "postal_code": "30008"}, "capProviderId": null, "distance": null, "has_offers": false, "name": "Las Drisas", "longitude": -84.555821, "has_menu": false, "awards": null, "user_review_count": 0}, {"business_operation_status": 1, "rating": null, "neighborhood": null, "image": null, "scorecard": null, "featured": false, "sample_categories": "Catering, Restaurants", "public_id": "paisanos-catering-marietta", "id": 2908338, "votes": null, "tagline": null, "has_video": false, "website": "http://www.citysearch.com/profile/external/2908338/marietta_ga/paisanos_catering.html", "offers": null, "latitude": 34.030179, "politanName": "Atlanta, GA Metro ", "phone_number": "7709987488", "tags": [{"primary": false, "id": 1722, "name": "Restaurants"}, {"primary": true, "id": 1705, "name": "Catering"}], "fax_number": null, "expansion": {"count": null, "uri": null}, "impression_id": "000b000000980e97ef7f7344219fd06bb969c17652", "profile": "http://www.citysearch.com/profile/2908338/marietta_ga/paisanos_catering.html", "address": {"city": "Marietta", "state": "GA", "street": "3205 Canton Rd Ste 106", "postal_code": "30066"}, "capProviderId": null, "distance": null, "has_offers": false, "name": "Paisanos Catering", "longitude": -84.528473, "has_menu": false, "awards": null, "user_review_count": 0}, {"business_operation_status": 1, "rating": null, "neighborhood": null, "image": null, "scorecard": null, "featured": false, "sample_categories": "Restaurants", "public_id": "daily-bread-cafe-marietta", "id": 787129630, "votes": null, "tagline": null, "has_video": false, "website": null, "offers": null, "latitude": 33.964179, "politanName": "Atlanta, GA Metro ", "phone_number": "7704237288", "tags": [{"primary": true, "id": 1722, "name": "Restaurants"}], "fax_number": null, "expansion": {"count": null, "uri": null}, "impression_id": "000b00000035aa22b4d5ba4412bc0de423bc4ecb74", "profile": "http://www.citysearch.com/profile/787129630/marietta_ga/daily_bread_cafe.html", "address": {"city": "Marietta", "state": "GA", "street": "531 Roselane St NW", "postal_code": "30060"}, "capProviderId": null, "distance": null, "has_offers": false, "name": "Daily Bread Cafe", "longitude": -84.556876, "has_menu": false, "awards": null, "user_review_count": 0}], "histograms": [], "tag_ids": [1722], "uri": "http://api.citygridmedia.com:8080/search/places/v2/search/where?has_offers=false&type=restaurant&format=json&page=21&where=30068&rpp=50&histograms=false&publisher=10000009598&region_type=circle", "did_you_mean": "", "regions": [{"latitude": 33.967813, "default_radius": 3.91, "type": "postal_code", "name": "30068", "longitude": -84.433422}], "call_id": "000b000000bbc65bdcdf0845699b75d57576a036ac", "first_hit": 1001, "total_hits": 2028, "geo_ids": [26296], "page": 21, "last_hit": 1050}}