{"results": {"rpp": 50, "locations": [{"business_operation_status": 1, "rating": null, "neighborhood": null, "image": null, "scorecard": null, "featured": false, "sample_categories": "Ice Cream Parlors, Frozen Yogurt Shops", "public_id": "baskinrobbins-marietta-3", "id": 627672950, "votes": null, "tagline": null, "has_video": false, "website": "http://www.citysearch.com/profile/external/627672950/marietta_ga/baskin_robbins.html", "offers": null, "latitude": 33.942999, "politanName": "Atlanta, GA Metro ", "phone_number": "7704235947", "tags": [{"primary": false, "id": 1729, "name": "Frozen Yogurt Shops"}, {"primary": true, "id": 1730, "name": "Ice Cream Parlors"}], "fax_number": null, "expansion": {"count": null, "uri": null}, "impression_id": "000b000000b73e41dd94374cf696549f469fcb1cfc", "profile": "http://www.citysearch.com/profile/627672950/marietta_ga/baskin_robbins.html", "address": {"city": "Marietta", "state": "GA", "street": "670 S Marietta Pkwy Se", "postal_code": "30060"}, "capProviderId": null, "distance": null, "has_offers": false, "name": "Baskin-Robbins", "longitude": -84.533601, "has_menu": true, "awards": null, "user_review_count": 0}, {"business_operation_status": 1, "rating": null, "neighborhood": null, "image": null, "scorecard": null, "featured": false, "sample_categories": "Restaurants, Delis And Delicatessens, Sandwich Shops, Carry Out, Food Delivery", "public_id": "subway-kennesaw-9", "id": 764838880, "votes": null, "tagline": null, "has_video": false, "website": "http://www.citysearch.com/profile/external/764838880/kennesaw_ga/subway.html", "offers": null, "latitude": 33.992719, "politanName": "Atlanta, GA Metro ", "phone_number": "6783248948", "tags": [{"primary": false, "id": 1727, "name": "Delis And Delicatessens"}, {"primary": false, "id": 1736, "name": "Sandwich Shops"}, {"primary": false, "id": 11247, "name": "Carry Out"}, {"primary": false, "id": 11267, "name": "Food Delivery"}, {"primary": true, "id": 1722, "name": "Restaurants"}], "fax_number": null, "expansion": {"count": null, "uri": null}, "impression_id": "000b0000006bb62b6c3af24ddfafd056bc171605d0", "profile": "http://www.citysearch.com/profile/764838880/kennesaw_ga/subway.html", "address": {"city": "Kennesaw", "state": "GA", "street": "1600 Kennesaw Due West Rd NW", "postal_code": "30152"}, "capProviderId": null, "distance": null, "has_offers": false, "name": "SUBWAY", "longitude": -84.627117, "has_menu": false, "awards": null, "user_review_count": 0}, {"business_operation_status": 0, "rating": null, "neighborhood": null, "image": null, "scorecard": null, "featured": false, "sample_categories": "Restaurants, Bars & Pubs, Pizza", "public_id": "freelands-pizza-pub-roswell", "id": 764917980, "votes": null, "tagline": null, "has_video": false, "website": null, "offers": null, "latitude": 34.028365, "politanName": "Atlanta, GA Metro ", "phone_number": "7705948765", "tags": [{"primary": false, "id": 1686, "name": "Bars & Pubs"}, {"primary": false, "id": 11299, "name": "Pizza"}, {"primary": true, "id": 1722, "name": "Restaurants"}], "fax_number": null, "expansion": {"count": null, "uri": null}, "impression_id": "000b000000183d04305103493d9989828b94ab136f", "profile": "http://www.citysearch.com/profile/764917980/roswell_ga/freelands_pizza_pub.html", "address": {"city": "Roswell", "state": "GA", "street": "1090 Alpharetta St", "postal_code": "30075"}, "capProviderId": null, "distance": null, "has_offers": false, "name": "Freelands Pizza & Pub", "longitude": -84.358404, "has_menu": true, "awards": null, "user_review_count": 0}, {"business_operation_status": 1, "rating": null, "neighborhood": null, "image": null, "scorecard": null, "featured": false, "sample_categories": "Restaurants, Bars & Clubs, Bars & Pubs", "public_id": "marlows-tavern-marietta", "id": 655819590, "votes": null, "tagline": null, "has_video": false, "website": "http://www.citysearch.com/profile/external/655819590/marietta_ga/marlow_s_tavern.html", "offers": null, "latitude": 33.980091, "politanName": "Atlanta, GA Metro ", "phone_number": "7709777747", "tags": [{"primary": false, "id": 164, "name": "Bars & Clubs"}, {"primary": false, "id": 1686, "name": "Bars & Pubs"}, {"primary": true, "id": 1722, "name": "Restaurants"}], "fax_number": null, "expansion": {"count": null, "uri": null}, "impression_id": "000b0000006b01c4a6101e4309bf980cfe57633749", "profile": "http://www.citysearch.com/profile/655819590/marietta_ga/marlow_s_tavern.html", "address": {"city": "Marietta", "state": "GA", "street": "1311 Johnson Ferry Rd", "postal_code": "30068"}, "capProviderId": null, "distance": null, "has_offers": false, "name": "Marlow's Tavern", "longitude": -84.428346, "has_menu": false, "awards": null, "user_review_count": 0}, {"business_operation_status": 1, "rating": null, "neighborhood": null, "image": null, "scorecard": null, "featured": false, "sample_categories": "Restaurants, Mexican", "public_id": "taqueria-san-pancho-roswell", "id": 777678110, "votes": null, "tagline": null, "has_video": false, "website": null, "offers": null, "latitude": 34.034238, "politanName": "Atlanta, GA Metro ", "phone_number": "7705521155", "tags": [{"primary": false, "id": 11208, "name": "Mexican"}, {"primary": true, "id": 1722, "name": "Restaurants"}], "fax_number": null, "expansion": {"count": null, "uri": null}, "impression_id": "000b000000558dc9f44c5a4cd7b997f254ec336cc3", "profile": "http://www.citysearch.com/profile/777678110/roswell_ga/taqueria_san_pancho.html", "address": {"city": "Roswell", "state": "GA", "street": "10479 Alpharetta St", "postal_code": "30075"}, "capProviderId": null, "distance": null, "has_offers": false, "name": "Taqueria San Pancho", "longitude": -84.345527, "has_menu": false, "awards": null, "user_review_count": 0}, {"business_operation_status": 1, "rating": null, "neighborhood": null, "image": null, "scorecard": null, "featured": false, "sample_categories": "Restaurants, Delis And Delicatessens, Carry Out, Pizza, Shop Online", "public_id": "jimmy-johns-marietta-2", "id": 682359830, "votes": null, "tagline": null, "has_video": false, "website": "http://www.citysearch.com/profile/external/682359830/marietta_ga/jimmy_john_s.html", "offers": null, "latitude": 33.971846, "politanName": "Atlanta, GA Metro ", "phone_number": "6785814550", "tags": [{"primary": false, "id": 1727, "name": "Delis And Delicatessens"}, {"primary": false, "id": 11247, "name": "Carry Out"}, {"primary": false, "id": 11299, "name": "Pizza"}, {"primary": false, "id": 11375, "name": "Shop Online"}, {"primary": true, "id": 1722, "name": "Restaurants"}], "fax_number": null, "expansion": {"count": null, "uri": null}, "impression_id": "000b000000af3eadbd2eb740569c36a73378dd87bb", "profile": "http://www.citysearch.com/profile/682359830/marietta_ga/jimmy_john_s.html", "address": {"city": "Marietta", "state": "GA", "street": "825 Church St Ne", "postal_code": "30060"}, "capProviderId": null, "distance": null, "has_offers": false, "name": "Jimmy John's", "longitude": -84.551204, "has_menu": false, "awards": null, "user_review_count": 0}, {"business_operation_status": 1, "rating": null, "neighborhood": null, "image": null, "scorecard": null, "featured": false, "sample_categories": "Restaurants, Delis And Delicatessens, Carry Out, American Express, Debit Card", "public_id": "panera-bread-kennesaw-2", "id": 779662590, "votes": null, "tagline": null, "has_video": false, "website": "http://www.citysearch.com/profile/external/779662590/kennesaw_ga/panera_bread.html", "offers": null, "latitude": 34.003608, "politanName": "Atlanta, GA Metro ", "phone_number": "7707992750", "tags": [{"primary": false, "id": 1727, "name": "Delis And Delicatessens"}, {"primary": false, "id": 11247, "name": "Carry Out"}, {"primary": false, "id": 11333, "name": "American Express"}, {"primary": false, "id": 11347, "name": "Debit Card"}, {"primary": false, "id": 11349, "name": "Discover"}, {"primary": false, "id": 11361, "name": "MasterCard"}, {"primary": false, "id": 11382, "name": "Visa"}, {"primary": true, "id": 1722, "name": "Restaurants"}], "fax_number": null, "expansion": {"count": null, "uri": null}, "impression_id": "000b000000686b08410a5e49069839976f7e8ec218", "profile": "http://www.citysearch.com/profile/779662590/kennesaw_ga/panera_bread.html", "address": {"city": "Kennesaw", "state": "GA", "street": "964 Ernest W Barrett Pkwy NW", "postal_code": "30144"}, "capProviderId": null, "distance": null, "has_offers": false, "name": "Panera Bread", "longitude": -84.580197, "has_menu": false, "awards": null, "user_review_count": 0}, {"business_operation_status": 1, "rating": null, "neighborhood": null, "image": null, "scorecard": null, "featured": false, "sample_categories": "Ice Cream Parlors", "public_id": "brusters-real-ice-cream-woodstock-3", "id": 697071590, "votes": null, "tagline": null, "has_video": false, "website": "http://www.citysearch.com/profile/external/697071590/woodstock_ga/bruster_s_real_ice_cream.html", "offers": null, "latitude": 34.168883, "politanName": "Atlanta, GA Metro ", "phone_number": "7707202868", "tags": [{"primary": true, "id": 1730, "name": "Ice Cream Parlors"}], "fax_number": null, "expansion": {"count": null, "uri": null}, "impression_id": "000b000000aef2546cbe55491ba546ba6b4fb8d521", "profile": "http://www.citysearch.com/profile/697071590/woodstock_ga/bruster_s_real_ice_cream.html", "address": {"city": "Woodstock", "state": "GA", "street": "6870 Hickory Rd", "postal_code": "30188"}, "capProviderId": null, "distance": null, "has_offers": false, "name": "Bruster's Real Ice Cream", "longitude": -84.415286, "has_menu": false, "awards": null, "user_review_count": 0}, {"business_operation_status": 1, "rating": null, "neighborhood": null, "image": null, "scorecard": null, "featured": false, "sample_categories": "Restaurants", "public_id": "loya-soriano-llc-marietta", "id": 790674770, "votes": null, "tagline": null, "has_video": false, "website": null, "offers": null, "latitude": 33.904705, "politanName": "Atlanta, GA Metro ", "phone_number": "7704348888", "tags": [{"primary": true, "id": 1722, "name": "Restaurants"}], "fax_number": null, "expansion": {"count": null, "uri": null}, "impression_id": "000b0000008e39cb7af8284d3f9b9b09c6d6361efe", "profile": "http://www.citysearch.com/profile/790674770/marietta_ga/loya_soriano_llc.html", "address": {"city": "Marietta", "state": "GA", "street": "2359 Windy Hill Rd Se # 340", "postal_code": "30067"}, "capProviderId": null, "distance": null, "has_offers": false, "name": "Loya Soriano LLC", "longitude": -84.484545, "has_menu": false, "awards": null, "user_review_count": 0}, {"business_operation_status": 1, "rating": null, "neighborhood": null, "image": null, "scorecard": null, "featured": false, "sample_categories": "Restaurants, Catering", "public_id": "corner-cafe-atlanta-3", "id": 790747850, "votes": null, "tagline": null, "has_video": false, "website": null, "offers": null, "latitude": 33.909561, "politanName": "Atlanta, GA Metro ", "phone_number": "7705410057", "tags": [{"primary": false, "id": 1705, "name": "Catering"}, {"primary": true, "id": 1722, "name": "Restaurants"}], "fax_number": null, "expansion": {"count": null, "uri": null}, "impression_id": "000b0000001961a9faf713411e9ab1a1269269f432", "profile": "http://www.citysearch.com/profile/790747850/atlanta_ga/corner_cafe.html", "address": {"city": "Atlanta", "state": "GA", "street": "2100 Riveredge Pkwy # C1", "postal_code": "30328"}, "capProviderId": null, "distance": null, "has_offers": false, "name": "Corner Cafe", "longitude": -84.44041, "has_menu": true, "awards": null, "user_review_count": 0}, {"business_operation_status": 1, "rating": null, "neighborhood": null, "image": null, "scorecard": null, "featured": false, "sample_categories": "Restaurants", "public_id": "juiceplus-virtual-franchise-marietta", "id": 807686480, "votes": null, "tagline": null, "has_video": false, "website": null, "offers": null, "latitude": 34.069239, "politanName": "Atlanta, GA Metro ", "phone_number": "7709246861", "tags": [{"primary": true, "id": 1722, "name": "Restaurants"}], "fax_number": null, "expansion": {"count": null, "uri": null}, "impression_id": "000b000000ec57519a75ad4f329f5eff1f6b081fa8", "profile": "http://www.citysearch.com/profile/807686480/marietta_ga/juiceplus_virtual_franchise.html", "address": {"city": "Marietta", "state": "GA", "street": "4953 Turtle Trce NE", "postal_code": "30066"}, "capProviderId": null, "distance": null, "has_offers": false, "name": "Juiceplus Virtual Franchise", "longitude": -84.484219, "has_menu": false, "awards": null, "user_review_count": 0}, {"business_operation_status": 1, "rating": null, "neighborhood": null, "image": null, "scorecard": null, "featured": false, "sample_categories": "Restaurants", "public_id": "sahara-roswell", "id": 821070130, "votes": null, "tagline": null, "has_video": false, "website": null, "offers": null, "latitude": 34.054748, "politanName": "Atlanta, GA Metro ", "phone_number": "7705948463", "tags": [{"primary": true, "id": 1722, "name": "Restaurants"}], "fax_number": null, "expansion": {"count": null, "uri": null}, "impression_id": "000b000000a1a0ea611a2046368df9f34c4a6c77b0", "profile": "http://www.citysearch.com/profile/821070130/roswell_ga/sahara.html", "address": {"city": "Roswell", "state": "GA", "street": "550 W Crossville Rd # 102", "postal_code": "30075"}, "capProviderId": null, "distance": null, "has_offers": false, "name": "Sahara", "longitude": -84.376872, "has_menu": false, "awards": null, "user_review_count": 0}, {"business_operation_status": 1, "rating": null, "neighborhood": null, "image": null, "scorecard": null, "featured": false, "sample_categories": "Restaurants, Barbecue Restaurants", "public_id": "j-buffalo-wings-roswell", "id": 713510220, "votes": null, "tagline": null, "has_video": false, "website": "http://www.citysearch.com/profile/external/713510220/roswell_ga/j_buffalo_wings.html", "offers": null, "latitude": 34.042165, "politanName": "Atlanta, GA Metro ", "phone_number": "6787950288", "tags": [{"primary": false, "id": 1724, "name": "Barbecue Restaurants"}, {"primary": true, "id": 1722, "name": "Restaurants"}], "fax_number": null, "expansion": {"count": null, "uri": null}, "impression_id": "000b000000e67f354e28c4428d8cd1b99cb6e6ad63", "profile": "http://www.citysearch.com/profile/713510220/roswell_ga/j_buffalo_wings.html", "address": {"city": "Roswell", "state": "GA", "street": "10779 Alpharetta Hwy", "postal_code": "30076"}, "capProviderId": null, "distance": null, "has_offers": false, "name": "J Buffalo Wings", "longitude": -84.339846, "has_menu": false, "awards": null, "user_review_count": 0}, {"business_operation_status": 1, "rating": null, "neighborhood": null, "image": null, "scorecard": null, "featured": false, "sample_categories": "Coffeehouses", "public_id": "java-juice-smoothie-co-kennesaw", "id": 807031020, "votes": null, "tagline": null, "has_video": false, "website": null, "offers": null, "latitude": 34.010391, "politanName": "Atlanta, GA Metro ", "phone_number": "7704999306", "tags": [{"primary": true, "id": 1726, "name": "Coffeehouses"}], "fax_number": null, "expansion": {"count": null, "uri": null}, "impression_id": "000b0000008f1850f97d324e098da6f647a1dfbccc", "profile": "http://www.citysearch.com/profile/807031020/kennesaw_ga/java_juice_smoothie_co.html", "address": {"city": "Kennesaw", "state": "GA", "street": "501 Roberts CT NW", "postal_code": "30144"}, "capProviderId": null, "distance": null, "has_offers": false, "name": "Java & Juice Smoothie Co", "longitude": -84.563237, "has_menu": false, "awards": null, "user_review_count": 0}, {"business_operation_status": 1, "rating": null, "neighborhood": null, "image": null, "scorecard": null, "featured": false, "sample_categories": "Restaurants", "public_id": "cancun-seafood-restaurant-smyrna", "id": 807595980, "votes": null, "tagline": null, "has_video": false, "website": null, "offers": null, "latitude": 33.894868, "politanName": "Atlanta, GA Metro ", "phone_number": "7704360565", "tags": [{"primary": true, "id": 1722, "name": "Restaurants"}], "fax_number": null, "expansion": {"count": null, "uri": null}, "impression_id": "000b000000c1da8a3839f649d894e83cf05c5a8356", "profile": "http://www.citysearch.com/profile/807595980/smyrna_ga/cancun_seafood_restaurant.html", "address": {"city": "Smyrna", "state": "GA", "street": "1005 Windy Hill Rd SE", "postal_code": "30080"}, "capProviderId": null, "distance": null, "has_offers": false, "name": "Cancun Seafood Restaurant", "longitude": -84.523746, "has_menu": false, "awards": null, "user_review_count": 0}, {"business_operation_status": 1, "rating": null, "neighborhood": null, "image": null, "scorecard": null, "featured": false, "sample_categories": "Restaurants, Carry Out", "public_id": "atlanta-bread-co-marietta-4", "id": 825753830, "votes": null, "tagline": null, "has_video": false, "website": null, "offers": null, "latitude": 33.948083, "politanName": "Atlanta, GA Metro ", "phone_number": "7704250442", "tags": [{"primary": false, "id": 11247, "name": "Carry Out"}, {"primary": true, "id": 1722, "name": "Restaurants"}], "fax_number": null, "expansion": {"count": null, "uri": null}, "impression_id": "000b000000cc459f948ffd419d9aa13a7e80a79183", "profile": "http://www.citysearch.com/profile/825753830/marietta_ga/atlanta_bread_co.html", "address": {"city": "Marietta", "state": "GA", "street": "245 Rdgeway Rd NW Ste 200", "postal_code": "30064"}, "capProviderId": null, "distance": null, "has_offers": false, "name": "Atlanta Bread Co", "longitude": -84.626672, "has_menu": false, "awards": null, "user_review_count": 0}, {"business_operation_status": 1, "rating": null, "neighborhood": null, "image": null, "scorecard": null, "featured": false, "sample_categories": "Restaurants", "public_id": "taqueria-tecolotes-marietta", "id": 826288150, "votes": null, "tagline": null, "has_video": false, "website": null, "offers": null, "latitude": 34.048278, "politanName": "Atlanta, GA Metro ", "phone_number": "7705921277", "tags": [{"primary": true, "id": 1722, "name": "Restaurants"}], "fax_number": null, "expansion": {"count": null, "uri": null}, "impression_id": "000b0000000fabe9b9fc354e04b17641418adaa325", "profile": "http://www.citysearch.com/profile/826288150/marietta_ga/taqueria_tecolotes.html", "address": {"city": "Marietta", "state": "GA", "street": "4017 Canton Rd", "postal_code": "30066"}, "capProviderId": null, "distance": null, "has_offers": false, "name": "Taqueria Tecolotes", "longitude": -84.52851, "has_menu": false, "awards": null, "user_review_count": 0}, {"business_operation_status": 1, "rating": null, "neighborhood": null, "image": null, "scorecard": null, "featured": false, "sample_categories": "Coffeehouses", "public_id": "common-ground-coffee-house-inc-canton", "id": 828846670, "votes": null, "tagline": null, "has_video": false, "website": null, "offers": null, "latitude": 34.175577, "politanName": "Atlanta, GA Metro ", "phone_number": "7703454146", "tags": [{"primary": true, "id": 1726, "name": "Coffeehouses"}], "fax_number": null, "expansion": {"count": null, "uri": null}, "impression_id": "000b000000fae0507f055b4271be92c4750bd723b8", "profile": "http://www.citysearch.com/profile/828846670/canton_ga/common_ground_coffee_house_inc.html", "address": {"city": "Canton", "state": "GA", "street": "6124 Hickory Flat Hwy", "postal_code": "30115"}, "capProviderId": null, "distance": null, "has_offers": false, "name": "Common Ground Coffee House Inc", "longitude": -84.419107, "has_menu": false, "awards": null, "user_review_count": 0}, {"business_operation_status": 1, "rating": null, "neighborhood": null, "image": null, "scorecard": null, "featured": false, "sample_categories": "Barbecue Restaurants", "public_id": "sherrods-barbeque-seafood-marietta", "id": 830343550, "votes": null, "tagline": null, "has_video": false, "website": null, "offers": null, "latitude": 33.963728, "politanName": "Atlanta, GA Metro ", "phone_number": "7704286604", "tags": [{"primary": true, "id": 1724, "name": "Barbecue Restaurants"}], "fax_number": null, "expansion": {"count": null, "uri": null}, "impression_id": "000b0000003e303e2d862d4f2bb45216f816ecb310", "profile": "http://www.citysearch.com/profile/830343550/marietta_ga/sherrods_barbeque_seafood.html", "address": {"city": "Marietta", "state": "GA", "street": "601 Parkaire Xing", "postal_code": "30068"}, "capProviderId": null, "distance": null, "has_offers": false, "name": "Sherrods Barbeque & Seafood", "longitude": -84.40402, "has_menu": false, "awards": null, "user_review_count": 0}, {"business_operation_status": 1, "rating": null, "neighborhood": null, "image": null, "scorecard": null, "featured": false, "sample_categories": "Restaurants", "public_id": "philly-connection-marietta-5", "id": 833997530, "votes": null, "tagline": null, "has_video": false, "website": null, "offers": null, "latitude": 34.037983, "politanName": "Atlanta, GA Metro ", "phone_number": "7709263120", "tags": [{"primary": true, "id": 1722, "name": "Restaurants"}], "fax_number": null, "expansion": {"count": null, "uri": null}, "impression_id": "000b000000ef53cf521c724f97b9885e1313a3d08a", "profile": "http://www.citysearch.com/profile/833997530/marietta_ga/philly_connection.html", "address": {"city": "Marietta", "state": "GA", "street": "3545 Canton Rd", "postal_code": "30066"}, "capProviderId": null, "distance": null, "has_offers": false, "name": "Philly Connection", "longitude": -84.528616, "has_menu": true, "awards": null, "user_review_count": 0}, {"business_operation_status": 1, "rating": null, "neighborhood": null, "image": null, "scorecard": null, "featured": false, "sample_categories": "Restaurants, Italian", "public_id": "mirko-pasta-atlanta-2", "id": 768805320, "votes": null, "tagline": null, "has_video": false, "website": null, "offers": null, "latitude": 33.99151, "politanName": "Atlanta, GA Metro ", "phone_number": "7709929002", "tags": [{"primary": false, "id": 11279, "name": "Italian"}, {"primary": true, "id": 1722, "name": "Restaurants"}], "fax_number": null, "expansion": {"count": null, "uri": null}, "impression_id": "000b0000003f15946bbb5d4f2c97aac5e54b8a4ceb", "profile": "http://www.citysearch.com/profile/768805320/atlanta_ga/mirko_pasta.html", "address": {"city": "Atlanta", "state": "GA", "street": "8601 Dunwoody Pl", "postal_code": "30350"}, "capProviderId": null, "distance": null, "has_offers": false, "name": "Mirko Pasta", "longitude": -84.342154, "has_menu": false, "awards": null, "user_review_count": 0}, {"business_operation_status": 1, "rating": null, "neighborhood": null, "image": null, "scorecard": null, "featured": false, "sample_categories": "Restaurants, Mexican", "public_id": "tacos-vista-mexican-grill-roswell", "id": 772190300, "votes": null, "tagline": null, "has_video": false, "website": null, "offers": null, "latitude": 34.036112, "politanName": "Atlanta, GA Metro ", "phone_number": "6783520990", "tags": [{"primary": false, "id": 11208, "name": "Mexican"}, {"primary": true, "id": 1722, "name": "Restaurants"}], "fax_number": null, "expansion": {"count": null, "uri": null}, "impression_id": "000b000000b4e3644e15274cf68fe0a46981df364b", "profile": "http://www.citysearch.com/profile/772190300/roswell_ga/tacos_vista_mexican_grill.html", "address": {"city": "Roswell", "state": "GA", "street": "10495 Alpharetta St", "postal_code": "30075"}, "capProviderId": null, "distance": null, "has_offers": false, "name": "Tacos & Vista Mexican Grill", "longitude": -84.343723, "has_menu": false, "awards": null, "user_review_count": 0}, {"business_operation_status": 1, "rating": null, "neighborhood": null, "image": null, "scorecard": null, "featured": false, "sample_categories": "Restaurants, Jamaican", "public_id": "jamaican-restaurant-cntrystyl-marietta", "id": 775206370, "votes": null, "tagline": null, "has_video": false, "website": null, "offers": null, "latitude": 34.032429, "politanName": "Atlanta, GA Metro ", "phone_number": "7704251004", "tags": [{"primary": false, "id": 11193, "name": "Jamaican"}, {"primary": true, "id": 1722, "name": "Restaurants"}], "fax_number": null, "expansion": {"count": null, "uri": null}, "impression_id": "000b000000069bdc6c7a164b94962e44787f4cceb5", "profile": "http://www.citysearch.com/profile/775206370/marietta_ga/jamaican_restaurant_cntrystyl.html", "address": {"city": "Marietta", "state": "GA", "street": "3349 Canton Rd", "postal_code": "30066"}, "capProviderId": null, "distance": null, "has_offers": false, "name": "Jamaican Restaurant Cntrystyl", "longitude": -84.528135, "has_menu": false, "awards": null, "user_review_count": 0}, {"business_operation_status": 1, "rating": null, "neighborhood": null, "image": null, "scorecard": null, "featured": false, "sample_categories": "Restaurants", "public_id": "lazaros-roswell", "id": 777645540, "votes": null, "tagline": null, "has_video": false, "website": null, "offers": null, "latitude": 34.031818, "politanName": "Atlanta, GA Metro ", "phone_number": "6782779661", "tags": [{"primary": true, "id": 1722, "name": "Restaurants"}], "fax_number": null, "expansion": {"count": null, "uri": null}, "impression_id": "000b0000004da33806dfe5498cba467e327e82157f", "profile": "http://www.citysearch.com/profile/777645540/roswell_ga/lazaro_s.html", "address": {"city": "Roswell", "state": "GA", "street": "25 Woodstock Rd", "postal_code": "30075"}, "capProviderId": null, "distance": null, "has_offers": false, "name": "Lazaro's", "longitude": -84.362029, "has_menu": false, "awards": null, "user_review_count": 0}, {"business_operation_status": 1, "rating": null, "neighborhood": null, "image": null, "scorecard": null, "featured": false, "sample_categories": "Restaurants, Mexican", "public_id": "los-cabos-mexican-restaurant-kennesaw", "id": 777728160, "votes": null, "tagline": null, "has_video": false, "website": null, "offers": null, "latitude": 34.014676, "politanName": "Atlanta, GA Metro ", "phone_number": "7705909742", "tags": [{"primary": false, "id": 11208, "name": "Mexican"}, {"primary": true, "id": 1722, "name": "Restaurants"}], "fax_number": null, "expansion": {"count": null, "uri": null}, "impression_id": "000b00000074319f37f9004bafa49b960759eb0351", "profile": "http://www.citysearch.com/profile/777728160/kennesaw_ga/los_cabos_mexican_restaurant.html", "address": {"city": "Kennesaw", "state": "GA", "street": "2500 Cobb Pkwy NW # B3", "postal_code": "30152"}, "capProviderId": null, "distance": null, "has_offers": false, "name": "Los Cabos Mexican Restaurant", "longitude": -84.614309, "has_menu": false, "awards": null, "user_review_count": 3}, {"business_operation_status": 1, "rating": null, "neighborhood": null, "image": null, "scorecard": null, "featured": false, "sample_categories": "Restaurants, Organic", "public_id": "meliora-organic-restaurant-llc-atlanta", "id": 777701970, "votes": null, "tagline": null, "has_video": false, "website": null, "offers": null, "latitude": 33.99994, "politanName": "Atlanta, GA Metro ", "phone_number": "7706451411", "tags": [{"primary": false, "id": 14910, "name": "Organic"}, {"primary": true, "id": 1722, "name": "Restaurants"}], "fax_number": null, "expansion": {"count": null, "uri": null}, "impression_id": "000b0000009832e118a04a4e279bf8a81003b590f6", "profile": "http://www.citysearch.com/profile/777701970/atlanta_ga/meliora_organic_restaurant_llc.html", "address": {"city": "Atlanta", "state": "GA", "street": "235 Summer Xing", "postal_code": "30350"}, "capProviderId": null, "distance": null, "has_offers": false, "name": "Meliora Organic Restaurant LLC", "longitude": -84.334279, "has_menu": false, "awards": null, "user_review_count": 0}, {"business_operation_status": 1, "rating": null, "neighborhood": null, "image": null, "scorecard": null, "featured": false, "sample_categories": "Restaurants", "public_id": "byblos-restaurant-roswell", "id": 777806550, "votes": null, "tagline": null, "has_video": false, "website": null, "offers": null, "latitude": 34.040134, "politanName": "Atlanta, GA Metro ", "phone_number": "6783520321", "tags": [{"primary": true, "id": 1722, "name": "Restaurants"}], "fax_number": null, "expansion": {"count": null, "uri": null}, "impression_id": "000b0000006356d32bda824529a399cc458f061c25", "profile": "http://www.citysearch.com/profile/777806550/roswell_ga/byblos_restaurant.html", "address": {"city": "Roswell", "state": "GA", "street": "10684 Alpharetta Hwy # 500", "postal_code": "30076"}, "capProviderId": null, "distance": null, "has_offers": false, "name": "Byblos Restaurant", "longitude": -84.342945, "has_menu": true, "awards": null, "user_review_count": 0}, {"business_operation_status": 1, "rating": null, "neighborhood": null, "image": null, "scorecard": null, "featured": false, "sample_categories": "Restaurants, Mexican", "public_id": "las-tortas-smyrna", "id": 36642548, "votes": null, "tagline": null, "has_video": false, "website": null, "offers": null, "latitude": 33.894337, "politanName": "Atlanta, GA Metro ", "phone_number": "7708050304", "tags": [{"primary": false, "id": 11208, "name": "Mexican"}, {"primary": true, "id": 1722, "name": "Restaurants"}], "fax_number": null, "expansion": {"count": null, "uri": null}, "impression_id": "000b00000023278266720c452687d683c3f1e09bf0", "profile": "http://www.citysearch.com/profile/36642548/smyrna_ga/las_tortas.html", "address": {"city": "Smyrna", "state": "GA", "street": "1026 Windy Hill Rd SE", "postal_code": "30080"}, "capProviderId": null, "distance": null, "has_offers": false, "name": "Las Tortas", "longitude": -84.523128, "has_menu": false, "awards": null, "user_review_count": 0}, {"business_operation_status": 0, "rating": null, "neighborhood": null, "image": null, "scorecard": null, "featured": false, "sample_categories": "Restaurants, Delis And Delicatessens, Sandwich Shops, Carry Out", "public_id": "subway-marietta-5", "id": 631969710, "votes": null, "tagline": null, "has_video": false, "website": "http://www.citysearch.com/profile/external/631969710/marietta_ga/subway.html", "offers": null, "latitude": 33.9495, "politanName": "Atlanta, GA Metro ", "phone_number": "7704240520", "tags": [{"primary": false, "id": 1727, "name": "Delis And Delicatessens"}, {"primary": false, "id": 1736, "name": "Sandwich Shops"}, {"primary": false, "id": 11247, "name": "Carry Out"}, {"primary": true, "id": 1722, "name": "Restaurants"}], "fax_number": null, "expansion": {"count": null, "uri": null}, "impression_id": "000b00000081a73094498746e1b7e5115c205bc3ce", "profile": "http://www.citysearch.com/profile/631969710/marietta_ga/subway.html", "address": {"city": "Marietta", "state": "GA", "street": "51 Cobb Pkwy S", "postal_code": "30060"}, "capProviderId": null, "distance": null, "has_offers": false, "name": "Subway", "longitude": -84.519437, "has_menu": true, "awards": null, "user_review_count": 0}, {"business_operation_status": 1, "rating": null, "neighborhood": null, "image": null, "scorecard": null, "featured": false, "sample_categories": "Barbecue Restaurants, Restaurants", "public_id": "sherrals-bbq-marietta", "id": 601297218, "votes": null, "tagline": null, "has_video": false, "website": null, "offers": null, "latitude": 33.952909, "politanName": "Atlanta, GA Metro ", "phone_number": "6782752014", "tags": [{"primary": false, "id": 1722, "name": "Restaurants"}, {"primary": true, "id": 1724, "name": "Barbecue Restaurants"}], "fax_number": null, "expansion": {"count": null, "uri": null}, "impression_id": "000b0000009f2c86282daa430ca7a9dd4ce582418d", "profile": "http://www.citysearch.com/profile/601297218/marietta_ga/sherral_s_bbq.html", "address": {"city": "Marietta", "state": "GA", "street": "79 N Fairground St Ne", "postal_code": "30060"}, "capProviderId": null, "distance": null, "has_offers": false, "name": "Sherral's Bbq", "longitude": -84.53505, "has_menu": false, "awards": null, "user_review_count": 0}, {"business_operation_status": 1, "rating": null, "neighborhood": null, "image": null, "scorecard": null, "featured": false, "sample_categories": "Restaurants, Pizza, American Express, Discover, MasterCard", "public_id": "pizza-more-marietta", "id": 601298901, "votes": null, "tagline": null, "has_video": false, "website": null, "offers": null, "latitude": 33.90778, "politanName": "Atlanta, GA Metro ", "phone_number": "7706122922", "tags": [{"primary": false, "id": 1722, "name": "Restaurants"}, {"primary": false, "id": 11333, "name": "American Express"}, {"primary": false, "id": 11349, "name": "Discover"}, {"primary": false, "id": 11361, "name": "MasterCard"}, {"primary": false, "id": 11382, "name": "Visa"}, {"primary": true, "id": 11299, "name": "Pizza"}], "fax_number": null, "expansion": {"count": null, "uri": null}, "impression_id": "000b000000a51c4ed2359048e186e51b37f1d110c2", "profile": "http://www.citysearch.com/profile/601298901/marietta_ga/pizza_more.html", "address": {"city": "Marietta", "state": "GA", "street": "1853 Terrell Mill Rd Se", "postal_code": "30067"}, "capProviderId": null, "distance": null, "has_offers": false, "name": "Pizza & More", "longitude": -84.487669, "has_menu": false, "awards": null, "user_review_count": 0}, {"business_operation_status": 1, "rating": null, "neighborhood": null, "image": null, "scorecard": null, "featured": false, "sample_categories": "Restaurants", "public_id": "cheeseburger-bobbys-marietta", "id": 672561730, "votes": null, "tagline": null, "has_video": false, "website": "http://www.citysearch.com/profile/external/672561730/marietta_ga/cheeseburger_bobby_s.html", "offers": null, "latitude": 34.013539, "politanName": "Atlanta, GA Metro ", "phone_number": "7709199110", "tags": [{"primary": true, "id": 1722, "name": "Restaurants"}], "fax_number": null, "expansion": {"count": null, "uri": null}, "impression_id": "000b000000619976be8d0240f9a6e237cbae930b50", "profile": "http://www.citysearch.com/profile/672561730/marietta_ga/cheeseburger_bobby_s.html", "address": {"city": "Marietta", "state": "GA", "street": "125 Barrett Parkway", "postal_code": "30066"}, "capProviderId": null, "distance": null, "has_offers": false, "name": "Cheeseburger Bobby's", "longitude": -84.552923, "has_menu": true, "awards": null, "user_review_count": 0}, {"business_operation_status": 1, "rating": null, "neighborhood": null, "image": null, "scorecard": null, "featured": false, "sample_categories": "Restaurants, Mexican, Caribbean", "public_id": "mangos-caribbean-and-mexican-cuisine-acworth", "id": 603937682, "votes": null, "tagline": null, "has_video": false, "website": null, "offers": null, "latitude": 34.06489, "politanName": "Atlanta, GA Metro ", "phone_number": "6789054714", "tags": [{"primary": false, "id": 1722, "name": "Restaurants"}, {"primary": false, "id": 11195, "name": "Caribbean"}, {"primary": true, "id": 11208, "name": "Mexican"}], "fax_number": null, "expansion": {"count": null, "uri": null}, "impression_id": "000b00000095bf11e9088f4ce79c810886e39f062b", "profile": "http://www.citysearch.com/profile/603937682/acworth_ga/mangos_caribbean_and_mexican_cuisine.html", "address": {"city": "Acworth", "state": "GA", "street": "2535 Hickory Grove Rd NW", "postal_code": "30101"}, "capProviderId": null, "distance": null, "has_offers": false, "name": "Mangos Caribbean and Mexican Cuisine", "longitude": -84.624038, "has_menu": false, "awards": null, "user_review_count": 0}, {"business_operation_status": 1, "rating": null, "neighborhood": null, "image": null, "scorecard": null, "featured": false, "sample_categories": "Restaurants, Frozen Yogurt Shops, Yogurt Manufacturers", "public_id": "yogli-mogli-marietta-2", "id": 673019480, "votes": null, "tagline": null, "has_video": false, "website": null, "offers": null, "latitude": 33.955116, "politanName": "Atlanta, GA Metro ", "phone_number": "7704997009", "tags": [{"primary": false, "id": 1722, "name": "Restaurants"}, {"primary": false, "id": 1729, "name": "Frozen Yogurt Shops"}, {"primary": false, "id": 2342, "name": "Yogurt Manufacturers"}], "fax_number": null, "expansion": {"count": null, "uri": null}, "impression_id": "000b00000081fe1e71bc0d4398ade4ac09d4c3681c", "profile": "http://www.citysearch.com/profile/673019480/marietta_ga/yogli_mogli.html", "address": {"city": "Marietta", "state": "GA", "street": "3600 Dallas Highway", "postal_code": "30064"}, "capProviderId": null, "distance": null, "has_offers": false, "name": "Yogli Mogli", "longitude": -84.656027, "has_menu": false, "awards": null, "user_review_count": 0}, {"business_operation_status": 1, "rating": null, "neighborhood": null, "image": null, "scorecard": null, "featured": false, "sample_categories": "Restaurants", "public_id": "rojo-cocina-mexicana-cantina-roswell", "id": 617503554, "votes": null, "tagline": null, "has_video": false, "website": "http://www.citysearch.com/profile/external/617503554/roswell_ga/rojo_cocina_mexicana_and_cantina.html", "offers": null, "latitude": 34.061428, "politanName": "Atlanta, GA Metro ", "phone_number": "7708200111", "tags": [{"primary": true, "id": 1722, "name": "Restaurants"}], "fax_number": null, "expansion": {"count": null, "uri": null}, "impression_id": "000b000000b4438147ae154d84b553f7833217d8f3", "profile": "http://www.citysearch.com/profile/617503554/roswell_ga/rojo_cocina_mexicana_and_cantina.html", "address": {"city": "Roswell", "state": "GA", "street": "885 Woodstock Rd 410", "postal_code": "30075"}, "capProviderId": null, "distance": null, "has_offers": false, "name": "Rojo Cocina Mexicana And Cantina", "longitude": -84.384932, "has_menu": false, "awards": null, "user_review_count": 0}, {"business_operation_status": 1, "rating": null, "neighborhood": null, "image": null, "scorecard": null, "featured": false, "sample_categories": "Restaurants, Soups", "public_id": "philly-connection-marietta-3", "id": 2912163, "votes": null, "tagline": null, "has_video": false, "website": null, "offers": null, "latitude": 33.979176, "politanName": "Atlanta, GA Metro ", "phone_number": "7705095575", "tags": [{"primary": false, "id": 11311, "name": "Soups"}, {"primary": true, "id": 1722, "name": "Restaurants"}], "fax_number": null, "expansion": {"count": null, "uri": null}, "impression_id": "000b000000dfeba565b5a24708b2c58c9dc18919b7", "profile": "http://www.citysearch.com/profile/2912163/marietta_ga/philly_connection.html", "address": {"city": "Marietta", "state": "GA", "street": "1255 Johnson Ferry Rd Ste 15", "postal_code": "30068"}, "capProviderId": null, "distance": null, "has_offers": false, "name": "Philly Connection", "longitude": -84.423044, "has_menu": true, "awards": null, "user_review_count": 0}, {"business_operation_status": 1, "rating": null, "neighborhood": null, "image": null, "scorecard": null, "featured": false, "sample_categories": "Coffeehouses", "public_id": "viazza-coffee-marietta", "id": 621400894, "votes": null, "tagline": null, "has_video": false, "website": null, "offers": null, "latitude": 34.06925, "politanName": "Atlanta, GA Metro ", "phone_number": "6782476599", "tags": [{"primary": true, "id": 1726, "name": "Coffeehouses"}], "fax_number": null, "expansion": {"count": null, "uri": null}, "impression_id": "000b000000f29123e1cc61489d948fd58df7d0545c", "profile": "http://www.citysearch.com/profile/621400894/marietta_ga/viazza_coffee.html", "address": {"city": "Marietta", "state": "GA", "street": "825 Jamerson Rd 528", "postal_code": "30066"}, "capProviderId": null, "distance": null, "has_offers": false, "name": "Viazza Coffee", "longitude": -84.525415, "has_menu": false, "awards": null, "user_review_count": 0}, {"business_operation_status": 1, "rating": null, "neighborhood": null, "image": null, "scorecard": null, "featured": false, "sample_categories": "Ice Cream Parlors", "public_id": "haagendazs-shop-marietta", "id": 621882610, "votes": null, "tagline": null, "has_video": false, "website": "http://www.citysearch.com/profile/external/621882610/marietta_ga/haagen_dazs_shop.html", "offers": null, "latitude": 34.019128, "politanName": "Atlanta, GA Metro ", "phone_number": "7705903120", "tags": [{"primary": true, "id": 1730, "name": "Ice Cream Parlors"}], "fax_number": null, "expansion": {"count": null, "uri": null}, "impression_id": "000b00000036c8aed8af564743ad30342dcf6f161d", "profile": "http://www.citysearch.com/profile/621882610/marietta_ga/haagen_dazs_shop.html", "address": {"city": "Marietta", "state": "GA", "street": "400 Ernest Barrett Pkwy Nw", "postal_code": "30060"}, "capProviderId": null, "distance": null, "has_offers": false, "name": "Haagen-Dazs Shop", "longitude": -84.563608, "has_menu": false, "awards": null, "user_review_count": 0}, {"business_operation_status": 0, "rating": null, "neighborhood": null, "image": null, "scorecard": null, "featured": false, "sample_categories": "Restaurants, Traditional American", "public_id": "barkers-red-hots-roswell", "id": 713390300, "votes": null, "tagline": null, "has_video": false, "website": null, "offers": null, "latitude": 34.058649, "politanName": "Atlanta, GA Metro ", "phone_number": "7706431833", "tags": [{"primary": false, "id": 11190, "name": "Traditional American"}, {"primary": true, "id": 1722, "name": "Restaurants"}], "fax_number": null, "expansion": {"count": null, "uri": null}, "impression_id": "000b000000a997208809c54b8a9838ab3ac95f503a", "profile": "http://www.citysearch.com/profile/713390300/roswell_ga/barker_s_red_hots.html", "address": {"city": "Roswell", "state": "GA", "street": "725 W Crossville Rd", "postal_code": "30075"}, "capProviderId": null, "distance": null, "has_offers": false, "name": "Barker's Red Hots", "longitude": -84.381702, "has_menu": false, "awards": null, "user_review_count": 0}, {"business_operation_status": 1, "rating": null, "neighborhood": null, "image": null, "scorecard": null, "featured": false, "sample_categories": "Restaurants", "public_id": "nagoya-roswell", "id": 625538904, "votes": null, "tagline": null, "has_video": false, "website": null, "offers": null, "latitude": 34.004732, "politanName": "Atlanta, GA Metro ", "phone_number": "7709988899", "tags": [{"primary": true, "id": 1722, "name": "Restaurants"}], "fax_number": null, "expansion": {"count": null, "uri": null}, "impression_id": "000b0000002fd48c4184db47049cfbda0d359fa3dc", "profile": "http://www.citysearch.com/profile/625538904/roswell_ga/nagoya.html", "address": {"city": "Roswell", "state": "GA", "street": "910 Marietta Hwy", "postal_code": "30075"}, "capProviderId": null, "distance": null, "has_offers": false, "name": "Nagoya", "longitude": -84.389163, "has_menu": false, "awards": null, "user_review_count": 0}, {"business_operation_status": 1, "rating": null, "neighborhood": null, "image": null, "scorecard": null, "featured": false, "sample_categories": "Restaurants, Chinese", "public_id": "wok-star-roswell", "id": 739069330, "votes": null, "tagline": null, "has_video": false, "website": null, "offers": null, "latitude": 34.04631, "politanName": "Atlanta, GA Metro ", "phone_number": "7706450444", "tags": [{"primary": false, "id": 11252, "name": "Chinese"}, {"primary": true, "id": 1722, "name": "Restaurants"}], "fax_number": null, "expansion": {"count": null, "uri": null}, "impression_id": "000b000000e34704bcf3df4904bef77349c1a4142f", "profile": "http://www.citysearch.com/profile/739069330/roswell_ga/wok_star.html", "address": {"city": "Roswell", "state": "GA", "street": "10930 Crabapple Rd", "postal_code": "30075"}, "capProviderId": null, "distance": null, "has_offers": false, "name": "Wok Star", "longitude": -84.361208, "has_menu": false, "awards": null, "user_review_count": 0}, {"business_operation_status": 1, "rating": null, "neighborhood": null, "image": null, "scorecard": null, "featured": false, "sample_categories": "Restaurants", "public_id": "reveille-cafe-marietta", "id": 768805900, "votes": null, "tagline": null, "has_video": false, "website": null, "offers": null, "latitude": 34.03494, "politanName": "Atlanta, GA Metro ", "phone_number": "7709716800", "tags": [{"primary": true, "id": 1722, "name": "Restaurants"}], "fax_number": null, "expansion": {"count": null, "uri": null}, "impression_id": "000b000000368a6710484a4a0b95324cb2410bf935", "profile": "http://www.citysearch.com/profile/768805900/marietta_ga/reveille_cafe.html", "address": {"city": "Marietta", "state": "GA", "street": "2960 Shallowford Rd", "postal_code": "30066"}, "capProviderId": null, "distance": null, "has_offers": false, "name": "Reveille Cafe", "longitude": -84.466773, "has_menu": false, "awards": null, "user_review_count": 0}, {"business_operation_status": 1, "rating": null, "neighborhood": null, "image": null, "scorecard": null, "featured": false, "sample_categories": "Restaurants", "public_id": "vinevera-kennesaw", "id": 793361100, "votes": null, "tagline": null, "has_video": false, "website": null, "offers": null, "latitude": 34.01771, "politanName": "Atlanta, GA Metro ", "phone_number": "7705909522", "tags": [{"primary": true, "id": 1722, "name": "Restaurants"}], "fax_number": null, "expansion": {"count": null, "uri": null}, "impression_id": "000b0000006dc768965df8409093008e091a8fadd3", "profile": "http://www.citysearch.com/profile/793361100/kennesaw_ga/vinevera.html", "address": {"city": "Kennesaw", "state": "GA", "street": "400 Ernest W Barrett Pkwy NW", "postal_code": "30144"}, "capProviderId": null, "distance": null, "has_offers": false, "name": "Vinevera", "longitude": -84.564475, "has_menu": false, "awards": null, "user_review_count": 0}, {"business_operation_status": 1, "rating": null, "neighborhood": null, "image": null, "scorecard": null, "featured": false, "sample_categories": "Restaurants, Seafood Markets, Italian Food Products, Italian, American Express", "public_id": "mezza-luna-pasta-seafood-smyrna", "id": 801105940, "votes": null, "tagline": null, "has_video": false, "website": "http://www.citysearch.com/profile/external/801105940/smyrna_ga/mezza_luna_pasta_and_seafood.html", "offers": null, "latitude": 33.882797, "politanName": "Atlanta, GA Metro ", "phone_number": "7703190333", "tags": [{"primary": false, "id": 1719, "name": "Seafood Markets"}, {"primary": false, "id": 11154, "name": "Italian Food Products"}, {"primary": false, "id": 11279, "name": "Italian"}, {"primary": false, "id": 11333, "name": "American Express"}, {"primary": false, "id": 11347, "name": "Debit Card"}, {"primary": false, "id": 11349, "name": "Discover"}, {"primary": false, "id": 11361, "name": "MasterCard"}, {"primary": false, "id": 11382, "name": "Visa"}, {"primary": true, "id": 1722, "name": "Restaurants"}], "fax_number": null, "expansion": {"count": null, "uri": null}, "impression_id": "000b000000c0d2452a56be4b83b44178df794c8ce8", "profile": "http://www.citysearch.com/profile/801105940/smyrna_ga/mezza_luna_pasta_and_seafood.html", "address": {"city": "Smyrna", "state": "GA", "street": "1669 Spring Rd SE", "postal_code": "30080"}, "capProviderId": null, "distance": null, "has_offers": false, "name": "Mezza Luna Pasta and Seafood", "longitude": -84.504883, "has_menu": false, "awards": null, "user_review_count": 0}, {"business_operation_status": 0, "rating": null, "neighborhood": null, "image": null, "scorecard": null, "featured": false, "sample_categories": "Restaurants, Traditional American", "public_id": "magnolia-cafe-roswell", "id": 41779065, "votes": null, "tagline": null, "has_video": false, "website": null, "offers": null, "latitude": 34.024666, "politanName": "Atlanta, GA Metro ", "phone_number": "7705186011", "tags": [{"primary": false, "id": 1722, "name": "Restaurants"}, {"primary": true, "id": 11190, "name": "Traditional American"}], "fax_number": null, "expansion": {"count": null, "uri": null}, "impression_id": "000b0000009fb029ce15a042988014a16daa267074", "profile": "http://www.citysearch.com/profile/41779065/roswell_ga/magnolia_cafe.html", "address": {"city": "Roswell", "state": "GA", "street": "957 Canton St", "postal_code": "30075"}, "capProviderId": null, "distance": null, "has_offers": false, "name": "Magnolia Cafe", "longitude": -84.361254, "has_menu": true, "awards": null, "user_review_count": 0}, {"business_operation_status": 1, "rating": null, "neighborhood": null, "image": null, "scorecard": null, "featured": false, "sample_categories": "Ice Cream Parlors, Restaurants, Dessert Shops", "public_id": "dairylicious-treats-marietta", "id": 43855993, "votes": null, "tagline": null, "has_video": false, "website": null, "offers": null, "latitude": 33.947264, "politanName": "Atlanta, GA Metro ", "phone_number": "7702185744", "tags": [{"primary": false, "id": 1722, "name": "Restaurants"}, {"primary": false, "id": 1728, "name": "Dessert Shops"}, {"primary": true, "id": 1730, "name": "Ice Cream Parlors"}], "fax_number": null, "expansion": {"count": null, "uri": null}, "impression_id": "000b000000cf29130ee39d4a8e8e83962ef6c95947", "profile": "http://www.citysearch.com/profile/43855993/marietta_ga/dairylicious_treats.html", "address": {"city": "Marietta", "state": "GA", "street": "270 Martin Ridge Dr SW", "postal_code": "30064"}, "capProviderId": null, "distance": null, "has_offers": false, "name": "Dairylicious Treats", "longitude": -84.617328, "has_menu": false, "awards": null, "user_review_count": 0}, {"business_operation_status": 0, "rating": null, "neighborhood": null, "image": null, "scorecard": null, "featured": false, "sample_categories": "Restaurants", "public_id": "san-francisco-raps-atlanta", "id": 44776990, "votes": null, "tagline": null, "has_video": false, "website": null, "offers": null, "latitude": 33.994607, "politanName": "Atlanta, GA Metro ", "phone_number": "7709933999", "tags": [{"primary": true, "id": 1722, "name": "Restaurants"}], "fax_number": null, "expansion": {"count": null, "uri": null}, "impression_id": "000b0000000b9aa0c513d74859ad8cbe2be3c7a515", "profile": "http://www.citysearch.com/profile/44776990/atlanta_ga/san_francisco_raps.html", "address": {"city": "Atlanta", "state": "GA", "street": "8725 Roswell Rd", "postal_code": "30350"}, "capProviderId": null, "distance": null, "has_offers": false, "name": "San Francisco RAPS", "longitude": -84.349559, "has_menu": false, "awards": null, "user_review_count": 0}, {"business_operation_status": 1, "rating": null, "neighborhood": null, "image": null, "scorecard": null, "featured": false, "sample_categories": "Restaurants, Business Services, Construction & Remodeling", "public_id": "franchiseopportunitiescom-atlanta", "id": 44776973, "votes": null, "tagline": null, "has_video": false, "website": "http://www.citysearch.com/profile/external/44776973/atlanta_ga/franchiseopportunities_com.html", "offers": null, "latitude": 33.971517, "politanName": "Atlanta, GA Metro ", "phone_number": "7706649733", "tags": [{"primary": false, "id": 1722, "name": "Restaurants"}, {"primary": false, "id": 747, "name": "Construction & Remodeling"}, {"primary": true, "id": 354, "name": "Business Services"}], "fax_number": null, "expansion": {"count": null, "uri": null}, "impression_id": "000b0000002577341cea2d4f77ba7984c2ffe45212", "profile": "http://www.citysearch.com/profile/44776973/atlanta_ga/franchiseopportunities_com.html", "address": {"city": "Atlanta", "state": "GA", "street": "7840 Roswell Rd", "postal_code": "30350"}, "capProviderId": null, "distance": null, "has_offers": false, "name": "Franchiseopportunities.com", "longitude": -84.361203, "has_menu": false, "awards": null, "user_review_count": 0}, {"business_operation_status": 1, "rating": null, "neighborhood": null, "image": null, "scorecard": null, "featured": false, "sample_categories": "Restaurants", "public_id": "the-crepe-chefs-roswell", "id": 826309590, "votes": null, "tagline": null, "has_video": false, "website": null, "offers": null, "latitude": 34.056687, "politanName": "Atlanta, GA Metro ", "phone_number": "7706490261", "tags": [{"primary": true, "id": 1722, "name": "Restaurants"}], "fax_number": null, "expansion": {"count": null, "uri": null}, "impression_id": "000b0000004f61c9363cdf42a8ac2ddf24ca85579a", "profile": "http://www.citysearch.com/profile/826309590/roswell_ga/the_crepe_chefs.html", "address": {"city": "Roswell", "state": "GA", "street": "11405 West Rd", "postal_code": "30075"}, "capProviderId": null, "distance": null, "has_offers": false, "name": "The Crepe Chefs", "longitude": -84.413411, "has_menu": false, "awards": null, "user_review_count": 0}, {"business_operation_status": 1, "rating": null, "neighborhood": null, "image": null, "scorecard": null, "featured": false, "sample_categories": "Restaurants, Chinese", "public_id": "lucky-dragon-marietta-2", "id": 45989668, "votes": null, "tagline": null, "has_video": false, "website": null, "offers": null, "latitude": 34.032215, "politanName": "Atlanta, GA Metro ", "phone_number": "7702188889", "tags": [{"primary": false, "id": 11252, "name": "Chinese"}, {"primary": true, "id": 1722, "name": "Restaurants"}], "fax_number": null, "expansion": {"count": null, "uri": null}, "impression_id": "000b0000002048ba91aba84358926f0a912cdd3e46", "profile": "http://www.citysearch.com/profile/45989668/marietta_ga/lucky_dragon.html", "address": {"city": "Marietta", "state": "GA", "street": "3402 Canton Rd", "postal_code": "30066"}, "capProviderId": null, "distance": null, "has_offers": false, "name": "Lucky Dragon", "longitude": -84.527765, "has_menu": true, "awards": null, "user_review_count": 0}], "histograms": [], "tag_ids": [1722], "uri": "http://api.citygridmedia.com:8080/search/places/v2/search/where?has_offers=false&type=restaurant&format=json&page=32&where=30062&rpp=50&histograms=false&publisher=10000009598&region_type=circle", "did_you_mean": "", "regions": [{"latitude": 34.001368, "default_radius": 5.22, "type": "postal_code", "name": "30062", "longitude": -84.466397}], "call_id": "000b000000d0ace95856774ccd943a9ece05837954", "first_hit": 1551, "total_hits": 2160, "geo_ids": [26292], "page": 32, "last_hit": 1600}}