{"results": {"rpp": 50, "locations": [{"business_operation_status": 1, "rating": null, "neighborhood": null, "image": null, "scorecard": null, "featured": false, "sample_categories": "Coffeehouses, Coffee & Tea Shops, Restaurants, American Express, Discover", "public_id": "starbucks-marietta-3", "id": 621932440, "votes": null, "tagline": null, "has_video": false, "website": "http://www.citysearch.com/profile/external/621932440/marietta_ga/starbucks.html", "offers": null, "latitude": 33.978723, "politanName": "Atlanta, GA Metro ", "phone_number": "7705657984", "tags": [{"primary": false, "id": 1711, "name": "Coffee & Tea Shops"}, {"primary": false, "id": 1722, "name": "Restaurants"}, {"primary": false, "id": 11333, "name": "American Express"}, {"primary": false, "id": 11349, "name": "Discover"}, {"primary": false, "id": 11361, "name": "MasterCard"}, {"primary": false, "id": 11382, "name": "Visa"}, {"primary": true, "id": 1726, "name": "Coffeehouses"}], "fax_number": null, "expansion": {"count": null, "uri": null}, "impression_id": "000b0000007ef268851f7a4a26a164eb0a7b9c53a5", "profile": "http://www.citysearch.com/profile/621932440/marietta_ga/starbucks.html", "address": {"city": "Marietta", "state": "GA", "street": "1207 Johnson Ferry Rd", "postal_code": "30068"}, "capProviderId": null, "distance": null, "has_offers": false, "name": "Starbucks", "longitude": -84.419346, "has_menu": false, "awards": null, "user_review_count": 2}, {"business_operation_status": 1, "rating": null, "neighborhood": null, "image": null, "scorecard": null, "featured": false, "sample_categories": "Restaurants", "public_id": "ajr-inc-marietta-2", "id": 682658690, "votes": null, "tagline": null, "has_video": false, "website": null, "offers": null, "latitude": 33.967992, "politanName": "Atlanta, GA Metro ", "phone_number": "7705653753", "tags": [{"primary": true, "id": 1722, "name": "Restaurants"}], "fax_number": null, "expansion": {"count": null, "uri": null}, "impression_id": "000b000000b1307d61ecf7429fac6c558259b5522b", "profile": "http://www.citysearch.com/profile/682658690/marietta_ga/ajr_inc.html", "address": {"city": "Marietta", "state": "GA", "street": "2945 Robinson Rd Ne", "postal_code": "30068"}, "capProviderId": null, "distance": null, "has_offers": false, "name": "Ajr INC", "longitude": -84.466217, "has_menu": false, "awards": null, "user_review_count": 0}, {"business_operation_status": 1, "rating": null, "neighborhood": null, "image": null, "scorecard": null, "featured": false, "sample_categories": "Restaurants, Delis And Delicatessens, Sandwich Shops", "public_id": "jersey-mikes-subs-marietta-2", "id": 793336010, "votes": null, "tagline": null, "has_video": false, "website": null, "offers": null, "latitude": 33.984846, "politanName": "Atlanta, GA Metro ", "phone_number": "7703213998", "tags": [{"primary": false, "id": 1727, "name": "Delis And Delicatessens"}, {"primary": false, "id": 1736, "name": "Sandwich Shops"}, {"primary": true, "id": 1722, "name": "Restaurants"}], "fax_number": null, "expansion": {"count": null, "uri": null}, "impression_id": "000b00000012a91b7fd01d48c1bcb74d55eda44180", "profile": "http://www.citysearch.com/profile/793336010/marietta_ga/jersey_mike_s_subs.html", "address": {"city": "Marietta", "state": "GA", "street": "4400 Roswell Rd # 148", "postal_code": "30062"}, "capProviderId": null, "distance": null, "has_offers": false, "name": "Jersey Mike's Subs", "longitude": -84.422713, "has_menu": false, "awards": null, "user_review_count": 0}, {"business_operation_status": 0, "rating": null, "neighborhood": null, "image": null, "scorecard": null, "featured": false, "sample_categories": "Frozen Yogurt Shops", "public_id": "yogil-mogli-ventures-marietta", "id": 700948650, "votes": null, "tagline": null, "has_video": false, "website": null, "offers": null, "latitude": 33.979176, "politanName": "Atlanta, GA Metro ", "phone_number": "7705781801", "tags": [{"primary": true, "id": 1729, "name": "Frozen Yogurt Shops"}], "fax_number": null, "expansion": {"count": null, "uri": null}, "impression_id": "000b0000007417e7c205304ef098ed6f1f2a3cc4ab", "profile": "http://www.citysearch.com/profile/700948650/marietta_ga/yogil_mogli_ventures.html", "address": {"city": "Marietta", "state": "GA", "street": "1255 Johnson Ferry Rd", "postal_code": "30068"}, "capProviderId": null, "distance": null, "has_offers": false, "name": "Yogil Mogli Ventures", "longitude": -84.423044, "has_menu": false, "awards": null, "user_review_count": 0}, {"business_operation_status": 1, "rating": null, "neighborhood": null, "image": null, "scorecard": null, "featured": false, "sample_categories": "Catering, Restaurants, Delis And Delicatessens, Carry Out, Pizza", "public_id": "johnnys-new-york-style-pizza-marietta-2", "id": 33644147, "votes": null, "tagline": null, "has_video": false, "website": "http://www.citysearch.com/profile/external/33644147/marietta_ga/johnny_s_new_york_style_pizza.html", "offers": null, "latitude": 33.965815, "politanName": "Atlanta, GA Metro ", "phone_number": "6785602228", "tags": [{"primary": false, "id": 1705, "name": "Catering"}, {"primary": false, "id": 1722, "name": "Restaurants"}, {"primary": false, "id": 1727, "name": "Delis And Delicatessens"}, {"primary": false, "id": 11299, "name": "Pizza"}, {"primary": false, "id": 11333, "name": "American Express"}, {"primary": false, "id": 11349, "name": "Discover"}, {"primary": false, "id": 11361, "name": "MasterCard"}, {"primary": false, "id": 11382, "name": "Visa"}, {"primary": true, "id": 11247, "name": "Carry Out"}], "fax_number": null, "expansion": {"count": null, "uri": null}, "impression_id": "000b000000ef679e88fd7b4e61af5628868fe6c3a0", "profile": "http://www.citysearch.com/profile/33644147/marietta_ga/johnny_s_new_york_style_pizza.html", "address": {"city": "Marietta", "state": "GA", "street": "4880 Lower Roswell Rd Suite 155", "postal_code": "30068"}, "capProviderId": null, "distance": null, "has_offers": false, "name": "Johnny's New York Style Pizza", "longitude": -84.410214, "has_menu": true, "awards": null, "user_review_count": 0}, {"business_operation_status": 1, "rating": null, "neighborhood": null, "image": null, "scorecard": null, "featured": false, "sample_categories": "Bars & Clubs, Wine Bars, Tapas / Small Plates", "public_id": "stem-wine-bar-marietta", "id": 779787950, "votes": null, "tagline": null, "has_video": false, "website": "http://www.citysearch.com/profile/external/779787950/marietta_ga/stem_wine_bar.html", "offers": null, "latitude": 33.980091, "politanName": "Atlanta, GA Metro ", "phone_number": "6782146888", "tags": [{"primary": false, "id": 164, "name": "Bars & Clubs"}, {"primary": false, "id": 1704, "name": "Wine Bars"}, {"primary": true, "id": 11317, "name": "Tapas / Small Plates"}], "fax_number": null, "expansion": {"count": null, "uri": null}, "impression_id": "000b0000001935b9effc0445ba8b935a17991401d5", "profile": "http://www.citysearch.com/profile/779787950/marietta_ga/stem_wine_bar.html", "address": {"city": "Marietta", "state": "GA", "street": "1311 Johnson Ferry Road Suite 516", "postal_code": "30068"}, "capProviderId": null, "distance": null, "has_offers": false, "name": "Stem Wine Bar", "longitude": -84.428346, "has_menu": true, "awards": null, "user_review_count": 0}, {"business_operation_status": 1, "rating": null, "neighborhood": null, "image": null, "scorecard": null, "featured": false, "sample_categories": "Restaurants", "public_id": "americn-cafe-the-inc-marietta", "id": 811839690, "votes": null, "tagline": null, "has_video": false, "website": null, "offers": null, "latitude": 33.96436, "politanName": "Atlanta, GA Metro ", "phone_number": "7705651366", "tags": [{"primary": true, "id": 1722, "name": "Restaurants"}], "fax_number": null, "expansion": {"count": null, "uri": null}, "impression_id": "000b0000003da9ac9750ee4ff6a399515b9f16cd44", "profile": "http://www.citysearch.com/profile/811839690/marietta_ga/americn_cafe_the_inc.html", "address": {"city": "Marietta", "state": "GA", "street": "640 Johnson Ferry Rd", "postal_code": "30068"}, "capProviderId": null, "distance": null, "has_offers": false, "name": "Americn Cafe The Inc", "longitude": -84.411149, "has_menu": false, "awards": null, "user_review_count": 0}, {"business_operation_status": 1, "rating": null, "neighborhood": null, "image": null, "scorecard": null, "featured": false, "sample_categories": "Restaurants, Pizza", "public_id": "johnnys-pizza-subs-marietta", "id": 2904727, "votes": null, "tagline": null, "has_video": false, "website": null, "offers": null, "latitude": 33.968758, "politanName": "Atlanta, GA Metro ", "phone_number": "7705658665", "tags": [{"primary": false, "id": 11299, "name": "Pizza"}, {"primary": true, "id": 1722, "name": "Restaurants"}], "fax_number": null, "expansion": {"count": null, "uri": null}, "impression_id": "000b00000043302e5580f24ee68c4b6f5217e1e807", "profile": "http://www.citysearch.com/profile/2904727/marietta_ga/johnny_s_pizza_subs.html", "address": {"city": "Marietta", "state": "GA", "street": "2100 Roswell Rd", "postal_code": "30062"}, "capProviderId": null, "distance": null, "has_offers": false, "name": "Johnny's Pizza & Subs", "longitude": -84.488447, "has_menu": true, "awards": null, "user_review_count": 0}, {"business_operation_status": 0, "rating": null, "neighborhood": null, "image": null, "scorecard": null, "featured": false, "sample_categories": "Restaurants, Carry Out", "public_id": "burger-king-marietta-12", "id": 764902020, "votes": null, "tagline": null, "has_video": false, "website": null, "offers": null, "latitude": 33.948063, "politanName": "Atlanta, GA Metro ", "phone_number": "7709714626", "tags": [{"primary": false, "id": 11247, "name": "Carry Out"}, {"primary": true, "id": 1722, "name": "Restaurants"}], "fax_number": null, "expansion": {"count": null, "uri": null}, "impression_id": "000b000000eaa27f7e309f4ab68f4e52368608f351", "profile": "http://www.citysearch.com/profile/764902020/marietta_ga/burger_king.html", "address": {"city": "Marietta", "state": "GA", "street": "3470 Sheridan Chase SE", "postal_code": "30067"}, "capProviderId": null, "distance": null, "has_offers": false, "name": "Burger King", "longitude": -84.448601, "has_menu": false, "awards": null, "user_review_count": 0}, {"business_operation_status": 1, "rating": null, "neighborhood": null, "image": null, "scorecard": null, "featured": false, "sample_categories": "Restaurants, Carry Out, Hamburgers", "public_id": "back-yard-burgers-marietta-2", "id": 777794660, "votes": null, "tagline": null, "has_video": false, "website": "http://www.citysearch.com/profile/external/777794660/marietta_ga/back_yard_burgers.html", "offers": null, "latitude": 33.980844, "politanName": "Atlanta, GA Metro ", "phone_number": "7705090444", "tags": [{"primary": false, "id": 11247, "name": "Carry Out"}, {"primary": false, "id": 11270, "name": "Hamburgers"}, {"primary": true, "id": 1722, "name": "Restaurants"}], "fax_number": null, "expansion": {"count": null, "uri": null}, "impression_id": "000b000000be5ceef15dc64201a6196cdd1ea32832", "profile": "http://www.citysearch.com/profile/777794660/marietta_ga/back_yard_burgers.html", "address": {"city": "Marietta", "state": "GA", "street": "1323 Johnson Ferry Rd", "postal_code": "30068"}, "capProviderId": null, "distance": null, "has_offers": false, "name": "Back Yard Burgers", "longitude": -84.425465, "has_menu": true, "awards": null, "user_review_count": 0}, {"business_operation_status": 1, "rating": null, "neighborhood": null, "image": null, "scorecard": null, "featured": false, "sample_categories": "Restaurants, Pizza", "public_id": "pizza-rogizio-marietta", "id": 777749830, "votes": null, "tagline": null, "has_video": false, "website": null, "offers": null, "latitude": 33.951936, "politanName": "Atlanta, GA Metro ", "phone_number": "7705782824", "tags": [{"primary": false, "id": 11299, "name": "Pizza"}, {"primary": true, "id": 1722, "name": "Restaurants"}], "fax_number": null, "expansion": {"count": null, "uri": null}, "impression_id": "000b0000008cfc5c3f9e2c40c39242555719e3e02c", "profile": "http://www.citysearch.com/profile/777749830/marietta_ga/pizza_rogizio.html", "address": {"city": "Marietta", "state": "GA", "street": "1818 Lower Roswell Rd", "postal_code": "30068"}, "capProviderId": null, "distance": null, "has_offers": false, "name": "Pizza Rogizio", "longitude": -84.499113, "has_menu": false, "awards": null, "user_review_count": 0}, {"business_operation_status": 0, "rating": null, "neighborhood": null, "image": null, "scorecard": null, "featured": false, "sample_categories": "Restaurants, Chinese", "public_id": "house-of-wong-marietta", "id": 2912581, "votes": null, "tagline": null, "has_video": false, "website": null, "offers": null, "latitude": 33.965797, "politanName": "Atlanta, GA Metro ", "phone_number": "7709732306", "tags": [{"primary": false, "id": 11252, "name": "Chinese"}, {"primary": true, "id": 1722, "name": "Restaurants"}], "fax_number": null, "expansion": {"count": null, "uri": null}, "impression_id": "000b000000637d0e6b06c64ba3a1f86da24cd45d56", "profile": "http://www.citysearch.com/profile/2912581/marietta_ga/house_of_wong.html", "address": {"city": "Marietta", "state": "GA", "street": "4940 Lower Roswell Rd", "postal_code": "30068"}, "capProviderId": null, "distance": null, "has_offers": false, "name": "House of Wong", "longitude": -84.407527, "has_menu": true, "awards": null, "user_review_count": 1}, {"business_operation_status": 1, "rating": null, "neighborhood": null, "image": null, "scorecard": null, "featured": false, "sample_categories": "Ice Cream Parlors", "public_id": "hagen-holding-marietta", "id": 732215110, "votes": null, "tagline": null, "has_video": false, "website": null, "offers": null, "latitude": 33.988744, "politanName": "Atlanta, GA Metro ", "phone_number": "4045836303", "tags": [{"primary": true, "id": 1730, "name": "Ice Cream Parlors"}], "fax_number": null, "expansion": {"count": null, "uri": null}, "impression_id": "000b0000001f59d4d5cdb9466ca211dfe056f9fadc", "profile": "http://www.citysearch.com/profile/732215110/marietta_ga/hagen_holding.html", "address": {"city": "Marietta", "state": "GA", "street": "1573 Asheforde Dr", "postal_code": "30068"}, "capProviderId": null, "distance": null, "has_offers": false, "name": "Hagen Holding", "longitude": -84.386785, "has_menu": false, "awards": null, "user_review_count": 0}, {"business_operation_status": 1, "rating": null, "neighborhood": null, "image": null, "scorecard": null, "featured": false, "sample_categories": "Restaurants, Food Stores, Diners, Greek Food Products, American Express", "public_id": "broadway-diner-marietta", "id": 739054880, "votes": null, "tagline": null, "has_video": false, "website": null, "offers": null, "latitude": 33.981385, "politanName": "Atlanta, GA Metro ", "phone_number": "7709773607", "tags": [{"primary": false, "id": 1706, "name": "Food Stores"}, {"primary": false, "id": 1732, "name": "Diners"}, {"primary": false, "id": 11151, "name": "Greek Food Products"}, {"primary": false, "id": 11333, "name": "American Express"}, {"primary": false, "id": 11347, "name": "Debit Card"}, {"primary": false, "id": 11349, "name": "Discover"}, {"primary": false, "id": 11361, "name": "MasterCard"}, {"primary": false, "id": 11382, "name": "Visa"}, {"primary": true, "id": 1722, "name": "Restaurants"}], "fax_number": null, "expansion": {"count": null, "uri": null}, "impression_id": "000b000000376f9ab8b9e3475d97309a529edfc7ed", "profile": "http://www.citysearch.com/profile/739054880/marietta_ga/broadway_diner.html", "address": {"city": "Marietta", "state": "GA", "street": "1333 Johnson Ferry Rd", "postal_code": "30068"}, "capProviderId": null, "distance": null, "has_offers": false, "name": "Broadway Diner", "longitude": -84.426367, "has_menu": false, "awards": null, "user_review_count": 0}, {"business_operation_status": 1, "rating": null, "neighborhood": null, "image": null, "scorecard": null, "featured": false, "sample_categories": "Restaurants, Catering", "public_id": "a-little-bit-of-heaven-marietta", "id": 837084260, "votes": null, "tagline": null, "has_video": false, "website": null, "offers": null, "latitude": 33.965305, "politanName": "Atlanta, GA Metro ", "phone_number": "6782246780", "tags": [{"primary": false, "id": 1705, "name": "Catering"}, {"primary": true, "id": 1722, "name": "Restaurants"}], "fax_number": null, "expansion": {"count": null, "uri": null}, "impression_id": "000b0000003456868bfba3457a87a0615a6e0c412d", "profile": "http://www.citysearch.com/profile/837084260/marietta_ga/a_little_bit_of_heaven.html", "address": {"city": "Marietta", "state": "GA", "street": "4665 Lower Roswell Rd 101", "postal_code": "30068"}, "capProviderId": null, "distance": null, "has_offers": false, "name": "A Little Bit of Heaven", "longitude": -84.415723, "has_menu": false, "awards": null, "user_review_count": 0}, {"business_operation_status": 1, "rating": null, "neighborhood": null, "image": null, "scorecard": null, "featured": false, "sample_categories": "Restaurants, Carry Out, American Express, Discover, MasterCard", "public_id": "zaxbys-marietta-3", "id": 45992346, "votes": null, "tagline": null, "has_video": false, "website": "http://www.citysearch.com/profile/external/45992346/marietta_ga/zaxby_s.html", "offers": null, "latitude": 33.966731, "politanName": "Atlanta, GA Metro ", "phone_number": "6785608100", "tags": [{"primary": false, "id": 11247, "name": "Carry Out"}, {"primary": false, "id": 11333, "name": "American Express"}, {"primary": false, "id": 11349, "name": "Discover"}, {"primary": false, "id": 11361, "name": "MasterCard"}, {"primary": false, "id": 11382, "name": "Visa"}, {"primary": false, "id": 12839, "name": "Chicken"}, {"primary": true, "id": 1722, "name": "Restaurants"}], "fax_number": null, "expansion": {"count": null, "uri": null}, "impression_id": "000b0000000b00e6cda417489f862294a37a100230", "profile": "http://www.citysearch.com/profile/45992346/marietta_ga/zaxby_s.html", "address": {"city": "Marietta", "state": "GA", "street": "730 Johnson Ferry Rd", "postal_code": "30068"}, "capProviderId": null, "distance": null, "has_offers": false, "name": "Zaxby's", "longitude": -84.411978, "has_menu": true, "awards": null, "user_review_count": 0}, {"business_operation_status": 1, "rating": null, "neighborhood": null, "image": null, "scorecard": null, "featured": false, "sample_categories": "Ice Cream Parlors", "public_id": "dlites-emporium-marietta", "id": 699923930, "votes": null, "tagline": null, "has_video": false, "website": "http://www.citysearch.com/profile/external/699923930/marietta_ga/d_lites_emporium.html", "offers": null, "latitude": 33.97713, "politanName": "Atlanta, GA Metro ", "phone_number": "6789969966", "tags": [{"primary": true, "id": 1730, "name": "Ice Cream Parlors"}], "fax_number": null, "expansion": {"count": null, "uri": null}, "impression_id": "000b000000b62f9173fbdd44e78b97abed77bb92a3", "profile": "http://www.citysearch.com/profile/699923930/marietta_ga/d_lites_emporium.html", "address": {"city": "Marietta", "state": "GA", "street": "1100 Johnson Ferry Rd", "postal_code": "30068"}, "capProviderId": null, "distance": null, "has_offers": false, "name": "D'lites Emporium", "longitude": -84.414566, "has_menu": false, "awards": null, "user_review_count": 0}, {"business_operation_status": 1, "rating": null, "neighborhood": null, "image": null, "scorecard": null, "featured": false, "sample_categories": "Restaurants, Indian", "public_id": "curry-curry-marietta-2", "id": 775225410, "votes": null, "tagline": null, "has_video": false, "website": null, "offers": null, "latitude": 33.965749, "politanName": "Atlanta, GA Metro ", "phone_number": "6785607809", "tags": [{"primary": false, "id": 11277, "name": "Indian"}, {"primary": true, "id": 1722, "name": "Restaurants"}], "fax_number": null, "expansion": {"count": null, "uri": null}, "impression_id": "000b0000002efc43705f08495ebd99257b84c7ff4e", "profile": "http://www.citysearch.com/profile/775225410/marietta_ga/curry_curry.html", "address": {"city": "Marietta", "state": "GA", "street": "4724 Lower Roswell Rd", "postal_code": "30068"}, "capProviderId": null, "distance": null, "has_offers": false, "name": "Curry Curry", "longitude": -84.413931, "has_menu": false, "awards": null, "user_review_count": 0}, {"business_operation_status": 1, "rating": null, "neighborhood": null, "image": null, "scorecard": null, "featured": false, "sample_categories": "Restaurants, Delis And Delicatessens, Sandwich Shops", "public_id": "my-friends-place-deli-marietta", "id": 682445750, "votes": null, "tagline": null, "has_video": false, "website": "http://www.citysearch.com/profile/external/682445750/marietta_ga/my_friend_s_place_deli.html", "offers": null, "latitude": 33.964261, "politanName": "Atlanta, GA Metro ", "phone_number": "7709733300", "tags": [{"primary": false, "id": 1727, "name": "Delis And Delicatessens"}, {"primary": false, "id": 1736, "name": "Sandwich Shops"}, {"primary": true, "id": 1722, "name": "Restaurants"}], "fax_number": null, "expansion": {"count": null, "uri": null}, "impression_id": "000b00000087de3fda1284420daba35a669106b6fd", "profile": "http://www.citysearch.com/profile/682445750/marietta_ga/my_friend_s_place_deli.html", "address": {"city": "Marietta", "state": "GA", "street": "3423 Greenfield Dr", "postal_code": "30068"}, "capProviderId": null, "distance": null, "has_offers": false, "name": "My Friend's Place Deli", "longitude": -84.451189, "has_menu": false, "awards": null, "user_review_count": 0}, {"business_operation_status": 1, "rating": null, "neighborhood": null, "image": null, "scorecard": null, "featured": false, "sample_categories": "Restaurants, Hot Dogs", "public_id": "gorrins-cafe-marietta", "id": 790846920, "votes": null, "tagline": null, "has_video": false, "website": null, "offers": null, "latitude": 33.975849, "politanName": "Atlanta, GA Metro ", "phone_number": "7705651475", "tags": [{"primary": false, "id": 11274, "name": "Hot Dogs"}, {"primary": true, "id": 1722, "name": "Restaurants"}], "fax_number": null, "expansion": {"count": null, "uri": null}, "impression_id": "000b000000aab276ff4307484498da301aa7dd6dd2", "profile": "http://www.citysearch.com/profile/790846920/marietta_ga/gorrins_cafe.html", "address": {"city": "Marietta", "state": "GA", "street": "1186 Indian Hills Pkwy", "postal_code": "30068"}, "capProviderId": null, "distance": null, "has_offers": false, "name": "Gorrins Cafe", "longitude": -84.436833, "has_menu": false, "awards": null, "user_review_count": 0}, {"business_operation_status": 1, "rating": null, "neighborhood": null, "image": null, "scorecard": null, "featured": false, "sample_categories": "Restaurants, Japanese", "public_id": "genji-marietta", "id": 764863440, "votes": null, "tagline": null, "has_video": false, "website": null, "offers": null, "latitude": 33.980031, "politanName": "Atlanta, GA Metro ", "phone_number": "7709770260", "tags": [{"primary": false, "id": 11202, "name": "Japanese"}, {"primary": true, "id": 1722, "name": "Restaurants"}], "fax_number": null, "expansion": {"count": null, "uri": null}, "impression_id": "000b0000005b4976d0b53c48d68075fc2be99a5c65", "profile": "http://www.citysearch.com/profile/764863440/marietta_ga/genji.html", "address": {"city": "Marietta", "state": "GA", "street": "1311 Johnson Ferry Rd", "postal_code": "30068"}, "capProviderId": null, "distance": null, "has_offers": false, "name": "Genji", "longitude": -84.428364, "has_menu": false, "awards": null, "user_review_count": 0}, {"business_operation_status": 1, "rating": null, "neighborhood": null, "image": null, "scorecard": null, "featured": false, "sample_categories": "Restaurants", "public_id": "cantons-donuts-marietta", "id": 805665440, "votes": null, "tagline": null, "has_video": false, "website": null, "offers": null, "latitude": 33.951218, "politanName": "Atlanta, GA Metro ", "phone_number": "7705792399", "tags": [{"primary": true, "id": 1722, "name": "Restaurants"}], "fax_number": null, "expansion": {"count": null, "uri": null}, "impression_id": "000b00000089ffd277f4624402869565a6a772c9e5", "profile": "http://www.citysearch.com/profile/805665440/marietta_ga/canton_s_donuts.html", "address": {"city": "Marietta", "state": "GA", "street": "1516 Roswell Rd", "postal_code": "30062"}, "capProviderId": null, "distance": null, "has_offers": false, "name": "Canton's Donuts", "longitude": -84.508253, "has_menu": false, "awards": null, "user_review_count": 0}, {"business_operation_status": 1, "rating": null, "neighborhood": null, "image": null, "scorecard": null, "featured": false, "sample_categories": "Restaurants", "public_id": "canyon-cafe-marietta", "id": 732199900, "votes": null, "tagline": null, "has_video": false, "website": null, "offers": null, "latitude": 33.949881, "politanName": "Atlanta, GA Metro ", "phone_number": "6784693379", "tags": [{"primary": true, "id": 1722, "name": "Restaurants"}], "fax_number": null, "expansion": {"count": null, "uri": null}, "impression_id": "000b0000005fb24386172c495bb03152b38991212f", "profile": "http://www.citysearch.com/profile/732199900/marietta_ga/canyon_cafe.html", "address": {"city": "Marietta", "state": "GA", "street": "3486 Sheridan Chase SE", "postal_code": "30067"}, "capProviderId": null, "distance": null, "has_offers": false, "name": "Canyon Cafe", "longitude": -84.446848, "has_menu": false, "awards": null, "user_review_count": 0}, {"business_operation_status": 1, "rating": null, "neighborhood": null, "image": null, "scorecard": null, "featured": false, "sample_categories": "Restaurants", "public_id": "provence-french-bistro-marietta", "id": 811548460, "votes": null, "tagline": null, "has_video": false, "website": null, "offers": null, "latitude": 33.965305, "politanName": "Atlanta, GA Metro ", "phone_number": "7703215442", "tags": [{"primary": true, "id": 1722, "name": "Restaurants"}], "fax_number": null, "expansion": {"count": null, "uri": null}, "impression_id": "000b00000044353f5120dd48e69e288c68597304ae", "profile": "http://www.citysearch.com/profile/811548460/marietta_ga/provence_french_bistro.html", "address": {"city": "Marietta", "state": "GA", "street": "4665 Lower Roswell Rd", "postal_code": "30068"}, "capProviderId": null, "distance": null, "has_offers": false, "name": "Provence French Bistro", "longitude": -84.415723, "has_menu": false, "awards": null, "user_review_count": 0}, {"business_operation_status": 1, "rating": null, "neighborhood": null, "image": null, "scorecard": null, "featured": false, "sample_categories": "Restaurants", "public_id": "blue-olive-marietta", "id": 672107680, "votes": null, "tagline": null, "has_video": false, "website": null, "offers": null, "latitude": 33.965353, "politanName": "Atlanta, GA Metro ", "phone_number": "7705795949", "tags": [{"primary": true, "id": 1722, "name": "Restaurants"}], "fax_number": null, "expansion": {"count": null, "uri": null}, "impression_id": "000b000000c5195f59a69141a5bfcc1c675ff0a9a5", "profile": "http://www.citysearch.com/profile/672107680/marietta_ga/blue_olive.html", "address": {"city": "Marietta", "state": "GA", "street": "4665 Lower Roswell Rd", "postal_code": "30068"}, "capProviderId": null, "distance": null, "has_offers": false, "name": "Blue Olive", "longitude": -84.415616, "has_menu": false, "awards": null, "user_review_count": 1}, {"business_operation_status": 1, "rating": null, "neighborhood": null, "image": null, "scorecard": null, "featured": false, "sample_categories": "Restaurants", "public_id": "frankles-marietta", "id": 610973754, "votes": null, "tagline": null, "has_video": false, "website": null, "offers": null, "latitude": 33.978873, "politanName": "Atlanta, GA Metro ", "phone_number": "6783246100", "tags": [{"primary": true, "id": 1722, "name": "Restaurants"}], "fax_number": null, "expansion": {"count": null, "uri": null}, "impression_id": "000b000000739263597d0b4c8a9295b91867610135", "profile": "http://www.citysearch.com/profile/610973754/marietta_ga/frankle_s.html", "address": {"city": "Marietta", "state": "GA", "street": "3125 Roswell Rd", "postal_code": "30062"}, "capProviderId": null, "distance": null, "has_offers": false, "name": "Frankle's", "longitude": -84.462166, "has_menu": false, "awards": null, "user_review_count": 0}, {"business_operation_status": 1, "rating": 9.0, "neighborhood": null, "image": "http://images.citysearch.net/assets/imgdb/5e/71/0b/21/97/7d/45/7f/9f/88/09/59/89/07/78/e0.jpg", "scorecard": null, "featured": false, "sample_categories": "Catering, Restaurants, Dessert Shops, Italian, $$", "public_id": "sugo-roswell-2", "id": 40841254, "votes": null, "tagline": "Sugo Restaurant & Tapas- A Blend of Italian & Greek Cuisine", "has_video": false, "website": "http://www.citysearch.com/profile/external/40841254/roswell_ga/sugo.html", "offers": null, "latitude": 34.009785, "politanName": "Atlanta, GA Metro ", "phone_number": "7706419131", "tags": [{"primary": false, "id": 1705, "name": "Catering"}, {"primary": false, "id": 1722, "name": "Restaurants"}, {"primary": false, "id": 1728, "name": "Dessert Shops"}, {"primary": false, "id": 11232, "name": "$$"}, {"primary": false, "id": 11244, "name": "Business Dining"}, {"primary": false, "id": 11256, "name": "Date Spot"}, {"primary": false, "id": 11262, "name": "Family Style Dining"}, {"primary": false, "id": 11263, "name": "Family-Friendly Dining"}, {"primary": false, "id": 11268, "name": "Greek"}, {"primary": false, "id": 11269, "name": "Group Dining"}, {"primary": false, "id": 11272, "name": "Hidden Find"}, {"primary": false, "id": 11284, "name": "Local Favorite"}, {"primary": false, "id": 11289, "name": "Mediterranean"}, {"primary": false, "id": 11296, "name": "Outdoor Dining"}, {"primary": false, "id": 11299, "name": "Pizza"}, {"primary": false, "id": 11303, "name": "Private Parties"}, {"primary": false, "id": 11304, "name": "Private Rooms"}, {"primary": false, "id": 11307, "name": "Romantic Dining"}, {"primary": false, "id": 11310, "name": "Sommelier"}, {"primary": false, "id": 11324, "name": "Upscale Casual Dining"}, {"primary": false, "id": 11339, "name": "Cash"}, {"primary": false, "id": 11361, "name": "MasterCard"}, {"primary": false, "id": 11382, "name": "Visa"}, {"primary": true, "id": 11279, "name": "Italian"}], "fax_number": null, "expansion": {"count": null, "uri": null}, "impression_id": "000b000000685e2aab957f4780a9cb92d7bad06cfa", "profile": "http://www.citysearch.com/profile/40841254/roswell_ga/sugo.html", "address": {"city": "Roswell", "state": "GA", "street": "408 S Atlanta St", "postal_code": "30075"}, "capProviderId": null, "distance": null, "has_offers": false, "name": "Sugo", "longitude": -84.361532, "has_menu": true, "awards": null, "user_review_count": 42}, {"business_operation_status": 1, "rating": 9.0, "neighborhood": null, "image": "http://images.citysearch.net/assets/imgdb/merchant/2010/2/1/0/XGFGRqdH1.jpeg", "scorecard": null, "featured": false, "sample_categories": "Catering, Restaurants, Barbecue Restaurants, $, Cheap Eats", "public_id": "williamson-brothers-barbq-marietta", "id": 11340779, "votes": null, "tagline": "Country barbecue smoked up just right in Marietta.", "has_video": false, "website": "http://www.citysearch.com/profile/external/11340779/marietta_ga/williamson_bros_bar_b_q.html", "offers": null, "latitude": 33.950897, "politanName": "Atlanta, GA Metro ", "phone_number": "7709713201", "tags": [{"primary": false, "id": 1722, "name": "Restaurants"}, {"primary": false, "id": 1724, "name": "Barbecue Restaurants"}, {"primary": false, "id": 11231, "name": "$"}, {"primary": false, "id": 11249, "name": "Cheap Eats"}, {"primary": false, "id": 11263, "name": "Family-Friendly Dining"}, {"primary": false, "id": 11269, "name": "Group Dining"}, {"primary": false, "id": 11286, "name": "Lunch Spot"}, {"primary": false, "id": 11333, "name": "American Express"}, {"primary": false, "id": 11349, "name": "Discover"}, {"primary": false, "id": 11361, "name": "MasterCard"}, {"primary": false, "id": 11382, "name": "Visa"}, {"primary": true, "id": 1705, "name": "Catering"}], "fax_number": null, "expansion": {"count": null, "uri": null}, "impression_id": "000b0000003988da13a708495faefb03ed38ae4a5f", "profile": "http://www.citysearch.com/profile/11340779/marietta_ga/williamson_bros_bar_b_q.html", "address": {"city": "Marietta", "state": "GA", "street": "1425 Roswell Rd", "postal_code": "30062"}, "capProviderId": null, "distance": null, "has_offers": false, "name": "Williamson Bros. Bar-B-Q", "longitude": -84.510219, "has_menu": true, "awards": null, "user_review_count": 65}, {"business_operation_status": 1, "rating": 6.0, "neighborhood": null, "image": "http://i1.ypcdn.com/newdisplay_distr/sbc/ccb8f681e523456cb9aa752030306a85.gif", "scorecard": null, "featured": true, "sample_categories": "Restaurants, Bars & Clubs, Catering, Mexican, Carry Out", "public_id": "border-mexican-restaurant-smyrna", "id": 2923018, "votes": null, "tagline": "Authentic Mexican food! Full bar! Patio!", "has_video": false, "website": "http://www.citysearch.com/profile/external/2923018/smyrna_ga/on_border_mexican_restaurant.html", "offers": null, "latitude": 33.890145, "politanName": "Atlanta, GA Metro ", "phone_number": "6788238746", "tags": [{"primary": false, "id": 164, "name": "Bars & Clubs"}, {"primary": false, "id": 1705, "name": "Catering"}, {"primary": false, "id": 11208, "name": "Mexican"}, {"primary": false, "id": 11247, "name": "Carry Out"}, {"primary": false, "id": 11333, "name": "American Express"}, {"primary": false, "id": 11349, "name": "Discover"}, {"primary": false, "id": 11361, "name": "MasterCard"}, {"primary": false, "id": 11382, "name": "Visa"}, {"primary": true, "id": 1722, "name": "Restaurants"}], "fax_number": null, "expansion": {"count": null, "uri": null}, "impression_id": "000b000000cfcce7519d76487686b20d3a24c45c94", "profile": "http://www.citysearch.com/profile/2923018/smyrna_ga/on_border_mexican_restaurant.html", "address": {"city": "Smyrna", "state": "GA", "street": "2569 Cobb Pkwy SE", "postal_code": "30080"}, "capProviderId": 11, "distance": null, "has_offers": false, "name": "On-Border Mexican Restaurant", "longitude": -84.474942, "has_menu": true, "awards": null, "user_review_count": 71}, {"business_operation_status": 1, "rating": 9.0, "neighborhood": null, "image": "http://images.citysearch.net/assets/imgdb/15/f3/76/8d/29/1a/4c/0a/b6/70/1b/be/fd/12/c9/b7.png", "scorecard": null, "featured": false, "sample_categories": "Restaurants, Brazilian, Steakhouse", "public_id": "picanha-steakhouse-buffet-marietta", "id": 602810462, "votes": null, "tagline": "Traditional Churrascos and Hot Latin Dishes in Marietta - Picanha ", "has_video": false, "website": null, "offers": null, "latitude": 33.918666, "politanName": "Atlanta, GA Metro ", "phone_number": "7702260434", "tags": [{"primary": false, "id": 11204, "name": "Brazilian"}, {"primary": false, "id": 11316, "name": "Steakhouse"}, {"primary": true, "id": 1722, "name": "Restaurants"}], "fax_number": null, "expansion": {"count": null, "uri": null}, "impression_id": "000b0000009dd8856183534c849ea7362278b16464", "profile": "http://www.citysearch.com/profile/602810462/marietta_ga/picanha_steakhouse_buffet.html", "address": {"city": "Marietta", "state": "GA", "street": "1360 Powers Ferry Road", "postal_code": "30067"}, "capProviderId": null, "distance": null, "has_offers": false, "name": "Picanha Steakhouse & Buffet", "longitude": -84.469414, "has_menu": false, "awards": null, "user_review_count": 2}, {"business_operation_status": 1, "rating": 5.0, "neighborhood": null, "image": "http://images.citysearch.net/assets/imgdb/merchant/2015/3/3/0/XbDaJnPm123.jpeg", "scorecard": null, "featured": true, "sample_categories": "Restaurants, New American, $, Carry Out, Family Style Dining", "public_id": "olive-garden-smyrna", "id": 2922268, "votes": null, "tagline": "Buy One Take One is Back! Starting at $12.99", "has_video": false, "website": "http://www.citysearch.com/profile/external/2922268/smyrna_ga/olive_garden.html", "offers": null, "latitude": 33.891868, "politanName": "Atlanta, GA Metro ", "phone_number": "7709338971", "tags": [{"primary": false, "id": 11189, "name": "New American"}, {"primary": false, "id": 11231, "name": "$"}, {"primary": false, "id": 11247, "name": "Carry Out"}, {"primary": false, "id": 11262, "name": "Family Style Dining"}, {"primary": false, "id": 11263, "name": "Family-Friendly Dining"}, {"primary": false, "id": 11269, "name": "Group Dining"}, {"primary": false, "id": 11279, "name": "Italian"}, {"primary": false, "id": 11286, "name": "Lunch Spot"}, {"primary": false, "id": 11333, "name": "American Express"}, {"primary": false, "id": 11347, "name": "Debit Card"}, {"primary": false, "id": 11348, "name": "Diners Club"}, {"primary": false, "id": 11349, "name": "Discover"}, {"primary": false, "id": 11361, "name": "MasterCard"}, {"primary": false, "id": 11382, "name": "Visa"}, {"primary": true, "id": 1722, "name": "Restaurants"}], "fax_number": null, "expansion": {"count": null, "uri": null}, "impression_id": "000b0000000641e158784e4fe8842461e15cb9c4a0", "profile": "http://www.citysearch.com/profile/2922268/smyrna_ga/olive_garden.html", "address": {"city": "Smyrna", "state": "GA", "street": "2467 Cobb Parkway Se", "postal_code": "30080"}, "capProviderId": 1, "distance": null, "has_offers": false, "name": "Olive Garden", "longitude": -84.4772, "has_menu": true, "awards": null, "user_review_count": 2}, {"business_operation_status": 1, "rating": 6.0, "neighborhood": null, "image": "http://images.citysearch.net/assets/imgdb/merchant/2015/3/3/0/XbDaJnPm123.jpeg", "scorecard": null, "featured": true, "sample_categories": "Restaurants, New American, Carry Out, Family Style Dining, Family-Friendly Dining", "public_id": "olive-garden-roswell", "id": 2918314, "votes": null, "tagline": "Buy One Take One is Back! Starting at $12.99", "has_video": false, "website": "http://www.citysearch.com/profile/external/2918314/roswell_ga/olive_garden.html", "offers": null, "latitude": 34.027437, "politanName": "Atlanta, GA Metro ", "phone_number": "7706420395", "tags": [{"primary": false, "id": 11189, "name": "New American"}, {"primary": false, "id": 11247, "name": "Carry Out"}, {"primary": false, "id": 11262, "name": "Family Style Dining"}, {"primary": false, "id": 11263, "name": "Family-Friendly Dining"}, {"primary": false, "id": 11279, "name": "Italian"}, {"primary": false, "id": 11286, "name": "Lunch Spot"}, {"primary": true, "id": 1722, "name": "Restaurants"}], "fax_number": null, "expansion": {"count": null, "uri": null}, "impression_id": "000b0000009be9a111b6394893be93abd960d0a2b8", "profile": "http://www.citysearch.com/profile/2918314/roswell_ga/olive_garden.html", "address": {"city": "Roswell", "state": "GA", "street": "905 Holcomb Bridge Rd", "postal_code": "30076"}, "capProviderId": 1, "distance": null, "has_offers": false, "name": "Olive Garden", "longitude": -84.335375, "has_menu": true, "awards": null, "user_review_count": 7}, {"business_operation_status": 1, "rating": 9.0, "neighborhood": null, "image": "http://images.citysearch.net/assets/imgdb2/reinvent/profile/2012/9/4/14/hxsDTKwo.jpg", "scorecard": null, "featured": false, "sample_categories": "Restaurants, Wine Bars, Organic Foods, Asian, Thai", "public_id": "lthai-west-organic-cuisine-wine-bar-smyrna", "id": 603158332, "votes": null, "tagline": "Same great menu, brand new location in Smyrna", "has_video": false, "website": "http://www.citysearch.com/profile/external/603158332/smyrna_ga/l_thai_west_organic_cuisine_wine_bar.html", "offers": null, "latitude": 33.842892, "politanName": "Atlanta, GA Metro ", "phone_number": "7704344344", "tags": [{"primary": false, "id": 1704, "name": "Wine Bars"}, {"primary": false, "id": 11173, "name": "Organic Foods"}, {"primary": false, "id": 11235, "name": "Asian"}, {"primary": false, "id": 11319, "name": "Thai"}, {"primary": false, "id": 11333, "name": "American Express"}, {"primary": false, "id": 11339, "name": "Cash"}, {"primary": false, "id": 11361, "name": "MasterCard"}, {"primary": false, "id": 11382, "name": "Visa"}, {"primary": false, "id": 14910, "name": "Organic"}, {"primary": true, "id": 1722, "name": "Restaurants"}], "fax_number": null, "expansion": {"count": null, "uri": null}, "impression_id": "000b0000009bfc1786015d4c33ad05c17139a4d803", "profile": "http://www.citysearch.com/profile/603158332/smyrna_ga/l_thai_west_organic_cuisine_wine_bar.html", "address": {"city": "Smyrna", "state": "GA", "street": "4500 W Village Pl SE Ste 1017", "postal_code": "30080"}, "capProviderId": null, "distance": null, "has_offers": false, "name": "L'Thai West Organic Cuisine & Wine Bar", "longitude": -84.490261, "has_menu": false, "awards": null, "user_review_count": 19}, {"business_operation_status": 1, "rating": 10.0, "neighborhood": null, "image": "http://images.citysearch.net/assets/imgdb/merchant/2012/3/21/0/zUfdpINR279.jpeg", "scorecard": null, "featured": false, "sample_categories": "Grill Restaurants, Bars & Pubs, Sports Bars, Restaurants, Pizza", "public_id": "blue-moon-pizza-marietta-2", "id": 37244513, "votes": null, "tagline": null, "has_video": false, "website": "http://www.citysearch.com/profile/external/37244513/marietta_ga/blue_moon_pizza.html", "offers": null, "latitude": 33.90373, "politanName": "Atlanta, GA Metro ", "phone_number": "7709842444", "tags": [{"primary": false, "id": 1686, "name": "Bars & Pubs"}, {"primary": false, "id": 1701, "name": "Sports Bars"}, {"primary": false, "id": 1722, "name": "Restaurants"}, {"primary": false, "id": 11299, "name": "Pizza"}, {"primary": false, "id": 11333, "name": "American Express"}, {"primary": false, "id": 11349, "name": "Discover"}, {"primary": false, "id": 11361, "name": "MasterCard"}, {"primary": false, "id": 11382, "name": "Visa"}, {"primary": true, "id": 6191, "name": "Grill Restaurants"}], "fax_number": null, "expansion": {"count": null, "uri": null}, "impression_id": "000b0000007db4ca4dbcee4904821feb10e4bf57f0", "profile": "http://www.citysearch.com/profile/37244513/marietta_ga/blue_moon_pizza.html", "address": {"city": "Marietta", "state": "GA", "street": "2359 Windy Hill Rd Se Ste 100", "postal_code": "30067"}, "capProviderId": null, "distance": null, "has_offers": false, "name": "Blue Moon Pizza", "longitude": -84.484545, "has_menu": true, "awards": null, "user_review_count": 78}, {"business_operation_status": 0, "rating": 10.0, "neighborhood": null, "image": null, "scorecard": null, "featured": false, "sample_categories": "Bars & Clubs, Bars & Pubs, Lounges, Neighborhood Bars, Sports Bars", "public_id": "charlie-mopps-public-house-atlanta", "id": 45591853, "votes": null, "tagline": null, "has_video": false, "website": null, "offers": null, "latitude": 33.91414, "politanName": "Atlanta, GA Metro ", "phone_number": "4048450713", "tags": [{"primary": false, "id": 1686, "name": "Bars & Pubs"}, {"primary": false, "id": 1697, "name": "Lounges"}, {"primary": false, "id": 1698, "name": "Neighborhood Bars"}, {"primary": false, "id": 1701, "name": "Sports Bars"}, {"primary": false, "id": 10014, "name": "After Hours"}, {"primary": false, "id": 11095, "name": "Jukebox"}, {"primary": false, "id": 11102, "name": "Notable Beer List"}, {"primary": false, "id": 11190, "name": "Traditional American"}, {"primary": false, "id": 11244, "name": "Business Dining"}, {"primary": false, "id": 11249, "name": "Cheap Eats"}, {"primary": false, "id": 11256, "name": "Date Spot"}, {"primary": false, "id": 11269, "name": "Group Dining"}, {"primary": false, "id": 11282, "name": "Late Night Dining"}, {"primary": false, "id": 11286, "name": "Lunch Spot"}, {"primary": false, "id": 11296, "name": "Outdoor Dining"}, {"primary": true, "id": 164, "name": "Bars & Clubs"}], "fax_number": null, "expansion": {"count": null, "uri": null}, "impression_id": "000b0000008fe4882421824b619da8d119893a4eba", "profile": "http://www.citysearch.com/profile/45591853/atlanta_ga/charlie_mopps_public_house.html", "address": {"city": "Atlanta", "state": "GA", "street": "5830 Roswell Rd NE", "postal_code": "30328"}, "capProviderId": null, "distance": null, "has_offers": false, "name": "Charlie Mopps Public House", "longitude": -84.379934, "has_menu": false, "awards": null, "user_review_count": 22}, {"business_operation_status": 1, "rating": 10.0, "neighborhood": null, "image": "http://o3.aolcdn.com/dims-shared/dims3/PATCH/resize/600x450/http://hss-prod.hss.aol.com/hss/storage/patch/70f4b9d44b921e080c50cf6033c1dfb3", "scorecard": null, "featured": false, "sample_categories": "Restaurants, Traditional American, Californian, $$, Lunch Spot", "public_id": "greenwoods-on-green-street-roswell", "id": 2916709, "votes": null, "tagline": null, "has_video": false, "website": "http://www.citysearch.com/profile/external/2916709/roswell_ga/greenwoods_on_green_street.html", "offers": null, "latitude": 34.02815, "politanName": "Atlanta, GA Metro ", "phone_number": "7709925383", "tags": [{"primary": false, "id": 11190, "name": "Traditional American"}, {"primary": false, "id": 11191, "name": "Californian"}, {"primary": false, "id": 11232, "name": "$$"}, {"primary": false, "id": 11286, "name": "Lunch Spot"}, {"primary": false, "id": 11312, "name": "Southern"}, {"primary": false, "id": 11339, "name": "Cash"}, {"primary": false, "id": 11341, "name": "Check"}, {"primary": false, "id": 11349, "name": "Discover"}, {"primary": false, "id": 11361, "name": "MasterCard"}, {"primary": false, "id": 11382, "name": "Visa"}, {"primary": true, "id": 1722, "name": "Restaurants"}], "fax_number": null, "expansion": {"count": null, "uri": null}, "impression_id": "000b000000c0d501ea22fd4119bde1ba11a19872f7", "profile": "http://www.citysearch.com/profile/2916709/roswell_ga/greenwoods_on_green_street.html", "address": {"city": "Roswell", "state": "GA", "street": "1087 Green St", "postal_code": "30075"}, "capProviderId": null, "distance": null, "has_offers": false, "name": "Greenwoods On Green Street", "longitude": -84.359739, "has_menu": false, "awards": null, "user_review_count": 30}, {"business_operation_status": 1, "rating": 9.0, "neighborhood": null, "image": "http://o2.aolcdn.com/dims-shared/dims3/PATCH/resize/600x450/http://hss-prod.hss.aol.com/hss/storage/patch/67219c44c72e23a9b493eb9aaf9c695b", "scorecard": null, "featured": false, "sample_categories": "Bakeries, Restaurants, French, $, Cheap Eats", "public_id": "douceur-de-france-marietta", "id": 11642899, "votes": null, "tagline": null, "has_video": false, "website": "http://www.citysearch.com/profile/external/11642899/marietta_ga/douceur_de_france.html", "offers": null, "latitude": 33.938896, "politanName": "Atlanta, GA Metro ", "phone_number": "7704255050", "tags": [{"primary": false, "id": 1722, "name": "Restaurants"}, {"primary": false, "id": 11219, "name": "French"}, {"primary": false, "id": 11231, "name": "$"}, {"primary": false, "id": 11249, "name": "Cheap Eats"}, {"primary": false, "id": 11339, "name": "Cash"}, {"primary": true, "id": 1685, "name": "Bakeries"}], "fax_number": null, "expansion": {"count": null, "uri": null}, "impression_id": "000b0000007b2c046cc52e4dfaa7f05de86512438a", "profile": "http://www.citysearch.com/profile/11642899/marietta_ga/douceur_de_france.html", "address": {"city": "Marietta", "state": "GA", "street": "367 Glover St SE", "postal_code": "30060"}, "capProviderId": null, "distance": null, "has_offers": false, "name": "Douceur De France", "longitude": -84.542509, "has_menu": true, "awards": null, "user_review_count": 17}, {"business_operation_status": 1, "rating": 8.0, "neighborhood": null, "image": "http://o4.aolcdn.com/dims-shared/dims3/PATCH/resize/600x450/http://hss-prod.hss.aol.com/hss/storage/patch/7a53f5b12db93617c29aa39c9b731848", "scorecard": null, "featured": false, "sample_categories": "Restaurants, Bars & Clubs, Bars & Pubs, Lounges, Neighborhood Bars", "public_id": "dunwoody-tavern-atlanta", "id": 3028026, "votes": null, "tagline": null, "has_video": false, "website": "http://www.citysearch.com/profile/external/3028026/atlanta_ga/dunwoody_tavern.html", "offers": null, "latitude": 33.94817, "politanName": "Atlanta, GA Metro ", "phone_number": "7703944164", "tags": [{"primary": false, "id": 164, "name": "Bars & Clubs"}, {"primary": false, "id": 1686, "name": "Bars & Pubs"}, {"primary": false, "id": 1697, "name": "Lounges"}, {"primary": false, "id": 1698, "name": "Neighborhood Bars"}, {"primary": false, "id": 1702, "name": "Taverns"}, {"primary": false, "id": 10013, "name": "21 & Over"}, {"primary": false, "id": 10015, "name": "After Work"}, {"primary": false, "id": 10037, "name": "Outdoor Seating"}, {"primary": false, "id": 10040, "name": "Smoking Permitted"}, {"primary": false, "id": 11090, "name": "Happy Hour"}, {"primary": false, "id": 11333, "name": "American Express"}, {"primary": false, "id": 11341, "name": "Check"}, {"primary": false, "id": 11347, "name": "Debit Card"}, {"primary": false, "id": 11348, "name": "Diners Club"}, {"primary": false, "id": 11349, "name": "Discover"}, {"primary": false, "id": 11361, "name": "MasterCard"}, {"primary": false, "id": 11382, "name": "Visa"}, {"primary": true, "id": 1722, "name": "Restaurants"}], "fax_number": null, "expansion": {"count": null, "uri": null}, "impression_id": "000b000000e355c899fd4c49b8819a26b184ed3c23", "profile": "http://www.citysearch.com/profile/3028026/atlanta_ga/dunwoody_tavern.html", "address": {"city": "Atlanta", "state": "GA", "street": "5488 Chamblee Dunwoody Rd", "postal_code": "30338"}, "capProviderId": null, "distance": null, "has_offers": false, "name": "Dunwoody Tavern", "longitude": -84.33569, "has_menu": true, "awards": null, "user_review_count": 6}, {"business_operation_status": 1, "rating": 10.0, "neighborhood": null, "image": "http://images.citysearch.net/assets/imgdb/merchant/2012/9/6/0/EEiTwyNc89.jpeg", "scorecard": null, "featured": false, "sample_categories": "Bistros, Bakeries, Catering, Restaurants, Dessert Shops", "public_id": "joli-kobe-bakery-cafe-atlanta", "id": 3037793, "votes": null, "tagline": "\"Come see and Taste the Difference\"", "has_video": false, "website": "http://www.citysearch.com/profile/external/3037793/atlanta_ga/joli_kobe_bakery_bistro.html", "offers": null, "latitude": 33.907557, "politanName": "Atlanta, GA Metro ", "phone_number": "4048433257", "tags": [{"primary": false, "id": 13690, "name": "Bistros"}, {"primary": false, "id": 1705, "name": "Catering"}, {"primary": false, "id": 1722, "name": "Restaurants"}, {"primary": false, "id": 1728, "name": "Dessert Shops"}, {"primary": false, "id": 11219, "name": "French"}, {"primary": false, "id": 11057, "name": "Wedding Cakes"}, {"primary": false, "id": 11202, "name": "Japanese"}, {"primary": false, "id": 11231, "name": "$"}, {"primary": false, "id": 11284, "name": "Local Favorite"}, {"primary": false, "id": 11333, "name": "American Express"}, {"primary": false, "id": 11361, "name": "MasterCard"}, {"primary": false, "id": 11367, "name": "Open 7 Days"}, {"primary": false, "id": 11382, "name": "Visa"}, {"primary": true, "id": 1685, "name": "Bakeries"}], "fax_number": null, "expansion": {"count": null, "uri": null}, "impression_id": "000b00000030792054c30d4b1b94046018d7543ef6", "profile": "http://www.citysearch.com/profile/3037793/atlanta_ga/joli_kobe_bakery_bistro.html", "address": {"city": "Atlanta", "state": "GA", "street": "5600 Roswell Rd Ne", "postal_code": "30342"}, "capProviderId": null, "distance": null, "has_offers": false, "name": "Joli Kobe Bakery & Bistro", "longitude": -84.378776, "has_menu": true, "awards": null, "user_review_count": 23}, {"business_operation_status": 1, "rating": 9.0, "neighborhood": null, "image": "http://images.citysearch.net/assets/imgdb/merchant/2010/9/28/0/FfMeBvtO23.jpeg", "scorecard": null, "featured": false, "sample_categories": "Restaurants, Sushi, Japanese, Seafood, Asian", "public_id": "genki-noodles-sushi-atlanta", "id": 638790120, "votes": null, "tagline": "\"A Happy and Warm Feeling\"", "has_video": false, "website": "http://www.citysearch.com/profile/external/638790120/atlanta_ga/genki_noodles_sushi.html", "offers": "$5 off Coupon", "latitude": 33.90741, "politanName": "Atlanta, GA Metro ", "phone_number": "4048438319", "tags": [{"primary": false, "id": 11201, "name": "Sushi"}, {"primary": false, "id": 11202, "name": "Japanese"}, {"primary": false, "id": 11228, "name": "Seafood"}, {"primary": false, "id": 11235, "name": "Asian"}, {"primary": false, "id": 11282, "name": "Late Night Dining"}, {"primary": true, "id": 1722, "name": "Restaurants"}], "fax_number": null, "expansion": {"count": null, "uri": null}, "impression_id": "000b000000068ad4efa7b940b3ab1b9057d8370853", "profile": "http://www.citysearch.com/profile/638790120/atlanta_ga/genki_noodles_sushi.html", "address": {"city": "Atlanta", "state": "GA", "street": "5590 Roswell Rd 100", "postal_code": "30342"}, "capProviderId": null, "distance": null, "has_offers": true, "name": "Genki Noodles & Sushi", "longitude": -84.380347, "has_menu": true, "awards": null, "user_review_count": 12}, {"business_operation_status": 1, "rating": 9.0, "neighborhood": null, "image": "http://o3.aolcdn.com/dims-shared/dims3/PATCH/resize/600x450/http://hss-prod.hss.aol.com/hss/storage/patch/7044550661ba0785470745a6f6d3c6ca", "scorecard": null, "featured": false, "sample_categories": "Ethnic Food Markets, Restaurants, Sushi, Japanese, Asian", "public_id": "shallots-sushi-thai-cuisine-roswell", "id": 41920004, "votes": null, "tagline": "Sushi & Thai Under One Roof", "has_video": false, "website": "http://www.citysearch.com/profile/external/41920004/roswell_ga/la_voh_thai_sushi_bar.html", "offers": null, "latitude": 34.03188, "politanName": "Atlanta, GA Metro ", "phone_number": "7709923500", "tags": [{"primary": false, "id": 1722, "name": "Restaurants"}, {"primary": false, "id": 11201, "name": "Sushi"}, {"primary": false, "id": 11202, "name": "Japanese"}, {"primary": false, "id": 11235, "name": "Asian"}, {"primary": false, "id": 11247, "name": "Carry Out"}, {"primary": false, "id": 11249, "name": "Cheap Eats"}, {"primary": false, "id": 11263, "name": "Family-Friendly Dining"}, {"primary": false, "id": 11269, "name": "Group Dining"}, {"primary": false, "id": 11286, "name": "Lunch Spot"}, {"primary": false, "id": 11319, "name": "Thai"}, {"primary": false, "id": 11333, "name": "American Express"}, {"primary": false, "id": 11349, "name": "Discover"}, {"primary": false, "id": 11361, "name": "MasterCard"}, {"primary": false, "id": 11367, "name": "Open 7 Days"}, {"primary": false, "id": 11382, "name": "Visa"}, {"primary": true, "id": 1712, "name": "Ethnic Food Markets"}], "fax_number": null, "expansion": {"count": null, "uri": null}, "impression_id": "000b000000477972623e2f4bf184e4422d09a3482b", "profile": "http://www.citysearch.com/profile/41920004/roswell_ga/la_voh_thai_sushi_bar.html", "address": {"city": "Roswell", "state": "GA", "street": "695 Holcomb Bridge Rd", "postal_code": "30076"}, "capProviderId": null, "distance": null, "has_offers": false, "name": "La Voh Thai & Sushi Bar", "longitude": -84.340642, "has_menu": true, "awards": null, "user_review_count": 43}, {"business_operation_status": 1, "rating": 9.0, "neighborhood": null, "image": "http://images.citysearch.net/assets/imgdb/99/df/f1/36/3b/74/42/08/a7/51/33/1b/3a/7e/58/2d.jpg", "scorecard": null, "featured": false, "sample_categories": "Pubs, Restaurants, Cafes, Southern, Traditional American", "public_id": "fickle-pickle-roswell", "id": 39295642, "votes": null, "tagline": "Best Casual spot for Lunch and Dinner", "has_video": false, "website": "http://www.citysearch.com/profile/external/39295642/roswell_ga/fickle_pickle.html", "offers": "Kids Eat FREE Tuesday Nights! ", "latitude": 34.028144, "politanName": "Atlanta, GA Metro ", "phone_number": "7706509838", "tags": [{"primary": false, "id": 1687, "name": "Pubs"}, {"primary": false, "id": 1722, "name": "Restaurants"}, {"primary": false, "id": 6190, "name": "Cafes"}, {"primary": false, "id": 11190, "name": "Traditional American"}, {"primary": false, "id": 11240, "name": "Brunch"}, {"primary": false, "id": 11243, "name": "Business Breakfast"}, {"primary": false, "id": 11244, "name": "Business Dining"}, {"primary": false, "id": 11258, "name": "Dine At The Bar"}, {"primary": false, "id": 11263, "name": "Family-Friendly Dining"}, {"primary": false, "id": 11269, "name": "Group Dining"}, {"primary": false, "id": 11294, "name": "Notable Wine List"}, {"primary": false, "id": 11296, "name": "Outdoor Dining"}, {"primary": false, "id": 11307, "name": "Romantic Dining"}, {"primary": false, "id": 11333, "name": "American Express"}, {"primary": false, "id": 11349, "name": "Discover"}, {"primary": false, "id": 11361, "name": "MasterCard"}, {"primary": false, "id": 11382, "name": "Visa"}, {"primary": false, "id": 12821, "name": "Casual Date Spot"}, {"primary": true, "id": 11312, "name": "Southern"}], "fax_number": null, "expansion": {"count": null, "uri": null}, "impression_id": "000b000000a7f8d69128a6440eb52822dc49a7071f", "profile": "http://www.citysearch.com/profile/39295642/roswell_ga/fickle_pickle.html", "address": {"city": "Roswell", "state": "GA", "street": "1085 Canton St", "postal_code": "30075"}, "capProviderId": null, "distance": null, "has_offers": true, "name": "Fickle Pickle", "longitude": -84.361595, "has_menu": true, "awards": null, "user_review_count": 19}, {"business_operation_status": 1, "rating": 9.0, "neighborhood": null, "image": "http://images.citysearch.net/assets/imgdb/merchant/2010/10/27/0/QGqjkrwD60.jpeg", "scorecard": null, "featured": false, "sample_categories": "Restaurants, Catering, Family Style Dining, Italian, American Express", "public_id": "ippolitos-italian-restaurant-sandy-spgs", "id": 3020329, "votes": null, "tagline": "Family Style Italian Dining", "has_video": false, "website": "http://www.citysearch.com/profile/external/3020329/sandy_springs_ga/ippolito_s_italian_restaurant.html", "offers": null, "latitude": 33.936163, "politanName": "Atlanta, GA Metro ", "phone_number": "4042563546", "tags": [{"primary": false, "id": 1705, "name": "Catering"}, {"primary": false, "id": 11262, "name": "Family Style Dining"}, {"primary": false, "id": 11279, "name": "Italian"}, {"primary": false, "id": 11333, "name": "American Express"}, {"primary": false, "id": 11349, "name": "Discover"}, {"primary": false, "id": 11361, "name": "MasterCard"}, {"primary": false, "id": 11382, "name": "Visa"}, {"primary": true, "id": 1722, "name": "Restaurants"}], "fax_number": null, "expansion": {"count": null, "uri": null}, "impression_id": "000b0000001b551cc970584860acd208667807e585", "profile": "http://www.citysearch.com/profile/3020329/sandy_springs_ga/ippolito_s_italian_restaurant.html", "address": {"city": "Sandy Springs", "state": "GA", "street": "6623 Roswell Rd Ne", "postal_code": "30328"}, "capProviderId": null, "distance": null, "has_offers": false, "name": "Ippolito's Italian Restaurant", "longitude": -84.378916, "has_menu": true, "awards": null, "user_review_count": 16}, {"business_operation_status": 1, "rating": 10.0, "neighborhood": null, "image": "http://images.citysearch.net/assets/imgdb/f0/9f/9b/8f/bb/7b/42/62/a2/dd/95/94/8a/f0/df/18.jpg", "scorecard": null, "featured": false, "sample_categories": "Juice & Smoothie Shops, Restaurants, Delis And Delicatessens, Health Food, Vegetarian", "public_id": "froots-roswell", "id": 603169352, "votes": null, "tagline": "Luscious Smoothies and gourmet wraps in Roswell.", "has_video": false, "website": "http://www.citysearch.com/profile/external/603169352/roswell_ga/froots.html", "offers": null, "latitude": 34.056359, "politanName": "Atlanta, GA Metro ", "phone_number": "6784615000", "tags": [{"primary": false, "id": 1722, "name": "Restaurants"}, {"primary": false, "id": 1727, "name": "Delis And Delicatessens"}, {"primary": false, "id": 11200, "name": "Health Food"}, {"primary": false, "id": 11230, "name": "Vegetarian"}, {"primary": true, "id": 1735, "name": "Juice & Smoothie Shops"}], "fax_number": null, "expansion": {"count": null, "uri": null}, "impression_id": "000b000000a673f9a9d18442aab9209e11e5bc9d5c", "profile": "http://www.citysearch.com/profile/603169352/roswell_ga/froots.html", "address": {"city": "Roswell", "state": "GA", "street": "640 W Crossville Rd Ste 500", "postal_code": "30075"}, "capProviderId": null, "distance": null, "has_offers": false, "name": "Froots", "longitude": -84.378656, "has_menu": false, "awards": null, "user_review_count": 16}, {"business_operation_status": 1, "rating": 9.0, "neighborhood": null, "image": "http://images.citysearch.net/assets/imgdb/merchant/2009/12/16/0/lcftgOyU81.jpeg", "scorecard": null, "featured": false, "sample_categories": "Restaurants, Cheap Eats, After Work, Beer, $", "public_id": "harrys-new-york-pizza-subs-atlanta", "id": 3029517, "votes": null, "tagline": "Harry's New York Style Pizzas and Subs Have Satisfied Atlanta Diners Since 1974", "has_video": false, "website": "http://www.citysearch.com/profile/external/3029517/atlanta_ga/harry_s_new_york_pizza_subs.html", "offers": null, "latitude": 33.900242, "politanName": "Atlanta, GA Metro ", "phone_number": "7709554413", "tags": [{"primary": false, "id": 1722, "name": "Restaurants"}, {"primary": false, "id": 10015, "name": "After Work"}, {"primary": false, "id": 11178, "name": "Beer"}, {"primary": false, "id": 11231, "name": "$"}, {"primary": false, "id": 11263, "name": "Family-Friendly Dining"}, {"primary": false, "id": 11286, "name": "Lunch Spot"}, {"primary": false, "id": 11299, "name": "Pizza"}, {"primary": false, "id": 11333, "name": "American Express"}, {"primary": false, "id": 11349, "name": "Discover"}, {"primary": false, "id": 11361, "name": "MasterCard"}, {"primary": false, "id": 11382, "name": "Visa"}, {"primary": true, "id": 11249, "name": "Cheap Eats"}], "fax_number": null, "expansion": {"count": null, "uri": null}, "impression_id": "000b0000001ebc8d1d7fd64e3ea234a77a1a3a6783", "profile": "http://www.citysearch.com/profile/3029517/atlanta_ga/harry_s_new_york_pizza_subs.html", "address": {"city": "Atlanta", "state": "GA", "street": "2150 Powers Ferry Rd SE", "postal_code": "30339"}, "capProviderId": null, "distance": null, "has_offers": false, "name": "Harry's New York Pizza & Subs", "longitude": -84.448723, "has_menu": true, "awards": null, "user_review_count": 27}, {"business_operation_status": 1, "rating": null, "neighborhood": null, "image": "http://images.citysearch.net/assets/imgdb/merchant/2011/7/29/0/ZAMmXokx277.jpeg", "scorecard": null, "featured": false, "sample_categories": "Restaurants, Bar Scene, Brunch, Business Dining, Casual Date Spot", "public_id": "table-main-a-southern-tavern-roswell", "id": 605184072, "votes": null, "tagline": "Serving American cuisine with a Southern flair in Historic Roswell, GA", "has_video": false, "website": "http://www.citysearch.com/profile/external/605184072/roswell_ga/table_main_a_southern_tavern.html", "offers": null, "latitude": 34.026538, "politanName": "Atlanta, GA Metro ", "phone_number": "6788695178", "tags": [{"primary": false, "id": 1722, "name": "Restaurants"}, {"primary": false, "id": 11240, "name": "Brunch"}, {"primary": false, "id": 11244, "name": "Business Dining"}, {"primary": false, "id": 12821, "name": "Casual Date Spot"}, {"primary": true, "id": 11238, "name": "Bar Scene"}], "fax_number": null, "expansion": {"count": null, "uri": null}, "impression_id": "000b000000611fbbf4473545e3ab06e4c3bbc1ee36", "profile": "http://www.citysearch.com/profile/605184072/roswell_ga/table_main_a_southern_tavern.html", "address": {"city": "Roswell", "state": "GA", "street": "1028 Canton St", "postal_code": "30075"}, "capProviderId": null, "distance": null, "has_offers": false, "name": "Table & Main | a southern tavern", "longitude": -84.361914, "has_menu": false, "awards": null, "user_review_count": 0}, {"business_operation_status": 1, "rating": 9.0, "neighborhood": null, "image": "http://o3.aolcdn.com/dims-shared/dims3/PATCH/resize/600x450/http://hss-prod.hss.aol.com/hss/storage/patch/e86137254c4247e4ca79b2ad9f3cd25d", "scorecard": null, "featured": false, "sample_categories": "Restaurants, Bars & Clubs, Bars & Pubs, Traditional American, Seafood", "public_id": "whitlocks-grill-marietta", "id": 2906507, "votes": null, "tagline": "Voted \"Amazing Food!\"", "has_video": false, "website": "http://www.citysearch.com/profile/external/2906507/marietta_ga/whitlock_s_grill.html", "offers": null, "latitude": 33.952132, "politanName": "Atlanta, GA Metro ", "phone_number": "7705901500", "tags": [{"primary": false, "id": 164, "name": "Bars & Clubs"}, {"primary": false, "id": 1686, "name": "Bars & Pubs"}, {"primary": false, "id": 11190, "name": "Traditional American"}, {"primary": false, "id": 11228, "name": "Seafood"}, {"primary": false, "id": 11265, "name": "Fine Dining"}, {"primary": false, "id": 11316, "name": "Steakhouse"}, {"primary": false, "id": 11333, "name": "American Express"}, {"primary": false, "id": 11348, "name": "Diners Club"}, {"primary": false, "id": 11349, "name": "Discover"}, {"primary": false, "id": 11361, "name": "MasterCard"}, {"primary": false, "id": 11382, "name": "Visa"}, {"primary": true, "id": 1722, "name": "Restaurants"}], "fax_number": null, "expansion": {"count": null, "uri": null}, "impression_id": "000b000000f0f47ed11176471fba71e734c9916ab9", "profile": "http://www.citysearch.com/profile/2906507/marietta_ga/whitlock_s_grill.html", "address": {"city": "Marietta", "state": "GA", "street": "990 Whitlock Ave NW", "postal_code": "30064"}, "capProviderId": null, "distance": null, "has_offers": false, "name": "Whitlock's Grill", "longitude": -84.578568, "has_menu": false, "awards": null, "user_review_count": 13}, {"business_operation_status": 1, "rating": 9.0, "neighborhood": null, "image": "http://images.citysearch.net/assets/imgdb/ef/a3/36/3f/72/e0/46/d2/a5/32/ec/67/52/38/3e/3f.png", "scorecard": null, "featured": false, "sample_categories": "Restaurants, Greek, Pizza, MasterCard, Visa", "public_id": "christos-pizza-marietta", "id": 2910558, "votes": null, "tagline": "Serving Atlanta's best pizza & greek cuisine since 1981", "has_video": false, "website": "http://www.citysearch.com/profile/external/2910558/marietta_ga/christos_pizza.html", "offers": null, "latitude": 33.92306, "politanName": "Atlanta, GA Metro ", "phone_number": "7709521965", "tags": [{"primary": false, "id": 1722, "name": "Restaurants"}, {"primary": false, "id": 11299, "name": "Pizza"}, {"primary": false, "id": 11361, "name": "MasterCard"}, {"primary": false, "id": 11382, "name": "Visa"}, {"primary": true, "id": 11268, "name": "Greek"}], "fax_number": null, "expansion": {"count": null, "uri": null}, "impression_id": "000b000000e456d45c718a42238d5ab9fd332495ff", "profile": "http://www.citysearch.com/profile/2910558/marietta_ga/christos_pizza.html", "address": {"city": "Marietta", "state": "GA", "street": "2900 Delk Rd SE Ste 1700", "postal_code": "30067"}, "capProviderId": null, "distance": null, "has_offers": false, "name": "Christos' Pizza", "longitude": -84.467405, "has_menu": true, "awards": null, "user_review_count": 21}, {"business_operation_status": 1, "rating": 9.0, "neighborhood": null, "image": "http://images.citysearch.net/assets/imgdb/d5/ce/af/fb/8f/19/4a/25/a6/90/84/bd/ae/62/a3/06.jpg", "scorecard": null, "featured": false, "sample_categories": "Restaurants, Bars & Pubs, Neighborhood Bars, Singles Bars, After Work", "public_id": "meehans-public-house-sandy-springs-sandy-spgs", "id": 43871764, "votes": null, "tagline": "Irish Customs. Neighborhood Charm.", "has_video": false, "website": "http://www.citysearch.com/profile/external/43871764/sandy_springs_ga/meehan_s_public_house_sandy_springs.html", "offers": "Sundays 1/2 Price Wine!", "latitude": 33.921134, "politanName": "Atlanta, GA Metro ", "phone_number": "4048438058", "tags": [{"primary": false, "id": 1686, "name": "Bars & Pubs"}, {"primary": false, "id": 1698, "name": "Neighborhood Bars"}, {"primary": false, "id": 1700, "name": "Singles Bars"}, {"primary": false, "id": 10015, "name": "After Work"}, {"primary": false, "id": 10035, "name": "Live Music"}, {"primary": false, "id": 10037, "name": "Outdoor Seating"}, {"primary": false, "id": 11065, "name": "Bar Food"}, {"primary": false, "id": 11090, "name": "Happy Hour"}, {"primary": false, "id": 11221, "name": "Irish"}, {"primary": false, "id": 11240, "name": "Brunch"}, {"primary": false, "id": 11333, "name": "American Express"}, {"primary": false, "id": 11349, "name": "Discover"}, {"primary": false, "id": 11361, "name": "MasterCard"}, {"primary": false, "id": 11382, "name": "Visa"}, {"primary": false, "id": 12821, "name": "Casual Date Spot"}, {"primary": false, "id": 12829, "name": "Date Spot"}, {"primary": true, "id": 1722, "name": "Restaurants"}], "fax_number": null, "expansion": {"count": null, "uri": null}, "impression_id": "000b0000009a5f1ca3a8324e968dd2b923d0fff963", "profile": "http://www.citysearch.com/profile/43871764/sandy_springs_ga/meehan_s_public_house_sandy_springs.html", "address": {"city": "Sandy Springs", "state": "GA", "street": "227 Sandy Springs Pl NE Ste 416", "postal_code": "30328"}, "capProviderId": null, "distance": null, "has_offers": true, "name": "Meehan's Public House - Sandy Springs", "longitude": -84.382587, "has_menu": true, "awards": null, "user_review_count": 15}, {"business_operation_status": 1, "rating": 10.0, "neighborhood": null, "image": "http://images.citysearch.net/assets/imgdb/merchant/2010/11/9/0/CrLmmmpZ212.jpeg", "scorecard": null, "featured": false, "sample_categories": "Restaurants, Corporate Catering, Catering, Delis And Delicatessens, Sandwich Shops", "public_id": "baldinos-giant-jersey-subs-marietta-2", "id": 2909705, "votes": null, "tagline": "Atlanta's Best Kept Sandwich and Sub Secret - Also Serving Marietta Area!", "has_video": false, "website": "http://www.citysearch.com/profile/external/2909705/marietta_ga/baldinos_giant_jersey_subs.html", "offers": "Home of the Daily Special - $3.49!", "latitude": 33.949818, "politanName": "Atlanta, GA Metro ", "phone_number": "7703211177", "tags": [{"primary": false, "id": 13670, "name": "Corporate Catering"}, {"primary": false, "id": 1705, "name": "Catering"}, {"primary": false, "id": 1727, "name": "Delis And Delicatessens"}, {"primary": false, "id": 1736, "name": "Sandwich Shops"}, {"primary": false, "id": 11189, "name": "New American"}, {"primary": false, "id": 11199, "name": "Fast Food"}, {"primary": false, "id": 11231, "name": "$"}, {"primary": false, "id": 11247, "name": "Carry Out"}, {"primary": false, "id": 11249, "name": "Cheap Eats"}, {"primary": false, "id": 11262, "name": "Family Style Dining"}, {"primary": false, "id": 11263, "name": "Family-Friendly Dining"}, {"primary": false, "id": 11279, "name": "Italian"}, {"primary": false, "id": 11286, "name": "Lunch Spot"}, {"primary": false, "id": 11333, "name": "American Express"}, {"primary": false, "id": 11339, "name": "Cash"}, {"primary": false, "id": 11349, "name": "Discover"}, {"primary": false, "id": 11361, "name": "MasterCard"}, {"primary": false, "id": 11369, "name": "Parking Lot"}, {"primary": false, "id": 11382, "name": "Visa"}, {"primary": true, "id": 1722, "name": "Restaurants"}], "fax_number": null, "expansion": {"count": null, "uri": null}, "impression_id": "000b00000070944eed7c4a457baae00bb7e0f1710e", "profile": "http://www.citysearch.com/profile/2909705/marietta_ga/baldinos_giant_jersey_subs.html", "address": {"city": "Marietta", "state": "GA", "street": "80 Powers Ferry Rd Se", "postal_code": "30067"}, "capProviderId": null, "distance": null, "has_offers": true, "name": "Baldinos Giant Jersey Subs", "longitude": -84.511122, "has_menu": true, "awards": null, "user_review_count": 4}], "histograms": [], "tag_ids": [1722], "uri": "http://api.citygridmedia.com:8080/search/places/v2/search/where?has_offers=false&type=restaurant&format=json&page=3&where=30068&rpp=50&histograms=false&publisher=10000009598&region_type=circle", "did_you_mean": "", "regions": [{"latitude": 33.967813, "default_radius": 3.91, "type": "postal_code", "name": "30068", "longitude": -84.433422}], "call_id": "000b0000002cc19057672d4583953b85d268eaa394", "first_hit": 101, "total_hits": 2028, "geo_ids": [26296], "page": 3, "last_hit": 150}}