{"results": {"rpp": 50, "locations": [{"business_operation_status": 1, "rating": null, "neighborhood": null, "image": null, "scorecard": null, "featured": false, "sample_categories": "Restaurants, Carry Out", "public_id": "captain-ds-seafood-kennesaw", "id": 823995220, "votes": null, "tagline": null, "has_video": false, "website": "http://www.citysearch.com/profile/external/823995220/kennesaw_ga/captain_d_s_seafood.html", "offers": null, "latitude": 34.001936, "politanName": "Atlanta, GA Metro ", "phone_number": "7704223068", "tags": [{"primary": false, "id": 11247, "name": "Carry Out"}, {"primary": true, "id": 1722, "name": "Restaurants"}], "fax_number": null, "expansion": {"count": null, "uri": null}, "impression_id": "000b0000003e9ee53470344472920600d30bab6efe", "profile": "http://www.citysearch.com/profile/823995220/kennesaw_ga/captain_d_s_seafood.html", "address": {"city": "Kennesaw", "state": "GA", "street": "2013 Cobb Pkwy NW", "postal_code": "30152"}, "capProviderId": null, "distance": null, "has_offers": false, "name": "Captain D's Seafood", "longitude": -84.598402, "has_menu": true, "awards": null, "user_review_count": 0}, {"business_operation_status": 1, "rating": 8.0, "neighborhood": null, "image": null, "scorecard": null, "featured": false, "sample_categories": "Sandwich Shops, Restaurants, Soups", "public_id": "my-friends-place-marietta", "id": 39887388, "votes": null, "tagline": null, "has_video": false, "website": "http://www.citysearch.com/profile/external/39887388/marietta_ga/my_friend_s_place.html", "offers": null, "latitude": 33.919788, "politanName": "Atlanta, GA Metro ", "phone_number": "7709880818", "tags": [{"primary": false, "id": 1722, "name": "Restaurants"}, {"primary": false, "id": 11311, "name": "Soups"}, {"primary": true, "id": 1736, "name": "Sandwich Shops"}], "fax_number": null, "expansion": {"count": null, "uri": null}, "impression_id": "000b000000664871afa6b54525ac87bd9529be0f65", "profile": "http://www.citysearch.com/profile/39887388/marietta_ga/my_friend_s_place.html", "address": {"city": "Marietta", "state": "GA", "street": "2121 New Market Pkwy SE", "postal_code": "30067"}, "capProviderId": null, "distance": null, "has_offers": false, "name": "My Friend's Place", "longitude": -84.49377, "has_menu": true, "awards": null, "user_review_count": 0}, {"business_operation_status": 1, "rating": null, "neighborhood": null, "image": null, "scorecard": null, "featured": false, "sample_categories": "Juice & Smoothie Shops", "public_id": "juice-me-too-austell", "id": 611119264, "votes": null, "tagline": null, "has_video": false, "website": null, "offers": null, "latitude": 33.855802, "politanName": "Atlanta, GA Metro ", "phone_number": "4046688380", "tags": [{"primary": true, "id": 1735, "name": "Juice & Smoothie Shops"}], "fax_number": null, "expansion": {"count": null, "uri": null}, "impression_id": "000b0000001af39c1c124848ad9740975199934c8e", "profile": "http://www.citysearch.com/profile/611119264/austell_ga/juice_me_too.html", "address": {"city": "Austell", "state": "GA", "street": "3999 Austell Rd", "postal_code": "30106"}, "capProviderId": null, "distance": null, "has_offers": false, "name": "Juice Me Too", "longitude": -84.600338, "has_menu": false, "awards": null, "user_review_count": 0}, {"business_operation_status": 1, "rating": null, "neighborhood": null, "image": null, "scorecard": null, "featured": false, "sample_categories": "Restaurants", "public_id": "asian-express-marietta", "id": 617926934, "votes": null, "tagline": null, "has_video": false, "website": null, "offers": null, "latitude": 34.020818, "politanName": "Atlanta, GA Metro ", "phone_number": "7704201819", "tags": [{"primary": true, "id": 1722, "name": "Restaurants"}], "fax_number": null, "expansion": {"count": null, "uri": null}, "impression_id": "000b000000304a49f5ab3a4856a439b086385587eb", "profile": "http://www.citysearch.com/profile/617926934/marietta_ga/asian_express.html", "address": {"city": "Marietta", "state": "GA", "street": "2821 Chastain Meadows Pkwy", "postal_code": "30066"}, "capProviderId": null, "distance": null, "has_offers": false, "name": "Asian Express", "longitude": -84.55554, "has_menu": false, "awards": null, "user_review_count": 0}, {"business_operation_status": 1, "rating": null, "neighborhood": null, "image": null, "scorecard": null, "featured": false, "sample_categories": "Restaurants", "public_id": "winstons-food-spirits-austell", "id": 627650230, "votes": null, "tagline": null, "has_video": false, "website": null, "offers": null, "latitude": 33.856339, "politanName": "Atlanta, GA Metro ", "phone_number": "7707391130", "tags": [{"primary": true, "id": 1722, "name": "Restaurants"}], "fax_number": null, "expansion": {"count": null, "uri": null}, "impression_id": "000b00000058bf1f92fb8942f3818b9f554a617d4f", "profile": "http://www.citysearch.com/profile/627650230/austell_ga/winston_s_food_spirits.html", "address": {"city": "Austell", "state": "GA", "street": "3999 Austell Rd", "postal_code": "30106"}, "capProviderId": null, "distance": null, "has_offers": false, "name": "Winston's Food & Spirits", "longitude": -84.599753, "has_menu": false, "awards": null, "user_review_count": 0}, {"business_operation_status": 1, "rating": null, "neighborhood": null, "image": null, "scorecard": null, "featured": false, "sample_categories": "Restaurants, Bars & Pubs", "public_id": "mannys-bar-grill-marietta", "id": 621939080, "votes": null, "tagline": null, "has_video": false, "website": null, "offers": null, "latitude": 34.015118, "politanName": "Atlanta, GA Metro ", "phone_number": "7706932190", "tags": [{"primary": false, "id": 1686, "name": "Bars & Pubs"}, {"primary": true, "id": 1722, "name": "Restaurants"}], "fax_number": null, "expansion": {"count": null, "uri": null}, "impression_id": "000b000000359fe3f5b9c040af8c0e3455ef504a21", "profile": "http://www.citysearch.com/profile/621939080/marietta_ga/manny_s_bar_grill.html", "address": {"city": "Marietta", "state": "GA", "street": "2635 Sandy Plains Rd", "postal_code": "30066"}, "capProviderId": null, "distance": null, "has_offers": false, "name": "Manny's Bar & Grill", "longitude": -84.495187, "has_menu": false, "awards": null, "user_review_count": 0}, {"business_operation_status": 1, "rating": null, "neighborhood": null, "image": null, "scorecard": null, "featured": false, "sample_categories": "Restaurants", "public_id": "stockyard-burgers-marietta", "id": 621272344, "votes": null, "tagline": null, "has_video": false, "website": null, "offers": null, "latitude": 33.953436, "politanName": "Atlanta, GA Metro ", "phone_number": "6785032760", "tags": [{"primary": true, "id": 1722, "name": "Restaurants"}], "fax_number": null, "expansion": {"count": null, "uri": null}, "impression_id": "000b000000b530ba7d8cdb47d1a2170f8661011118", "profile": "http://www.citysearch.com/profile/621272344/marietta_ga/stockyard_burgers.html", "address": {"city": "Marietta", "state": "GA", "street": "26 Mill St NE", "postal_code": "30060"}, "capProviderId": null, "distance": null, "has_offers": false, "name": "Stockyard Burgers", "longitude": -84.550777, "has_menu": false, "awards": null, "user_review_count": 0}, {"business_operation_status": 1, "rating": null, "neighborhood": null, "image": null, "scorecard": null, "featured": false, "sample_categories": "Restaurants, Carry Out, Hamburgers, American Express, Discover", "public_id": "burger-king-kennesaw", "id": 638853600, "votes": null, "tagline": null, "has_video": false, "website": "http://www.citysearch.com/profile/external/638853600/kennesaw_ga/burger_king.html", "offers": null, "latitude": 34.020782, "politanName": "Atlanta, GA Metro ", "phone_number": "6783548989", "tags": [{"primary": false, "id": 11247, "name": "Carry Out"}, {"primary": false, "id": 11270, "name": "Hamburgers"}, {"primary": false, "id": 11333, "name": "American Express"}, {"primary": false, "id": 11349, "name": "Discover"}, {"primary": false, "id": 11361, "name": "MasterCard"}, {"primary": false, "id": 11382, "name": "Visa"}, {"primary": true, "id": 1722, "name": "Restaurants"}], "fax_number": null, "expansion": {"count": null, "uri": null}, "impression_id": "000b000000c289847fa64f416b8040a27c0255bcc5", "profile": "http://www.citysearch.com/profile/638853600/kennesaw_ga/burger_king.html", "address": {"city": "Kennesaw", "state": "GA", "street": "2775 Cobb Pkwy NW", "postal_code": "30152"}, "capProviderId": null, "distance": null, "has_offers": false, "name": "Burger King", "longitude": -84.624098, "has_menu": true, "awards": null, "user_review_count": 0}, {"business_operation_status": 1, "rating": null, "neighborhood": null, "image": null, "scorecard": null, "featured": false, "sample_categories": "Restaurants", "public_id": "good-fatts-country-cookin-acworth", "id": 653578880, "votes": null, "tagline": null, "has_video": false, "website": null, "offers": null, "latitude": 34.06489, "politanName": "Atlanta, GA Metro ", "phone_number": "6784014805", "tags": [{"primary": true, "id": 1722, "name": "Restaurants"}], "fax_number": null, "expansion": {"count": null, "uri": null}, "impression_id": "000b00000065e4a83408c54ff780d7515a00db1b8d", "profile": "http://www.citysearch.com/profile/653578880/acworth_ga/good_fatts_country_cookin.html", "address": {"city": "Acworth", "state": "GA", "street": "2535 Hickory Grove Rd Nw # 105", "postal_code": "30101"}, "capProviderId": null, "distance": null, "has_offers": false, "name": "Good Fatts Country Cookin", "longitude": -84.624038, "has_menu": false, "awards": null, "user_review_count": 0}, {"business_operation_status": 0, "rating": null, "neighborhood": null, "image": null, "scorecard": null, "featured": false, "sample_categories": "Restaurants", "public_id": "big-city-deli-kennesaw", "id": 672288520, "votes": null, "tagline": null, "has_video": false, "website": null, "offers": null, "latitude": 34.018515, "politanName": "Atlanta, GA Metro ", "phone_number": "7709759237", "tags": [{"primary": true, "id": 1722, "name": "Restaurants"}], "fax_number": null, "expansion": {"count": null, "uri": null}, "impression_id": "000b000000d9d62f616eb84c55970016a43bd6b969", "profile": "http://www.citysearch.com/profile/672288520/kennesaw_ga/big_city_deli.html", "address": {"city": "Kennesaw", "state": "GA", "street": "3061 Jim Owens Road", "postal_code": "30152"}, "capProviderId": null, "distance": null, "has_offers": false, "name": "Big City Deli", "longitude": -84.657278, "has_menu": false, "awards": null, "user_review_count": 0}, {"business_operation_status": 1, "rating": null, "neighborhood": null, "image": null, "scorecard": null, "featured": false, "sample_categories": "Restaurants", "public_id": "lennys-sub-shop-kennesaw-2", "id": 672416760, "votes": null, "tagline": null, "has_video": false, "website": null, "offers": null, "latitude": 34.014321, "politanName": "Atlanta, GA Metro ", "phone_number": "7705901218", "tags": [{"primary": true, "id": 1722, "name": "Restaurants"}], "fax_number": null, "expansion": {"count": null, "uri": null}, "impression_id": "000b0000000d749f49076148dfa0f368896af7079b", "profile": "http://www.citysearch.com/profile/672416760/kennesaw_ga/lenny_s_sub_shop.html", "address": {"city": "Kennesaw", "state": "GA", "street": "440 Barrett Pky NW Ste 12", "postal_code": "30144"}, "capProviderId": null, "distance": null, "has_offers": false, "name": "Lenny's Sub Shop", "longitude": -84.562111, "has_menu": true, "awards": null, "user_review_count": 0}, {"business_operation_status": 1, "rating": null, "neighborhood": null, "image": null, "scorecard": null, "featured": false, "sample_categories": "Restaurants", "public_id": "folia-brazilian-steakhouse-kennesaw", "id": 672760470, "votes": null, "tagline": null, "has_video": false, "website": null, "offers": null, "latitude": 34.01386, "politanName": "Atlanta, GA Metro ", "phone_number": "6783245041", "tags": [{"primary": true, "id": 1722, "name": "Restaurants"}], "fax_number": null, "expansion": {"count": null, "uri": null}, "impression_id": "000b0000006c4473dc48e54f9aa34e14620b418c4a", "profile": "http://www.citysearch.com/profile/672760470/kennesaw_ga/folia_brazilian_steakhouse.html", "address": {"city": "Kennesaw", "state": "GA", "street": "2606 George Busbee Pkwy", "postal_code": "30144"}, "capProviderId": null, "distance": null, "has_offers": false, "name": "Folia Brazilian Steakhouse", "longitude": -84.565725, "has_menu": false, "awards": null, "user_review_count": 0}, {"business_operation_status": 1, "rating": null, "neighborhood": null, "image": null, "scorecard": null, "featured": false, "sample_categories": "Delis And Delicatessens", "public_id": "kroger-deli-dallas-6", "id": 698385790, "votes": null, "tagline": null, "has_video": false, "website": null, "offers": null, "latitude": 34.010309, "politanName": "Atlanta, GA Metro ", "phone_number": "6784393372", "tags": [{"primary": true, "id": 1727, "name": "Delis And Delicatessens"}], "fax_number": null, "expansion": {"count": null, "uri": null}, "impression_id": "000b000000f9f41000e4b54c3a9bb10c1c2ba66111", "profile": "http://www.citysearch.com/profile/698385790/dallas_ga/kroger_deli.html", "address": {"city": "Dallas", "state": "GA", "street": "8876 Dallas Acworth Hwy", "postal_code": "30132"}, "capProviderId": null, "distance": null, "has_offers": false, "name": "Kroger Deli", "longitude": -84.753348, "has_menu": false, "awards": null, "user_review_count": 0}, {"business_operation_status": 1, "rating": null, "neighborhood": null, "image": null, "scorecard": null, "featured": false, "sample_categories": "Restaurants, Pizza", "public_id": "marcos-pizza-marietta", "id": 713581120, "votes": null, "tagline": null, "has_video": false, "website": "http://www.citysearch.com/profile/external/713581120/marietta_ga/marco_s_pizza.html", "offers": null, "latitude": 33.973533, "politanName": "Atlanta, GA Metro ", "phone_number": "7706946400", "tags": [{"primary": false, "id": 11299, "name": "Pizza"}, {"primary": true, "id": 1722, "name": "Restaurants"}], "fax_number": null, "expansion": {"count": null, "uri": null}, "impression_id": "000b00000065df61c7415348ea8e0ae3db0e6584ea", "profile": "http://www.citysearch.com/profile/713581120/marietta_ga/marco_s_pizza.html", "address": {"city": "Marietta", "state": "GA", "street": "2424 Roswell Rd", "postal_code": "30068"}, "capProviderId": null, "distance": null, "has_offers": false, "name": "Marco's Pizza", "longitude": -84.480778, "has_menu": true, "awards": null, "user_review_count": 0}, {"business_operation_status": 1, "rating": null, "neighborhood": null, "image": null, "scorecard": null, "featured": false, "sample_categories": "Restaurants", "public_id": "peldng-garden-restaurant-smyrna", "id": 713430280, "votes": null, "tagline": null, "has_video": false, "website": null, "offers": null, "latitude": 33.891107, "politanName": "Atlanta, GA Metro ", "phone_number": "7704324048", "tags": [{"primary": true, "id": 1722, "name": "Restaurants"}], "fax_number": null, "expansion": {"count": null, "uri": null}, "impression_id": "000b0000006b108c3d7af24f878fde9f18c1371a2c", "profile": "http://www.citysearch.com/profile/713430280/smyrna_ga/peldng_garden_restaurant.html", "address": {"city": "Smyrna", "state": "GA", "street": "2526 S Cobb Dr Se", "postal_code": "30080"}, "capProviderId": null, "distance": null, "has_offers": false, "name": "Peldng Garden Restaurant", "longitude": -84.537851, "has_menu": false, "awards": null, "user_review_count": 0}, {"business_operation_status": 1, "rating": null, "neighborhood": null, "image": null, "scorecard": null, "featured": false, "sample_categories": "Restaurants", "public_id": "cafe-med-marietta", "id": 2908313, "votes": null, "tagline": null, "has_video": false, "website": null, "offers": null, "latitude": 34.015118, "politanName": "Atlanta, GA Metro ", "phone_number": "7705790630", "tags": [{"primary": true, "id": 1722, "name": "Restaurants"}], "fax_number": null, "expansion": {"count": null, "uri": null}, "impression_id": "000b0000000e5863b79a8a415697373390c49df415", "profile": "http://www.citysearch.com/profile/2908313/marietta_ga/cafe_med.html", "address": {"city": "Marietta", "state": "GA", "street": "2635 Sandy Plains Rd Ste A10", "postal_code": "30066"}, "capProviderId": null, "distance": null, "has_offers": false, "name": "Cafe Med", "longitude": -84.495187, "has_menu": true, "awards": null, "user_review_count": 3}, {"business_operation_status": 1, "rating": null, "neighborhood": null, "image": null, "scorecard": null, "featured": false, "sample_categories": "Restaurants", "public_id": "capalbos-cappys-cafe-acworth", "id": 632010670, "votes": null, "tagline": null, "has_video": false, "website": null, "offers": null, "latitude": 33.989129, "politanName": "Atlanta, GA Metro ", "phone_number": "7709190750", "tags": [{"primary": true, "id": 1722, "name": "Restaurants"}], "fax_number": null, "expansion": {"count": null, "uri": null}, "impression_id": "000b0000008eb2d2402482414d8ec40a3b3774c807", "profile": "http://www.citysearch.com/profile/632010670/acworth_ga/capalbo_s_cappys_cafe.html", "address": {"city": "Acworth", "state": "GA", "street": "6318 Benbrooke Overlook Nw", "postal_code": "30101"}, "capProviderId": null, "distance": null, "has_offers": false, "name": "Capalbo's Cappys Cafe", "longitude": -84.738749, "has_menu": false, "awards": null, "user_review_count": 0}, {"business_operation_status": 1, "rating": null, "neighborhood": null, "image": null, "scorecard": null, "featured": false, "sample_categories": "Restaurants", "public_id": "tequilas-lounge-marietta", "id": 620246084, "votes": null, "tagline": null, "has_video": false, "website": null, "offers": null, "latitude": 33.935771, "politanName": "Atlanta, GA Metro ", "phone_number": "6789036953", "tags": [{"primary": true, "id": 1722, "name": "Restaurants"}], "fax_number": null, "expansion": {"count": null, "uri": null}, "impression_id": "000b00000096d8a184e34e48919fb12d3b4cd38cd0", "profile": "http://www.citysearch.com/profile/620246084/marietta_ga/tequilas_lounge.html", "address": {"city": "Marietta", "state": "GA", "street": "677 Franklin Rd SE", "postal_code": "30067"}, "capProviderId": null, "distance": null, "has_offers": false, "name": "Tequilas Lounge", "longitude": -84.503662, "has_menu": false, "awards": null, "user_review_count": 0}, {"business_operation_status": 1, "rating": null, "neighborhood": null, "image": null, "scorecard": null, "featured": false, "sample_categories": "Restaurants", "public_id": "clec-solutions-inc-marietta-2", "id": 682601500, "votes": null, "tagline": null, "has_video": false, "website": null, "offers": null, "latitude": 33.948318, "politanName": "Atlanta, GA Metro ", "phone_number": "7709772212", "tags": [{"primary": true, "id": 1722, "name": "Restaurants"}], "fax_number": null, "expansion": {"count": null, "uri": null}, "impression_id": "000b000000f2c3733b06994ae8bb6be6deec0d7d41", "profile": "http://www.citysearch.com/profile/682601500/marietta_ga/clec_solutions_inc.html", "address": {"city": "Marietta", "state": "GA", "street": "2060 Lower Roswell Rd", "postal_code": "30068"}, "capProviderId": null, "distance": null, "has_offers": false, "name": "Clec Solutions INC", "longitude": -84.492511, "has_menu": false, "awards": null, "user_review_count": 0}, {"business_operation_status": 1, "rating": null, "neighborhood": null, "image": null, "scorecard": null, "featured": false, "sample_categories": "Restaurants, Pizza", "public_id": "star-pizza-kennesaw", "id": 713428420, "votes": null, "tagline": null, "has_video": false, "website": null, "offers": null, "latitude": 34.046915, "politanName": "Atlanta, GA Metro ", "phone_number": "6787971190", "tags": [{"primary": false, "id": 1722, "name": "Restaurants"}, {"primary": true, "id": 11299, "name": "Pizza"}], "fax_number": null, "expansion": {"count": null, "uri": null}, "impression_id": "000b00000030143e42317341fe8d9fdbe9e7b80067", "profile": "http://www.citysearch.com/profile/713428420/kennesaw_ga/star_pizza.html", "address": {"city": "Kennesaw", "state": "GA", "street": "3930 George Busbee Pkwy NW", "postal_code": "30144"}, "capProviderId": null, "distance": null, "has_offers": false, "name": "Star Pizza", "longitude": -84.581594, "has_menu": true, "awards": null, "user_review_count": 1}, {"business_operation_status": 1, "rating": null, "neighborhood": null, "image": null, "scorecard": null, "featured": false, "sample_categories": "Coffeehouses, Coffee & Tea Shops, Restaurants", "public_id": "starbucks-marietta-10", "id": 621939860, "votes": null, "tagline": null, "has_video": false, "website": "http://www.citysearch.com/profile/external/621939860/marietta_ga/starbucks.html", "offers": null, "latitude": 33.971846, "politanName": "Atlanta, GA Metro ", "phone_number": "7707941443", "tags": [{"primary": false, "id": 1711, "name": "Coffee & Tea Shops"}, {"primary": false, "id": 1722, "name": "Restaurants"}, {"primary": true, "id": 1726, "name": "Coffeehouses"}], "fax_number": null, "expansion": {"count": null, "uri": null}, "impression_id": "000b000000b32b5306b70d4902933829cf449e7994", "profile": "http://www.citysearch.com/profile/621939860/marietta_ga/starbucks.html", "address": {"city": "Marietta", "state": "GA", "street": "825 Church St Ne", "postal_code": "30060"}, "capProviderId": null, "distance": null, "has_offers": false, "name": "Starbucks", "longitude": -84.551204, "has_menu": true, "awards": null, "user_review_count": 0}, {"business_operation_status": 1, "rating": null, "neighborhood": null, "image": null, "scorecard": null, "featured": false, "sample_categories": "Restaurants", "public_id": "t-j-bryans-cafe-kennesaw", "id": 672478580, "votes": null, "tagline": null, "has_video": false, "website": null, "offers": null, "latitude": 34.024396, "politanName": "Atlanta, GA Metro ", "phone_number": "6782238211", "tags": [{"primary": true, "id": 1722, "name": "Restaurants"}], "fax_number": null, "expansion": {"count": null, "uri": null}, "impression_id": "000b0000000e69b47501e94558af5104a40ce45aac", "profile": "http://www.citysearch.com/profile/672478580/kennesaw_ga/t_j_bryans_cafe.html", "address": {"city": "Kennesaw", "state": "GA", "street": "2893 N Main St NW", "postal_code": "30144"}, "capProviderId": null, "distance": null, "has_offers": false, "name": "T J Bryans Cafe", "longitude": -84.615917, "has_menu": false, "awards": null, "user_review_count": 0}, {"business_operation_status": 1, "rating": null, "neighborhood": null, "image": null, "scorecard": null, "featured": false, "sample_categories": "Restaurants, Pizza, Carry Out", "public_id": "mellow-mushroom-acworth", "id": 609955104, "votes": null, "tagline": null, "has_video": false, "website": "http://www.citysearch.com/profile/external/609955104/acworth_ga/mellow_mushroom.html", "offers": null, "latitude": 34.057868, "politanName": "Atlanta, GA Metro ", "phone_number": "6784026009", "tags": [{"primary": false, "id": 1722, "name": "Restaurants"}, {"primary": false, "id": 11247, "name": "Carry Out"}, {"primary": true, "id": 11299, "name": "Pizza"}], "fax_number": null, "expansion": {"count": null, "uri": null}, "impression_id": "000b000000d9f5b8352b9f4fc2a39ea425a281bcba", "profile": "http://www.citysearch.com/profile/609955104/acworth_ga/mellow_mushroom.html", "address": {"city": "Acworth", "state": "GA", "street": "6121 Cedarcrest Rd", "postal_code": "30101"}, "capProviderId": null, "distance": null, "has_offers": false, "name": "Mellow Mushroom", "longitude": -84.732946, "has_menu": false, "awards": null, "user_review_count": 0}, {"business_operation_status": 1, "rating": null, "neighborhood": null, "image": null, "scorecard": null, "featured": false, "sample_categories": "Restaurants, Seafood, American Express, Discover, MasterCard", "public_id": "a-js-famous-seafood-po-boys-marietta-2", "id": 713327660, "votes": null, "tagline": null, "has_video": false, "website": "http://www.citysearch.com/profile/external/713327660/marietta_ga/ajs_famous_seafood.html", "offers": null, "latitude": 33.968758, "politanName": "Atlanta, GA Metro ", "phone_number": "6789990767", "tags": [{"primary": false, "id": 11228, "name": "Seafood"}, {"primary": false, "id": 11333, "name": "American Express"}, {"primary": false, "id": 11349, "name": "Discover"}, {"primary": false, "id": 11361, "name": "MasterCard"}, {"primary": false, "id": 11382, "name": "Visa"}, {"primary": true, "id": 1722, "name": "Restaurants"}], "fax_number": null, "expansion": {"count": null, "uri": null}, "impression_id": "000b0000002ea89ee6d88e4b17a45a9bf519402257", "profile": "http://www.citysearch.com/profile/713327660/marietta_ga/ajs_famous_seafood.html", "address": {"city": "Marietta", "state": "GA", "street": "2100 Roswell Rd Ne", "postal_code": "30062"}, "capProviderId": null, "distance": null, "has_offers": false, "name": "AJs famous seafood", "longitude": -84.488447, "has_menu": true, "awards": null, "user_review_count": 9}, {"business_operation_status": 1, "rating": null, "neighborhood": null, "image": null, "scorecard": null, "featured": false, "sample_categories": "Restaurants, Pizza", "public_id": "stevi-bs-pizza-marietta-4", "id": 713518730, "votes": null, "tagline": null, "has_video": false, "website": null, "offers": null, "latitude": 34.015975, "politanName": "Atlanta, GA Metro ", "phone_number": "7704990155", "tags": [{"primary": false, "id": 11299, "name": "Pizza"}, {"primary": true, "id": 1722, "name": "Restaurants"}], "fax_number": null, "expansion": {"count": null, "uri": null}, "impression_id": "000b0000002995ec7724d34242bc19e3d873c888a1", "profile": "http://www.citysearch.com/profile/713518730/marietta_ga/stevi_b_s_pizza.html", "address": {"city": "Marietta", "state": "GA", "street": "50 Ernest Barrett Pkwy NW", "postal_code": "30060"}, "capProviderId": null, "distance": null, "has_offers": false, "name": "Stevi B's Pizza", "longitude": -84.550996, "has_menu": false, "awards": null, "user_review_count": 0}, {"business_operation_status": 1, "rating": null, "neighborhood": null, "image": null, "scorecard": null, "featured": false, "sample_categories": "Restaurants, Bakeries", "public_id": "tajmahal-grill-kennesaw", "id": 713543660, "votes": null, "tagline": null, "has_video": false, "website": "http://www.citysearch.com/profile/external/713543660/kennesaw_ga/taj_mahal_grill.html", "offers": null, "latitude": 34.000514, "politanName": "Atlanta, GA Metro ", "phone_number": "7709199990", "tags": [{"primary": false, "id": 1685, "name": "Bakeries"}, {"primary": true, "id": 1722, "name": "Restaurants"}], "fax_number": null, "expansion": {"count": null, "uri": null}, "impression_id": "000b00000063f60d0056b8485081a159abe7ce781c", "profile": "http://www.citysearch.com/profile/713543660/kennesaw_ga/taj_mahal_grill.html", "address": {"city": "Kennesaw", "state": "GA", "street": "1200 Earnest W Barrett Pkwy NW St 18", "postal_code": "30144"}, "capProviderId": null, "distance": null, "has_offers": false, "name": "Taj Mahal Grill", "longitude": -84.587423, "has_menu": true, "awards": null, "user_review_count": 2}, {"business_operation_status": 1, "rating": null, "neighborhood": null, "image": null, "scorecard": null, "featured": false, "sample_categories": "Restaurants, Eclectic & International", "public_id": "mingles-international-cafe-marietta", "id": 713577140, "votes": null, "tagline": null, "has_video": false, "website": null, "offers": null, "latitude": 33.968758, "politanName": "Atlanta, GA Metro ", "phone_number": "7709777878", "tags": [{"primary": false, "id": 11259, "name": "Eclectic & International"}, {"primary": true, "id": 1722, "name": "Restaurants"}], "fax_number": null, "expansion": {"count": null, "uri": null}, "impression_id": "000b000000fdbb8cc19d034756b93177a7ad05fe00", "profile": "http://www.citysearch.com/profile/713577140/marietta_ga/mingles_international_cafe.html", "address": {"city": "Marietta", "state": "GA", "street": "2100 Roswell Rd # 2198", "postal_code": "30062"}, "capProviderId": null, "distance": null, "has_offers": false, "name": "Mingles International Cafe", "longitude": -84.488447, "has_menu": false, "awards": null, "user_review_count": 0}, {"business_operation_status": 1, "rating": null, "neighborhood": null, "image": null, "scorecard": null, "featured": false, "sample_categories": "Restaurants", "public_id": "borber-restaurant-hiram", "id": 732143050, "votes": null, "tagline": null, "has_video": false, "website": null, "offers": null, "latitude": 33.876664, "politanName": "Atlanta, GA Metro ", "phone_number": "7707785401", "tags": [{"primary": true, "id": 1722, "name": "Restaurants"}], "fax_number": null, "expansion": {"count": null, "uri": null}, "impression_id": "000b00000076dd59f960424f98a1418859ea011f95", "profile": "http://www.citysearch.com/profile/732143050/hiram_ga/borber_restaurant.html", "address": {"city": "Hiram", "state": "GA", "street": "25 Travelers Path", "postal_code": "30141"}, "capProviderId": null, "distance": null, "has_offers": false, "name": "Borber Restaurant", "longitude": -84.73037, "has_menu": false, "awards": null, "user_review_count": 0}, {"business_operation_status": 1, "rating": null, "neighborhood": null, "image": null, "scorecard": null, "featured": false, "sample_categories": "Restaurants, Pizza, Carry Out", "public_id": "little-caesars-pizza-acworth-3", "id": 682324320, "votes": null, "tagline": null, "has_video": false, "website": "http://www.citysearch.com/profile/external/682324320/acworth_ga/little_caesars_pizza.html", "offers": null, "latitude": 33.997403, "politanName": "Atlanta, GA Metro ", "phone_number": "7704999981", "tags": [{"primary": false, "id": 1722, "name": "Restaurants"}, {"primary": false, "id": 11247, "name": "Carry Out"}, {"primary": true, "id": 11299, "name": "Pizza"}], "fax_number": null, "expansion": {"count": null, "uri": null}, "impression_id": "000b0000004fbaddab87664cbfb3d51d48c07ccae2", "profile": "http://www.citysearch.com/profile/682324320/acworth_ga/little_caesars_pizza.html", "address": {"city": "Acworth", "state": "GA", "street": "1727 Mars Hill Rd NW # 8", "postal_code": "30101"}, "capProviderId": null, "distance": null, "has_offers": false, "name": "Little Caesars Pizza", "longitude": -84.707837, "has_menu": false, "awards": null, "user_review_count": 0}, {"business_operation_status": 0, "rating": null, "neighborhood": null, "image": null, "scorecard": null, "featured": false, "sample_categories": "Restaurants, Barbecue Restaurants", "public_id": "georges-grill-barbecue-marietta", "id": 621879190, "votes": null, "tagline": null, "has_video": false, "website": null, "offers": null, "latitude": 33.997727, "politanName": "Atlanta, GA Metro ", "phone_number": "7704851099", "tags": [{"primary": false, "id": 1724, "name": "Barbecue Restaurants"}, {"primary": true, "id": 1722, "name": "Restaurants"}], "fax_number": null, "expansion": {"count": null, "uri": null}, "impression_id": "000b000000922ca19503674c3795f409ef807246fc", "profile": "http://www.citysearch.com/profile/621879190/marietta_ga/georges_grill_barbecue.html", "address": {"city": "Marietta", "state": "GA", "street": "1951 Canton Rd # 330", "postal_code": "30066"}, "capProviderId": null, "distance": null, "has_offers": false, "name": "Georges Grill & Barbecue", "longitude": -84.525055, "has_menu": false, "awards": null, "user_review_count": 0}, {"business_operation_status": 1, "rating": null, "neighborhood": null, "image": null, "scorecard": null, "featured": false, "sample_categories": "Restaurants, Delis And Delicatessens, Sandwich Shops, Carry Out", "public_id": "subway-marietta-47", "id": 713567500, "votes": null, "tagline": null, "has_video": false, "website": "http://www.citysearch.com/profile/external/713567500/marietta_ga/subway.html", "offers": null, "latitude": 33.882452, "politanName": "Atlanta, GA Metro ", "phone_number": "7704365640", "tags": [{"primary": false, "id": 1727, "name": "Delis And Delicatessens"}, {"primary": false, "id": 1736, "name": "Sandwich Shops"}, {"primary": false, "id": 11247, "name": "Carry Out"}, {"primary": true, "id": 1722, "name": "Restaurants"}], "fax_number": null, "expansion": {"count": null, "uri": null}, "impression_id": "000b0000009d7307ee9beb4620895bc5724f9c7bfe", "profile": "http://www.citysearch.com/profile/713567500/marietta_ga/subway.html", "address": {"city": "Marietta", "state": "GA", "street": "2909 Austell Rd Sw # 114", "postal_code": "30008"}, "capProviderId": null, "distance": null, "has_offers": false, "name": "SUBWAY", "longitude": -84.58798, "has_menu": false, "awards": null, "user_review_count": 0}, {"business_operation_status": 1, "rating": null, "neighborhood": null, "image": null, "scorecard": null, "featured": false, "sample_categories": "Ice Cream Parlors", "public_id": "yogolyciouls-marietta", "id": 713608720, "votes": null, "tagline": null, "has_video": false, "website": null, "offers": null, "latitude": 33.968758, "politanName": "Atlanta, GA Metro ", "phone_number": "7705092345", "tags": [{"primary": true, "id": 1730, "name": "Ice Cream Parlors"}], "fax_number": null, "expansion": {"count": null, "uri": null}, "impression_id": "000b000000cd134e8eb77348c79b6f9482102bb0e7", "profile": "http://www.citysearch.com/profile/713608720/marietta_ga/yogolyciouls.html", "address": {"city": "Marietta", "state": "GA", "street": "2100 Roswell Rd", "postal_code": "30062"}, "capProviderId": null, "distance": null, "has_offers": false, "name": "Yogolyciouls", "longitude": -84.488447, "has_menu": false, "awards": null, "user_review_count": 0}, {"business_operation_status": 1, "rating": null, "neighborhood": null, "image": null, "scorecard": null, "featured": false, "sample_categories": "Restaurants, Mexican", "public_id": "las-toras-mex-marietta", "id": 713611870, "votes": null, "tagline": null, "has_video": false, "website": null, "offers": null, "latitude": 33.927554, "politanName": "Atlanta, GA Metro ", "phone_number": "7705149394", "tags": [{"primary": false, "id": 11208, "name": "Mexican"}, {"primary": true, "id": 1722, "name": "Restaurants"}], "fax_number": null, "expansion": {"count": null, "uri": null}, "impression_id": "000b000000eb9f4e0a73564986ba403ee3c501609d", "profile": "http://www.citysearch.com/profile/713611870/marietta_ga/las_toras_mex.html", "address": {"city": "Marietta", "state": "GA", "street": "1038 Franklin Rd Se", "postal_code": "30067"}, "capProviderId": null, "distance": null, "has_offers": false, "name": "Las Toras Mex", "longitude": -84.493666, "has_menu": false, "awards": null, "user_review_count": 0}, {"business_operation_status": 1, "rating": null, "neighborhood": null, "image": null, "scorecard": null, "featured": false, "sample_categories": "Restaurants", "public_id": "dangling-carrot-creative-kennesaw", "id": 770761700, "votes": null, "tagline": null, "has_video": false, "website": null, "offers": null, "latitude": 34.049037, "politanName": "Atlanta, GA Metro ", "phone_number": "7707921848", "tags": [{"primary": true, "id": 1722, "name": "Restaurants"}], "fax_number": null, "expansion": {"count": null, "uri": null}, "impression_id": "000b000000b39e506a74614276851520842ac6853d", "profile": "http://www.citysearch.com/profile/770761700/kennesaw_ga/dangling_carrot_creative.html", "address": {"city": "Kennesaw", "state": "GA", "street": "3939 Royal Dr NW", "postal_code": "30144"}, "capProviderId": null, "distance": null, "has_offers": false, "name": "Dangling Carrot Creative", "longitude": -84.605715, "has_menu": false, "awards": null, "user_review_count": 0}, {"business_operation_status": 1, "rating": null, "neighborhood": null, "image": null, "scorecard": null, "featured": false, "sample_categories": "Restaurants, Mexican", "public_id": "mi-rancho-mexican-restaurant-marietta", "id": 655842120, "votes": null, "tagline": null, "has_video": false, "website": null, "offers": null, "latitude": 33.933889, "politanName": "Atlanta, GA Metro ", "phone_number": "7707940330", "tags": [{"primary": false, "id": 11208, "name": "Mexican"}, {"primary": true, "id": 1722, "name": "Restaurants"}], "fax_number": null, "expansion": {"count": null, "uri": null}, "impression_id": "000b00000090e969625e3d4fac944e108043982d51", "profile": "http://www.citysearch.com/profile/655842120/marietta_ga/mi_rancho_mexican_restaurant.html", "address": {"city": "Marietta", "state": "GA", "street": "760 Sandtown Rd Sw", "postal_code": "30008"}, "capProviderId": null, "distance": null, "has_offers": false, "name": "Mi Rancho Mexican Restaurant", "longitude": -84.555648, "has_menu": false, "awards": null, "user_review_count": 0}, {"business_operation_status": 1, "rating": null, "neighborhood": null, "image": null, "scorecard": null, "featured": false, "sample_categories": "Restaurants", "public_id": "las-drisas-marietta", "id": 728109250, "votes": null, "tagline": null, "has_video": false, "website": null, "offers": null, "latitude": 33.935213, "politanName": "Atlanta, GA Metro ", "phone_number": "6783542220", "tags": [{"primary": true, "id": 1722, "name": "Restaurants"}], "fax_number": null, "expansion": {"count": null, "uri": null}, "impression_id": "000b0000002ae788716c524cb5be34a1eabf4eb1be", "profile": "http://www.citysearch.com/profile/728109250/marietta_ga/las_drisas.html", "address": {"city": "Marietta", "state": "GA", "street": "715 Sandtown Rd Sw", "postal_code": "30008"}, "capProviderId": null, "distance": null, "has_offers": false, "name": "Las Drisas", "longitude": -84.555821, "has_menu": false, "awards": null, "user_review_count": 0}, {"business_operation_status": 1, "rating": null, "neighborhood": null, "image": null, "scorecard": null, "featured": false, "sample_categories": "Catering, Restaurants", "public_id": "paisanos-catering-marietta", "id": 2908338, "votes": null, "tagline": null, "has_video": false, "website": "http://www.citysearch.com/profile/external/2908338/marietta_ga/paisanos_catering.html", "offers": null, "latitude": 34.030179, "politanName": "Atlanta, GA Metro ", "phone_number": "7709987488", "tags": [{"primary": false, "id": 1722, "name": "Restaurants"}, {"primary": true, "id": 1705, "name": "Catering"}], "fax_number": null, "expansion": {"count": null, "uri": null}, "impression_id": "000b0000003fbdd06c21894ccb8d542d79c939cbd5", "profile": "http://www.citysearch.com/profile/2908338/marietta_ga/paisanos_catering.html", "address": {"city": "Marietta", "state": "GA", "street": "3205 Canton Rd Ste 106", "postal_code": "30066"}, "capProviderId": null, "distance": null, "has_offers": false, "name": "Paisanos Catering", "longitude": -84.528473, "has_menu": false, "awards": null, "user_review_count": 0}, {"business_operation_status": 1, "rating": null, "neighborhood": null, "image": null, "scorecard": null, "featured": false, "sample_categories": "Restaurants", "public_id": "daily-bread-cafe-marietta", "id": 787129630, "votes": null, "tagline": null, "has_video": false, "website": null, "offers": null, "latitude": 33.964179, "politanName": "Atlanta, GA Metro ", "phone_number": "7704237288", "tags": [{"primary": true, "id": 1722, "name": "Restaurants"}], "fax_number": null, "expansion": {"count": null, "uri": null}, "impression_id": "000b0000002376081705c54f6b9575ae9fb0dbecb6", "profile": "http://www.citysearch.com/profile/787129630/marietta_ga/daily_bread_cafe.html", "address": {"city": "Marietta", "state": "GA", "street": "531 Roselane St NW", "postal_code": "30060"}, "capProviderId": null, "distance": null, "has_offers": false, "name": "Daily Bread Cafe", "longitude": -84.556876, "has_menu": false, "awards": null, "user_review_count": 0}, {"business_operation_status": 1, "rating": null, "neighborhood": null, "image": null, "scorecard": null, "featured": false, "sample_categories": "Restaurants", "public_id": "saigon-pearl-marietta", "id": 672478560, "votes": null, "tagline": null, "has_video": false, "website": null, "offers": null, "latitude": 34.018696, "politanName": "Atlanta, GA Metro ", "phone_number": "7705147555", "tags": [{"primary": true, "id": 1722, "name": "Restaurants"}], "fax_number": null, "expansion": {"count": null, "uri": null}, "impression_id": "000b000000f5d35eb5a6164ab6a07feadc06601588", "profile": "http://www.citysearch.com/profile/672478560/marietta_ga/saigon_pearl.html", "address": {"city": "Marietta", "state": "GA", "street": "2755 Canton Rd NE", "postal_code": "30066"}, "capProviderId": null, "distance": null, "has_offers": false, "name": "Saigon Pearl", "longitude": -84.528341, "has_menu": false, "awards": null, "user_review_count": 0}, {"business_operation_status": 1, "rating": null, "neighborhood": null, "image": null, "scorecard": null, "featured": false, "sample_categories": "Restaurants", "public_id": "suze-powder-spgs", "id": 672949260, "votes": null, "tagline": null, "has_video": false, "website": null, "offers": null, "latitude": 33.859549, "politanName": "Atlanta, GA Metro ", "phone_number": "2143506135", "tags": [{"primary": true, "id": 1722, "name": "Restaurants"}], "fax_number": null, "expansion": {"count": null, "uri": null}, "impression_id": "000b0000009a9418ba35c344c2bffb441377edfd16", "profile": "http://www.citysearch.com/profile/672949260/powder_springs_ga/suze.html", "address": {"city": "Powder Springs", "state": "GA", "street": "4535Northwest Hwy", "postal_code": "30127"}, "capProviderId": null, "distance": null, "has_offers": false, "name": "Suze", "longitude": -84.683824, "has_menu": false, "awards": null, "user_review_count": 0}, {"business_operation_status": 1, "rating": null, "neighborhood": null, "image": null, "scorecard": null, "featured": false, "sample_categories": "Restaurants", "public_id": "fad-restaurant-marietta", "id": 682613120, "votes": null, "tagline": null, "has_video": false, "website": null, "offers": null, "latitude": 33.865697, "politanName": "Atlanta, GA Metro ", "phone_number": "7704318505", "tags": [{"primary": true, "id": 1722, "name": "Restaurants"}], "fax_number": null, "expansion": {"count": null, "uri": null}, "impression_id": "000b0000007320e18ed329446ba5e67189d23ceb9f", "profile": "http://www.citysearch.com/profile/682613120/marietta_ga/fad_restaurant.html", "address": {"city": "Marietta", "state": "GA", "street": "3565 Austell Rd Sw # 1061", "postal_code": "30008"}, "capProviderId": null, "distance": null, "has_offers": false, "name": "Fad Restaurant", "longitude": -84.592502, "has_menu": false, "awards": null, "user_review_count": 0}, {"business_operation_status": 1, "rating": null, "neighborhood": null, "image": null, "scorecard": null, "featured": false, "sample_categories": "Restaurants, Sandwich Shops, Pizza", "public_id": "peace-love-and-pizza-marietta-2", "id": 606523644, "votes": null, "tagline": null, "has_video": false, "website": "http://www.citysearch.com/profile/external/606523644/marietta_ga/peace_love_and_pizza.html", "offers": null, "latitude": 33.976429, "politanName": "Atlanta, GA Metro ", "phone_number": "7703210757", "tags": [{"primary": false, "id": 1722, "name": "Restaurants"}, {"primary": false, "id": 1736, "name": "Sandwich Shops"}, {"primary": true, "id": 11299, "name": "Pizza"}], "fax_number": null, "expansion": {"count": null, "uri": null}, "impression_id": "000b000000744bca77202e4f869639ba387a8773ed", "profile": "http://www.citysearch.com/profile/606523644/marietta_ga/peace_love_and_pizza.html", "address": {"city": "Marietta", "state": "GA", "street": "1050 E Piedmont Rd 152", "postal_code": "30062"}, "capProviderId": null, "distance": null, "has_offers": false, "name": "Peace Love and Pizza", "longitude": -84.478226, "has_menu": false, "awards": null, "user_review_count": 0}, {"business_operation_status": 1, "rating": null, "neighborhood": null, "image": null, "scorecard": null, "featured": false, "sample_categories": "Restaurants, Pizza", "public_id": "patagonia-pizzeria-bakery-marietta", "id": 811210800, "votes": null, "tagline": null, "has_video": false, "website": null, "offers": null, "latitude": 33.938607, "politanName": "Atlanta, GA Metro ", "phone_number": "6789032597", "tags": [{"primary": false, "id": 11299, "name": "Pizza"}, {"primary": true, "id": 1722, "name": "Restaurants"}], "fax_number": null, "expansion": {"count": null, "uri": null}, "impression_id": "000b0000003804385ff4c84f5182ce55e9e202c59b", "profile": "http://www.citysearch.com/profile/811210800/marietta_ga/patagonia_pizzeria_bakery.html", "address": {"city": "Marietta", "state": "GA", "street": "585 Franklin Rd SE", "postal_code": "30067"}, "capProviderId": null, "distance": null, "has_offers": false, "name": "Patagonia Pizzeria & Bakery", "longitude": -84.50623, "has_menu": false, "awards": null, "user_review_count": 0}, {"business_operation_status": 1, "rating": null, "neighborhood": null, "image": null, "scorecard": null, "featured": false, "sample_categories": "Restaurants", "public_id": "spice-it-up-cafe-marietta", "id": 839365090, "votes": null, "tagline": null, "has_video": false, "website": null, "offers": null, "latitude": 33.944775, "politanName": "Atlanta, GA Metro ", "phone_number": "6789034384", "tags": [{"primary": true, "id": 1722, "name": "Restaurants"}], "fax_number": null, "expansion": {"count": null, "uri": null}, "impression_id": "000b00000051f6227939054b88b29b9cc7d0a0ca0b", "profile": "http://www.citysearch.com/profile/839365090/marietta_ga/spice_it_up_cafe.html", "address": {"city": "Marietta", "state": "GA", "street": "316 S Fairground St SE", "postal_code": "30060"}, "capProviderId": null, "distance": null, "has_offers": false, "name": "Spice It Up Cafe", "longitude": -84.535719, "has_menu": true, "awards": null, "user_review_count": 0}, {"business_operation_status": 1, "rating": null, "neighborhood": null, "image": null, "scorecard": null, "featured": false, "sample_categories": "Restaurants", "public_id": "my-cousin-vinnys-kennesaw-2", "id": 615555824, "votes": null, "tagline": null, "has_video": false, "website": null, "offers": null, "latitude": 34.013172, "politanName": "Atlanta, GA Metro ", "phone_number": "7704230391", "tags": [{"primary": true, "id": 1722, "name": "Restaurants"}], "fax_number": null, "expansion": {"count": null, "uri": null}, "impression_id": "000b000000d29669d476b2482a93dd29a88ca74651", "profile": "http://www.citysearch.com/profile/615555824/kennesaw_ga/my_cousin_vinny_s.html", "address": {"city": "Kennesaw", "state": "GA", "street": "2615 George Busbee Pkwy NW 26", "postal_code": "30144"}, "capProviderId": null, "distance": null, "has_offers": false, "name": "My Cousin Vinny's", "longitude": -84.567215, "has_menu": false, "awards": null, "user_review_count": 0}, {"business_operation_status": 1, "rating": null, "neighborhood": null, "image": null, "scorecard": null, "featured": false, "sample_categories": "Restaurants, Sandwich Shops, Pizza, Carry Out, American Express", "public_id": "mellow-mushroom-kennesaw", "id": 601313022, "votes": null, "tagline": null, "has_video": false, "website": "http://www.citysearch.com/profile/external/601313022/kennesaw_ga/mellow_mushroom.html", "offers": null, "latitude": 34.030476, "politanName": "Atlanta, GA Metro ", "phone_number": "7704269900", "tags": [{"primary": false, "id": 1722, "name": "Restaurants"}, {"primary": false, "id": 1736, "name": "Sandwich Shops"}, {"primary": false, "id": 11247, "name": "Carry Out"}, {"primary": false, "id": 11333, "name": "American Express"}, {"primary": false, "id": 11349, "name": "Discover"}, {"primary": false, "id": 11361, "name": "MasterCard"}, {"primary": false, "id": 11382, "name": "Visa"}, {"primary": true, "id": 11299, "name": "Pizza"}], "fax_number": null, "expansion": {"count": null, "uri": null}, "impression_id": "000b000000a1996a3cd4de4d188da7ef67abf8aa91", "profile": "http://www.citysearch.com/profile/601313022/kennesaw_ga/mellow_mushroom.html", "address": {"city": "Kennesaw", "state": "GA", "street": "1133 Chastain Rd Nw", "postal_code": "30144"}, "capProviderId": null, "distance": null, "has_offers": false, "name": "Mellow Mushroom", "longitude": -84.58315, "has_menu": true, "awards": null, "user_review_count": 0}, {"business_operation_status": 1, "rating": null, "neighborhood": null, "image": null, "scorecard": null, "featured": false, "sample_categories": "Restaurants", "public_id": "may-mei-inc-kennesaw", "id": 632940340, "votes": null, "tagline": null, "has_video": false, "website": null, "offers": null, "latitude": 34.040605, "politanName": "Atlanta, GA Metro ", "phone_number": "7707940178", "tags": [{"primary": true, "id": 1722, "name": "Restaurants"}], "fax_number": null, "expansion": {"count": null, "uri": null}, "impression_id": "000b000000872091865e7a4d8a87a068e15b908725", "profile": "http://www.citysearch.com/profile/632940340/kennesaw_ga/may_mei_inc.html", "address": {"city": "Kennesaw", "state": "GA", "street": "156 N Lakeside Dr Nw", "postal_code": "30144"}, "capProviderId": null, "distance": null, "has_offers": false, "name": "May & Mei Inc", "longitude": -84.552751, "has_menu": false, "awards": null, "user_review_count": 0}, {"business_operation_status": 1, "rating": null, "neighborhood": null, "image": null, "scorecard": null, "featured": false, "sample_categories": "Restaurants, Barbecue Restaurants", "public_id": "staqs-bar-b-que-smyrna", "id": 647325040, "votes": null, "tagline": null, "has_video": false, "website": null, "offers": null, "latitude": 33.890026, "politanName": "Atlanta, GA Metro ", "phone_number": "7704384301", "tags": [{"primary": false, "id": 1724, "name": "Barbecue Restaurants"}, {"primary": true, "id": 1722, "name": "Restaurants"}], "fax_number": null, "expansion": {"count": null, "uri": null}, "impression_id": "000b00000067aacfce4f5c4c07b2f76c4cd4f68f05", "profile": "http://www.citysearch.com/profile/647325040/smyrna_ga/staqs_bar_b_que.html", "address": {"city": "Smyrna", "state": "GA", "street": "2599 S Cobb Dr Se", "postal_code": "30080"}, "capProviderId": null, "distance": null, "has_offers": false, "name": "Staqs Bar B Que", "longitude": -84.536726, "has_menu": true, "awards": null, "user_review_count": 0}, {"business_operation_status": 1, "rating": null, "neighborhood": null, "image": null, "scorecard": null, "featured": false, "sample_categories": "Restaurants, Delis And Delicatessens", "public_id": "best-wings-deli-douglasville-2", "id": 728017940, "votes": null, "tagline": null, "has_video": false, "website": null, "offers": null, "latitude": 33.747372, "politanName": "Atlanta, GA Metro ", "phone_number": "7709477809", "tags": [{"primary": false, "id": 1727, "name": "Delis And Delicatessens"}, {"primary": true, "id": 1722, "name": "Restaurants"}], "fax_number": null, "expansion": {"count": null, "uri": null}, "impression_id": "000b0000007f1ed2f4474b4ffb9e56d1c86df73ba1", "profile": "http://www.citysearch.com/profile/728017940/douglasville_ga/best_wings_deli.html", "address": {"city": "Douglasville", "state": "GA", "street": "2134 Fairburn Rd", "postal_code": "30135"}, "capProviderId": null, "distance": null, "has_offers": false, "name": "Best Wings & Deli", "longitude": -84.699929, "has_menu": false, "awards": null, "user_review_count": 0}, {"business_operation_status": 0, "rating": null, "neighborhood": null, "image": null, "scorecard": null, "featured": false, "sample_categories": "Restaurants, Barbecue Restaurants", "public_id": "longhorns-buffalo-wings-marietta", "id": 653551040, "votes": null, "tagline": null, "has_video": false, "website": null, "offers": null, "latitude": 33.986818, "politanName": "Atlanta, GA Metro ", "phone_number": "4043131588", "tags": [{"primary": false, "id": 1724, "name": "Barbecue Restaurants"}, {"primary": true, "id": 1722, "name": "Restaurants"}], "fax_number": null, "expansion": {"count": null, "uri": null}, "impression_id": "000b00000036ca7c827f344df7915c541ed972f818", "profile": "http://www.citysearch.com/profile/653551040/marietta_ga/longhorns_buffalo_wings.html", "address": {"city": "Marietta", "state": "GA", "street": "1367 Sheffield Pkwy", "postal_code": "30062"}, "capProviderId": null, "distance": null, "has_offers": false, "name": "Longhorns Buffalo Wings", "longitude": -84.497978, "has_menu": false, "awards": null, "user_review_count": 0}], "histograms": [], "tag_ids": [1722], "uri": "http://api.citygridmedia.com:8080/search/places/v2/search/where?has_offers=false&type=restaurant&format=json&page=18&where=30064&rpp=50&histograms=false&publisher=10000009598&region_type=circle", "did_you_mean": "", "regions": [{"latitude": 33.938860999999996, "default_radius": 5.31, "type": "postal_code", "name": "30064", "longitude": -84.614086}], "call_id": "000b0000005e9419d797cf41f0b4e2d0a73aadffc6", "first_hit": 851, "total_hits": 1588, "geo_ids": [26293], "page": 18, "last_hit": 900}}