{"results": {"rpp": 50, "locations": [{"business_operation_status": 1, "rating": null, "neighborhood": null, "image": null, "scorecard": null, "featured": false, "sample_categories": "Restaurants, Carry Out, Pizza", "public_id": "papa-johns-pizza-marietta-18", "id": 764880830, "votes": null, "tagline": null, "has_video": false, "website": null, "offers": null, "latitude": 34.058171, "politanName": "Atlanta, GA Metro ", "phone_number": "7709771194", "tags": [{"primary": false, "id": 11247, "name": "Carry Out"}, {"primary": false, "id": 11299, "name": "Pizza"}, {"primary": true, "id": 1722, "name": "Restaurants"}], "fax_number": null, "expansion": {"count": null, "uri": null}, "impression_id": "000b0000008e5762bb91324f4fb87678b915978547", "profile": "http://www.citysearch.com/profile/764880830/marietta_ga/papa_john_s_pizza.html", "address": {"city": "Marietta", "state": "GA", "street": "4524 Club House Dr", "postal_code": "30066"}, "capProviderId": null, "distance": null, "has_offers": false, "name": "Papa John's Pizza", "longitude": -84.44555, "has_menu": false, "awards": null, "user_review_count": 0}, {"business_operation_status": 1, "rating": 8.0, "neighborhood": null, "image": null, "scorecard": null, "featured": false, "sample_categories": "Bakeries, Restaurants", "public_id": "krystalins-bakery-marietta", "id": 43850357, "votes": null, "tagline": null, "has_video": false, "website": null, "offers": null, "latitude": 34.041856, "politanName": "Atlanta, GA Metro ", "phone_number": "6784940944", "tags": [{"primary": false, "id": 1722, "name": "Restaurants"}, {"primary": true, "id": 1685, "name": "Bakeries"}], "fax_number": null, "expansion": {"count": null, "uri": null}, "impression_id": "000b00000045b008cd6e244446a0f251118462bf83", "profile": "http://www.citysearch.com/profile/43850357/marietta_ga/krystalins_bakery.html", "address": {"city": "Marietta", "state": "GA", "street": "2525 Shallowford Rd", "postal_code": "30066"}, "capProviderId": null, "distance": null, "has_offers": false, "name": "Krystalins Bakery", "longitude": -84.477499, "has_menu": false, "awards": null, "user_review_count": 1}, {"business_operation_status": 1, "rating": null, "neighborhood": null, "image": null, "scorecard": null, "featured": false, "sample_categories": "Restaurants", "public_id": "party-q-marietta", "id": 618063354, "votes": null, "tagline": null, "has_video": false, "website": null, "offers": null, "latitude": 34.020818, "politanName": "Atlanta, GA Metro ", "phone_number": "6786977808", "tags": [{"primary": true, "id": 1722, "name": "Restaurants"}], "fax_number": null, "expansion": {"count": null, "uri": null}, "impression_id": "000b0000006ec140257aa44cafa41e8d6824700ff6", "profile": "http://www.citysearch.com/profile/618063354/marietta_ga/party_q.html", "address": {"city": "Marietta", "state": "GA", "street": "2821 Chastain Meadows Pkwy", "postal_code": "30066"}, "capProviderId": null, "distance": null, "has_offers": false, "name": "Party Q", "longitude": -84.55554, "has_menu": false, "awards": null, "user_review_count": 0}, {"business_operation_status": 1, "rating": null, "neighborhood": null, "image": null, "scorecard": null, "featured": false, "sample_categories": "Restaurants, Bars & Clubs", "public_id": "ronnie-johns-beach-cafe-marietta", "id": 732176830, "votes": null, "tagline": null, "has_video": false, "website": "http://www.citysearch.com/profile/external/732176830/marietta_ga/ronnie_johns_beach_cafe.html", "offers": null, "latitude": 33.997727, "politanName": "Atlanta, GA Metro ", "phone_number": "7703565251", "tags": [{"primary": false, "id": 164, "name": "Bars & Clubs"}, {"primary": true, "id": 1722, "name": "Restaurants"}], "fax_number": null, "expansion": {"count": null, "uri": null}, "impression_id": "000b000000c606115f7849498e95219e43db80bc68", "profile": "http://www.citysearch.com/profile/732176830/marietta_ga/ronnie_johns_beach_cafe.html", "address": {"city": "Marietta", "state": "GA", "street": "1951 Canton Rd # 330", "postal_code": "30066"}, "capProviderId": null, "distance": null, "has_offers": false, "name": "Ronnie Johns Beach Cafe", "longitude": -84.525055, "has_menu": false, "awards": null, "user_review_count": 0}, {"business_operation_status": 1, "rating": null, "neighborhood": null, "image": null, "scorecard": null, "featured": false, "sample_categories": "Restaurants, MasterCard, Visa", "public_id": "windy-city-grill-marietta", "id": 764935950, "votes": null, "tagline": null, "has_video": false, "website": "http://www.citysearch.com/profile/external/764935950/marietta_ga/windy_city_grill.html", "offers": null, "latitude": 34.048278, "politanName": "Atlanta, GA Metro ", "phone_number": "6784017735", "tags": [{"primary": false, "id": 11361, "name": "MasterCard"}, {"primary": false, "id": 11382, "name": "Visa"}, {"primary": true, "id": 1722, "name": "Restaurants"}], "fax_number": null, "expansion": {"count": null, "uri": null}, "impression_id": "000b00000094c138dece22457891e91d4cf14a5072", "profile": "http://www.citysearch.com/profile/764935950/marietta_ga/windy_city_grill.html", "address": {"city": "Marietta", "state": "GA", "street": "4017 Canton Rd", "postal_code": "30066"}, "capProviderId": null, "distance": null, "has_offers": false, "name": "Windy City Grill", "longitude": -84.52851, "has_menu": false, "awards": null, "user_review_count": 0}, {"business_operation_status": 1, "rating": null, "neighborhood": null, "image": null, "scorecard": null, "featured": false, "sample_categories": "Ice Cream Parlors", "public_id": "jimmies-ice-cream-co-marietta", "id": 802518500, "votes": null, "tagline": null, "has_video": false, "website": null, "offers": null, "latitude": 34.013992, "politanName": "Atlanta, GA Metro ", "phone_number": "7706720051", "tags": [{"primary": true, "id": 1730, "name": "Ice Cream Parlors"}], "fax_number": null, "expansion": {"count": null, "uri": null}, "impression_id": "000b000000e570d0e95bc2444788edc6b14781fda5", "profile": "http://www.citysearch.com/profile/802518500/marietta_ga/jimmie_s_ice_cream_co.html", "address": {"city": "Marietta", "state": "GA", "street": "2595 Sandy Plains Rd", "postal_code": "30066"}, "capProviderId": null, "distance": null, "has_offers": false, "name": "Jimmie's Ice Cream Co", "longitude": -84.495703, "has_menu": false, "awards": null, "user_review_count": 0}, {"business_operation_status": 1, "rating": 7.0, "neighborhood": null, "image": null, "scorecard": null, "featured": false, "sample_categories": "Restaurants, Chinese", "public_id": "mr-wok-chinese-delivery-marietta", "id": 2908288, "votes": null, "tagline": null, "has_video": false, "website": null, "offers": null, "latitude": 33.993514, "politanName": "Atlanta, GA Metro ", "phone_number": "7705141477", "tags": [{"primary": false, "id": 11252, "name": "Chinese"}, {"primary": true, "id": 1722, "name": "Restaurants"}], "fax_number": null, "expansion": {"count": null, "uri": null}, "impression_id": "000b0000009820d4a376964cb898d83c8c387cb3e5", "profile": "http://www.citysearch.com/profile/2908288/marietta_ga/mr_wok_chinese_delivery.html", "address": {"city": "Marietta", "state": "GA", "street": "1750 Bells Ferry Rd Ste B", "postal_code": "30066"}, "capProviderId": null, "distance": null, "has_offers": false, "name": "Mr Wok Chinese Delivery", "longitude": -84.549161, "has_menu": true, "awards": null, "user_review_count": 4}, {"business_operation_status": 1, "rating": null, "neighborhood": null, "image": null, "scorecard": null, "featured": false, "sample_categories": "Restaurants", "public_id": "american-cinema-group-inc-marietta", "id": 810463060, "votes": null, "tagline": null, "has_video": false, "website": null, "offers": null, "latitude": 33.952602, "politanName": "Atlanta, GA Metro ", "phone_number": "7709198182", "tags": [{"primary": true, "id": 1722, "name": "Restaurants"}], "fax_number": null, "expansion": {"count": null, "uri": null}, "impression_id": "000b000000fc42df71f7a143f589d3d2daf5c57351", "profile": "http://www.citysearch.com/profile/810463060/marietta_ga/american_cinema_group_inc.html", "address": {"city": "Marietta", "state": "GA", "street": "4520 Blackwater Trl", "postal_code": "30066"}, "capProviderId": null, "distance": null, "has_offers": false, "name": "American Cinema Group Inc", "longitude": -84.549933, "has_menu": false, "awards": null, "user_review_count": 0}, {"business_operation_status": 1, "rating": null, "neighborhood": null, "image": null, "scorecard": null, "featured": false, "sample_categories": "Restaurants, Grocery Stores", "public_id": "global-food-concepts-inc-marietta", "id": 775200900, "votes": null, "tagline": null, "has_video": false, "website": null, "offers": null, "latitude": 34.040146, "politanName": "Atlanta, GA Metro ", "phone_number": "7705798452", "tags": [{"primary": false, "id": 1713, "name": "Grocery Stores"}, {"primary": true, "id": 1722, "name": "Restaurants"}], "fax_number": null, "expansion": {"count": null, "uri": null}, "impression_id": "000b0000003c0f84326d304393ae540fb9b92f5d58", "profile": "http://www.citysearch.com/profile/775200900/marietta_ga/global_food_concepts_inc.html", "address": {"city": "Marietta", "state": "GA", "street": "2985 Gordy Pkwy", "postal_code": "30066"}, "capProviderId": null, "distance": null, "has_offers": false, "name": "Global Food Concepts Inc", "longitude": -84.46186, "has_menu": false, "awards": null, "user_review_count": 0}, {"business_operation_status": 1, "rating": null, "neighborhood": null, "image": null, "scorecard": null, "featured": false, "sample_categories": "Restaurants, Delis And Delicatessens", "public_id": "great-wraps-marietta", "id": 621905160, "votes": null, "tagline": null, "has_video": false, "website": "http://www.citysearch.com/profile/external/621905160/marietta_ga/great_wraps.html", "offers": null, "latitude": 34.013539, "politanName": "Atlanta, GA Metro ", "phone_number": "6783540001", "tags": [{"primary": false, "id": 1727, "name": "Delis And Delicatessens"}, {"primary": true, "id": 1722, "name": "Restaurants"}], "fax_number": null, "expansion": {"count": null, "uri": null}, "impression_id": "000b0000005679ce69aeae47178bb7726480d0dd02", "profile": "http://www.citysearch.com/profile/621905160/marietta_ga/great_wraps.html", "address": {"city": "Marietta", "state": "GA", "street": "125 Barrett Pkwy", "postal_code": "30066"}, "capProviderId": null, "distance": null, "has_offers": false, "name": "Great Wraps", "longitude": -84.552923, "has_menu": true, "awards": null, "user_review_count": 1}, {"business_operation_status": 1, "rating": null, "neighborhood": null, "image": null, "scorecard": null, "featured": false, "sample_categories": "Restaurants, Seafood", "public_id": "seafood-restaurant-marietta", "id": 627596910, "votes": null, "tagline": null, "has_video": false, "website": null, "offers": null, "latitude": 34.046421, "politanName": "Atlanta, GA Metro ", "phone_number": "6784028205", "tags": [{"primary": false, "id": 11228, "name": "Seafood"}, {"primary": true, "id": 1722, "name": "Restaurants"}], "fax_number": null, "expansion": {"count": null, "uri": null}, "impression_id": "000b00000035151741666e4d9f85887d0f0814768f", "profile": "http://www.citysearch.com/profile/627596910/marietta_ga/seafood_restaurant.html", "address": {"city": "Marietta", "state": "GA", "street": "3920 Canton Rd", "postal_code": "30066"}, "capProviderId": null, "distance": null, "has_offers": false, "name": "Seafood Restaurant", "longitude": -84.52845, "has_menu": false, "awards": null, "user_review_count": 0}, {"business_operation_status": 1, "rating": null, "neighborhood": null, "image": null, "scorecard": null, "featured": false, "sample_categories": "Restaurants, Carry Out, Hamburgers", "public_id": "back-yard-burgers-roswell", "id": 43856239, "votes": null, "tagline": null, "has_video": false, "website": null, "offers": null, "latitude": 34.064318, "politanName": "Atlanta, GA Metro ", "phone_number": "7705948145", "tags": [{"primary": false, "id": 11247, "name": "Carry Out"}, {"primary": false, "id": 11270, "name": "Hamburgers"}, {"primary": true, "id": 1722, "name": "Restaurants"}], "fax_number": null, "expansion": {"count": null, "uri": null}, "impression_id": "000b00000057f5a2862da345b7b2f8679587662c81", "profile": "http://www.citysearch.com/profile/43856239/roswell_ga/back_yard_burgers.html", "address": {"city": "Roswell", "state": "GA", "street": "4751 Sandy Plains Rd", "postal_code": "30075"}, "capProviderId": null, "distance": null, "has_offers": false, "name": "Back Yard Burgers", "longitude": -84.424276, "has_menu": true, "awards": null, "user_review_count": 0}, {"business_operation_status": 0, "rating": 8.0, "neighborhood": null, "image": null, "scorecard": null, "featured": false, "sample_categories": "Restaurants, Mexican", "public_id": "la-hacienda-marietta", "id": 43844935, "votes": null, "tagline": null, "has_video": false, "website": null, "offers": null, "latitude": 34.029387, "politanName": "Atlanta, GA Metro ", "phone_number": "7704241554", "tags": [{"primary": false, "id": 1722, "name": "Restaurants"}, {"primary": true, "id": 11208, "name": "Mexican"}], "fax_number": null, "expansion": {"count": null, "uri": null}, "impression_id": "000b000000008b548830584916b6a6f633e7386630", "profile": "http://www.citysearch.com/profile/43844935/marietta_ga/la_hacienda.html", "address": {"city": "Marietta", "state": "GA", "street": "3185 Canton Rd", "postal_code": "30066"}, "capProviderId": null, "distance": null, "has_offers": false, "name": "La Hacienda", "longitude": -84.528034, "has_menu": true, "awards": null, "user_review_count": 0}, {"business_operation_status": 1, "rating": null, "neighborhood": null, "image": null, "scorecard": null, "featured": false, "sample_categories": "Restaurants, Carry Out", "public_id": "back-yard-burgers-roswell-2", "id": 618629154, "votes": null, "tagline": null, "has_video": false, "website": "http://www.citysearch.com/profile/external/618629154/roswell_ga/back_yard_burgers.html", "offers": null, "latitude": 34.063969, "politanName": "Atlanta, GA Metro ", "phone_number": "7705948185", "tags": [{"primary": false, "id": 11247, "name": "Carry Out"}, {"primary": true, "id": 1722, "name": "Restaurants"}], "fax_number": null, "expansion": {"count": null, "uri": null}, "impression_id": "000b0000009f9f6478a1d6475a8ded218c36b28134", "profile": "http://www.citysearch.com/profile/618629154/roswell_ga/back_yard_burgers.html", "address": {"city": "Roswell", "state": "GA", "street": "4765 Sandy Plains Rd", "postal_code": "30075"}, "capProviderId": null, "distance": null, "has_offers": false, "name": "Back Yard Burgers", "longitude": -84.424033, "has_menu": false, "awards": null, "user_review_count": 0}, {"business_operation_status": 1, "rating": null, "neighborhood": null, "image": null, "scorecard": null, "featured": false, "sample_categories": "Restaurants", "public_id": "party-q-marietta", "id": 618276704, "votes": null, "tagline": null, "has_video": false, "website": null, "offers": null, "latitude": 34.020818, "politanName": "Atlanta, GA Metro ", "phone_number": "6786977808", "tags": [{"primary": true, "id": 1722, "name": "Restaurants"}], "fax_number": null, "expansion": {"count": null, "uri": null}, "impression_id": "000b000000463fb15c51274914b8a8f1caa93b2cc1", "profile": "http://www.citysearch.com/profile/618276704/marietta_ga/party_q.html", "address": {"city": "Marietta", "state": "GA", "street": "2821 Chastain Meadows Pkwy", "postal_code": "30066"}, "capProviderId": null, "distance": null, "has_offers": false, "name": "Party Q", "longitude": -84.55554, "has_menu": false, "awards": null, "user_review_count": 0}, {"business_operation_status": 1, "rating": null, "neighborhood": null, "image": null, "scorecard": null, "featured": false, "sample_categories": "Restaurants", "public_id": "stoney-river-legendary-steaks-marietta", "id": 732164930, "votes": null, "tagline": null, "has_video": false, "website": null, "offers": null, "latitude": 34.009709, "politanName": "Atlanta, GA Metro ", "phone_number": "7706671201", "tags": [{"primary": true, "id": 1722, "name": "Restaurants"}], "fax_number": null, "expansion": {"count": null, "uri": null}, "impression_id": "000b000000611151ca9f00485999a4bdb2d7e118f7", "profile": "http://www.citysearch.com/profile/732164930/marietta_ga/stoney_river_legendary_steaks.html", "address": {"city": "Marietta", "state": "GA", "street": "2440 Sandy Plains Rd # 1-150", "postal_code": "30066"}, "capProviderId": null, "distance": null, "has_offers": false, "name": "Stoney River Legendary Steaks", "longitude": -84.496627, "has_menu": false, "awards": null, "user_review_count": 0}, {"business_operation_status": 1, "rating": null, "neighborhood": null, "image": null, "scorecard": null, "featured": false, "sample_categories": "Restaurants", "public_id": "china-statistical-info-usa-marietta", "id": 810372840, "votes": null, "tagline": null, "has_video": false, "website": null, "offers": null, "latitude": 33.996599, "politanName": "Atlanta, GA Metro ", "phone_number": "7702180493", "tags": [{"primary": true, "id": 1722, "name": "Restaurants"}], "fax_number": null, "expansion": {"count": null, "uri": null}, "impression_id": "000b0000004e8da5e4e3e34069a3eab2695c3fba53", "profile": "http://www.citysearch.com/profile/810372840/marietta_ga/china_statistical_info_usa.html", "address": {"city": "Marietta", "state": "GA", "street": "1441 Rosewood Creek Dr", "postal_code": "30066"}, "capProviderId": null, "distance": null, "has_offers": false, "name": "China Statistical Info USA", "longitude": -84.510317, "has_menu": false, "awards": null, "user_review_count": 0}, {"business_operation_status": 1, "rating": null, "neighborhood": null, "image": null, "scorecard": null, "featured": false, "sample_categories": "Coffeehouses", "public_id": "java-distributors-llc-marietta", "id": 601298470, "votes": null, "tagline": null, "has_video": false, "website": null, "offers": null, "latitude": 34.0347, "politanName": "Atlanta, GA Metro ", "phone_number": "7703218353", "tags": [{"primary": true, "id": 1726, "name": "Coffeehouses"}], "fax_number": null, "expansion": {"count": null, "uri": null}, "impression_id": "000b000000e1c1fb1485654bceb3209f6db489f4d0", "profile": "http://www.citysearch.com/profile/601298470/marietta_ga/java_distributors_llc.html", "address": {"city": "Marietta", "state": "GA", "street": "3322 Cranmore Chase", "postal_code": "30066"}, "capProviderId": null, "distance": null, "has_offers": false, "name": "Java Distributors Llc", "longitude": -84.473964, "has_menu": false, "awards": null, "user_review_count": 1}, {"business_operation_status": 1, "rating": null, "neighborhood": null, "image": null, "scorecard": null, "featured": false, "sample_categories": "Restaurants, Catering, Carry Out", "public_id": "joes-crab-shack-marietta-2", "id": 807865760, "votes": null, "tagline": null, "has_video": false, "website": null, "offers": null, "latitude": 33.993933, "politanName": "Atlanta, GA Metro ", "phone_number": "7704228374", "tags": [{"primary": false, "id": 1705, "name": "Catering"}, {"primary": false, "id": 11247, "name": "Carry Out"}, {"primary": true, "id": 1722, "name": "Restaurants"}], "fax_number": null, "expansion": {"count": null, "uri": null}, "impression_id": "000b0000009909aad58e2b44edbd5030640268a6b2", "profile": "http://www.citysearch.com/profile/807865760/marietta_ga/joe_s_crab_shack.html", "address": {"city": "Marietta", "state": "GA", "street": "225 Williams Dr", "postal_code": "30066"}, "capProviderId": null, "distance": null, "has_offers": false, "name": "Joe's Crab Shack", "longitude": -84.548113, "has_menu": false, "awards": null, "user_review_count": 0}, {"business_operation_status": 1, "rating": null, "neighborhood": null, "image": null, "scorecard": null, "featured": false, "sample_categories": "Restaurants", "public_id": "ogas-cafeteria-marietta", "id": 812725490, "votes": null, "tagline": null, "has_video": false, "website": null, "offers": null, "latitude": 34.017069, "politanName": "Atlanta, GA Metro ", "phone_number": "7705656700", "tags": [{"primary": true, "id": 1722, "name": "Restaurants"}], "fax_number": null, "expansion": {"count": null, "uri": null}, "impression_id": "000b000000fe6b0219ef20449bb5fc951663286c40", "profile": "http://www.citysearch.com/profile/812725490/marietta_ga/ogas_cafeteria.html", "address": {"city": "Marietta", "state": "GA", "street": "2778 Sandy Plains Rd", "postal_code": "30066"}, "capProviderId": null, "distance": null, "has_offers": false, "name": "Ogas Cafeteria", "longitude": -84.491613, "has_menu": false, "awards": null, "user_review_count": 0}, {"business_operation_status": 1, "rating": null, "neighborhood": null, "image": null, "scorecard": null, "featured": false, "sample_categories": "Restaurants", "public_id": "aunt-bs-oyster-house-marietta", "id": 823170090, "votes": null, "tagline": null, "has_video": false, "website": null, "offers": null, "latitude": 34.048139, "politanName": "Atlanta, GA Metro ", "phone_number": "7709242272", "tags": [{"primary": true, "id": 1722, "name": "Restaurants"}], "fax_number": null, "expansion": {"count": null, "uri": null}, "impression_id": "000b0000009f4855ff4ac24b5cae5bab51c68f4eb6", "profile": "http://www.citysearch.com/profile/823170090/marietta_ga/aunt_b_s_oyster_house.html", "address": {"city": "Marietta", "state": "GA", "street": "3999 Canton Rd", "postal_code": "30066"}, "capProviderId": null, "distance": null, "has_offers": false, "name": "Aunt B's Oyster House", "longitude": -84.529087, "has_menu": false, "awards": null, "user_review_count": 0}, {"business_operation_status": 0, "rating": 9.0, "neighborhood": null, "image": null, "scorecard": null, "featured": false, "sample_categories": "Delis And Delicatessens", "public_id": "petra-mediterranean-grocery-deli-marietta", "id": 36940541, "votes": null, "tagline": null, "has_video": false, "website": null, "offers": null, "latitude": 34.048554, "politanName": "Atlanta, GA Metro ", "phone_number": "6784940711", "tags": [{"primary": true, "id": 1727, "name": "Delis And Delicatessens"}], "fax_number": null, "expansion": {"count": null, "uri": null}, "impression_id": "000b000000af1a97eb12814d43be5698702246dc3e", "profile": "http://www.citysearch.com/profile/36940541/marietta_ga/petra_mediterranean_grocery_deli.html", "address": {"city": "Marietta", "state": "GA", "street": "4035 Canton Rd", "postal_code": "30066"}, "capProviderId": null, "distance": null, "has_offers": false, "name": "Petra Mediterranean Grocery & Deli", "longitude": -84.528338, "has_menu": false, "awards": null, "user_review_count": 0}, {"business_operation_status": 1, "rating": null, "neighborhood": null, "image": null, "scorecard": null, "featured": false, "sample_categories": "Restaurants", "public_id": "surak-kennesaw", "id": 37648990, "votes": null, "tagline": null, "has_video": false, "website": null, "offers": null, "latitude": 34.025304, "politanName": "Atlanta, GA Metro ", "phone_number": "6785811888", "tags": [{"primary": true, "id": 1722, "name": "Restaurants"}], "fax_number": null, "expansion": {"count": null, "uri": null}, "impression_id": "000b000000826ebefb26b944f4a745971cb7cda447", "profile": "http://www.citysearch.com/profile/37648990/kennesaw_ga/surak.html", "address": {"city": "Kennesaw", "state": "GA", "street": "2950 George Busbee Pkwy NW", "postal_code": "30144"}, "capProviderId": null, "distance": null, "has_offers": false, "name": "Surak", "longitude": -84.5671, "has_menu": false, "awards": null, "user_review_count": 0}, {"business_operation_status": 1, "rating": null, "neighborhood": null, "image": null, "scorecard": null, "featured": false, "sample_categories": "Restaurants", "public_id": "creative-cafe-marietta", "id": 807599830, "votes": null, "tagline": null, "has_video": false, "website": null, "offers": null, "latitude": 34.032195, "politanName": "Atlanta, GA Metro ", "phone_number": "6782909995", "tags": [{"primary": true, "id": 1722, "name": "Restaurants"}], "fax_number": null, "expansion": {"count": null, "uri": null}, "impression_id": "000b000000648f45964dfc457bb2171236760fe9b2", "profile": "http://www.citysearch.com/profile/807599830/marietta_ga/creative_cafe.html", "address": {"city": "Marietta", "state": "GA", "street": "3402 Canton Rd", "postal_code": "30066"}, "capProviderId": null, "distance": null, "has_offers": false, "name": "Creative Cafe", "longitude": -84.527689, "has_menu": false, "awards": null, "user_review_count": 0}, {"business_operation_status": 1, "rating": null, "neighborhood": null, "image": null, "scorecard": null, "featured": false, "sample_categories": "Carry Out", "public_id": "lucyann-s-co-llc-marietta", "id": 810787170, "votes": null, "tagline": null, "has_video": false, "website": null, "offers": null, "latitude": 34.011742, "politanName": "Atlanta, GA Metro ", "phone_number": "6785609088", "tags": [{"primary": true, "id": 11247, "name": "Carry Out"}], "fax_number": null, "expansion": {"count": null, "uri": null}, "impression_id": "000b00000067b0ef8c03364f1a94ac8c6932f270a8", "profile": "http://www.citysearch.com/profile/810787170/marietta_ga/lucyann_s_co_llc.html", "address": {"city": "Marietta", "state": "GA", "street": "2550 Sandy Plains Rd # 100", "postal_code": "30066"}, "capProviderId": null, "distance": null, "has_offers": false, "name": "Lucyann S Co LLC", "longitude": -84.495056, "has_menu": false, "awards": null, "user_review_count": 0}, {"business_operation_status": 0, "rating": null, "neighborhood": null, "image": null, "scorecard": null, "featured": false, "sample_categories": "Restaurants", "public_id": "the-party-q-bbq-restaurant-marietta", "id": 672617170, "votes": null, "tagline": null, "has_video": false, "website": null, "offers": null, "latitude": 34.016708, "politanName": "Atlanta, GA Metro ", "phone_number": "7704242225", "tags": [{"primary": true, "id": 1722, "name": "Restaurants"}], "fax_number": null, "expansion": {"count": null, "uri": null}, "impression_id": "000b000000253c418709ad49eab2ae4bd01f8053b7", "profile": "http://www.citysearch.com/profile/672617170/marietta_ga/the_party_q_bbq_restaurant.html", "address": {"city": "Marietta", "state": "GA", "street": "2821 Chastain Meadows Pkwy", "postal_code": "30066"}, "capProviderId": null, "distance": null, "has_offers": false, "name": "The Party Q! BBQ Restaurant", "longitude": -84.556251, "has_menu": false, "awards": null, "user_review_count": 0}, {"business_operation_status": 1, "rating": null, "neighborhood": null, "image": null, "scorecard": null, "featured": false, "sample_categories": "Restaurants, Grocery Stores", "public_id": "shivam-marietta", "id": 638803240, "votes": null, "tagline": null, "has_video": false, "website": null, "offers": null, "latitude": 33.998509, "politanName": "Atlanta, GA Metro ", "phone_number": "7709717448", "tags": [{"primary": false, "id": 1713, "name": "Grocery Stores"}, {"primary": true, "id": 1722, "name": "Restaurants"}], "fax_number": null, "expansion": {"count": null, "uri": null}, "impression_id": "000b000000a809ecc32b754ee29754e10dfc47912b", "profile": "http://www.citysearch.com/profile/638803240/marietta_ga/shivam.html", "address": {"city": "Marietta", "state": "GA", "street": "1338 Eastbrooke Trce", "postal_code": "30066"}, "capProviderId": null, "distance": null, "has_offers": false, "name": "Shivam", "longitude": -84.505954, "has_menu": false, "awards": null, "user_review_count": 0}, {"business_operation_status": 1, "rating": 8.0, "neighborhood": null, "image": null, "scorecard": null, "featured": false, "sample_categories": "Restaurants, Cajun & Creole, Carry Out, American Express, Cash", "public_id": "folks-southern-kitchen-marietta", "id": 2908299, "votes": null, "tagline": null, "has_video": false, "website": "http://www.citysearch.com/profile/external/2908299/marietta_ga/folks_southern_kitchen.html", "offers": null, "latitude": 33.995805, "politanName": "Atlanta, GA Metro ", "phone_number": "7704252322", "tags": [{"primary": false, "id": 11245, "name": "Cajun & Creole"}, {"primary": false, "id": 11247, "name": "Carry Out"}, {"primary": false, "id": 11333, "name": "American Express"}, {"primary": false, "id": 11339, "name": "Cash"}, {"primary": false, "id": 11349, "name": "Discover"}, {"primary": false, "id": 11361, "name": "MasterCard"}, {"primary": false, "id": 11382, "name": "Visa"}, {"primary": true, "id": 1722, "name": "Restaurants"}], "fax_number": null, "expansion": {"count": null, "uri": null}, "impression_id": "000b000000dbeee4db0bde447bb71d8441e96ca93f", "profile": "http://www.citysearch.com/profile/2908299/marietta_ga/folks_southern_kitchen.html", "address": {"city": "Marietta", "state": "GA", "street": "825 Sandy Plains Rd", "postal_code": "30066"}, "capProviderId": null, "distance": null, "has_offers": false, "name": "Folks Southern Kitchen", "longitude": -84.526018, "has_menu": true, "awards": null, "user_review_count": 1}, {"business_operation_status": 1, "rating": null, "neighborhood": null, "image": null, "scorecard": null, "featured": false, "sample_categories": "Restaurants", "public_id": "bubba-ds-dawgs-inc-marietta", "id": 801089200, "votes": null, "tagline": null, "has_video": false, "website": null, "offers": null, "latitude": 34.01546, "politanName": "Atlanta, GA Metro ", "phone_number": "7703553212", "tags": [{"primary": true, "id": 1722, "name": "Restaurants"}], "fax_number": null, "expansion": {"count": null, "uri": null}, "impression_id": "000b00000063f464348cb54382a21a8db813edfde2", "profile": "http://www.citysearch.com/profile/801089200/marietta_ga/bubba_d_s_dawgs_inc.html", "address": {"city": "Marietta", "state": "GA", "street": "2690 Sandy Plains Rd", "postal_code": "30066"}, "capProviderId": null, "distance": null, "has_offers": false, "name": "Bubba D's Dawgs INC", "longitude": -84.493053, "has_menu": false, "awards": null, "user_review_count": 0}, {"business_operation_status": 1, "rating": 9.0, "neighborhood": null, "image": "http://images.citysearch.net/assets/imgdb/5e/71/0b/21/97/7d/45/7f/9f/88/09/59/89/07/78/e0.jpg", "scorecard": null, "featured": false, "sample_categories": "Catering, Restaurants, Dessert Shops, Italian, $$", "public_id": "sugo-roswell-2", "id": 40841254, "votes": null, "tagline": "Sugo Restaurant & Tapas- A Blend of Italian & Greek Cuisine", "has_video": false, "website": "http://www.citysearch.com/profile/external/40841254/roswell_ga/sugo.html", "offers": null, "latitude": 34.009785, "politanName": "Atlanta, GA Metro ", "phone_number": "7706419131", "tags": [{"primary": false, "id": 1705, "name": "Catering"}, {"primary": false, "id": 1722, "name": "Restaurants"}, {"primary": false, "id": 1728, "name": "Dessert Shops"}, {"primary": false, "id": 11232, "name": "$$"}, {"primary": false, "id": 11244, "name": "Business Dining"}, {"primary": false, "id": 11256, "name": "Date Spot"}, {"primary": false, "id": 11262, "name": "Family Style Dining"}, {"primary": false, "id": 11263, "name": "Family-Friendly Dining"}, {"primary": false, "id": 11268, "name": "Greek"}, {"primary": false, "id": 11269, "name": "Group Dining"}, {"primary": false, "id": 11272, "name": "Hidden Find"}, {"primary": false, "id": 11284, "name": "Local Favorite"}, {"primary": false, "id": 11289, "name": "Mediterranean"}, {"primary": false, "id": 11296, "name": "Outdoor Dining"}, {"primary": false, "id": 11299, "name": "Pizza"}, {"primary": false, "id": 11303, "name": "Private Parties"}, {"primary": false, "id": 11304, "name": "Private Rooms"}, {"primary": false, "id": 11307, "name": "Romantic Dining"}, {"primary": false, "id": 11310, "name": "Sommelier"}, {"primary": false, "id": 11324, "name": "Upscale Casual Dining"}, {"primary": false, "id": 11339, "name": "Cash"}, {"primary": false, "id": 11361, "name": "MasterCard"}, {"primary": false, "id": 11382, "name": "Visa"}, {"primary": true, "id": 11279, "name": "Italian"}], "fax_number": null, "expansion": {"count": null, "uri": null}, "impression_id": "000b00000073c129b996a741258496835a91013e23", "profile": "http://www.citysearch.com/profile/40841254/roswell_ga/sugo.html", "address": {"city": "Roswell", "state": "GA", "street": "408 S Atlanta St", "postal_code": "30075"}, "capProviderId": null, "distance": null, "has_offers": false, "name": "Sugo", "longitude": -84.361532, "has_menu": true, "awards": null, "user_review_count": 42}, {"business_operation_status": 1, "rating": 9.0, "neighborhood": null, "image": "http://images.citysearch.net/assets/imgdb/merchant/2010/2/1/0/XGFGRqdH1.jpeg", "scorecard": null, "featured": false, "sample_categories": "Catering, Restaurants, Barbecue Restaurants, $, Cheap Eats", "public_id": "williamson-brothers-barbq-marietta", "id": 11340779, "votes": null, "tagline": "Country barbecue smoked up just right in Marietta.", "has_video": false, "website": "http://www.citysearch.com/profile/external/11340779/marietta_ga/williamson_bros_bar_b_q.html", "offers": null, "latitude": 33.950897, "politanName": "Atlanta, GA Metro ", "phone_number": "7709713201", "tags": [{"primary": false, "id": 1722, "name": "Restaurants"}, {"primary": false, "id": 1724, "name": "Barbecue Restaurants"}, {"primary": false, "id": 11231, "name": "$"}, {"primary": false, "id": 11249, "name": "Cheap Eats"}, {"primary": false, "id": 11263, "name": "Family-Friendly Dining"}, {"primary": false, "id": 11269, "name": "Group Dining"}, {"primary": false, "id": 11286, "name": "Lunch Spot"}, {"primary": false, "id": 11333, "name": "American Express"}, {"primary": false, "id": 11349, "name": "Discover"}, {"primary": false, "id": 11361, "name": "MasterCard"}, {"primary": false, "id": 11382, "name": "Visa"}, {"primary": true, "id": 1705, "name": "Catering"}], "fax_number": null, "expansion": {"count": null, "uri": null}, "impression_id": "000b00000091e5d0fd53a442b19f36c41a6bd72e66", "profile": "http://www.citysearch.com/profile/11340779/marietta_ga/williamson_bros_bar_b_q.html", "address": {"city": "Marietta", "state": "GA", "street": "1425 Roswell Rd", "postal_code": "30062"}, "capProviderId": null, "distance": null, "has_offers": false, "name": "Williamson Bros. Bar-B-Q", "longitude": -84.510219, "has_menu": true, "awards": null, "user_review_count": 65}, {"business_operation_status": 1, "rating": 8.0, "neighborhood": null, "image": "http://images.citysearch.net/assets/imgdb/merchant/2015/3/18/0/zKAXTjbf208.jpeg", "scorecard": null, "featured": true, "sample_categories": "Restaurants, New American, Traditional American, Seafood, $$", "public_id": "longhorn-steakhouse-woodstock", "id": 33571775, "votes": null, "tagline": "Come in today & enjoy what we call a \"cut-above\" experience", "has_video": false, "website": "http://www.citysearch.com/profile/external/33571775/woodstock_ga/longhorn_steakhouse.html", "offers": null, "latitude": 34.104501, "politanName": "Atlanta, GA Metro ", "phone_number": "7704509047", "tags": [{"primary": false, "id": 11189, "name": "New American"}, {"primary": false, "id": 11190, "name": "Traditional American"}, {"primary": false, "id": 11228, "name": "Seafood"}, {"primary": false, "id": 11232, "name": "$$"}, {"primary": false, "id": 11247, "name": "Carry Out"}, {"primary": false, "id": 11258, "name": "Dine At The Bar"}, {"primary": false, "id": 11263, "name": "Family-Friendly Dining"}, {"primary": false, "id": 11269, "name": "Group Dining"}, {"primary": false, "id": 11316, "name": "Steakhouse"}, {"primary": false, "id": 11333, "name": "American Express"}, {"primary": false, "id": 11349, "name": "Discover"}, {"primary": false, "id": 11361, "name": "MasterCard"}, {"primary": false, "id": 11382, "name": "Visa"}, {"primary": true, "id": 1722, "name": "Restaurants"}], "fax_number": null, "expansion": {"count": null, "uri": null}, "impression_id": "000b000000f442b1eff00546adbab7c13664891b51", "profile": "http://www.citysearch.com/profile/33571775/woodstock_ga/longhorn_steakhouse.html", "address": {"city": "Woodstock", "state": "GA", "street": "1420 Towne Lake Pkwy", "postal_code": "30189"}, "capProviderId": 1, "distance": null, "has_offers": false, "name": "LongHorn Steakhouse", "longitude": -84.539409, "has_menu": true, "awards": null, "user_review_count": 1}, {"business_operation_status": 1, "rating": 7.0, "neighborhood": null, "image": "http://images.citysearch.net/assets/imgdb/merchant/2015/3/3/0/XbDaJnPm123.jpeg", "scorecard": null, "featured": true, "sample_categories": "Restaurants, New American, Carry Out, Family Style Dining, Family-Friendly Dining", "public_id": "olive-garden-kennesaw", "id": 2955103, "votes": null, "tagline": "Buy One Take One is Back! Starting at $12.99", "has_video": false, "website": "http://www.citysearch.com/profile/external/2955103/kennesaw_ga/olive_garden.html", "offers": null, "latitude": 34.01221, "politanName": "Atlanta, GA Metro ", "phone_number": "7704243668", "tags": [{"primary": false, "id": 11189, "name": "New American"}, {"primary": false, "id": 11247, "name": "Carry Out"}, {"primary": false, "id": 11262, "name": "Family Style Dining"}, {"primary": false, "id": 11263, "name": "Family-Friendly Dining"}, {"primary": false, "id": 11279, "name": "Italian"}, {"primary": false, "id": 11286, "name": "Lunch Spot"}, {"primary": false, "id": 11333, "name": "American Express"}, {"primary": false, "id": 11349, "name": "Discover"}, {"primary": false, "id": 11361, "name": "MasterCard"}, {"primary": false, "id": 11382, "name": "Visa"}, {"primary": true, "id": 1722, "name": "Restaurants"}], "fax_number": null, "expansion": {"count": null, "uri": null}, "impression_id": "000b00000033a8621ca16c452e813c6350a22a3a44", "profile": "http://www.citysearch.com/profile/2955103/kennesaw_ga/olive_garden.html", "address": {"city": "Kennesaw", "state": "GA", "street": "429 Barrett Pkwy", "postal_code": "30144"}, "capProviderId": 1, "distance": null, "has_offers": false, "name": "Olive Garden", "longitude": -84.562972, "has_menu": true, "awards": null, "user_review_count": 4}, {"business_operation_status": 1, "rating": 10.0, "neighborhood": null, "image": "http://o3.aolcdn.com/dims-shared/dims3/PATCH/resize/600x450/http://hss-prod.hss.aol.com/hss/storage/patch/70f4b9d44b921e080c50cf6033c1dfb3", "scorecard": null, "featured": false, "sample_categories": "Restaurants, Traditional American, Californian, $$, Lunch Spot", "public_id": "greenwoods-on-green-street-roswell", "id": 2916709, "votes": null, "tagline": null, "has_video": false, "website": "http://www.citysearch.com/profile/external/2916709/roswell_ga/greenwoods_on_green_street.html", "offers": null, "latitude": 34.02815, "politanName": "Atlanta, GA Metro ", "phone_number": "7709925383", "tags": [{"primary": false, "id": 11190, "name": "Traditional American"}, {"primary": false, "id": 11191, "name": "Californian"}, {"primary": false, "id": 11232, "name": "$$"}, {"primary": false, "id": 11286, "name": "Lunch Spot"}, {"primary": false, "id": 11312, "name": "Southern"}, {"primary": false, "id": 11339, "name": "Cash"}, {"primary": false, "id": 11341, "name": "Check"}, {"primary": false, "id": 11349, "name": "Discover"}, {"primary": false, "id": 11361, "name": "MasterCard"}, {"primary": false, "id": 11382, "name": "Visa"}, {"primary": true, "id": 1722, "name": "Restaurants"}], "fax_number": null, "expansion": {"count": null, "uri": null}, "impression_id": "000b0000004cd9e4fde90844749f2c81f9553ea6bf", "profile": "http://www.citysearch.com/profile/2916709/roswell_ga/greenwoods_on_green_street.html", "address": {"city": "Roswell", "state": "GA", "street": "1087 Green St", "postal_code": "30075"}, "capProviderId": null, "distance": null, "has_offers": false, "name": "Greenwoods On Green Street", "longitude": -84.359739, "has_menu": false, "awards": null, "user_review_count": 30}, {"business_operation_status": 1, "rating": 9.0, "neighborhood": null, "image": "http://o2.aolcdn.com/dims-shared/dims3/PATCH/resize/600x450/http://hss-prod.hss.aol.com/hss/storage/patch/67219c44c72e23a9b493eb9aaf9c695b", "scorecard": null, "featured": false, "sample_categories": "Bakeries, Restaurants, French, $, Cheap Eats", "public_id": "douceur-de-france-marietta", "id": 11642899, "votes": null, "tagline": null, "has_video": false, "website": "http://www.citysearch.com/profile/external/11642899/marietta_ga/douceur_de_france.html", "offers": null, "latitude": 33.938896, "politanName": "Atlanta, GA Metro ", "phone_number": "7704255050", "tags": [{"primary": false, "id": 1722, "name": "Restaurants"}, {"primary": false, "id": 11219, "name": "French"}, {"primary": false, "id": 11231, "name": "$"}, {"primary": false, "id": 11249, "name": "Cheap Eats"}, {"primary": false, "id": 11339, "name": "Cash"}, {"primary": true, "id": 1685, "name": "Bakeries"}], "fax_number": null, "expansion": {"count": null, "uri": null}, "impression_id": "000b000000f5be5f4007144b22addc9d64519c2bcc", "profile": "http://www.citysearch.com/profile/11642899/marietta_ga/douceur_de_france.html", "address": {"city": "Marietta", "state": "GA", "street": "367 Glover St SE", "postal_code": "30060"}, "capProviderId": null, "distance": null, "has_offers": false, "name": "Douceur De France", "longitude": -84.542509, "has_menu": true, "awards": null, "user_review_count": 17}, {"business_operation_status": 1, "rating": 8.0, "neighborhood": null, "image": null, "scorecard": null, "featured": false, "sample_categories": "Restaurants, Traditional American, $$, Cajun & Creole, Family-Friendly Dining", "public_id": "copelands-of-new-orleans-kennesaw", "id": 11526325, "votes": null, "tagline": null, "has_video": false, "website": "http://www.citysearch.com/profile/external/11526325/kennesaw_ga/copeland_s_of_new_orleans.html", "offers": null, "latitude": 34.001836, "politanName": "Atlanta, GA Metro ", "phone_number": "7709199612", "tags": [{"primary": false, "id": 11190, "name": "Traditional American"}, {"primary": false, "id": 11232, "name": "$$"}, {"primary": false, "id": 11245, "name": "Cajun & Creole"}, {"primary": false, "id": 11263, "name": "Family-Friendly Dining"}, {"primary": false, "id": 11269, "name": "Group Dining"}, {"primary": false, "id": 11333, "name": "American Express"}, {"primary": false, "id": 11349, "name": "Discover"}, {"primary": false, "id": 11361, "name": "MasterCard"}, {"primary": false, "id": 11382, "name": "Visa"}, {"primary": true, "id": 1722, "name": "Restaurants"}], "fax_number": null, "expansion": {"count": null, "uri": null}, "impression_id": "000b0000003f134c4b7ea54c02a7e62c08ab51cb20", "profile": "http://www.citysearch.com/profile/11526325/kennesaw_ga/copeland_s_of_new_orleans.html", "address": {"city": "Kennesaw", "state": "GA", "street": "1142 Ernest W Barrett Pkwy NW", "postal_code": "30144"}, "capProviderId": null, "distance": null, "has_offers": false, "name": "Copeland's Of New Orleans", "longitude": -84.582883, "has_menu": true, "awards": null, "user_review_count": 14}, {"business_operation_status": 1, "rating": 9.0, "neighborhood": null, "image": "http://o3.aolcdn.com/dims-shared/dims3/PATCH/resize/600x450/http://hss-prod.hss.aol.com/hss/storage/patch/7044550661ba0785470745a6f6d3c6ca", "scorecard": null, "featured": false, "sample_categories": "Ethnic Food Markets, Restaurants, Sushi, Japanese, Asian", "public_id": "shallots-sushi-thai-cuisine-roswell", "id": 41920004, "votes": null, "tagline": "Sushi & Thai Under One Roof", "has_video": false, "website": "http://www.citysearch.com/profile/external/41920004/roswell_ga/la_voh_thai_sushi_bar.html", "offers": null, "latitude": 34.03188, "politanName": "Atlanta, GA Metro ", "phone_number": "7709923500", "tags": [{"primary": false, "id": 1722, "name": "Restaurants"}, {"primary": false, "id": 11201, "name": "Sushi"}, {"primary": false, "id": 11202, "name": "Japanese"}, {"primary": false, "id": 11235, "name": "Asian"}, {"primary": false, "id": 11247, "name": "Carry Out"}, {"primary": false, "id": 11249, "name": "Cheap Eats"}, {"primary": false, "id": 11263, "name": "Family-Friendly Dining"}, {"primary": false, "id": 11269, "name": "Group Dining"}, {"primary": false, "id": 11286, "name": "Lunch Spot"}, {"primary": false, "id": 11319, "name": "Thai"}, {"primary": false, "id": 11333, "name": "American Express"}, {"primary": false, "id": 11349, "name": "Discover"}, {"primary": false, "id": 11361, "name": "MasterCard"}, {"primary": false, "id": 11367, "name": "Open 7 Days"}, {"primary": false, "id": 11382, "name": "Visa"}, {"primary": true, "id": 1712, "name": "Ethnic Food Markets"}], "fax_number": null, "expansion": {"count": null, "uri": null}, "impression_id": "000b000000ef01ad452f364fec821ae3d67ebffef4", "profile": "http://www.citysearch.com/profile/41920004/roswell_ga/la_voh_thai_sushi_bar.html", "address": {"city": "Roswell", "state": "GA", "street": "695 Holcomb Bridge Rd", "postal_code": "30076"}, "capProviderId": null, "distance": null, "has_offers": false, "name": "La Voh Thai & Sushi Bar", "longitude": -84.340642, "has_menu": true, "awards": null, "user_review_count": 43}, {"business_operation_status": 1, "rating": 9.0, "neighborhood": null, "image": "http://images.citysearch.net/assets/imgdb/99/df/f1/36/3b/74/42/08/a7/51/33/1b/3a/7e/58/2d.jpg", "scorecard": null, "featured": false, "sample_categories": "Pubs, Restaurants, Cafes, Southern, Traditional American", "public_id": "fickle-pickle-roswell", "id": 39295642, "votes": null, "tagline": "Best Casual spot for Lunch and Dinner", "has_video": false, "website": "http://www.citysearch.com/profile/external/39295642/roswell_ga/fickle_pickle.html", "offers": "Kids Eat FREE Tuesday Nights! ", "latitude": 34.028144, "politanName": "Atlanta, GA Metro ", "phone_number": "7706509838", "tags": [{"primary": false, "id": 1687, "name": "Pubs"}, {"primary": false, "id": 1722, "name": "Restaurants"}, {"primary": false, "id": 6190, "name": "Cafes"}, {"primary": false, "id": 11190, "name": "Traditional American"}, {"primary": false, "id": 11240, "name": "Brunch"}, {"primary": false, "id": 11243, "name": "Business Breakfast"}, {"primary": false, "id": 11244, "name": "Business Dining"}, {"primary": false, "id": 11258, "name": "Dine At The Bar"}, {"primary": false, "id": 11263, "name": "Family-Friendly Dining"}, {"primary": false, "id": 11269, "name": "Group Dining"}, {"primary": false, "id": 11294, "name": "Notable Wine List"}, {"primary": false, "id": 11296, "name": "Outdoor Dining"}, {"primary": false, "id": 11307, "name": "Romantic Dining"}, {"primary": false, "id": 11333, "name": "American Express"}, {"primary": false, "id": 11349, "name": "Discover"}, {"primary": false, "id": 11361, "name": "MasterCard"}, {"primary": false, "id": 11382, "name": "Visa"}, {"primary": false, "id": 12821, "name": "Casual Date Spot"}, {"primary": true, "id": 11312, "name": "Southern"}], "fax_number": null, "expansion": {"count": null, "uri": null}, "impression_id": "000b000000427161e155cf45d4a347bdb8a01e7adf", "profile": "http://www.citysearch.com/profile/39295642/roswell_ga/fickle_pickle.html", "address": {"city": "Roswell", "state": "GA", "street": "1085 Canton St", "postal_code": "30075"}, "capProviderId": null, "distance": null, "has_offers": true, "name": "Fickle Pickle", "longitude": -84.361595, "has_menu": true, "awards": null, "user_review_count": 19}, {"business_operation_status": 1, "rating": 9.0, "neighborhood": null, "image": "http://images.citysearch.net/assets/imgdb/merchant/2010/12/15/0/sdOYfRSY93.jpeg", "scorecard": null, "featured": false, "sample_categories": "Restaurants, Bars & Pubs, Pubs, Irish Pubs, English Pubs", "public_id": "keegans-public-house-kennesaw", "id": 622065270, "votes": null, "tagline": "\" Kennesaw's Best Pub\"", "has_video": false, "website": "http://www.citysearch.com/profile/external/622065270/kennesaw_ga/keegans_public_house.html", "offers": null, "latitude": 33.994278, "politanName": "Atlanta, GA Metro ", "phone_number": "6782132460", "tags": [{"primary": false, "id": 1686, "name": "Bars & Pubs"}, {"primary": false, "id": 1687, "name": "Pubs"}, {"primary": false, "id": 1688, "name": "Irish Pubs"}, {"primary": false, "id": 1689, "name": "English Pubs"}, {"primary": false, "id": 1698, "name": "Neighborhood Bars"}, {"primary": false, "id": 1701, "name": "Sports Bars"}, {"primary": false, "id": 1702, "name": "Taverns"}, {"primary": false, "id": 10034, "name": "Late-Night Scene"}, {"primary": false, "id": 10035, "name": "Live Music"}, {"primary": false, "id": 10037, "name": "Outdoor Seating"}, {"primary": false, "id": 11070, "name": "Darts"}, {"primary": false, "id": 11086, "name": "Drink Specials"}, {"primary": false, "id": 11090, "name": "Happy Hour"}, {"primary": false, "id": 11102, "name": "Notable Beer List"}, {"primary": false, "id": 11221, "name": "Irish"}, {"primary": false, "id": 11232, "name": "$$"}, {"primary": false, "id": 11269, "name": "Group Dining"}, {"primary": false, "id": 11283, "name": "Live Music"}, {"primary": false, "id": 11284, "name": "Local Favorite"}, {"primary": false, "id": 11286, "name": "Lunch Spot"}, {"primary": false, "id": 11296, "name": "Outdoor Dining"}, {"primary": false, "id": 11324, "name": "Upscale Casual Dining"}, {"primary": false, "id": 11333, "name": "American Express"}, {"primary": false, "id": 11339, "name": "Cash"}, {"primary": false, "id": 11349, "name": "Discover"}, {"primary": false, "id": 11361, "name": "MasterCard"}, {"primary": false, "id": 11382, "name": "Visa"}, {"primary": false, "id": 12821, "name": "Casual Date Spot"}, {"primary": false, "id": 14890, "name": "Comfort Food"}, {"primary": true, "id": 1722, "name": "Restaurants"}], "fax_number": null, "expansion": {"count": null, "uri": null}, "impression_id": "000b0000001d67b529d69b46e9a786f70f8bb822d6", "profile": "http://www.citysearch.com/profile/622065270/kennesaw_ga/keegans_public_house.html", "address": {"city": "Kennesaw", "state": "GA", "street": "1625 Ridenour Blvd NW 301", "postal_code": "30152"}, "capProviderId": null, "distance": null, "has_offers": false, "name": "Keegans Public House", "longitude": -84.592498, "has_menu": true, "awards": null, "user_review_count": 3}, {"business_operation_status": 1, "rating": 10.0, "neighborhood": null, "image": "http://images.citysearch.net/assets/imgdb/f0/9f/9b/8f/bb/7b/42/62/a2/dd/95/94/8a/f0/df/18.jpg", "scorecard": null, "featured": false, "sample_categories": "Juice & Smoothie Shops, Restaurants, Delis And Delicatessens, Health Food, Vegetarian", "public_id": "froots-roswell", "id": 603169352, "votes": null, "tagline": "Luscious Smoothies and gourmet wraps in Roswell.", "has_video": false, "website": "http://www.citysearch.com/profile/external/603169352/roswell_ga/froots.html", "offers": null, "latitude": 34.056359, "politanName": "Atlanta, GA Metro ", "phone_number": "6784615000", "tags": [{"primary": false, "id": 1722, "name": "Restaurants"}, {"primary": false, "id": 1727, "name": "Delis And Delicatessens"}, {"primary": false, "id": 11200, "name": "Health Food"}, {"primary": false, "id": 11230, "name": "Vegetarian"}, {"primary": true, "id": 1735, "name": "Juice & Smoothie Shops"}], "fax_number": null, "expansion": {"count": null, "uri": null}, "impression_id": "000b00000089e2eabbec0c4619819abbdeab7968c4", "profile": "http://www.citysearch.com/profile/603169352/roswell_ga/froots.html", "address": {"city": "Roswell", "state": "GA", "street": "640 W Crossville Rd Ste 500", "postal_code": "30075"}, "capProviderId": null, "distance": null, "has_offers": false, "name": "Froots", "longitude": -84.378656, "has_menu": false, "awards": null, "user_review_count": 16}, {"business_operation_status": 1, "rating": null, "neighborhood": null, "image": "http://images.citysearch.net/assets/imgdb/merchant/2011/7/29/0/ZAMmXokx277.jpeg", "scorecard": null, "featured": false, "sample_categories": "Restaurants, Bar Scene, Brunch, Business Dining, Casual Date Spot", "public_id": "table-main-a-southern-tavern-roswell", "id": 605184072, "votes": null, "tagline": "Serving American cuisine with a Southern flair in Historic Roswell, GA", "has_video": false, "website": "http://www.citysearch.com/profile/external/605184072/roswell_ga/table_main_a_southern_tavern.html", "offers": null, "latitude": 34.026538, "politanName": "Atlanta, GA Metro ", "phone_number": "6788695178", "tags": [{"primary": false, "id": 1722, "name": "Restaurants"}, {"primary": false, "id": 11240, "name": "Brunch"}, {"primary": false, "id": 11244, "name": "Business Dining"}, {"primary": false, "id": 12821, "name": "Casual Date Spot"}, {"primary": true, "id": 11238, "name": "Bar Scene"}], "fax_number": null, "expansion": {"count": null, "uri": null}, "impression_id": "000b000000d2118b033f374efda9fd1c155beefe3a", "profile": "http://www.citysearch.com/profile/605184072/roswell_ga/table_main_a_southern_tavern.html", "address": {"city": "Roswell", "state": "GA", "street": "1028 Canton St", "postal_code": "30075"}, "capProviderId": null, "distance": null, "has_offers": false, "name": "Table & Main | a southern tavern", "longitude": -84.361914, "has_menu": false, "awards": null, "user_review_count": 0}, {"business_operation_status": 1, "rating": 9.0, "neighborhood": null, "image": "http://o3.aolcdn.com/dims-shared/dims3/PATCH/resize/600x450/http://hss-prod.hss.aol.com/hss/storage/patch/e86137254c4247e4ca79b2ad9f3cd25d", "scorecard": null, "featured": false, "sample_categories": "Restaurants, Bars & Clubs, Bars & Pubs, Traditional American, Seafood", "public_id": "whitlocks-grill-marietta", "id": 2906507, "votes": null, "tagline": "Voted \"Amazing Food!\"", "has_video": false, "website": "http://www.citysearch.com/profile/external/2906507/marietta_ga/whitlock_s_grill.html", "offers": null, "latitude": 33.952132, "politanName": "Atlanta, GA Metro ", "phone_number": "7705901500", "tags": [{"primary": false, "id": 164, "name": "Bars & Clubs"}, {"primary": false, "id": 1686, "name": "Bars & Pubs"}, {"primary": false, "id": 11190, "name": "Traditional American"}, {"primary": false, "id": 11228, "name": "Seafood"}, {"primary": false, "id": 11265, "name": "Fine Dining"}, {"primary": false, "id": 11316, "name": "Steakhouse"}, {"primary": false, "id": 11333, "name": "American Express"}, {"primary": false, "id": 11348, "name": "Diners Club"}, {"primary": false, "id": 11349, "name": "Discover"}, {"primary": false, "id": 11361, "name": "MasterCard"}, {"primary": false, "id": 11382, "name": "Visa"}, {"primary": true, "id": 1722, "name": "Restaurants"}], "fax_number": null, "expansion": {"count": null, "uri": null}, "impression_id": "000b00000087f1c73b75554d93815f782d0f79195b", "profile": "http://www.citysearch.com/profile/2906507/marietta_ga/whitlock_s_grill.html", "address": {"city": "Marietta", "state": "GA", "street": "990 Whitlock Ave NW", "postal_code": "30064"}, "capProviderId": null, "distance": null, "has_offers": false, "name": "Whitlock's Grill", "longitude": -84.578568, "has_menu": false, "awards": null, "user_review_count": 13}, {"business_operation_status": 1, "rating": 8.0, "neighborhood": null, "image": "http://images.citysearch.net/assets/imgdb/merchant/2009/12/3/0/EyDaZhGu3.jpeg", "scorecard": null, "featured": false, "sample_categories": "Restaurants, Sushi, Japanese, $$, Date Spot", "public_id": "kani-house-woodstock", "id": 2965396, "votes": null, "tagline": "Japanese Steakhouse and Sushi/Valentines Day Specials", "has_video": false, "website": null, "offers": null, "latitude": 34.113853, "politanName": "Atlanta, GA Metro ", "phone_number": "7705925264", "tags": [{"primary": false, "id": 11201, "name": "Sushi"}, {"primary": false, "id": 11202, "name": "Japanese"}, {"primary": false, "id": 11232, "name": "$$"}, {"primary": false, "id": 11256, "name": "Date Spot"}, {"primary": false, "id": 11263, "name": "Family-Friendly Dining"}, {"primary": false, "id": 11269, "name": "Group Dining"}, {"primary": false, "id": 11284, "name": "Local Favorite"}, {"primary": false, "id": 11286, "name": "Lunch Spot"}, {"primary": false, "id": 11316, "name": "Steakhouse"}, {"primary": false, "id": 11333, "name": "American Express"}, {"primary": false, "id": 11339, "name": "Cash"}, {"primary": false, "id": 11347, "name": "Debit Card"}, {"primary": false, "id": 11349, "name": "Discover"}, {"primary": false, "id": 11361, "name": "MasterCard"}, {"primary": false, "id": 11367, "name": "Open 7 Days"}, {"primary": false, "id": 11382, "name": "Visa"}, {"primary": true, "id": 1722, "name": "Restaurants"}], "fax_number": null, "expansion": {"count": null, "uri": null}, "impression_id": "000b000000a2734307dc9544b0b1c6480a27d8be67", "profile": "http://www.citysearch.com/profile/2965396/woodstock_ga/kani_house_japanese_steakhouse.html", "address": {"city": "Woodstock", "state": "GA", "street": "2455 Towne Lake Pkwy", "postal_code": "30189"}, "capProviderId": null, "distance": null, "has_offers": false, "name": "Kani House Japanese Steakhouse", "longitude": -84.554184, "has_menu": true, "awards": null, "user_review_count": 15}, {"business_operation_status": 1, "rating": 10.0, "neighborhood": null, "image": "http://images.citysearch.net/assets/imgdb/merchant/2009/12/11/0/swDCBkEv77.jpeg", "scorecard": null, "featured": false, "sample_categories": "Restaurants, Catering, Brunch, Fine Dining, Group Dining", "public_id": "the-magnolia-thomas-restaurant-woodstock", "id": 43861949, "votes": null, "tagline": "Cozy Historic Fine Dining Gem in Woodstock", "has_video": false, "website": "http://www.citysearch.com/profile/external/43861949/woodstock_ga/the_magnolia_thomas_restaurant.html", "offers": "Sunday Brunch at The Magnolia Thomas Restaurant!", "latitude": 34.100553, "politanName": "Atlanta, GA Metro ", "phone_number": "6784455789", "tags": [{"primary": false, "id": 1705, "name": "Catering"}, {"primary": false, "id": 11240, "name": "Brunch"}, {"primary": false, "id": 11265, "name": "Fine Dining"}, {"primary": false, "id": 11269, "name": "Group Dining"}, {"primary": false, "id": 11294, "name": "Notable Wine List"}, {"primary": false, "id": 11312, "name": "Southern"}, {"primary": false, "id": 11339, "name": "Cash"}, {"primary": false, "id": 11361, "name": "MasterCard"}, {"primary": false, "id": 11382, "name": "Visa"}, {"primary": true, "id": 1722, "name": "Restaurants"}], "fax_number": null, "expansion": {"count": null, "uri": null}, "impression_id": "000b00000088f5e89b0131498f85db25331c5dbd3d", "profile": "http://www.citysearch.com/profile/43861949/woodstock_ga/the_magnolia_thomas_restaurant.html", "address": {"city": "Woodstock", "state": "GA", "street": "108 Arnold Mill Rd", "postal_code": "30188"}, "capProviderId": null, "distance": null, "has_offers": true, "name": "The Magnolia Thomas Restaurant", "longitude": -84.515984, "has_menu": true, "awards": null, "user_review_count": 4}, {"business_operation_status": 1, "rating": 10.0, "neighborhood": null, "image": "http://images.citysearch.net/assets/imgdb/merchant/2010/11/9/0/CrLmmmpZ212.jpeg", "scorecard": null, "featured": false, "sample_categories": "Restaurants, Corporate Catering, Catering, Delis And Delicatessens, Sandwich Shops", "public_id": "baldinos-giant-jersey-subs-marietta-2", "id": 2909705, "votes": null, "tagline": "Atlanta's Best Kept Sandwich and Sub Secret - Also Serving Marietta Area!", "has_video": false, "website": "http://www.citysearch.com/profile/external/2909705/marietta_ga/baldinos_giant_jersey_subs.html", "offers": "Home of the Daily Special - $3.49!", "latitude": 33.949818, "politanName": "Atlanta, GA Metro ", "phone_number": "7703211177", "tags": [{"primary": false, "id": 13670, "name": "Corporate Catering"}, {"primary": false, "id": 1705, "name": "Catering"}, {"primary": false, "id": 1727, "name": "Delis And Delicatessens"}, {"primary": false, "id": 1736, "name": "Sandwich Shops"}, {"primary": false, "id": 11189, "name": "New American"}, {"primary": false, "id": 11199, "name": "Fast Food"}, {"primary": false, "id": 11231, "name": "$"}, {"primary": false, "id": 11247, "name": "Carry Out"}, {"primary": false, "id": 11249, "name": "Cheap Eats"}, {"primary": false, "id": 11262, "name": "Family Style Dining"}, {"primary": false, "id": 11263, "name": "Family-Friendly Dining"}, {"primary": false, "id": 11279, "name": "Italian"}, {"primary": false, "id": 11286, "name": "Lunch Spot"}, {"primary": false, "id": 11333, "name": "American Express"}, {"primary": false, "id": 11339, "name": "Cash"}, {"primary": false, "id": 11349, "name": "Discover"}, {"primary": false, "id": 11361, "name": "MasterCard"}, {"primary": false, "id": 11369, "name": "Parking Lot"}, {"primary": false, "id": 11382, "name": "Visa"}, {"primary": true, "id": 1722, "name": "Restaurants"}], "fax_number": null, "expansion": {"count": null, "uri": null}, "impression_id": "000b00000039d2554c429f4f40b9030cde6ef216ad", "profile": "http://www.citysearch.com/profile/2909705/marietta_ga/baldinos_giant_jersey_subs.html", "address": {"city": "Marietta", "state": "GA", "street": "80 Powers Ferry Rd Se", "postal_code": "30067"}, "capProviderId": null, "distance": null, "has_offers": true, "name": "Baldinos Giant Jersey Subs", "longitude": -84.511122, "has_menu": true, "awards": null, "user_review_count": 4}, {"business_operation_status": 1, "rating": 10.0, "neighborhood": null, "image": "http://images.citysearch.net/assets/imgdb/merchant/2011/1/20/0/UsWNQgew42.jpeg", "scorecard": null, "featured": false, "sample_categories": "Catering, Restaurants, Pizza, Carry Out, Italian", "public_id": "johnnys-new-york-style-pizza-kennesaw", "id": 622133260, "votes": null, "tagline": "Your Neighborhood Pizzeria in Kennesaw, GA", "has_video": false, "website": null, "offers": "Lunch Specials, $5 off any orders over $25 ", "latitude": 33.99449, "politanName": "Atlanta, GA Metro ", "phone_number": "6789960911", "tags": [{"primary": false, "id": 1705, "name": "Catering"}, {"primary": false, "id": 1722, "name": "Restaurants"}, {"primary": false, "id": 11247, "name": "Carry Out"}, {"primary": false, "id": 11279, "name": "Italian"}, {"primary": false, "id": 11286, "name": "Lunch Spot"}, {"primary": false, "id": 12821, "name": "Casual Date Spot"}, {"primary": false, "id": 12822, "name": "Dining Discounts"}, {"primary": true, "id": 11299, "name": "Pizza"}], "fax_number": null, "expansion": {"count": null, "uri": null}, "impression_id": "000b000000d57faef7eba643d4abb7db17da3a9fbb", "profile": "http://www.citysearch.com/profile/622133260/kennesaw_ga/johnny_s_new_york_style_pizza.html", "address": {"city": "Kennesaw", "state": "GA", "street": "1615 Ridenour Blvd NW", "postal_code": "30152"}, "capProviderId": null, "distance": null, "has_offers": true, "name": "Johnny's New York Style Pizza", "longitude": -84.592515, "has_menu": true, "awards": null, "user_review_count": 3}, {"business_operation_status": 1, "rating": 9.0, "neighborhood": null, "image": "http://images.citysearch.net/assets/imgdb/merchant/2010/10/22/0/RKurtdmV199.jpeg", "scorecard": null, "featured": false, "sample_categories": "Bakeries, Coffee & Tea Shops, Restaurants, Dessert Shops, Sandwich Shops", "public_id": "australian-bakery-cafe-marietta", "id": 37645588, "votes": null, "tagline": "Come enjoy a great dessert or Australian meat pies.", "has_video": false, "website": "http://www.citysearch.com/profile/external/37645588/marietta_ga/australian_bakery_cafe.html", "offers": "Mixed Pie Pack", "latitude": 33.952294, "politanName": "Atlanta, GA Metro ", "phone_number": "6787976222", "tags": [{"primary": false, "id": 1711, "name": "Coffee & Tea Shops"}, {"primary": false, "id": 1722, "name": "Restaurants"}, {"primary": false, "id": 1728, "name": "Dessert Shops"}, {"primary": false, "id": 1736, "name": "Sandwich Shops"}, {"primary": false, "id": 11046, "name": "Bread"}, {"primary": false, "id": 11047, "name": "Breakfast"}, {"primary": false, "id": 11048, "name": "Cake"}, {"primary": false, "id": 11051, "name": "Lunch Spot"}, {"primary": false, "id": 11052, "name": "Muffins"}, {"primary": false, "id": 11053, "name": "Outdoor Dining"}, {"primary": false, "id": 11054, "name": "Pastries"}, {"primary": false, "id": 11055, "name": "Pies"}, {"primary": false, "id": 11231, "name": "$"}, {"primary": false, "id": 11259, "name": "Eclectic & International"}, {"primary": false, "id": 11311, "name": "Soups"}, {"primary": false, "id": 11333, "name": "American Express"}, {"primary": false, "id": 11339, "name": "Cash"}, {"primary": false, "id": 11349, "name": "Discover"}, {"primary": false, "id": 11352, "name": "Gift Certificate"}, {"primary": false, "id": 11361, "name": "MasterCard"}, {"primary": false, "id": 11377, "name": "Street Parking"}, {"primary": false, "id": 11382, "name": "Visa"}, {"primary": true, "id": 1685, "name": "Bakeries"}], "fax_number": null, "expansion": {"count": null, "uri": null}, "impression_id": "000b000000a2934786328c4316b981fcb42879a467", "profile": "http://www.citysearch.com/profile/37645588/marietta_ga/australian_bakery_cafe.html", "address": {"city": "Marietta", "state": "GA", "street": "48 S Park Sq Ne", "postal_code": "30060"}, "capProviderId": null, "distance": null, "has_offers": true, "name": "Australian Bakery Cafe", "longitude": -84.549988, "has_menu": true, "awards": null, "user_review_count": 8}, {"business_operation_status": 1, "rating": 10.0, "neighborhood": null, "image": "http://images.citysearch.net/assets/imgdb/merchant/2011/9/20/0/Iqyqodtc148.jpeg", "scorecard": null, "featured": false, "sample_categories": "Restaurants, Carry Out", "public_id": "sammys-new-south-kitchen-woodstock", "id": 605196432, "votes": null, "tagline": "Our mission is to have every customer who comes through our doors leave impressed by Sammy's and excited to come back again.", "has_video": false, "website": "http://www.citysearch.com/profile/external/605196432/woodstock_ga/sammy_s_new_south_kitchen.html", "offers": null, "latitude": 34.089184, "politanName": "Atlanta, GA Metro ", "phone_number": "7708522700", "tags": [{"primary": false, "id": 11247, "name": "Carry Out"}, {"primary": true, "id": 1722, "name": "Restaurants"}], "fax_number": null, "expansion": {"count": null, "uri": null}, "impression_id": "000b0000005fb91cb833a740c88d1e2beb41b6dad1", "profile": "http://www.citysearch.com/profile/605196432/woodstock_ga/sammy_s_new_south_kitchen.html", "address": {"city": "Woodstock", "state": "GA", "street": "12195 Highway 92", "postal_code": "30188"}, "capProviderId": null, "distance": null, "has_offers": false, "name": "Sammy's New South Kitchen", "longitude": -84.483229, "has_menu": false, "awards": null, "user_review_count": 9}, {"business_operation_status": 1, "rating": null, "neighborhood": null, "image": "http://images.citysearch.net/assets/imgdb/merchant/2010/1/15/0/fDRGhSPG31.jpeg", "scorecard": null, "featured": false, "sample_categories": "Cafes, Bakeries, Catering, Coffee & Tea Shops, Grocery Stores", "public_id": "la-madeleine-marietta", "id": 2903663, "votes": null, "tagline": "A charming cozy atmosphere with a taste of the French countryside. ", "has_video": false, "website": "http://www.citysearch.com/profile/external/2903663/marietta_ga/la_madeleine.html", "offers": "Join our E-club.", "latitude": 33.97947, "politanName": "Atlanta, GA Metro ", "phone_number": "7705793040", "tags": [{"primary": false, "id": 1685, "name": "Bakeries"}, {"primary": false, "id": 1705, "name": "Catering"}, {"primary": false, "id": 1711, "name": "Coffee & Tea Shops"}, {"primary": false, "id": 1713, "name": "Grocery Stores"}, {"primary": false, "id": 1722, "name": "Restaurants"}, {"primary": false, "id": 11054, "name": "Pastries"}, {"primary": false, "id": 11219, "name": "French"}, {"primary": false, "id": 11239, "name": "Breakfast"}, {"primary": false, "id": 11247, "name": "Carry Out"}, {"primary": false, "id": 11266, "name": "Fireplace"}, {"primary": false, "id": 11286, "name": "Lunch Spot"}, {"primary": false, "id": 11311, "name": "Soups"}, {"primary": false, "id": 11333, "name": "American Express"}, {"primary": false, "id": 11349, "name": "Discover"}, {"primary": false, "id": 11361, "name": "MasterCard"}, {"primary": false, "id": 11367, "name": "Open 7 Days"}, {"primary": false, "id": 11382, "name": "Visa"}, {"primary": true, "id": 6190, "name": "Cafes"}], "fax_number": null, "expansion": {"count": null, "uri": null}, "impression_id": "000b0000001935cb13ad5048df8949013b07d0f653", "profile": "http://www.citysearch.com/profile/2903663/marietta_ga/la_madeleine.html", "address": {"city": "Marietta", "state": "GA", "street": "3099 Roswell Rd", "postal_code": "30062"}, "capProviderId": null, "distance": null, "has_offers": true, "name": "la Madeleine", "longitude": -84.46145, "has_menu": true, "awards": null, "user_review_count": 4}, {"business_operation_status": 1, "rating": 10.0, "neighborhood": null, "image": "http://images.citysearch.net/assets/imgdb/02/d7/14/9a/70/73/49/d3/b0/bc/bc/58/0f/55/00/65.jpg", "scorecard": null, "featured": false, "sample_categories": "Restaurants, Mexican, Cheap Eats, Group Dining, Lunch Spot", "public_id": "teela-taqueria-sandy-spgs", "id": 603069772, "votes": null, "tagline": "Great food! Great drinks! Fun atmosphere!", "has_video": false, "website": "http://www.citysearch.com/profile/external/603069772/sandy_springs_ca/teela_taqueria.html", "offers": null, "latitude": 34.058626, "politanName": "Atlanta, GA Metro ", "phone_number": "4044590477", "tags": [{"primary": false, "id": 11208, "name": "Mexican"}, {"primary": false, "id": 11249, "name": "Cheap Eats"}, {"primary": false, "id": 11269, "name": "Group Dining"}, {"primary": false, "id": 11286, "name": "Lunch Spot"}, {"primary": false, "id": 11296, "name": "Outdoor Dining"}, {"primary": false, "id": 11317, "name": "Tapas / Small Plates"}, {"primary": false, "id": 12824, "name": "Margaritas"}, {"primary": true, "id": 1722, "name": "Restaurants"}], "fax_number": null, "expansion": {"count": null, "uri": null}, "impression_id": "000b00000037c528bea6d54330a85817b56aa48791", "profile": "http://www.citysearch.com/profile/603069772/sandy_springs_ca/teela_taqueria.html", "address": {"city": "Sandy Springs", "state": "CA", "street": "227 Sandy Springs Place # 506", "postal_code": "30075"}, "capProviderId": null, "distance": null, "has_offers": false, "name": "Teela Taqueria", "longitude": -84.385744, "has_menu": false, "awards": null, "user_review_count": 4}], "histograms": [], "tag_ids": [1722], "uri": "http://api.citygridmedia.com:8080/search/places/v2/search/where?has_offers=false&type=restaurant&format=json&page=5&where=30066&rpp=50&histograms=false&publisher=10000009598&region_type=circle", "did_you_mean": "", "regions": [{"latitude": 34.034132, "default_radius": 5.28, "type": "postal_code", "name": "30066", "longitude": -84.508332}], "call_id": "000b000000bbddb8039ea64be1aae5327e8a496adf", "first_hit": 201, "total_hits": 2075, "geo_ids": [26294], "page": 5, "last_hit": 250}}