{"results": {"rpp": 50, "locations": [{"business_operation_status": 1, "rating": null, "neighborhood": null, "image": null, "scorecard": null, "featured": false, "sample_categories": "Restaurants", "public_id": "taqueria-la-placita-smyrna", "id": 672297410, "votes": null, "tagline": null, "has_video": false, "website": null, "offers": null, "latitude": 33.882797, "politanName": "Atlanta, GA Metro ", "phone_number": null, "tags": [{"primary": true, "id": 1722, "name": "Restaurants"}], "fax_number": null, "expansion": {"count": null, "uri": null}, "impression_id": "000b0000008e066764fbe34b43a19e074cc2431d19", "profile": "http://www.citysearch.com/profile/672297410/smyrna_ga/taqueria_la_placita.html", "address": {"city": "Smyrna", "state": "GA", "street": "1669 Spring Rd SE", "postal_code": "30080"}, "capProviderId": null, "distance": null, "has_offers": false, "name": "Taqueria La Placita", "longitude": -84.504883, "has_menu": false, "awards": null, "user_review_count": 0}, {"business_operation_status": 1, "rating": null, "neighborhood": null, "image": null, "scorecard": null, "featured": false, "sample_categories": "Restaurants", "public_id": "frankles-marietta", "id": 610973754, "votes": null, "tagline": null, "has_video": false, "website": null, "offers": null, "latitude": 33.978873, "politanName": "Atlanta, GA Metro ", "phone_number": "6783246100", "tags": [{"primary": true, "id": 1722, "name": "Restaurants"}], "fax_number": null, "expansion": {"count": null, "uri": null}, "impression_id": "000b000000680d0e50df6946baa3d3a1c98c62f408", "profile": "http://www.citysearch.com/profile/610973754/marietta_ga/frankle_s.html", "address": {"city": "Marietta", "state": "GA", "street": "3125 Roswell Rd", "postal_code": "30062"}, "capProviderId": null, "distance": null, "has_offers": false, "name": "Frankle's", "longitude": -84.462166, "has_menu": false, "awards": null, "user_review_count": 0}, {"business_operation_status": 1, "rating": null, "neighborhood": null, "image": null, "scorecard": null, "featured": false, "sample_categories": "Restaurants", "public_id": "la-estrella-smyrna", "id": 696217580, "votes": null, "tagline": null, "has_video": false, "website": null, "offers": null, "latitude": 33.8947, "politanName": "Atlanta, GA Metro ", "phone_number": "6782139023", "tags": [{"primary": true, "id": 1722, "name": "Restaurants"}], "fax_number": null, "expansion": {"count": null, "uri": null}, "impression_id": "000b00000072d72f13fbfb48269c4bccd9c310970c", "profile": "http://www.citysearch.com/profile/696217580/smyrna_ga/la_estrella.html", "address": {"city": "Smyrna", "state": "GA", "street": "575 Windy Hill Rd Se", "postal_code": "30080"}, "capProviderId": null, "distance": null, "has_offers": false, "name": "La Estrella", "longitude": -84.536544, "has_menu": false, "awards": null, "user_review_count": 0}, {"business_operation_status": 1, "rating": null, "neighborhood": null, "image": null, "scorecard": null, "featured": false, "sample_categories": "Restaurants", "public_id": "t-me-enterprises-smyrna", "id": 2923026, "votes": null, "tagline": null, "has_video": false, "website": null, "offers": null, "latitude": 33.894569, "politanName": "Atlanta, GA Metro ", "phone_number": "7709849509", "tags": [{"primary": true, "id": 1722, "name": "Restaurants"}], "fax_number": null, "expansion": {"count": null, "uri": null}, "impression_id": "000b000000f682ff789fcc4f2fa808ece37cd19981", "profile": "http://www.citysearch.com/profile/2923026/smyrna_ga/t_me_enterprises.html", "address": {"city": "Smyrna", "state": "GA", "street": "2400 Herodian Way SE", "postal_code": "30080"}, "capProviderId": null, "distance": null, "has_offers": false, "name": "T Me Enterprises", "longitude": -84.472335, "has_menu": false, "awards": null, "user_review_count": 0}, {"business_operation_status": 1, "rating": null, "neighborhood": null, "image": null, "scorecard": null, "featured": false, "sample_categories": "Restaurants, Carry Out", "public_id": "smyrna-food-court-smyrna", "id": 713490100, "votes": null, "tagline": null, "has_video": false, "website": null, "offers": null, "latitude": 33.882426, "politanName": "Atlanta, GA Metro ", "phone_number": "7704344438", "tags": [{"primary": false, "id": 11247, "name": "Carry Out"}, {"primary": true, "id": 1722, "name": "Restaurants"}], "fax_number": null, "expansion": {"count": null, "uri": null}, "impression_id": "000b000000667367762ad94b35872ad4cc303e23a7", "profile": "http://www.citysearch.com/profile/713490100/smyrna_ga/smyrna_food_court.html", "address": {"city": "Smyrna", "state": "GA", "street": "2350 Spring Rd Se", "postal_code": "30080"}, "capProviderId": null, "distance": null, "has_offers": false, "name": "Smyrna Food Court", "longitude": -84.487375, "has_menu": false, "awards": null, "user_review_count": 0}, {"business_operation_status": 1, "rating": null, "neighborhood": null, "image": null, "scorecard": null, "featured": false, "sample_categories": "Restaurants, Bars & Clubs, Bars & Pubs", "public_id": "grants-bar-grill-atlanta", "id": 739062670, "votes": null, "tagline": null, "has_video": false, "website": null, "offers": null, "latitude": 33.878323, "politanName": "Atlanta, GA Metro ", "phone_number": "7706726451", "tags": [{"primary": false, "id": 164, "name": "Bars & Clubs"}, {"primary": false, "id": 1686, "name": "Bars & Pubs"}, {"primary": true, "id": 1722, "name": "Restaurants"}], "fax_number": null, "expansion": {"count": null, "uri": null}, "impression_id": "000b00000085ecdca70d6e4ad4973c01880e05ca67", "profile": "http://www.citysearch.com/profile/739062670/atlanta_ga/grants_bar_grill.html", "address": {"city": "Atlanta", "state": "GA", "street": "2997 Cumberland Blvd SE # 100", "postal_code": "30339"}, "capProviderId": null, "distance": null, "has_offers": false, "name": "Grants Bar & Grill", "longitude": -84.468394, "has_menu": false, "awards": null, "user_review_count": 0}, {"business_operation_status": 1, "rating": null, "neighborhood": null, "image": null, "scorecard": null, "featured": false, "sample_categories": "Restaurants, Grocery Stores", "public_id": "shivam-marietta", "id": 638803240, "votes": null, "tagline": null, "has_video": false, "website": null, "offers": null, "latitude": 33.998509, "politanName": "Atlanta, GA Metro ", "phone_number": "7709717448", "tags": [{"primary": false, "id": 1713, "name": "Grocery Stores"}, {"primary": true, "id": 1722, "name": "Restaurants"}], "fax_number": null, "expansion": {"count": null, "uri": null}, "impression_id": "000b0000002459e3321a5344d1bdfdaa4e583b6383", "profile": "http://www.citysearch.com/profile/638803240/marietta_ga/shivam.html", "address": {"city": "Marietta", "state": "GA", "street": "1338 Eastbrooke Trce", "postal_code": "30066"}, "capProviderId": null, "distance": null, "has_offers": false, "name": "Shivam", "longitude": -84.505954, "has_menu": false, "awards": null, "user_review_count": 0}, {"business_operation_status": 0, "rating": null, "neighborhood": null, "image": null, "scorecard": null, "featured": false, "sample_categories": "Investments, Restaurants, Post Offices, American Express, Discover", "public_id": "us-post-office-atlanta-60", "id": 3029512, "votes": null, "tagline": null, "has_video": false, "website": null, "offers": null, "latitude": 33.901998, "politanName": "Atlanta, GA Metro ", "phone_number": null, "tags": [{"primary": false, "id": 1636, "name": "Investments"}, {"primary": false, "id": 1722, "name": "Restaurants"}, {"primary": false, "id": 11333, "name": "American Express"}, {"primary": false, "id": 11349, "name": "Discover"}, {"primary": false, "id": 11361, "name": "MasterCard"}, {"primary": false, "id": 11382, "name": "Visa"}, {"primary": true, "id": 1779, "name": "Post Offices"}], "fax_number": null, "expansion": {"count": null, "uri": null}, "impression_id": "000b000000272a9ffb0d964a969b7391d094d6f11e", "profile": "http://www.citysearch.com/profile/3029512/atlanta_ga/us_post_office.html", "address": {"city": "Atlanta", "state": "GA", "street": "120 Interstate North Pkwy SE", "postal_code": "30339"}, "capProviderId": null, "distance": null, "has_offers": false, "name": "Us Post Office", "longitude": -84.464688, "has_menu": false, "awards": null, "user_review_count": 0}, {"business_operation_status": 1, "rating": null, "neighborhood": null, "image": null, "scorecard": null, "featured": false, "sample_categories": "Restaurants, Caribbean", "public_id": "jerk-caribbean-cafe-smyrna", "id": 742240610, "votes": null, "tagline": null, "has_video": false, "website": null, "offers": null, "latitude": 33.883443, "politanName": "Atlanta, GA Metro ", "phone_number": "6782936723", "tags": [{"primary": false, "id": 11195, "name": "Caribbean"}, {"primary": true, "id": 1722, "name": "Restaurants"}], "fax_number": null, "expansion": {"count": null, "uri": null}, "impression_id": "000b000000fa7040e83fe94430af26580fd57a35f2", "profile": "http://www.citysearch.com/profile/742240610/smyrna_ga/jerk_caribbean_cafe.html", "address": {"city": "Smyrna", "state": "GA", "street": "2517 Spring Rd SE", "postal_code": "30080"}, "capProviderId": null, "distance": null, "has_offers": false, "name": "Jerk Caribbean Cafe", "longitude": -84.480608, "has_menu": false, "awards": null, "user_review_count": 0}, {"business_operation_status": 1, "rating": null, "neighborhood": null, "image": null, "scorecard": null, "featured": false, "sample_categories": "Restaurants, Carry Out", "public_id": "zaxbys-smyrna-4", "id": 625733364, "votes": null, "tagline": null, "has_video": false, "website": null, "offers": null, "latitude": 33.879925, "politanName": "Atlanta, GA Metro ", "phone_number": "6788704000", "tags": [{"primary": false, "id": 11247, "name": "Carry Out"}, {"primary": true, "id": 1722, "name": "Restaurants"}], "fax_number": null, "expansion": {"count": null, "uri": null}, "impression_id": "000b0000006726fecd493640a0bb6c0309797abf01", "profile": "http://www.citysearch.com/profile/625733364/smyrna_ga/zaxby_s.html", "address": {"city": "Smyrna", "state": "GA", "street": "1420 Spring Rd SE", "postal_code": "30080"}, "capProviderId": null, "distance": null, "has_offers": false, "name": "Zaxby's", "longitude": -84.51175, "has_menu": false, "awards": null, "user_review_count": 0}, {"business_operation_status": 1, "rating": null, "neighborhood": null, "image": null, "scorecard": null, "featured": false, "sample_categories": "Restaurants, Pizza", "public_id": "blue-moon-pizza-marietta-3", "id": 745594000, "votes": null, "tagline": null, "has_video": false, "website": null, "offers": null, "latitude": 33.913381, "politanName": "Atlanta, GA Metro ", "phone_number": "7709842444", "tags": [{"primary": false, "id": 1722, "name": "Restaurants"}, {"primary": true, "id": 11299, "name": "Pizza"}], "fax_number": null, "expansion": {"count": null, "uri": null}, "impression_id": "000b00000017ace316990c474db9e3a87a1f5f4a68", "profile": "http://www.citysearch.com/profile/745594000/marietta_ga/blue_moon_pizza.html", "address": {"city": "Marietta", "state": "GA", "street": "1307 Wynnes Ridge Cir SE", "postal_code": "30067"}, "capProviderId": null, "distance": null, "has_offers": false, "name": "Blue Moon Pizza", "longitude": -84.468451, "has_menu": false, "awards": null, "user_review_count": 0}, {"business_operation_status": 1, "rating": null, "neighborhood": null, "image": null, "scorecard": null, "featured": false, "sample_categories": "Restaurants", "public_id": "r-cs-southern-cooking-marietta", "id": 754855600, "votes": null, "tagline": null, "has_video": false, "website": null, "offers": null, "latitude": 33.951248, "politanName": "Atlanta, GA Metro ", "phone_number": "7704854668", "tags": [{"primary": true, "id": 1722, "name": "Restaurants"}], "fax_number": null, "expansion": {"count": null, "uri": null}, "impression_id": "000b0000009e5efdf2794c4183b7370ff5606aa1b7", "profile": "http://www.citysearch.com/profile/754855600/marietta_ga/r_c_s_southern_cooking.html", "address": {"city": "Marietta", "state": "GA", "street": "1516 Roswell Rd", "postal_code": "30062"}, "capProviderId": null, "distance": null, "has_offers": false, "name": "R C's Southern Cooking", "longitude": -84.508172, "has_menu": false, "awards": null, "user_review_count": 0}, {"business_operation_status": 1, "rating": null, "neighborhood": null, "image": null, "scorecard": null, "featured": false, "sample_categories": "Restaurants, Bars & Clubs, Traditional American, Carry Out, Shop Online", "public_id": "hooters-atlanta-4", "id": 775226180, "votes": null, "tagline": null, "has_video": false, "website": "http://www.citysearch.com/profile/external/775226180/atlanta_ga/hooters.html", "offers": null, "latitude": 33.908131, "politanName": "Atlanta, GA Metro ", "phone_number": "7709512040", "tags": [{"primary": false, "id": 164, "name": "Bars & Clubs"}, {"primary": false, "id": 11190, "name": "Traditional American"}, {"primary": false, "id": 11247, "name": "Carry Out"}, {"primary": false, "id": 11375, "name": "Shop Online"}, {"primary": true, "id": 1722, "name": "Restaurants"}], "fax_number": null, "expansion": {"count": null, "uri": null}, "impression_id": "000b00000036608f34592145ffb1d962e53772e43a", "profile": "http://www.citysearch.com/profile/775226180/atlanta_ga/hooters.html", "address": {"city": "Atlanta", "state": "GA", "street": "1815 the Exchange SE", "postal_code": "30339"}, "capProviderId": null, "distance": null, "has_offers": false, "name": "Hooters", "longitude": -84.479005, "has_menu": false, "awards": null, "user_review_count": 0}, {"business_operation_status": 1, "rating": null, "neighborhood": null, "image": null, "scorecard": null, "featured": false, "sample_categories": "Restaurants", "public_id": "la-hispaniola-marietta", "id": 672780210, "votes": null, "tagline": null, "has_video": false, "website": null, "offers": null, "latitude": 33.952062, "politanName": "Atlanta, GA Metro ", "phone_number": "7704240093", "tags": [{"primary": true, "id": 1722, "name": "Restaurants"}], "fax_number": null, "expansion": {"count": null, "uri": null}, "impression_id": "000b000000ef430d47bd88463bbeeb570b3cbfb6a8", "profile": "http://www.citysearch.com/profile/672780210/marietta_ga/la_hispaniola.html", "address": {"city": "Marietta", "state": "GA", "street": "168 Roswell St NE", "postal_code": "30060"}, "capProviderId": null, "distance": null, "has_offers": false, "name": "La Hispaniola", "longitude": -84.548376, "has_menu": false, "awards": null, "user_review_count": 0}, {"business_operation_status": 1, "rating": null, "neighborhood": null, "image": null, "scorecard": null, "featured": false, "sample_categories": "Restaurants, Carry Out, Pizza", "public_id": "jimmy-johns-marietta", "id": 672132390, "votes": null, "tagline": null, "has_video": false, "website": null, "offers": null, "latitude": 33.970943, "politanName": "Atlanta, GA Metro ", "phone_number": "6785814550", "tags": [{"primary": false, "id": 11247, "name": "Carry Out"}, {"primary": false, "id": 11299, "name": "Pizza"}, {"primary": true, "id": 1722, "name": "Restaurants"}], "fax_number": null, "expansion": {"count": null, "uri": null}, "impression_id": "000b000000c107bd9341de48189465e0c44e452ae8", "profile": "http://www.citysearch.com/profile/672132390/marietta_ga/jimmy_john_s.html", "address": {"city": "Marietta", "state": "GA", "street": "801 Church St NE Ste A", "postal_code": "30060"}, "capProviderId": null, "distance": null, "has_offers": false, "name": "Jimmy John's", "longitude": -84.550624, "has_menu": false, "awards": null, "user_review_count": 0}, {"business_operation_status": 1, "rating": null, "neighborhood": null, "image": null, "scorecard": null, "featured": false, "sample_categories": "Barbecue Restaurants", "public_id": "wanyes-brother-bbq-marietta", "id": 777668500, "votes": null, "tagline": null, "has_video": false, "website": null, "offers": null, "latitude": 33.977691, "politanName": "Atlanta, GA Metro ", "phone_number": "6783313892", "tags": [{"primary": true, "id": 1724, "name": "Barbecue Restaurants"}], "fax_number": null, "expansion": {"count": null, "uri": null}, "impression_id": "000b00000069e42d05bada41d2957b8fcc1ac0e7be", "profile": "http://www.citysearch.com/profile/777668500/marietta_ga/wanye_s_brother_bbq.html", "address": {"city": "Marietta", "state": "GA", "street": "1160 Hayes Industrial Dr", "postal_code": "30062"}, "capProviderId": null, "distance": null, "has_offers": false, "name": "Wanye's Brother BBQ", "longitude": -84.542327, "has_menu": false, "awards": null, "user_review_count": 0}, {"business_operation_status": 1, "rating": null, "neighborhood": null, "image": null, "scorecard": null, "featured": false, "sample_categories": "Restaurants", "public_id": "blue-agave-marietta", "id": 777622960, "votes": null, "tagline": null, "has_video": false, "website": null, "offers": null, "latitude": 33.927644, "politanName": "Atlanta, GA Metro ", "phone_number": "6786641133", "tags": [{"primary": true, "id": 1722, "name": "Restaurants"}], "fax_number": null, "expansion": {"count": null, "uri": null}, "impression_id": "000b000000aca5013bcf82463d918cf7dcac057471", "profile": "http://www.citysearch.com/profile/777622960/marietta_ga/blue_agave.html", "address": {"city": "Marietta", "state": "GA", "street": "1090 Northchase Pkwy Se", "postal_code": "30067"}, "capProviderId": null, "distance": null, "has_offers": false, "name": "Blue Agave", "longitude": -84.482308, "has_menu": false, "awards": null, "user_review_count": 0}, {"business_operation_status": 1, "rating": null, "neighborhood": null, "image": null, "scorecard": null, "featured": false, "sample_categories": "Restaurants", "public_id": "rays-smyrna", "id": 775207470, "votes": null, "tagline": null, "has_video": false, "website": null, "offers": null, "latitude": 33.883027, "politanName": "Atlanta, GA Metro ", "phone_number": "7704379001", "tags": [{"primary": true, "id": 1722, "name": "Restaurants"}], "fax_number": null, "expansion": {"count": null, "uri": null}, "impression_id": "000b000000e5a1a535ab0f469bb9eec48ae5279d81", "profile": "http://www.citysearch.com/profile/775207470/smyrna_ga/ray_s.html", "address": {"city": "Smyrna", "state": "GA", "street": "2930 S Cobb Dr SE", "postal_code": "30080"}, "capProviderId": null, "distance": null, "has_offers": false, "name": "Ray's", "longitude": -84.534643, "has_menu": false, "awards": null, "user_review_count": 0}, {"business_operation_status": 1, "rating": null, "neighborhood": null, "image": null, "scorecard": null, "featured": false, "sample_categories": "Restaurants", "public_id": "hoboken-cafe-marietta", "id": 777676340, "votes": null, "tagline": null, "has_video": false, "website": null, "offers": null, "latitude": 33.951914, "politanName": "Atlanta, GA Metro ", "phone_number": "6789093375", "tags": [{"primary": true, "id": 1722, "name": "Restaurants"}], "fax_number": null, "expansion": {"count": null, "uri": null}, "impression_id": "000b000000f1cf3d51053d42de8a8c7eb87102cc50", "profile": "http://www.citysearch.com/profile/777676340/marietta_ga/hoboken_cafe.html", "address": {"city": "Marietta", "state": "GA", "street": "688 Whitlock Ave NW", "postal_code": "30064"}, "capProviderId": null, "distance": null, "has_offers": false, "name": "Hoboken Cafe", "longitude": -84.57265, "has_menu": false, "awards": null, "user_review_count": 0}, {"business_operation_status": 1, "rating": null, "neighborhood": null, "image": null, "scorecard": null, "featured": false, "sample_categories": "Restaurants, Catering, Delis And Delicatessens, Carry Out", "public_id": "jimmy-johns-marietta-3", "id": 796130460, "votes": null, "tagline": null, "has_video": false, "website": "http://www.citysearch.com/profile/external/796130460/marietta_ga/jimmy_john_s.html", "offers": null, "latitude": 33.91914, "politanName": "Atlanta, GA Metro ", "phone_number": "6783243630", "tags": [{"primary": false, "id": 1705, "name": "Catering"}, {"primary": false, "id": 1727, "name": "Delis And Delicatessens"}, {"primary": false, "id": 11247, "name": "Carry Out"}, {"primary": true, "id": 1722, "name": "Restaurants"}], "fax_number": null, "expansion": {"count": null, "uri": null}, "impression_id": "000b00000062dfb29c7b434da38b57c24f06cb9ad6", "profile": "http://www.citysearch.com/profile/796130460/marietta_ga/jimmy_john_s.html", "address": {"city": "Marietta", "state": "GA", "street": "1337 Powers Ferry Rd Se", "postal_code": "30067"}, "capProviderId": null, "distance": null, "has_offers": false, "name": "Jimmy John's", "longitude": -84.466839, "has_menu": false, "awards": null, "user_review_count": 0}, {"business_operation_status": 1, "rating": null, "neighborhood": null, "image": null, "scorecard": null, "featured": false, "sample_categories": "Restaurants", "public_id": "d-c-backyard-grill-inc-marietta", "id": 798805340, "votes": null, "tagline": null, "has_video": false, "website": null, "offers": null, "latitude": 33.942612, "politanName": "Atlanta, GA Metro ", "phone_number": "7709198797", "tags": [{"primary": true, "id": 1722, "name": "Restaurants"}], "fax_number": null, "expansion": {"count": null, "uri": null}, "impression_id": "000b000000dae92c7c84c64583a79e024e8701082c", "profile": "http://www.citysearch.com/profile/798805340/marietta_ga/d_c_backyard_grill_inc.html", "address": {"city": "Marietta", "state": "GA", "street": "547 Atlanta St Se", "postal_code": "30060"}, "capProviderId": null, "distance": null, "has_offers": false, "name": "D C Backyard Grill INC", "longitude": -84.545574, "has_menu": false, "awards": null, "user_review_count": 0}, {"business_operation_status": 1, "rating": null, "neighborhood": null, "image": null, "scorecard": null, "featured": false, "sample_categories": "Restaurants", "public_id": "las-drisas-number-2-marietta", "id": 713600220, "votes": null, "tagline": null, "has_video": false, "website": null, "offers": null, "latitude": 33.935213, "politanName": "Atlanta, GA Metro ", "phone_number": "6783542220", "tags": [{"primary": true, "id": 1722, "name": "Restaurants"}], "fax_number": null, "expansion": {"count": null, "uri": null}, "impression_id": "000b0000006e7f309e3fd5493e9c2d6d600af1ae29", "profile": "http://www.citysearch.com/profile/713600220/marietta_ga/las_drisas_number_2.html", "address": {"city": "Marietta", "state": "GA", "street": "715 Sandtown Rd Sw", "postal_code": "30008"}, "capProviderId": null, "distance": null, "has_offers": false, "name": "Las Drisas Number 2", "longitude": -84.555821, "has_menu": false, "awards": null, "user_review_count": 0}, {"business_operation_status": 1, "rating": null, "neighborhood": null, "image": null, "scorecard": null, "featured": false, "sample_categories": "Restaurants", "public_id": "great-panda-restaurant-marietta", "id": 814222940, "votes": null, "tagline": null, "has_video": false, "website": null, "offers": null, "latitude": 33.953111, "politanName": "Atlanta, GA Metro ", "phone_number": "7704282831", "tags": [{"primary": true, "id": 1722, "name": "Restaurants"}], "fax_number": null, "expansion": {"count": null, "uri": null}, "impression_id": "000b00000065a72990fae04d0488481959bb0d204c", "profile": "http://www.citysearch.com/profile/814222940/marietta_ga/great_panda_restaurant.html", "address": {"city": "Marietta", "state": "GA", "street": "1000 Whitlock Ave NW", "postal_code": "30064"}, "capProviderId": null, "distance": null, "has_offers": false, "name": "Great Panda Restaurant", "longitude": -84.581272, "has_menu": false, "awards": null, "user_review_count": 0}, {"business_operation_status": 1, "rating": 8.0, "neighborhood": null, "image": null, "scorecard": null, "featured": false, "sample_categories": "Restaurants, Advertising, Ice Cream Parlors, $", "public_id": "ben-jerrys-marietta", "id": 45009019, "votes": null, "tagline": null, "has_video": false, "website": null, "offers": null, "latitude": 33.944038, "politanName": "Atlanta, GA Metro ", "phone_number": "7704248851", "tags": [{"primary": false, "id": 1722, "name": "Restaurants"}, {"primary": false, "id": 3372, "name": "Advertising"}, {"primary": false, "id": 11231, "name": "$"}, {"primary": true, "id": 1730, "name": "Ice Cream Parlors"}], "fax_number": null, "expansion": {"count": null, "uri": null}, "impression_id": "000b0000004fc7330ba1b5411bb58c545afca8ddb9", "profile": "http://www.citysearch.com/profile/45009019/marietta_ga/ben_jerry_s.html", "address": {"city": "Marietta", "state": "GA", "street": "330 Franklin Rd SE", "postal_code": "30067"}, "capProviderId": null, "distance": null, "has_offers": false, "name": "Ben & Jerry's", "longitude": -84.512153, "has_menu": true, "awards": null, "user_review_count": 0}, {"business_operation_status": 1, "rating": null, "neighborhood": null, "image": null, "scorecard": null, "featured": false, "sample_categories": "Restaurants", "public_id": "p-js-kennesaw", "id": 815756710, "votes": null, "tagline": null, "has_video": false, "website": null, "offers": null, "latitude": 34.035079, "politanName": "Atlanta, GA Metro ", "phone_number": "7704235939", "tags": [{"primary": true, "id": 1722, "name": "Restaurants"}], "fax_number": null, "expansion": {"count": null, "uri": null}, "impression_id": "000b00000046516ceee73048e4b47e917912f80827", "profile": "http://www.citysearch.com/profile/815756710/kennesaw_ga/p_j_s.html", "address": {"city": "Kennesaw", "state": "GA", "street": "3400 Busbee Dr NW", "postal_code": "30144"}, "capProviderId": null, "distance": null, "has_offers": false, "name": "P J's", "longitude": -84.574368, "has_menu": false, "awards": null, "user_review_count": 0}, {"business_operation_status": 1, "rating": null, "neighborhood": null, "image": null, "scorecard": null, "featured": false, "sample_categories": "Restaurants", "public_id": "planet-smoothie-marietta-8", "id": 819890580, "votes": null, "tagline": null, "has_video": false, "website": null, "offers": null, "latitude": 33.947326, "politanName": "Atlanta, GA Metro ", "phone_number": "7704272700", "tags": [{"primary": true, "id": 1722, "name": "Restaurants"}], "fax_number": null, "expansion": {"count": null, "uri": null}, "impression_id": "000b0000000a965736ec464df6b1e7342dcb5554b7", "profile": "http://www.citysearch.com/profile/819890580/marietta_ga/planet_smoothie.html", "address": {"city": "Marietta", "state": "GA", "street": "3451 Barrett Pkwy NW # 145", "postal_code": "30064"}, "capProviderId": null, "distance": null, "has_offers": false, "name": "Planet Smoothie", "longitude": -84.622965, "has_menu": false, "awards": null, "user_review_count": 0}, {"business_operation_status": 1, "rating": null, "neighborhood": null, "image": null, "scorecard": null, "featured": false, "sample_categories": "Restaurants", "public_id": "pete-sneaky-inc-marietta", "id": 821568530, "votes": null, "tagline": null, "has_video": false, "website": null, "offers": null, "latitude": 33.906504, "politanName": "Atlanta, GA Metro ", "phone_number": "7709714838", "tags": [{"primary": true, "id": 1722, "name": "Restaurants"}], "fax_number": null, "expansion": {"count": null, "uri": null}, "impression_id": "000b000000e6c5c76c09f74452b49db5fbb0d420e7", "profile": "http://www.citysearch.com/profile/821568530/marietta_ga/pete_sneaky_inc.html", "address": {"city": "Marietta", "state": "GA", "street": "PO Box 6572", "postal_code": "30065"}, "capProviderId": null, "distance": null, "has_offers": false, "name": "Pete Sneaky Inc", "longitude": -84.488386, "has_menu": false, "awards": null, "user_review_count": 0}, {"business_operation_status": 1, "rating": null, "neighborhood": null, "image": null, "scorecard": null, "featured": false, "sample_categories": "Restaurants", "public_id": "tom-chee-kennesaw", "id": 626960404, "votes": null, "tagline": null, "has_video": false, "website": null, "offers": null, "latitude": 34.000514, "politanName": "Atlanta, GA Metro ", "phone_number": "6784988321", "tags": [{"primary": true, "id": 1722, "name": "Restaurants"}], "fax_number": null, "expansion": {"count": null, "uri": null}, "impression_id": "000b0000003396caecbf714673a2e7a9a836d4fd99", "profile": "http://www.citysearch.com/profile/626960404/kennesaw_ga/tom_chee.html", "address": {"city": "Kennesaw", "state": "GA", "street": "1200 Ernest W Barrett Pkwy NW 208", "postal_code": "30144"}, "capProviderId": null, "distance": null, "has_offers": false, "name": "Tom + Chee", "longitude": -84.587423, "has_menu": false, "awards": null, "user_review_count": 0}, {"business_operation_status": 1, "rating": null, "neighborhood": null, "image": null, "scorecard": null, "featured": false, "sample_categories": "Restaurants", "public_id": "playa-azul-restaurant-marietta", "id": 822491930, "votes": null, "tagline": null, "has_video": false, "website": null, "offers": null, "latitude": 33.941881, "politanName": "Atlanta, GA Metro ", "phone_number": "6785946635", "tags": [{"primary": true, "id": 1722, "name": "Restaurants"}], "fax_number": null, "expansion": {"count": null, "uri": null}, "impression_id": "000b00000072c06482a64a4eadaed893f35d4ff94f", "profile": "http://www.citysearch.com/profile/822491930/marietta_ga/playa_azul_restaurant.html", "address": {"city": "Marietta", "state": "GA", "street": "401 Rose Dr # 201", "postal_code": "30060"}, "capProviderId": null, "distance": null, "has_offers": false, "name": "Playa Azul Restaurant", "longitude": -84.523857, "has_menu": false, "awards": null, "user_review_count": 0}, {"business_operation_status": 1, "rating": null, "neighborhood": null, "image": null, "scorecard": null, "featured": false, "sample_categories": "Doughnut Shops, Bakeries", "public_id": "atlanta-donut-smyrna", "id": 605545760, "votes": null, "tagline": null, "has_video": false, "website": null, "offers": null, "latitude": 33.894337, "politanName": "Atlanta, GA Metro ", "phone_number": "7703840028", "tags": [{"primary": false, "id": 1685, "name": "Bakeries"}, {"primary": true, "id": 1734, "name": "Doughnut Shops"}], "fax_number": null, "expansion": {"count": null, "uri": null}, "impression_id": "000b0000009debacc214ba4a418daf79553ce1fa5d", "profile": "http://www.citysearch.com/profile/605545760/smyrna_ga/atlanta_donut.html", "address": {"city": "Smyrna", "state": "GA", "street": "1035 Windy Hill Rd Se", "postal_code": "30080"}, "capProviderId": null, "distance": null, "has_offers": false, "name": "Atlanta Donut", "longitude": -84.523269, "has_menu": false, "awards": null, "user_review_count": 0}, {"business_operation_status": 1, "rating": null, "neighborhood": null, "image": null, "scorecard": null, "featured": false, "sample_categories": "Restaurants", "public_id": "b-c-studio-atlanta-2", "id": 682624090, "votes": null, "tagline": null, "has_video": false, "website": null, "offers": null, "latitude": 33.907154, "politanName": "Atlanta, GA Metro ", "phone_number": "6789907691", "tags": [{"primary": true, "id": 1722, "name": "Restaurants"}], "fax_number": null, "expansion": {"count": null, "uri": null}, "impression_id": "000b00000035cc26a43f6c4bca8da9fe17f6d95693", "profile": "http://www.citysearch.com/profile/682624090/atlanta_ga/b_c_studio.html", "address": {"city": "Atlanta", "state": "GA", "street": "1820 The Exchange Se", "postal_code": "30339"}, "capProviderId": null, "distance": null, "has_offers": false, "name": "B & C Studio", "longitude": -84.479182, "has_menu": false, "awards": null, "user_review_count": 0}, {"business_operation_status": 1, "rating": null, "neighborhood": null, "image": null, "scorecard": null, "featured": false, "sample_categories": "Restaurants, Carry Out, Hamburgers", "public_id": "five-guys-burgers-fries-atlanta-6", "id": 622023500, "votes": null, "tagline": null, "has_video": false, "website": "http://www.citysearch.com/profile/external/622023500/atlanta_ga/five_guys_burgers_fries.html", "offers": null, "latitude": 33.894565, "politanName": "Atlanta, GA Metro ", "phone_number": "4046296577", "tags": [{"primary": false, "id": 11247, "name": "Carry Out"}, {"primary": false, "id": 11270, "name": "Hamburgers"}, {"primary": true, "id": 1722, "name": "Restaurants"}], "fax_number": null, "expansion": {"count": null, "uri": null}, "impression_id": "000b00000065c104c33f454d2390b31e6159b50cfe", "profile": "http://www.citysearch.com/profile/622023500/atlanta_ga/five_guys_burgers_fries.html", "address": {"city": "Atlanta", "state": "GA", "street": "2400 Herodian Way", "postal_code": "30331"}, "capProviderId": null, "distance": null, "has_offers": false, "name": "Five Guys Burgers & Fries", "longitude": -84.472334, "has_menu": false, "awards": null, "user_review_count": 0}, {"business_operation_status": 1, "rating": null, "neighborhood": null, "image": null, "scorecard": null, "featured": false, "sample_categories": "Restaurants", "public_id": "chicken-boss-llc-marietta", "id": 627930504, "votes": null, "tagline": null, "has_video": false, "website": null, "offers": null, "latitude": 33.933122, "politanName": "Atlanta, GA Metro ", "phone_number": "7705080980", "tags": [{"primary": true, "id": 1722, "name": "Restaurants"}], "fax_number": null, "expansion": {"count": null, "uri": null}, "impression_id": "000b000000f7fa1772354b47c599a9758632415330", "profile": "http://www.citysearch.com/profile/627930504/marietta_ga/chicken_boss_llc.html", "address": {"city": "Marietta", "state": "GA", "street": "803 Powder Springs St", "postal_code": "30064"}, "capProviderId": null, "distance": null, "has_offers": false, "name": "Chicken Boss LLC", "longitude": -84.559881, "has_menu": false, "awards": null, "user_review_count": 0}, {"business_operation_status": 1, "rating": null, "neighborhood": null, "image": null, "scorecard": null, "featured": false, "sample_categories": "Coffeehouses", "public_id": "mahamosa-llc-atlanta-2", "id": 732217720, "votes": null, "tagline": null, "has_video": false, "website": null, "offers": null, "latitude": 33.881746, "politanName": "Atlanta, GA Metro ", "phone_number": "7704320024", "tags": [{"primary": true, "id": 1726, "name": "Coffeehouses"}], "fax_number": null, "expansion": {"count": null, "uri": null}, "impression_id": "000b0000000d72d335c9104b0a96cdefed7c28560d", "profile": "http://www.citysearch.com/profile/732217720/atlanta_ga/mahamosa_llc.html", "address": {"city": "Atlanta", "state": "GA", "street": "1000 Cumberland Mall SE", "postal_code": "30339"}, "capProviderId": null, "distance": null, "has_offers": false, "name": "Mahamosa LLC", "longitude": -84.470079, "has_menu": false, "awards": null, "user_review_count": 0}, {"business_operation_status": 1, "rating": null, "neighborhood": null, "image": null, "scorecard": null, "featured": false, "sample_categories": "Restaurants, Delis And Delicatessens, Sandwich Shops, Carry Out", "public_id": "subway-atlanta", "id": 655915720, "votes": null, "tagline": null, "has_video": false, "website": "http://www.citysearch.com/profile/external/655915720/atlanta_ga/subway.html", "offers": null, "latitude": 33.904334, "politanName": "Atlanta, GA Metro ", "phone_number": "7706611341", "tags": [{"primary": false, "id": 1727, "name": "Delis And Delicatessens"}, {"primary": false, "id": 1736, "name": "Sandwich Shops"}, {"primary": false, "id": 11247, "name": "Carry Out"}, {"primary": true, "id": 1722, "name": "Restaurants"}], "fax_number": null, "expansion": {"count": null, "uri": null}, "impression_id": "000b000000fc4a4f24bbd14b5299cd4c9bb5cce05b", "profile": "http://www.citysearch.com/profile/655915720/atlanta_ga/subway.html", "address": {"city": "Atlanta", "state": "GA", "street": "6370 Powers Ferry Rd Nw", "postal_code": "30339"}, "capProviderId": null, "distance": null, "has_offers": false, "name": "Subway", "longitude": -84.431343, "has_menu": false, "awards": null, "user_review_count": 0}, {"business_operation_status": 1, "rating": null, "neighborhood": null, "image": null, "scorecard": null, "featured": false, "sample_categories": "Grocery Stores, Restaurants", "public_id": "super-la-vila-smyrna", "id": 655917520, "votes": null, "tagline": null, "has_video": false, "website": null, "offers": null, "latitude": 33.892933, "politanName": "Atlanta, GA Metro ", "phone_number": "7709518085", "tags": [{"primary": false, "id": 1722, "name": "Restaurants"}, {"primary": true, "id": 1713, "name": "Grocery Stores"}], "fax_number": null, "expansion": {"count": null, "uri": null}, "impression_id": "000b00000066df9e5ac1424791ac4ce697e9b4a57f", "profile": "http://www.citysearch.com/profile/655917520/smyrna_ga/super_la_vila.html", "address": {"city": "Smyrna", "state": "GA", "street": "2431 Cobb Pkwy Se", "postal_code": "30080"}, "capProviderId": null, "distance": null, "has_offers": false, "name": "Super La Vila", "longitude": -84.478172, "has_menu": false, "awards": null, "user_review_count": 0}, {"business_operation_status": 1, "rating": null, "neighborhood": null, "image": null, "scorecard": null, "featured": false, "sample_categories": "Restaurants, Lounges", "public_id": "mill-kitchen-bar-roswell", "id": 775226660, "votes": null, "tagline": null, "has_video": false, "website": "http://www.citysearch.com/profile/external/775226660/roswell_ga/the_mill_kitchen_bar.html", "offers": null, "latitude": 34.014683, "politanName": "Atlanta, GA Metro ", "phone_number": "7708179345", "tags": [{"primary": false, "id": 1697, "name": "Lounges"}, {"primary": true, "id": 1722, "name": "Restaurants"}], "fax_number": null, "expansion": {"count": null, "uri": null}, "impression_id": "000b0000008d61bf52d52946c1b9651d26de37603f", "profile": "http://www.citysearch.com/profile/775226660/roswell_ga/the_mill_kitchen_bar.html", "address": {"city": "Roswell", "state": "GA", "street": "590 Mimosa Blvd", "postal_code": "30075"}, "capProviderId": null, "distance": null, "has_offers": false, "name": "The Mill Kitchen & Bar", "longitude": -84.363923, "has_menu": false, "awards": null, "user_review_count": 0}, {"business_operation_status": 1, "rating": null, "neighborhood": null, "image": null, "scorecard": null, "featured": false, "sample_categories": "Restaurants, Traditional American, Carry Out, Shop Online", "public_id": "ruby-tuesday-marietta-2", "id": 775209650, "votes": null, "tagline": null, "has_video": false, "website": "http://www.citysearch.com/profile/external/775209650/marietta_ga/ruby_tuesday.html", "offers": null, "latitude": 33.853043, "politanName": "Atlanta, GA Metro ", "phone_number": "7704268061", "tags": [{"primary": false, "id": 11190, "name": "Traditional American"}, {"primary": false, "id": 11247, "name": "Carry Out"}, {"primary": false, "id": 11375, "name": "Shop Online"}, {"primary": true, "id": 1722, "name": "Restaurants"}], "fax_number": null, "expansion": {"count": null, "uri": null}, "impression_id": "000b00000046148bde813e494f91e6a4be2fdba121", "profile": "http://www.citysearch.com/profile/775209650/marietta_ga/ruby_tuesday.html", "address": {"city": "Marietta", "state": "GA", "street": "Town Center At Cobb", "postal_code": "30060"}, "capProviderId": null, "distance": null, "has_offers": false, "name": "Ruby Tuesday", "longitude": -84.510989, "has_menu": false, "awards": null, "user_review_count": 0}, {"business_operation_status": 1, "rating": null, "neighborhood": null, "image": null, "scorecard": null, "featured": false, "sample_categories": "Restaurants, Mexican", "public_id": "taqueria-la-guelaguetza-smyrna", "id": 777809650, "votes": null, "tagline": null, "has_video": false, "website": null, "offers": null, "latitude": 33.891089, "politanName": "Atlanta, GA Metro ", "phone_number": "6787660130", "tags": [{"primary": false, "id": 11208, "name": "Mexican"}, {"primary": true, "id": 1722, "name": "Restaurants"}], "fax_number": null, "expansion": {"count": null, "uri": null}, "impression_id": "000b000000a832504e152b4308a4b0571f076cfd8a", "profile": "http://www.citysearch.com/profile/777809650/smyrna_ga/taqueria_la_guelaguetza.html", "address": {"city": "Smyrna", "state": "GA", "street": "1651 Roswell St Se", "postal_code": "30080"}, "capProviderId": null, "distance": null, "has_offers": false, "name": "Taqueria La Guelaguetza", "longitude": -84.504679, "has_menu": false, "awards": null, "user_review_count": 0}, {"business_operation_status": 1, "rating": null, "neighborhood": null, "image": null, "scorecard": null, "featured": false, "sample_categories": "Restaurants", "public_id": "corner-cafe-atlanta-2", "id": 777682940, "votes": null, "tagline": null, "has_video": false, "website": null, "offers": null, "latitude": 33.894955, "politanName": "Atlanta, GA Metro ", "phone_number": "7709532555", "tags": [{"primary": true, "id": 1722, "name": "Restaurants"}], "fax_number": null, "expansion": {"count": null, "uri": null}, "impression_id": "000b0000000a8a49cac44c4e4690544652f1b82ba1", "profile": "http://www.citysearch.com/profile/777682940/atlanta_ga/corner_cafe.html", "address": {"city": "Atlanta", "state": "GA", "street": "380 Interstate North Se # 145", "postal_code": "30339"}, "capProviderId": null, "distance": null, "has_offers": false, "name": "Corner Cafe", "longitude": -84.460137, "has_menu": true, "awards": null, "user_review_count": 0}, {"business_operation_status": 1, "rating": null, "neighborhood": null, "image": null, "scorecard": null, "featured": false, "sample_categories": "Restaurants, Traditional American", "public_id": "three-dollar-cafe-marietta", "id": 777696440, "votes": null, "tagline": null, "has_video": false, "website": null, "offers": null, "latitude": 33.904328, "politanName": "Atlanta, GA Metro ", "phone_number": "6782146729", "tags": [{"primary": false, "id": 11190, "name": "Traditional American"}, {"primary": true, "id": 1722, "name": "Restaurants"}], "fax_number": null, "expansion": {"count": null, "uri": null}, "impression_id": "000b0000002068b6600c684727beeb4afacb087209", "profile": "http://www.citysearch.com/profile/777696440/marietta_ga/three_dollar_cafe.html", "address": {"city": "Marietta", "state": "GA", "street": "3000 Windy Hill Rd Se # 132", "postal_code": "30067"}, "capProviderId": null, "distance": null, "has_offers": false, "name": "Three Dollar Cafe", "longitude": -84.466526, "has_menu": false, "awards": null, "user_review_count": 0}, {"business_operation_status": 1, "rating": null, "neighborhood": null, "image": null, "scorecard": null, "featured": false, "sample_categories": "Restaurants, Bars & Clubs, Carry Out, Steakhouse", "public_id": "outback-steakhouse-marietta-2", "id": 777828920, "votes": null, "tagline": null, "has_video": false, "website": "http://www.citysearch.com/profile/external/777828920/marietta_ga/outback_steakhouse.html", "offers": null, "latitude": 33.923116, "politanName": "Atlanta, GA Metro ", "phone_number": "7708509182", "tags": [{"primary": false, "id": 164, "name": "Bars & Clubs"}, {"primary": false, "id": 11247, "name": "Carry Out"}, {"primary": false, "id": 11316, "name": "Steakhouse"}, {"primary": true, "id": 1722, "name": "Restaurants"}], "fax_number": null, "expansion": {"count": null, "uri": null}, "impression_id": "000b000000e31eb4adece64e31970892fbb77a7893", "profile": "http://www.citysearch.com/profile/777828920/marietta_ga/outback_steakhouse.html", "address": {"city": "Marietta", "state": "GA", "street": "2900 Delk Rd Se", "postal_code": "30067"}, "capProviderId": null, "distance": null, "has_offers": false, "name": "Outback Steakhouse", "longitude": -84.46674, "has_menu": true, "awards": null, "user_review_count": 0}, {"business_operation_status": 1, "rating": null, "neighborhood": null, "image": null, "scorecard": null, "featured": false, "sample_categories": "Restaurants", "public_id": "sweet-spot-atlanta", "id": 787108200, "votes": null, "tagline": null, "has_video": false, "website": null, "offers": null, "latitude": 33.883731, "politanName": "Atlanta, GA Metro ", "phone_number": "7709539067", "tags": [{"primary": true, "id": 1722, "name": "Restaurants"}], "fax_number": null, "expansion": {"count": null, "uri": null}, "impression_id": "000b000000da40c2de79704a2899b1bdeda0071d08", "profile": "http://www.citysearch.com/profile/787108200/atlanta_ga/sweet_spot.html", "address": {"city": "Atlanta", "state": "GA", "street": "2815 Akers Mill Rd Se", "postal_code": "30339"}, "capProviderId": null, "distance": null, "has_offers": false, "name": "Sweet Spot", "longitude": -84.459836, "has_menu": false, "awards": null, "user_review_count": 0}, {"business_operation_status": 1, "rating": null, "neighborhood": null, "image": null, "scorecard": null, "featured": false, "sample_categories": "Restaurants, Traditional American, Carry Out, Shop Online", "public_id": "ruby-tuesday-atlanta-5", "id": 801070950, "votes": null, "tagline": null, "has_video": false, "website": "http://www.citysearch.com/profile/external/801070950/atlanta_ga/ruby_tuesday.html", "offers": null, "latitude": 33.88416, "politanName": "Atlanta, GA Metro ", "phone_number": "7709552285", "tags": [{"primary": false, "id": 11190, "name": "Traditional American"}, {"primary": false, "id": 11247, "name": "Carry Out"}, {"primary": false, "id": 11375, "name": "Shop Online"}, {"primary": true, "id": 1722, "name": "Restaurants"}], "fax_number": null, "expansion": {"count": null, "uri": null}, "impression_id": "000b000000c8b76d638a054b01828056192a27442f", "profile": "http://www.citysearch.com/profile/801070950/atlanta_ga/ruby_tuesday.html", "address": {"city": "Atlanta", "state": "GA", "street": "1 Galleria Pkwy NW", "postal_code": "30339"}, "capProviderId": null, "distance": null, "has_offers": false, "name": "Ruby Tuesday", "longitude": -84.463727, "has_menu": false, "awards": null, "user_review_count": 0}, {"business_operation_status": 1, "rating": null, "neighborhood": null, "image": null, "scorecard": null, "featured": false, "sample_categories": "Restaurants", "public_id": "fork-u-concepts-marietta", "id": 801125670, "votes": null, "tagline": null, "has_video": false, "website": null, "offers": null, "latitude": 33.952269, "politanName": "Atlanta, GA Metro ", "phone_number": "6789036243", "tags": [{"primary": true, "id": 1722, "name": "Restaurants"}], "fax_number": null, "expansion": {"count": null, "uri": null}, "impression_id": "000b000000f6828fb92b31495198c0982228139d5b", "profile": "http://www.citysearch.com/profile/801125670/marietta_ga/fork_u_concepts.html", "address": {"city": "Marietta", "state": "GA", "street": "30 S Park Sq Ne", "postal_code": "30060"}, "capProviderId": null, "distance": null, "has_offers": false, "name": "Fork U Concepts", "longitude": -84.550109, "has_menu": false, "awards": null, "user_review_count": 0}, {"business_operation_status": 1, "rating": null, "neighborhood": null, "image": null, "scorecard": null, "featured": false, "sample_categories": "Restaurants, Carry Out, Shop Online, Chicken", "public_id": "kfc-marietta-11", "id": 801057620, "votes": null, "tagline": null, "has_video": false, "website": "http://www.citysearch.com/profile/external/801057620/marietta_ga/kfc.html", "offers": null, "latitude": 33.951359, "politanName": "Atlanta, GA Metro ", "phone_number": "7704274291", "tags": [{"primary": false, "id": 11247, "name": "Carry Out"}, {"primary": false, "id": 11375, "name": "Shop Online"}, {"primary": false, "id": 12839, "name": "Chicken"}, {"primary": true, "id": 1722, "name": "Restaurants"}], "fax_number": null, "expansion": {"count": null, "uri": null}, "impression_id": "000b000000583568e5073144d882f66f9747bfd6d1", "profile": "http://www.citysearch.com/profile/801057620/marietta_ga/kfc.html", "address": {"city": "Marietta", "state": "GA", "street": "37 Powder Springs St", "postal_code": "30064"}, "capProviderId": null, "distance": null, "has_offers": false, "name": "KFC", "longitude": -84.550223, "has_menu": true, "awards": null, "user_review_count": 0}, {"business_operation_status": 1, "rating": null, "neighborhood": null, "image": null, "scorecard": null, "featured": false, "sample_categories": "Restaurants, Hamburgers", "public_id": "old-fashioned-hamburgers-atlanta", "id": 801095060, "votes": null, "tagline": null, "has_video": false, "website": null, "offers": null, "latitude": 33.885111, "politanName": "Atlanta, GA Metro ", "phone_number": "7709528424", "tags": [{"primary": false, "id": 11270, "name": "Hamburgers"}, {"primary": true, "id": 1722, "name": "Restaurants"}], "fax_number": null, "expansion": {"count": null, "uri": null}, "impression_id": "000b000000d827f86e9cb549f7b78078eafc9e28ee", "profile": "http://www.citysearch.com/profile/801095060/atlanta_ga/old_fashioned_hamburgers.html", "address": {"city": "Atlanta", "state": "GA", "street": "2808 Spring Rd Se", "postal_code": "30339"}, "capProviderId": null, "distance": null, "has_offers": false, "name": "Old Fashioned Hamburgers", "longitude": -84.472637, "has_menu": false, "awards": null, "user_review_count": 0}, {"business_operation_status": 1, "rating": null, "neighborhood": null, "image": null, "scorecard": null, "featured": false, "sample_categories": "Restaurants, Barbecue Restaurants", "public_id": "wings-xpress-marietta", "id": 803550980, "votes": null, "tagline": null, "has_video": false, "website": null, "offers": null, "latitude": 33.933132, "politanName": "Atlanta, GA Metro ", "phone_number": "6784621167", "tags": [{"primary": false, "id": 1724, "name": "Barbecue Restaurants"}, {"primary": true, "id": 1722, "name": "Restaurants"}], "fax_number": null, "expansion": {"count": null, "uri": null}, "impression_id": "000b000000f8ab7e8e384c459f96fb68f4b055f57e", "profile": "http://www.citysearch.com/profile/803550980/marietta_ga/wings_xpress.html", "address": {"city": "Marietta", "state": "GA", "street": "803 Powder Springs St # 2", "postal_code": "30064"}, "capProviderId": null, "distance": null, "has_offers": false, "name": "Wings Xpress", "longitude": -84.559871, "has_menu": false, "awards": null, "user_review_count": 0}, {"business_operation_status": 1, "rating": null, "neighborhood": null, "image": null, "scorecard": null, "featured": false, "sample_categories": "Restaurants", "public_id": "thai-surak-thai-restaurant-kennesaw", "id": 806598640, "votes": null, "tagline": null, "has_video": false, "website": null, "offers": null, "latitude": 34.025304, "politanName": "Atlanta, GA Metro ", "phone_number": "6785811888", "tags": [{"primary": true, "id": 1722, "name": "Restaurants"}], "fax_number": null, "expansion": {"count": null, "uri": null}, "impression_id": "000b000000ac126487dbb64081be190c9f080b00b9", "profile": "http://www.citysearch.com/profile/806598640/kennesaw_ga/thai_surak_thai_restaurant.html", "address": {"city": "Kennesaw", "state": "GA", "street": "2950 George Busbee Pkwy NW", "postal_code": "30144"}, "capProviderId": null, "distance": null, "has_offers": false, "name": "Thai Surak Thai Restaurant", "longitude": -84.5671, "has_menu": false, "awards": null, "user_review_count": 0}, {"business_operation_status": 1, "rating": null, "neighborhood": null, "image": null, "scorecard": null, "featured": false, "sample_categories": "Restaurants", "public_id": "buffalos-southwest-cafe-kennesaw-2", "id": 808032200, "votes": null, "tagline": null, "has_video": false, "website": "http://www.citysearch.com/profile/external/808032200/kennesaw_ga/buffalo_s_southwest_cafe.html", "offers": null, "latitude": 33.99979, "politanName": "Atlanta, GA Metro ", "phone_number": "7704249464", "tags": [{"primary": true, "id": 1722, "name": "Restaurants"}], "fax_number": null, "expansion": {"count": null, "uri": null}, "impression_id": "000b000000157d8e86618b4656a6b7a5675b5e2c24", "profile": "http://www.citysearch.com/profile/808032200/kennesaw_ga/buffalo_s_southwest_cafe.html", "address": {"city": "Kennesaw", "state": "GA", "street": "1200 Ernest W Barrett Pkwy NW", "postal_code": "30144"}, "capProviderId": null, "distance": null, "has_offers": false, "name": "Buffalo's Southwest Cafe", "longitude": -84.585399, "has_menu": false, "awards": null, "user_review_count": 0}], "histograms": [], "tag_ids": [1722], "uri": "http://api.citygridmedia.com:8080/search/places/v2/search/where?has_offers=false&type=restaurant&format=json&page=28&where=30069&rpp=50&histograms=false&publisher=10000009598&region_type=circle", "did_you_mean": "", "regions": [{"latitude": 33.911972, "default_radius": 1.53, "type": "postal_code", "name": "30069", "longitude": -84.51369799999999}], "call_id": "000b000000bb30191613a04668b679cad632f57956", "first_hit": 1351, "total_hits": 1411, "geo_ids": [26297], "page": 28, "last_hit": 1400}}