{"results": {"rpp": 50, "locations": [{"business_operation_status": 1, "rating": null, "neighborhood": null, "image": null, "scorecard": null, "featured": false, "sample_categories": "Restaurants", "public_id": "el-caporal-2-bar-grill-marietta", "id": 801060990, "votes": null, "tagline": null, "has_video": false, "website": null, "offers": null, "latitude": 33.955116, "politanName": "Atlanta, GA Metro ", "phone_number": "7704261422", "tags": [{"primary": true, "id": 1722, "name": "Restaurants"}], "fax_number": null, "expansion": {"count": null, "uri": null}, "impression_id": "000b00000087e6e0f01f9b4e9ab98f6efa939556fe", "profile": "http://www.citysearch.com/profile/801060990/marietta_ga/el_caporal_2_bar_grill.html", "address": {"city": "Marietta", "state": "GA", "street": "3600 Dallas Hwy Sw", "postal_code": "30064"}, "capProviderId": null, "distance": null, "has_offers": false, "name": "El Caporal 2 Bar & Grill", "longitude": -84.656027, "has_menu": false, "awards": null, "user_review_count": 0}, {"business_operation_status": 1, "rating": null, "neighborhood": null, "image": null, "scorecard": null, "featured": false, "sample_categories": "Restaurants", "public_id": "j-mann-cafe-grille-marietta", "id": 815522810, "votes": null, "tagline": null, "has_video": false, "website": null, "offers": null, "latitude": 33.948544, "politanName": "Atlanta, GA Metro ", "phone_number": "7705280262", "tags": [{"primary": true, "id": 1722, "name": "Restaurants"}], "fax_number": null, "expansion": {"count": null, "uri": null}, "impression_id": "000b00000077cf19bc34d74d008a336061f710f161", "profile": "http://www.citysearch.com/profile/815522810/marietta_ga/j_mann_cafe_grille.html", "address": {"city": "Marietta", "state": "GA", "street": "191 S Marietta Pkwy SW", "postal_code": "30064"}, "capProviderId": null, "distance": null, "has_offers": false, "name": "J Mann Cafe & Grille", "longitude": -84.550204, "has_menu": false, "awards": null, "user_review_count": 0}, {"business_operation_status": 1, "rating": null, "neighborhood": null, "image": null, "scorecard": null, "featured": false, "sample_categories": "Restaurants, Pizza", "public_id": "bella-bocca-marietta", "id": 822361720, "votes": null, "tagline": null, "has_video": false, "website": null, "offers": null, "latitude": 33.951001, "politanName": "Atlanta, GA Metro ", "phone_number": "7707958984", "tags": [{"primary": false, "id": 1722, "name": "Restaurants"}, {"primary": true, "id": 11299, "name": "Pizza"}], "fax_number": null, "expansion": {"count": null, "uri": null}, "impression_id": "000b000000e7738df5f1e642fe9284b7af3273fac7", "profile": "http://www.citysearch.com/profile/822361720/marietta_ga/bella_bocca.html", "address": {"city": "Marietta", "state": "GA", "street": "999 Whitlock Ave SW", "postal_code": "30064"}, "capProviderId": null, "distance": null, "has_offers": false, "name": "Bella Bocca", "longitude": -84.57917, "has_menu": false, "awards": null, "user_review_count": 1}, {"business_operation_status": 0, "rating": null, "neighborhood": null, "image": null, "scorecard": null, "featured": false, "sample_categories": "Restaurants, Carry Out", "public_id": "atlanta-bread-co-marietta-3", "id": 818761800, "votes": null, "tagline": null, "has_video": false, "website": null, "offers": null, "latitude": 33.947326, "politanName": "Atlanta, GA Metro ", "phone_number": "7704250442", "tags": [{"primary": false, "id": 11247, "name": "Carry Out"}, {"primary": true, "id": 1722, "name": "Restaurants"}], "fax_number": null, "expansion": {"count": null, "uri": null}, "impression_id": "000b0000000d93f3f871174a899c5b5b58e726e57e", "profile": "http://www.citysearch.com/profile/818761800/marietta_ga/atlanta_bread_co.html", "address": {"city": "Marietta", "state": "GA", "street": "3451 Ernest W Barrett NW # 200", "postal_code": "30064"}, "capProviderId": null, "distance": null, "has_offers": false, "name": "Atlanta Bread Co", "longitude": -84.622965, "has_menu": false, "awards": null, "user_review_count": 0}, {"business_operation_status": 1, "rating": null, "neighborhood": null, "image": null, "scorecard": null, "featured": false, "sample_categories": "Restaurants, Pizza, Carry Out", "public_id": "little-caesars-pizza-marietta-2", "id": 653582070, "votes": null, "tagline": null, "has_video": false, "website": "http://www.citysearch.com/profile/external/653582070/marietta_ga/little_caesars_pizza.html", "offers": null, "latitude": 33.952972, "politanName": "Atlanta, GA Metro ", "phone_number": "6784014181", "tags": [{"primary": false, "id": 1722, "name": "Restaurants"}, {"primary": false, "id": 11247, "name": "Carry Out"}, {"primary": true, "id": 11299, "name": "Pizza"}], "fax_number": null, "expansion": {"count": null, "uri": null}, "impression_id": "000b0000001fe8477303a3405689a3d4a200a8995f", "profile": "http://www.citysearch.com/profile/653582070/marietta_ga/little_caesars_pizza.html", "address": {"city": "Marietta", "state": "GA", "street": "3405 Dallas Hwy Sw", "postal_code": "30064"}, "capProviderId": null, "distance": null, "has_offers": false, "name": "Little Caesars Pizza", "longitude": -84.651096, "has_menu": false, "awards": null, "user_review_count": 0}, {"business_operation_status": 1, "rating": null, "neighborhood": null, "image": null, "scorecard": null, "featured": false, "sample_categories": "Restaurants", "public_id": "mythos-pizzeria-marietta", "id": 627338904, "votes": null, "tagline": null, "has_video": false, "website": null, "offers": null, "latitude": 33.953414, "politanName": "Atlanta, GA Metro ", "phone_number": "7704255100", "tags": [{"primary": true, "id": 1722, "name": "Restaurants"}], "fax_number": null, "expansion": {"count": null, "uri": null}, "impression_id": "000b000000bb918a72eb424f5889733edf0365486a", "profile": "http://www.citysearch.com/profile/627338904/marietta_ga/mythos_pizzeria.html", "address": {"city": "Marietta", "state": "GA", "street": "1000 Whitlock Ave NW", "postal_code": "30064"}, "capProviderId": null, "distance": null, "has_offers": false, "name": "Mythos Pizzeria", "longitude": -84.581304, "has_menu": false, "awards": null, "user_review_count": 0}, {"business_operation_status": 1, "rating": null, "neighborhood": null, "image": null, "scorecard": null, "featured": false, "sample_categories": "Restaurants", "public_id": "vaqueros-marietta", "id": 672714020, "votes": null, "tagline": null, "has_video": false, "website": null, "offers": null, "latitude": 33.953033, "politanName": "Atlanta, GA Metro ", "phone_number": "6787385431", "tags": [{"primary": true, "id": 1722, "name": "Restaurants"}], "fax_number": null, "expansion": {"count": null, "uri": null}, "impression_id": "000b0000001a29f681c5df4fa1966256ef146cd2df", "profile": "http://www.citysearch.com/profile/672714020/marietta_ga/vaqueros.html", "address": {"city": "Marietta", "state": "GA", "street": "1000 Whitlock Ave. #400", "postal_code": "30064"}, "capProviderId": null, "distance": null, "has_offers": false, "name": "Vaqueros", "longitude": -84.581202, "has_menu": false, "awards": null, "user_review_count": 0}, {"business_operation_status": 1, "rating": null, "neighborhood": null, "image": null, "scorecard": null, "featured": false, "sample_categories": "Restaurants, Carry Out, American Express, Discover, MasterCard", "public_id": "churchs-chicken-marietta-4", "id": 682647720, "votes": null, "tagline": null, "has_video": false, "website": "http://www.citysearch.com/profile/external/682647720/marietta_ga/church_s_chicken.html", "offers": null, "latitude": 33.94964, "politanName": "Atlanta, GA Metro ", "phone_number": "7704241193", "tags": [{"primary": false, "id": 11247, "name": "Carry Out"}, {"primary": false, "id": 11333, "name": "American Express"}, {"primary": false, "id": 11349, "name": "Discover"}, {"primary": false, "id": 11361, "name": "MasterCard"}, {"primary": false, "id": 11382, "name": "Visa"}, {"primary": false, "id": 12839, "name": "Chicken"}, {"primary": true, "id": 1722, "name": "Restaurants"}], "fax_number": null, "expansion": {"count": null, "uri": null}, "impression_id": "000b0000001669a1e9877445bba87a479bc73bfb4c", "profile": "http://www.citysearch.com/profile/682647720/marietta_ga/church_s_chicken.html", "address": {"city": "Marietta", "state": "GA", "street": "75 S Marietta Pkwy Sw", "postal_code": "30064"}, "capProviderId": null, "distance": null, "has_offers": false, "name": "Church's Chicken", "longitude": -84.55079, "has_menu": false, "awards": null, "user_review_count": 0}, {"business_operation_status": 1, "rating": null, "neighborhood": null, "image": null, "scorecard": null, "featured": false, "sample_categories": "Restaurants", "public_id": "niks-place-marietta", "id": 618038054, "votes": null, "tagline": null, "has_video": false, "website": "http://www.citysearch.com/profile/external/618038054/marietta_ga/niks_place.html", "offers": null, "latitude": 33.952096, "politanName": "Atlanta, GA Metro ", "phone_number": "7707926666", "tags": [{"primary": true, "id": 1722, "name": "Restaurants"}], "fax_number": null, "expansion": {"count": null, "uri": null}, "impression_id": "000b00000041b74785cb1a40089c70d73b1d6f10ed", "profile": "http://www.citysearch.com/profile/618038054/marietta_ga/niks_place.html", "address": {"city": "Marietta", "state": "GA", "street": "Whitlock Ave NW", "postal_code": "30064"}, "capProviderId": null, "distance": null, "has_offers": false, "name": "Niks Place", "longitude": -84.576903, "has_menu": true, "awards": null, "user_review_count": 0}, {"business_operation_status": 1, "rating": null, "neighborhood": null, "image": null, "scorecard": null, "featured": false, "sample_categories": "Restaurants, Ice Cream Parlors, Carry Out", "public_id": "churchs-chicken-marietta-6", "id": 812139520, "votes": null, "tagline": null, "has_video": false, "website": null, "offers": null, "latitude": 33.95153, "politanName": "Atlanta, GA Metro ", "phone_number": "7704228166", "tags": [{"primary": false, "id": 1730, "name": "Ice Cream Parlors"}, {"primary": false, "id": 11247, "name": "Carry Out"}, {"primary": true, "id": 1722, "name": "Restaurants"}], "fax_number": null, "expansion": {"count": null, "uri": null}, "impression_id": "000b000000ad7335146fdc44b39e36d2a072c0c067", "profile": "http://www.citysearch.com/profile/812139520/marietta_ga/church_s_chicken.html", "address": {"city": "Marietta", "state": "GA", "street": "23 Powder Springs St", "postal_code": "30064"}, "capProviderId": null, "distance": null, "has_offers": false, "name": "Church's Chicken", "longitude": -84.550217, "has_menu": false, "awards": null, "user_review_count": 0}, {"business_operation_status": 1, "rating": null, "neighborhood": null, "image": null, "scorecard": null, "featured": false, "sample_categories": "Restaurants", "public_id": "el-barco-mexican-restaurant-marietta-2", "id": 813626580, "votes": null, "tagline": null, "has_video": false, "website": null, "offers": null, "latitude": 33.903309, "politanName": "Atlanta, GA Metro ", "phone_number": "6783555007", "tags": [{"primary": true, "id": 1722, "name": "Restaurants"}], "fax_number": null, "expansion": {"count": null, "uri": null}, "impression_id": "000b000000706d4aedd9c7456e895791adcfa973be", "profile": "http://www.citysearch.com/profile/813626580/marietta_ga/el_barco_mexican_restaurant.html", "address": {"city": "Marietta", "state": "GA", "street": "Arbor Spring CT SW", "postal_code": "30064"}, "capProviderId": null, "distance": null, "has_offers": false, "name": "El Barco Mexican Restaurant", "longitude": -84.629546, "has_menu": false, "awards": null, "user_review_count": 0}, {"business_operation_status": 1, "rating": 6.0, "neighborhood": null, "image": null, "scorecard": null, "featured": false, "sample_categories": "Restaurants", "public_id": "back-porch-of-marietta-marietta", "id": 37646043, "votes": null, "tagline": null, "has_video": false, "website": "http://www.citysearch.com/profile/external/37646043/marietta_ga/back_porch_of_marietta.html", "offers": null, "latitude": 33.951281, "politanName": "Atlanta, GA Metro ", "phone_number": "7707926666", "tags": [{"primary": true, "id": 1722, "name": "Restaurants"}], "fax_number": null, "expansion": {"count": null, "uri": null}, "impression_id": "000b000000eabafbcae5584827807db2f5eb14a4b8", "profile": "http://www.citysearch.com/profile/37646043/marietta_ga/back_porch_of_marietta.html", "address": {"city": "Marietta", "state": "GA", "street": "645 Whitlock Ave SW", "postal_code": "30064"}, "capProviderId": null, "distance": null, "has_offers": false, "name": "Back Porch Of Marietta", "longitude": -84.571275, "has_menu": false, "awards": null, "user_review_count": 1}, {"business_operation_status": 1, "rating": null, "neighborhood": null, "image": null, "scorecard": null, "featured": false, "sample_categories": "Restaurants, Bars & Pubs", "public_id": "breaking-point-sports-bar-marietta", "id": 764906570, "votes": null, "tagline": null, "has_video": false, "website": null, "offers": null, "latitude": 33.936757, "politanName": "Atlanta, GA Metro ", "phone_number": "7704264199", "tags": [{"primary": false, "id": 1686, "name": "Bars & Pubs"}, {"primary": true, "id": 1722, "name": "Restaurants"}], "fax_number": null, "expansion": {"count": null, "uri": null}, "impression_id": "000b000000cc1cc43b058f4bf6869e7d7b78ba6273", "profile": "http://www.citysearch.com/profile/764906570/marietta_ga/breaking_point_sports_bar.html", "address": {"city": "Marietta", "state": "GA", "street": "680 Powder Springs St", "postal_code": "30064"}, "capProviderId": null, "distance": null, "has_offers": false, "name": "Breaking Point Sports Bar", "longitude": -84.557357, "has_menu": false, "awards": null, "user_review_count": 0}, {"business_operation_status": 1, "rating": null, "neighborhood": null, "image": null, "scorecard": null, "featured": false, "sample_categories": "Restaurants, Carry Out, Hamburgers, American Express, Discover", "public_id": "krystal-marietta-3", "id": 43852561, "votes": null, "tagline": null, "has_video": false, "website": "http://www.citysearch.com/profile/external/43852561/marietta_ga/krystal.html", "offers": null, "latitude": 33.944405, "politanName": "Atlanta, GA Metro ", "phone_number": "7707929020", "tags": [{"primary": false, "id": 11247, "name": "Carry Out"}, {"primary": false, "id": 11270, "name": "Hamburgers"}, {"primary": false, "id": 11333, "name": "American Express"}, {"primary": false, "id": 11349, "name": "Discover"}, {"primary": false, "id": 11361, "name": "MasterCard"}, {"primary": false, "id": 11382, "name": "Visa"}, {"primary": true, "id": 1722, "name": "Restaurants"}], "fax_number": null, "expansion": {"count": null, "uri": null}, "impression_id": "000b00000047a269ee452e47d3affe0f81fd8a6762", "profile": "http://www.citysearch.com/profile/43852561/marietta_ga/krystal.html", "address": {"city": "Marietta", "state": "GA", "street": "3520 Ernest W Barrett Pkwy SW", "postal_code": "30064"}, "capProviderId": null, "distance": null, "has_offers": false, "name": "Krystal", "longitude": -84.624735, "has_menu": true, "awards": null, "user_review_count": 0}, {"business_operation_status": 1, "rating": null, "neighborhood": null, "image": null, "scorecard": null, "featured": false, "sample_categories": "Restaurants, Pizza", "public_id": "q-pizza-marietta", "id": 812951040, "votes": null, "tagline": null, "has_video": false, "website": null, "offers": null, "latitude": 33.925388, "politanName": "Atlanta, GA Metro ", "phone_number": "7709197026", "tags": [{"primary": false, "id": 1722, "name": "Restaurants"}, {"primary": true, "id": 11299, "name": "Pizza"}], "fax_number": null, "expansion": {"count": null, "uri": null}, "impression_id": "000b0000006a5980c7bde347e7b1be74188ff5c873", "profile": "http://www.citysearch.com/profile/812951040/marietta_ga/q_pizza.html", "address": {"city": "Marietta", "state": "GA", "street": "1135 Powder Springs St", "postal_code": "30064"}, "capProviderId": null, "distance": null, "has_offers": false, "name": "Q Pizza", "longitude": -84.573222, "has_menu": false, "awards": null, "user_review_count": 0}, {"business_operation_status": 1, "rating": null, "neighborhood": null, "image": null, "scorecard": null, "featured": false, "sample_categories": "Restaurants", "public_id": "vito-goldbergs-marietta", "id": 814374650, "votes": null, "tagline": null, "has_video": false, "website": "http://www.citysearch.com/profile/external/814374650/marietta_ga/vito_goldberg_s.html", "offers": null, "latitude": 33.951001, "politanName": "Atlanta, GA Metro ", "phone_number": "7707958631", "tags": [{"primary": true, "id": 1722, "name": "Restaurants"}], "fax_number": null, "expansion": {"count": null, "uri": null}, "impression_id": "000b000000d8fdbc6b876d4fd5a42f56ad9275ed08", "profile": "http://www.citysearch.com/profile/814374650/marietta_ga/vito_goldberg_s.html", "address": {"city": "Marietta", "state": "GA", "street": "999 Whitlock Ave SW", "postal_code": "30064"}, "capProviderId": null, "distance": null, "has_offers": false, "name": "Vito Goldberg's", "longitude": -84.57917, "has_menu": false, "awards": null, "user_review_count": 0}, {"business_operation_status": 1, "rating": null, "neighborhood": null, "image": null, "scorecard": null, "featured": false, "sample_categories": "Catering, Restaurants, Sandwich Shops, Ham, Pork", "public_id": "honeybaked-ham-marietta-2", "id": 45112957, "votes": null, "tagline": null, "has_video": false, "website": "http://www.citysearch.com/profile/external/45112957/marietta_ga/honeybaked_ham.html", "offers": null, "latitude": 33.944997, "politanName": "Atlanta, GA Metro ", "phone_number": "7707950196", "tags": [{"primary": false, "id": 1705, "name": "Catering"}, {"primary": false, "id": 1722, "name": "Restaurants"}, {"primary": false, "id": 1736, "name": "Sandwich Shops"}, {"primary": false, "id": 11125, "name": "Pork"}, {"primary": false, "id": 11333, "name": "American Express"}, {"primary": false, "id": 11347, "name": "Debit Card"}, {"primary": false, "id": 11349, "name": "Discover"}, {"primary": false, "id": 11361, "name": "MasterCard"}, {"primary": false, "id": 11382, "name": "Visa"}, {"primary": true, "id": 11124, "name": "Ham"}], "fax_number": null, "expansion": {"count": null, "uri": null}, "impression_id": "000b0000005bfa08288b8546bca2e464d8f6259791", "profile": "http://www.citysearch.com/profile/45112957/marietta_ga/honeybaked_ham.html", "address": {"city": "Marietta", "state": "GA", "street": "3405 Dallas Hwy SW 408", "postal_code": "30064"}, "capProviderId": null, "distance": null, "has_offers": false, "name": "Honeybaked Ham", "longitude": -84.623325, "has_menu": true, "awards": null, "user_review_count": 0}, {"business_operation_status": 1, "rating": null, "neighborhood": null, "image": null, "scorecard": null, "featured": false, "sample_categories": "Restaurants, Sandwich Shops, Gourmet Foods, Organic Foods, Hamburgers", "public_id": "yumm-burger-marietta", "id": 793386180, "votes": null, "tagline": null, "has_video": false, "website": "http://www.citysearch.com/profile/external/793386180/marietta_ga/yumm_burger.html", "offers": null, "latitude": 33.967001, "politanName": "Atlanta, GA Metro ", "phone_number": "7704855681", "tags": [{"primary": false, "id": 1736, "name": "Sandwich Shops"}, {"primary": false, "id": 11169, "name": "Gourmet Foods"}, {"primary": false, "id": 11173, "name": "Organic Foods"}, {"primary": false, "id": 11270, "name": "Hamburgers"}, {"primary": true, "id": 1722, "name": "Restaurants"}], "fax_number": null, "expansion": {"count": null, "uri": null}, "impression_id": "000b00000085ab7d8c0d7c4c9cab9ef2500cb38c6a", "profile": "http://www.citysearch.com/profile/793386180/marietta_ga/yumm_burger.html", "address": {"city": "Marietta", "state": "GA", "street": "3901 Mary Eliza Trce NW 120", "postal_code": "30064"}, "capProviderId": null, "distance": null, "has_offers": false, "name": "Yumm Burger", "longitude": -84.665447, "has_menu": false, "awards": null, "user_review_count": 0}, {"business_operation_status": 1, "rating": null, "neighborhood": null, "image": null, "scorecard": null, "featured": false, "sample_categories": "Restaurants, Hamburgers", "public_id": "juniors-cheeseburgers-marietta", "id": 793366980, "votes": null, "tagline": null, "has_video": false, "website": null, "offers": null, "latitude": 33.881461, "politanName": "Atlanta, GA Metro ", "phone_number": "6783543333", "tags": [{"primary": false, "id": 11270, "name": "Hamburgers"}, {"primary": true, "id": 1722, "name": "Restaurants"}], "fax_number": null, "expansion": {"count": null, "uri": null}, "impression_id": "000b0000004eafaa8234c6494d9dcec261d5b864a0", "profile": "http://www.citysearch.com/profile/793366980/marietta_ga/juniors_cheeseburgers.html", "address": {"city": "Marietta", "state": "GA", "street": "2325 Powder Springs Rd Sw", "postal_code": "30064"}, "capProviderId": null, "distance": null, "has_offers": false, "name": "Juniors Cheeseburgers", "longitude": -84.619677, "has_menu": false, "awards": null, "user_review_count": 0}, {"business_operation_status": 1, "rating": null, "neighborhood": null, "image": null, "scorecard": null, "featured": false, "sample_categories": "Delis And Delicatessens, Restaurants", "public_id": "deli-dellghts-marietta", "id": 764838340, "votes": null, "tagline": null, "has_video": false, "website": null, "offers": null, "latitude": 33.952594, "politanName": "Atlanta, GA Metro ", "phone_number": "6784016001", "tags": [{"primary": false, "id": 1722, "name": "Restaurants"}, {"primary": true, "id": 1727, "name": "Delis And Delicatessens"}], "fax_number": null, "expansion": {"count": null, "uri": null}, "impression_id": "000b000000acc2fe8cd94247daa41525fb57c56de1", "profile": "http://www.citysearch.com/profile/764838340/marietta_ga/deli_dellghts.html", "address": {"city": "Marietta", "state": "GA", "street": "800 Whitlock Ave NW", "postal_code": "30064"}, "capProviderId": null, "distance": null, "has_offers": false, "name": "Deli Dellghts", "longitude": -84.575881, "has_menu": false, "awards": null, "user_review_count": 0}, {"business_operation_status": 1, "rating": null, "neighborhood": null, "image": null, "scorecard": null, "featured": false, "sample_categories": "Restaurants", "public_id": "culture-lab-marietta", "id": 764843290, "votes": null, "tagline": null, "has_video": false, "website": null, "offers": null, "latitude": 33.883313, "politanName": "Atlanta, GA Metro ", "phone_number": "7705750926", "tags": [{"primary": true, "id": 1722, "name": "Restaurants"}], "fax_number": null, "expansion": {"count": null, "uri": null}, "impression_id": "000b00000011f7447568ad4402ac2bbade8100f7c1", "profile": "http://www.citysearch.com/profile/764843290/marietta_ga/culture_lab.html", "address": {"city": "Marietta", "state": "GA", "street": "2200 Powder Springs Rd SW", "postal_code": "30064"}, "capProviderId": null, "distance": null, "has_offers": false, "name": "Culture Lab", "longitude": -84.620092, "has_menu": false, "awards": null, "user_review_count": 0}, {"business_operation_status": 1, "rating": null, "neighborhood": null, "image": null, "scorecard": null, "featured": false, "sample_categories": "Restaurants", "public_id": "clay-oven-restaurant-marietta", "id": 754822000, "votes": null, "tagline": null, "has_video": false, "website": null, "offers": null, "latitude": 33.937014, "politanName": "Atlanta, GA Metro ", "phone_number": "6785811533", "tags": [{"primary": true, "id": 1722, "name": "Restaurants"}], "fax_number": null, "expansion": {"count": null, "uri": null}, "impression_id": "000b0000000a74e827cbb1407389cd4f2ceaa86470", "profile": "http://www.citysearch.com/profile/754822000/marietta_ga/clay_oven_restaurant.html", "address": {"city": "Marietta", "state": "GA", "street": "1115 Powder Springs St", "postal_code": "30064"}, "capProviderId": null, "distance": null, "has_offers": false, "name": "Clay Oven Restaurant", "longitude": -84.554706, "has_menu": false, "awards": null, "user_review_count": 0}, {"business_operation_status": 1, "rating": null, "neighborhood": null, "image": null, "scorecard": null, "featured": false, "sample_categories": "Restaurants, Traditional American, Carry Out", "public_id": "mr-philly-marietta", "id": 764893230, "votes": null, "tagline": null, "has_video": false, "website": null, "offers": null, "latitude": 33.953033, "politanName": "Atlanta, GA Metro ", "phone_number": "7705750615", "tags": [{"primary": false, "id": 11190, "name": "Traditional American"}, {"primary": false, "id": 11247, "name": "Carry Out"}, {"primary": true, "id": 1722, "name": "Restaurants"}], "fax_number": null, "expansion": {"count": null, "uri": null}, "impression_id": "000b0000008db44ecc99d04e0f9bd26a8c8e142f2d", "profile": "http://www.citysearch.com/profile/764893230/marietta_ga/mr_philly.html", "address": {"city": "Marietta", "state": "GA", "street": "1000 Whitlock Ave NW # 110", "postal_code": "30064"}, "capProviderId": null, "distance": null, "has_offers": false, "name": "Mr Philly", "longitude": -84.581202, "has_menu": false, "awards": null, "user_review_count": 0}, {"business_operation_status": 1, "rating": null, "neighborhood": null, "image": null, "scorecard": null, "featured": false, "sample_categories": "Restaurants, Carry Out, Chicken", "public_id": "popeyes-chicken-biscuits-marietta-3", "id": 764903940, "votes": null, "tagline": null, "has_video": false, "website": null, "offers": null, "latitude": 33.922747, "politanName": "Atlanta, GA Metro ", "phone_number": "7707947031", "tags": [{"primary": false, "id": 11247, "name": "Carry Out"}, {"primary": false, "id": 12839, "name": "Chicken"}, {"primary": true, "id": 1722, "name": "Restaurants"}], "fax_number": null, "expansion": {"count": null, "uri": null}, "impression_id": "000b000000fef8b7e35f334e46be69af353cfb1cfe", "profile": "http://www.citysearch.com/profile/764903940/marietta_ga/popeye_s_chicken_biscuits.html", "address": {"city": "Marietta", "state": "GA", "street": "1444 Livingston Dr SW", "postal_code": "30064"}, "capProviderId": null, "distance": null, "has_offers": false, "name": "Popeye's Chicken & Biscuits", "longitude": -84.596038, "has_menu": false, "awards": null, "user_review_count": 0}, {"business_operation_status": 1, "rating": null, "neighborhood": null, "image": null, "scorecard": null, "featured": false, "sample_categories": "Barbecue Restaurants", "public_id": "sams-bbq-one-marietta", "id": 787089000, "votes": null, "tagline": null, "has_video": false, "website": null, "offers": null, "latitude": 33.955116, "politanName": "Atlanta, GA Metro ", "phone_number": "6783241518", "tags": [{"primary": true, "id": 1724, "name": "Barbecue Restaurants"}], "fax_number": null, "expansion": {"count": null, "uri": null}, "impression_id": "000b000000c4a16e8e0d344156b2213381b29617ad", "profile": "http://www.citysearch.com/profile/787089000/marietta_ga/sam_s_bbq_one.html", "address": {"city": "Marietta", "state": "GA", "street": "3600 Dallas Hwy Sw", "postal_code": "30064"}, "capProviderId": null, "distance": null, "has_offers": false, "name": "Sam's BBQ One", "longitude": -84.656027, "has_menu": false, "awards": null, "user_review_count": 0}, {"business_operation_status": 1, "rating": null, "neighborhood": null, "image": null, "scorecard": null, "featured": false, "sample_categories": "Restaurants, Carry Out", "public_id": "churchs-chicken-marietta-5", "id": 809894000, "votes": null, "tagline": null, "has_video": false, "website": null, "offers": null, "latitude": 33.951817, "politanName": "Atlanta, GA Metro ", "phone_number": "7704228166", "tags": [{"primary": false, "id": 11247, "name": "Carry Out"}, {"primary": true, "id": 1722, "name": "Restaurants"}], "fax_number": null, "expansion": {"count": null, "uri": null}, "impression_id": "000b000000075ff995c04f48568c3e19275a49095c", "profile": "http://www.citysearch.com/profile/809894000/marietta_ga/church_s_chicken.html", "address": {"city": "Marietta", "state": "GA", "street": "23 S Marietta Pkwy SW", "postal_code": "30064"}, "capProviderId": null, "distance": null, "has_offers": false, "name": "Church's Chicken", "longitude": -84.551523, "has_menu": false, "awards": null, "user_review_count": 0}, {"business_operation_status": 1, "rating": null, "neighborhood": null, "image": null, "scorecard": null, "featured": false, "sample_categories": "Restaurants", "public_id": "p-l-p-restaurant-marietta", "id": 796108680, "votes": null, "tagline": null, "has_video": false, "website": null, "offers": null, "latitude": 33.952602, "politanName": "Atlanta, GA Metro ", "phone_number": "7704990139", "tags": [{"primary": true, "id": 1722, "name": "Restaurants"}], "fax_number": null, "expansion": {"count": null, "uri": null}, "impression_id": "000b0000003060d4dc9971447dbb060db096ef0445", "profile": "http://www.citysearch.com/profile/796108680/marietta_ga/p_l_p_restaurant.html", "address": {"city": "Marietta", "state": "GA", "street": "3960 Mary Eliza Trce NW", "postal_code": "30064"}, "capProviderId": null, "distance": null, "has_offers": false, "name": "P L P Restaurant", "longitude": -84.549933, "has_menu": false, "awards": null, "user_review_count": 0}, {"business_operation_status": 1, "rating": null, "neighborhood": null, "image": null, "scorecard": null, "featured": false, "sample_categories": "Restaurants", "public_id": "planet-smoothie-marietta-6", "id": 808830020, "votes": null, "tagline": null, "has_video": false, "website": null, "offers": null, "latitude": 33.952602, "politanName": "Atlanta, GA Metro ", "phone_number": "7704272700", "tags": [{"primary": true, "id": 1722, "name": "Restaurants"}], "fax_number": null, "expansion": {"count": null, "uri": null}, "impression_id": "000b0000007ffb0db3b4b443cda310329febe49944", "profile": "http://www.citysearch.com/profile/808830020/marietta_ga/planet_smoothie.html", "address": {"city": "Marietta", "state": "GA", "street": "23451 Ernest Barrett Pkwy", "postal_code": "30064"}, "capProviderId": null, "distance": null, "has_offers": false, "name": "Planet Smoothie", "longitude": -84.549933, "has_menu": false, "awards": null, "user_review_count": 0}, {"business_operation_status": 1, "rating": null, "neighborhood": null, "image": null, "scorecard": null, "featured": false, "sample_categories": "Restaurants", "public_id": "marietta-marietta-2", "id": 838727430, "votes": null, "tagline": null, "has_video": false, "website": null, "offers": null, "latitude": 33.924583, "politanName": "Atlanta, GA Metro ", "phone_number": "7705907388", "tags": [{"primary": true, "id": 1722, "name": "Restaurants"}], "fax_number": null, "expansion": {"count": null, "uri": null}, "impression_id": "000b00000099990cd1ece9491bb37b9ee198a52249", "profile": "http://www.citysearch.com/profile/838727430/marietta_ga/marietta.html", "address": {"city": "Marietta", "state": "GA", "street": "1180 Powder Springs St", "postal_code": "30064"}, "capProviderId": null, "distance": null, "has_offers": false, "name": "Marietta", "longitude": -84.575231, "has_menu": false, "awards": null, "user_review_count": 0}, {"business_operation_status": 1, "rating": null, "neighborhood": null, "image": null, "scorecard": null, "featured": false, "sample_categories": "Barbecue Restaurants, Restaurants", "public_id": "als-barbeque-marietta", "id": 764865730, "votes": null, "tagline": null, "has_video": false, "website": null, "offers": null, "latitude": 33.951118, "politanName": "Atlanta, GA Metro ", "phone_number": "7704999774", "tags": [{"primary": false, "id": 1722, "name": "Restaurants"}, {"primary": true, "id": 1724, "name": "Barbecue Restaurants"}], "fax_number": null, "expansion": {"count": null, "uri": null}, "impression_id": "000b0000009c7a4f8416e2469da4773ec5b03b18ce", "profile": "http://www.citysearch.com/profile/764865730/marietta_ga/al_s_barbeque.html", "address": {"city": "Marietta", "state": "GA", "street": "34 Powder Springs St", "postal_code": "30064"}, "capProviderId": null, "distance": null, "has_offers": false, "name": "Al's Barbeque", "longitude": -84.550542, "has_menu": true, "awards": null, "user_review_count": 0}, {"business_operation_status": 1, "rating": null, "neighborhood": null, "image": null, "scorecard": null, "featured": false, "sample_categories": "Restaurants, Bars & Clubs, Bars & Pubs", "public_id": "kastaways-food-spirits-marietta", "id": 655851930, "votes": null, "tagline": null, "has_video": false, "website": null, "offers": null, "latitude": 33.934059, "politanName": "Atlanta, GA Metro ", "phone_number": "7704294922", "tags": [{"primary": false, "id": 164, "name": "Bars & Clubs"}, {"primary": false, "id": 1686, "name": "Bars & Pubs"}, {"primary": true, "id": 1722, "name": "Restaurants"}], "fax_number": null, "expansion": {"count": null, "uri": null}, "impression_id": "000b000000ff82f32244544836953c346e1a41adb7", "profile": "http://www.citysearch.com/profile/655851930/marietta_ga/kastaways_food_spirits.html", "address": {"city": "Marietta", "state": "GA", "street": "795 Powder Springs St", "postal_code": "30064"}, "capProviderId": null, "distance": null, "has_offers": false, "name": "Kastaways Food & Spirits", "longitude": -84.559181, "has_menu": false, "awards": null, "user_review_count": 0}, {"business_operation_status": 1, "rating": null, "neighborhood": null, "image": null, "scorecard": null, "featured": false, "sample_categories": "Frozen Yogurt Shops, Grocery Stores, Restaurants", "public_id": "oolala-marietta", "id": 732204990, "votes": null, "tagline": null, "has_video": false, "website": "http://www.citysearch.com/profile/external/732204990/marietta_ga/oolala.html", "offers": null, "latitude": 33.950252, "politanName": "Atlanta, GA Metro ", "phone_number": "6783836129", "tags": [{"primary": false, "id": 1713, "name": "Grocery Stores"}, {"primary": false, "id": 1722, "name": "Restaurants"}, {"primary": true, "id": 1729, "name": "Frozen Yogurt Shops"}], "fax_number": null, "expansion": {"count": null, "uri": null}, "impression_id": "000b000000d07e14ca198c423683d60806370cc545", "profile": "http://www.citysearch.com/profile/732204990/marietta_ga/oolala.html", "address": {"city": "Marietta", "state": "GA", "street": "2500 Dallas Hwy SW # 650", "postal_code": "30064"}, "capProviderId": null, "distance": null, "has_offers": false, "name": "Oolala", "longitude": -84.638093, "has_menu": false, "awards": null, "user_review_count": 0}, {"business_operation_status": 1, "rating": null, "neighborhood": null, "image": null, "scorecard": null, "featured": false, "sample_categories": "Restaurants, Ice Cream Parlors", "public_id": "smoothie-express-marietta", "id": 653592070, "votes": null, "tagline": null, "has_video": false, "website": "http://www.citysearch.com/profile/external/653592070/marietta_ga/smoothie_express.html", "offers": null, "latitude": 33.899518, "politanName": "Atlanta, GA Metro ", "phone_number": "7705901900", "tags": [{"primary": false, "id": 1730, "name": "Ice Cream Parlors"}, {"primary": true, "id": 1722, "name": "Restaurants"}], "fax_number": null, "expansion": {"count": null, "uri": null}, "impression_id": "000b0000001b15d07f362d4037b60eeaec92492007", "profile": "http://www.citysearch.com/profile/653592070/marietta_ga/smoothie_express.html", "address": {"city": "Marietta", "state": "GA", "street": "1812 Powder Springs Rd Sw#1107", "postal_code": "30064"}, "capProviderId": null, "distance": null, "has_offers": false, "name": "Smoothie Express", "longitude": -84.606801, "has_menu": false, "awards": null, "user_review_count": 0}, {"business_operation_status": 1, "rating": null, "neighborhood": null, "image": null, "scorecard": null, "featured": false, "sample_categories": "Restaurants, Chinese, American Express, Discover, MasterCard", "public_id": "one-sixty-eight-dragon-marietta", "id": 747470520, "votes": null, "tagline": null, "has_video": false, "website": null, "offers": null, "latitude": 33.903742, "politanName": "Atlanta, GA Metro ", "phone_number": "7704275599", "tags": [{"primary": false, "id": 11252, "name": "Chinese"}, {"primary": false, "id": 11333, "name": "American Express"}, {"primary": false, "id": 11349, "name": "Discover"}, {"primary": false, "id": 11361, "name": "MasterCard"}, {"primary": false, "id": 11382, "name": "Visa"}, {"primary": true, "id": 1722, "name": "Restaurants"}], "fax_number": null, "expansion": {"count": null, "uri": null}, "impression_id": "000b000000a3bc396ac5354dd38fa3e962ddc8c995", "profile": "http://www.citysearch.com/profile/747470520/marietta_ga/one_sixty_eight_dragon.html", "address": {"city": "Marietta", "state": "GA", "street": "1750 Powder Springs Rd # 240", "postal_code": "30064"}, "capProviderId": null, "distance": null, "has_offers": false, "name": "One Sixty Eight Dragon", "longitude": -84.606517, "has_menu": false, "awards": null, "user_review_count": 0}, {"business_operation_status": 1, "rating": null, "neighborhood": null, "image": null, "scorecard": null, "featured": false, "sample_categories": "Restaurants, Delis And Delicatessens, Sandwich Shops, Carry Out", "public_id": "subway-marietta-50", "id": 764879610, "votes": null, "tagline": null, "has_video": false, "website": "http://www.citysearch.com/profile/external/764879610/marietta_ga/subway.html", "offers": null, "latitude": 33.925399, "politanName": "Atlanta, GA Metro ", "phone_number": "7704225412", "tags": [{"primary": false, "id": 1727, "name": "Delis And Delicatessens"}, {"primary": false, "id": 1736, "name": "Sandwich Shops"}, {"primary": false, "id": 11247, "name": "Carry Out"}, {"primary": true, "id": 1722, "name": "Restaurants"}], "fax_number": null, "expansion": {"count": null, "uri": null}, "impression_id": "000b0000003bdd7308fa4b4fe39027b3fac74b5c09", "profile": "http://www.citysearch.com/profile/764879610/marietta_ga/subway.html", "address": {"city": "Marietta", "state": "GA", "street": "1135 Powder Springs St", "postal_code": "30064"}, "capProviderId": null, "distance": null, "has_offers": false, "name": "SUBWAY", "longitude": -84.573233, "has_menu": false, "awards": null, "user_review_count": 0}, {"business_operation_status": 1, "rating": null, "neighborhood": null, "image": null, "scorecard": null, "featured": false, "sample_categories": "Coffeehouses", "public_id": "insomnia-marietta", "id": 37646047, "votes": null, "tagline": null, "has_video": false, "website": null, "offers": null, "latitude": 33.948083, "politanName": "Atlanta, GA Metro ", "phone_number": "7705147442", "tags": [{"primary": true, "id": 1726, "name": "Coffeehouses"}], "fax_number": null, "expansion": {"count": null, "uri": null}, "impression_id": "000b00000094cbd9e5963344e2bd63be2aa25967f6", "profile": "http://www.citysearch.com/profile/37646047/marietta_ga/insomnia.html", "address": {"city": "Marietta", "state": "GA", "street": "245 Ridgeway Rd", "postal_code": "30064"}, "capProviderId": null, "distance": null, "has_offers": false, "name": "Insomnia", "longitude": -84.626672, "has_menu": false, "awards": null, "user_review_count": 0}, {"business_operation_status": 1, "rating": null, "neighborhood": null, "image": null, "scorecard": null, "featured": false, "sample_categories": "Restaurants", "public_id": "kidz-spot-marietta", "id": 824161410, "votes": null, "tagline": null, "has_video": false, "website": null, "offers": null, "latitude": 33.903812, "politanName": "Atlanta, GA Metro ", "phone_number": "6784494499", "tags": [{"primary": true, "id": 1722, "name": "Restaurants"}], "fax_number": null, "expansion": {"count": null, "uri": null}, "impression_id": "000b000000de97662452b64811a9f0680f60874f6c", "profile": "http://www.citysearch.com/profile/824161410/marietta_ga/kidz_spot.html", "address": {"city": "Marietta", "state": "GA", "street": "2930 Maple Springs CT", "postal_code": "30064"}, "capProviderId": null, "distance": null, "has_offers": false, "name": "Kidz Spot", "longitude": -84.638869, "has_menu": false, "awards": null, "user_review_count": 0}, {"business_operation_status": 1, "rating": 8.0, "neighborhood": null, "image": null, "scorecard": null, "featured": false, "sample_categories": "Restaurants, Pizza", "public_id": "uncle-vitos-new-york-pizza-marietta", "id": 37646046, "votes": null, "tagline": null, "has_video": false, "website": null, "offers": null, "latitude": 33.950252, "politanName": "Atlanta, GA Metro ", "phone_number": "6787668486", "tags": [{"primary": false, "id": 1722, "name": "Restaurants"}, {"primary": true, "id": 11299, "name": "Pizza"}], "fax_number": null, "expansion": {"count": null, "uri": null}, "impression_id": "000b000000d8b49a6661564c63b710a7407e9afdb8", "profile": "http://www.citysearch.com/profile/37646046/marietta_ga/uncle_vitos_new_york_pizza.html", "address": {"city": "Marietta", "state": "GA", "street": "2500 Dallas Hwy SW", "postal_code": "30064"}, "capProviderId": null, "distance": null, "has_offers": false, "name": "Uncle Vitos New York Pizza", "longitude": -84.638093, "has_menu": true, "awards": null, "user_review_count": 2}, {"business_operation_status": 1, "rating": null, "neighborhood": null, "image": null, "scorecard": null, "featured": false, "sample_categories": "Restaurants, American Express, Discover, MasterCard, Visa", "public_id": "piezonias-restaurant-marietta", "id": 601298040, "votes": null, "tagline": null, "has_video": false, "website": null, "offers": null, "latitude": 33.967672, "politanName": "Atlanta, GA Metro ", "phone_number": "7704192188", "tags": [{"primary": false, "id": 11333, "name": "American Express"}, {"primary": false, "id": 11349, "name": "Discover"}, {"primary": false, "id": 11361, "name": "MasterCard"}, {"primary": false, "id": 11382, "name": "Visa"}, {"primary": true, "id": 1722, "name": "Restaurants"}], "fax_number": null, "expansion": {"count": null, "uri": null}, "impression_id": "000b000000b27ff5b63a4c41e38749595d86a5e5bb", "profile": "http://www.citysearch.com/profile/601298040/marietta_ga/piezonia_s_restaurant.html", "address": {"city": "Marietta", "state": "GA", "street": "3960 Mary Eliza Trce Nw", "postal_code": "30064"}, "capProviderId": null, "distance": null, "has_offers": false, "name": "Piezonia's Restaurant", "longitude": -84.667328, "has_menu": false, "awards": null, "user_review_count": 0}, {"business_operation_status": 1, "rating": null, "neighborhood": null, "image": null, "scorecard": null, "featured": false, "sample_categories": "Restaurants, Mexican, Carry Out", "public_id": "taco-bell-marietta-10", "id": 775210570, "votes": null, "tagline": null, "has_video": false, "website": "http://www.citysearch.com/profile/external/775210570/marietta_ga/taco_bell.html", "offers": null, "latitude": 33.924583, "politanName": "Atlanta, GA Metro ", "phone_number": "7705907481", "tags": [{"primary": false, "id": 11208, "name": "Mexican"}, {"primary": false, "id": 11247, "name": "Carry Out"}, {"primary": true, "id": 1722, "name": "Restaurants"}], "fax_number": null, "expansion": {"count": null, "uri": null}, "impression_id": "000b000000e99839f4635b44e19c259f4c62546a7f", "profile": "http://www.citysearch.com/profile/775210570/marietta_ga/taco_bell.html", "address": {"city": "Marietta", "state": "GA", "street": "1180 Powder Springs St", "postal_code": "30064"}, "capProviderId": null, "distance": null, "has_offers": false, "name": "Taco Bell", "longitude": -84.575231, "has_menu": false, "awards": null, "user_review_count": 0}, {"business_operation_status": 1, "rating": null, "neighborhood": null, "image": null, "scorecard": null, "featured": false, "sample_categories": "Restaurants, Delis And Delicatessens, Sandwich Shops, Carry Out, Soups", "public_id": "subway-marietta-23", "id": 45988791, "votes": null, "tagline": null, "has_video": false, "website": "http://www.citysearch.com/profile/external/45988791/marietta_ga/subway.html", "offers": null, "latitude": 33.868309, "politanName": "Atlanta, GA Metro ", "phone_number": "6783841428", "tags": [{"primary": false, "id": 1727, "name": "Delis And Delicatessens"}, {"primary": false, "id": 1736, "name": "Sandwich Shops"}, {"primary": false, "id": 11247, "name": "Carry Out"}, {"primary": false, "id": 11311, "name": "Soups"}, {"primary": true, "id": 1722, "name": "Restaurants"}], "fax_number": null, "expansion": {"count": null, "uri": null}, "impression_id": "000b00000046c0f75dd54740318dfece5fa4f77d89", "profile": "http://www.citysearch.com/profile/45988791/marietta_ga/subway.html", "address": {"city": "Marietta", "state": "GA", "street": "6520 Ernest W Barrett Pkwy SW", "postal_code": "30064"}, "capProviderId": null, "distance": null, "has_offers": false, "name": "Subway", "longitude": -84.632278, "has_menu": true, "awards": null, "user_review_count": 0}, {"business_operation_status": 1, "rating": null, "neighborhood": null, "image": null, "scorecard": null, "featured": false, "sample_categories": "Restaurants", "public_id": "birrierias-tepechi-marietta", "id": 829992440, "votes": null, "tagline": null, "has_video": false, "website": null, "offers": null, "latitude": 33.925388, "politanName": "Atlanta, GA Metro ", "phone_number": "7704990470", "tags": [{"primary": true, "id": 1722, "name": "Restaurants"}], "fax_number": null, "expansion": {"count": null, "uri": null}, "impression_id": "000b000000c42ecef63ee84de294996c6f28f0b5d5", "profile": "http://www.citysearch.com/profile/829992440/marietta_ga/birrieria_s_tepechi.html", "address": {"city": "Marietta", "state": "GA", "street": "1135 Powder Springs St", "postal_code": "30064"}, "capProviderId": null, "distance": null, "has_offers": false, "name": "Birrieria's Tepechi", "longitude": -84.573222, "has_menu": false, "awards": null, "user_review_count": 0}, {"business_operation_status": 1, "rating": null, "neighborhood": null, "image": null, "scorecard": null, "featured": false, "sample_categories": "Barbecue Restaurants", "public_id": "apple-two-peach-barbecue-marietta", "id": 614162144, "votes": null, "tagline": null, "has_video": false, "website": null, "offers": null, "latitude": 33.936816, "politanName": "Atlanta, GA Metro ", "phone_number": "7706756411", "tags": [{"primary": true, "id": 1724, "name": "Barbecue Restaurants"}], "fax_number": null, "expansion": {"count": null, "uri": null}, "impression_id": "000b000000a298b2ea0c8641648328e5992b15707f", "profile": "http://www.citysearch.com/profile/614162144/marietta_ga/apple_two_peach_barbecue.html", "address": {"city": "Marietta", "state": "GA", "street": "680 Powder Springs St", "postal_code": "30064"}, "capProviderId": null, "distance": null, "has_offers": false, "name": "Apple Two Peach Barbecue", "longitude": -84.557309, "has_menu": false, "awards": null, "user_review_count": 0}, {"business_operation_status": 1, "rating": null, "neighborhood": null, "image": null, "scorecard": null, "featured": false, "sample_categories": "Restaurants", "public_id": "hot-skillet-marietta", "id": 798833310, "votes": null, "tagline": null, "has_video": false, "website": null, "offers": null, "latitude": 33.883313, "politanName": "Atlanta, GA Metro ", "phone_number": "4043746897", "tags": [{"primary": true, "id": 1722, "name": "Restaurants"}], "fax_number": null, "expansion": {"count": null, "uri": null}, "impression_id": "000b000000f03074aec519403dba3a09e2d6c9d384", "profile": "http://www.citysearch.com/profile/798833310/marietta_ga/hot_skillet.html", "address": {"city": "Marietta", "state": "GA", "street": "2200 Powder Springs Rd Sw", "postal_code": "30064"}, "capProviderId": null, "distance": null, "has_offers": false, "name": "Hot Skillet", "longitude": -84.620092, "has_menu": false, "awards": null, "user_review_count": 0}, {"business_operation_status": 1, "rating": null, "neighborhood": null, "image": null, "scorecard": null, "featured": false, "sample_categories": "Restaurants, Carry Out", "public_id": "atlanta-bread-co-marietta-4", "id": 825753830, "votes": null, "tagline": null, "has_video": false, "website": null, "offers": null, "latitude": 33.948083, "politanName": "Atlanta, GA Metro ", "phone_number": "7704250442", "tags": [{"primary": false, "id": 11247, "name": "Carry Out"}, {"primary": true, "id": 1722, "name": "Restaurants"}], "fax_number": null, "expansion": {"count": null, "uri": null}, "impression_id": "000b000000c8e70fdbf95d47ee85814fa62ec2bc52", "profile": "http://www.citysearch.com/profile/825753830/marietta_ga/atlanta_bread_co.html", "address": {"city": "Marietta", "state": "GA", "street": "245 Rdgeway Rd NW Ste 200", "postal_code": "30064"}, "capProviderId": null, "distance": null, "has_offers": false, "name": "Atlanta Bread Co", "longitude": -84.626672, "has_menu": false, "awards": null, "user_review_count": 0}, {"business_operation_status": 1, "rating": null, "neighborhood": null, "image": null, "scorecard": null, "featured": false, "sample_categories": "Restaurants, Frozen Yogurt Shops, Yogurt Manufacturers", "public_id": "yogli-mogli-marietta-2", "id": 673019480, "votes": null, "tagline": null, "has_video": false, "website": null, "offers": null, "latitude": 33.955116, "politanName": "Atlanta, GA Metro ", "phone_number": "7704997009", "tags": [{"primary": false, "id": 1722, "name": "Restaurants"}, {"primary": false, "id": 1729, "name": "Frozen Yogurt Shops"}, {"primary": false, "id": 2342, "name": "Yogurt Manufacturers"}], "fax_number": null, "expansion": {"count": null, "uri": null}, "impression_id": "000b00000027da99b7febd48748938810f3209aa08", "profile": "http://www.citysearch.com/profile/673019480/marietta_ga/yogli_mogli.html", "address": {"city": "Marietta", "state": "GA", "street": "3600 Dallas Highway", "postal_code": "30064"}, "capProviderId": null, "distance": null, "has_offers": false, "name": "Yogli Mogli", "longitude": -84.656027, "has_menu": false, "awards": null, "user_review_count": 0}, {"business_operation_status": 1, "rating": null, "neighborhood": null, "image": null, "scorecard": null, "featured": false, "sample_categories": "Restaurants, Delis And Delicatessens, Sandwich Shops, Carry Out", "public_id": "blimpie-xpress-marietta", "id": 713310460, "votes": null, "tagline": null, "has_video": false, "website": "http://www.citysearch.com/profile/external/713310460/marietta_ga/blimpie_xpress.html", "offers": null, "latitude": 33.967672, "politanName": "Atlanta, GA Metro ", "phone_number": "7709171550", "tags": [{"primary": false, "id": 1727, "name": "Delis And Delicatessens"}, {"primary": false, "id": 1736, "name": "Sandwich Shops"}, {"primary": false, "id": 11247, "name": "Carry Out"}, {"primary": true, "id": 1722, "name": "Restaurants"}], "fax_number": null, "expansion": {"count": null, "uri": null}, "impression_id": "000b00000022836dd92ab54a66bc8992f431635244", "profile": "http://www.citysearch.com/profile/713310460/marietta_ga/blimpie_xpress.html", "address": {"city": "Marietta", "state": "GA", "street": "3960 Mary Eliza Trce NW", "postal_code": "30064"}, "capProviderId": null, "distance": null, "has_offers": false, "name": "Blimpie Xpress", "longitude": -84.667328, "has_menu": false, "awards": null, "user_review_count": 0}, {"business_operation_status": 1, "rating": null, "neighborhood": null, "image": null, "scorecard": null, "featured": false, "sample_categories": "Ice Cream Parlors, Restaurants, Dessert Shops", "public_id": "dairylicious-treats-marietta", "id": 43855993, "votes": null, "tagline": null, "has_video": false, "website": null, "offers": null, "latitude": 33.947264, "politanName": "Atlanta, GA Metro ", "phone_number": "7702185744", "tags": [{"primary": false, "id": 1722, "name": "Restaurants"}, {"primary": false, "id": 1728, "name": "Dessert Shops"}, {"primary": true, "id": 1730, "name": "Ice Cream Parlors"}], "fax_number": null, "expansion": {"count": null, "uri": null}, "impression_id": "000b0000002865e4b8262a4c6fbcffb6e8438e528c", "profile": "http://www.citysearch.com/profile/43855993/marietta_ga/dairylicious_treats.html", "address": {"city": "Marietta", "state": "GA", "street": "270 Martin Ridge Dr SW", "postal_code": "30064"}, "capProviderId": null, "distance": null, "has_offers": false, "name": "Dairylicious Treats", "longitude": -84.617328, "has_menu": false, "awards": null, "user_review_count": 0}, {"business_operation_status": 1, "rating": null, "neighborhood": null, "image": null, "scorecard": null, "featured": false, "sample_categories": "Restaurants, Japanese", "public_id": "musashi-japanese-house-marietta", "id": 732179590, "votes": null, "tagline": null, "has_video": false, "website": null, "offers": null, "latitude": 33.908085, "politanName": "Atlanta, GA Metro ", "phone_number": "7702185691", "tags": [{"primary": false, "id": 11202, "name": "Japanese"}, {"primary": true, "id": 1722, "name": "Restaurants"}], "fax_number": null, "expansion": {"count": null, "uri": null}, "impression_id": "000b000000bbf9971bb9f2441b8d78ffb2b5f0d4c8", "profile": "http://www.citysearch.com/profile/732179590/marietta_ga/musashi_japanese_house.html", "address": {"city": "Marietta", "state": "GA", "street": "1690 Powder Springs Rd SW", "postal_code": "30064"}, "capProviderId": null, "distance": null, "has_offers": false, "name": "Musashi Japanese House", "longitude": -84.602757, "has_menu": false, "awards": null, "user_review_count": 0}, {"business_operation_status": 1, "rating": null, "neighborhood": null, "image": null, "scorecard": null, "featured": false, "sample_categories": "Restaurants", "public_id": "cajun-johns-marietta", "id": 672215460, "votes": null, "tagline": null, "has_video": false, "website": null, "offers": null, "latitude": 33.937014, "politanName": "Atlanta, GA Metro ", "phone_number": null, "tags": [{"primary": true, "id": 1722, "name": "Restaurants"}], "fax_number": null, "expansion": {"count": null, "uri": null}, "impression_id": "000b000000ff938eccd99249f6870d78d0b40559e6", "profile": "http://www.citysearch.com/profile/672215460/marietta_ga/cajun_john_s.html", "address": {"city": "Marietta", "state": "GA", "street": "1123 Powder Springs St. SE", "postal_code": "30064"}, "capProviderId": null, "distance": null, "has_offers": false, "name": "Cajun John's", "longitude": -84.554706, "has_menu": false, "awards": null, "user_review_count": 0}], "histograms": [], "tag_ids": [1722], "uri": "http://api.citygridmedia.com:8080/search/places/v2/search/where?has_offers=false&type=restaurant&format=json&page=3&where=30064&rpp=50&histograms=false&publisher=10000009598&region_type=circle", "did_you_mean": "", "regions": [{"latitude": 33.938860999999996, "default_radius": 5.31, "type": "postal_code", "name": "30064", "longitude": -84.614086}], "call_id": "000b000000bbb8281b64fe40e7b1a67f17ce263c0b", "first_hit": 101, "total_hits": 1588, "geo_ids": [26293], "page": 3, "last_hit": 150}}