{"results": {"rpp": 50, "locations": [{"business_operation_status": 1, "rating": null, "neighborhood": null, "image": null, "scorecard": null, "featured": false, "sample_categories": "Restaurants, Steakhouse", "public_id": "steaks-to-go-marietta", "id": 728138380, "votes": null, "tagline": null, "has_video": false, "website": null, "offers": null, "latitude": 33.917352, "politanName": "Atlanta, GA Metro ", "phone_number": "7706128888", "tags": [{"primary": false, "id": 11316, "name": "Steakhouse"}, {"primary": true, "id": 1722, "name": "Restaurants"}], "fax_number": null, "expansion": {"count": null, "uri": null}, "impression_id": "000b000000124a887bab7d448385d22ba8f53c6c80", "profile": "http://www.citysearch.com/profile/728138380/marietta_ga/steaks_to_go.html", "address": {"city": "Marietta", "state": "GA", "street": "1480 Terrell Mill Rd Se", "postal_code": "30067"}, "capProviderId": null, "distance": null, "has_offers": false, "name": "Steaks To Go", "longitude": -84.468836, "has_menu": false, "awards": null, "user_review_count": 0}, {"business_operation_status": 1, "rating": null, "neighborhood": null, "image": null, "scorecard": null, "featured": false, "sample_categories": "Restaurants", "public_id": "rancho-el-molcajete-mableton", "id": 728113990, "votes": null, "tagline": null, "has_video": false, "website": null, "offers": null, "latitude": 33.816965, "politanName": "Atlanta, GA Metro ", "phone_number": "7708966031", "tags": [{"primary": true, "id": 1722, "name": "Restaurants"}], "fax_number": null, "expansion": {"count": null, "uri": null}, "impression_id": "000b000000bcda583b3e684bdc9fc8a830de95156d", "profile": "http://www.citysearch.com/profile/728113990/mableton_ga/rancho_el_molcajete.html", "address": {"city": "Mableton", "state": "GA", "street": "499 Veterans Memorial Hwy Sw", "postal_code": "30126"}, "capProviderId": null, "distance": null, "has_offers": false, "name": "Rancho El Molcajete", "longitude": -84.568558, "has_menu": false, "awards": null, "user_review_count": 0}, {"business_operation_status": 1, "rating": null, "neighborhood": null, "image": null, "scorecard": null, "featured": false, "sample_categories": "Restaurants", "public_id": "tropical-eats-mableton", "id": 787139770, "votes": null, "tagline": null, "has_video": false, "website": null, "offers": null, "latitude": 33.815312, "politanName": "Atlanta, GA Metro ", "phone_number": "7709480044", "tags": [{"primary": true, "id": 1722, "name": "Restaurants"}], "fax_number": null, "expansion": {"count": null, "uri": null}, "impression_id": "000b000000c307d79c25cd4171bbf1f8c8fbd59698", "profile": "http://www.citysearch.com/profile/787139770/mableton_ga/tropical_eats.html", "address": {"city": "Mableton", "state": "GA", "street": "302 Veterans Memorial Hwy Sw", "postal_code": "30126"}, "capProviderId": null, "distance": null, "has_offers": false, "name": "Tropical Eats", "longitude": -84.561339, "has_menu": false, "awards": null, "user_review_count": 0}, {"business_operation_status": 1, "rating": null, "neighborhood": null, "image": null, "scorecard": null, "featured": false, "sample_categories": "Restaurants, Pizza, Carry Out", "public_id": "sorrentnos-ristorante-pizzeria-kennesaw", "id": 790617540, "votes": null, "tagline": null, "has_video": false, "website": null, "offers": null, "latitude": 34.023434, "politanName": "Atlanta, GA Metro ", "phone_number": "7707950096", "tags": [{"primary": false, "id": 1722, "name": "Restaurants"}, {"primary": false, "id": 11247, "name": "Carry Out"}, {"primary": true, "id": 11299, "name": "Pizza"}], "fax_number": null, "expansion": {"count": null, "uri": null}, "impression_id": "000b0000006c04a0336daf4ac891ffd45044fc7419", "profile": "http://www.citysearch.com/profile/790617540/kennesaw_ga/sorrentnos_ristorante_pizzeria.html", "address": {"city": "Kennesaw", "state": "GA", "street": "800 Ern W Brt Pkwy NW 3", "postal_code": "30144"}, "capProviderId": null, "distance": null, "has_offers": false, "name": "Sorrentnos Ristorante Pizzeria", "longitude": -84.61549, "has_menu": false, "awards": null, "user_review_count": 0}, {"business_operation_status": 1, "rating": null, "neighborhood": null, "image": null, "scorecard": null, "featured": false, "sample_categories": "Restaurants", "public_id": "sun-dried-restaurant-marietta", "id": 790803840, "votes": null, "tagline": null, "has_video": false, "website": null, "offers": null, "latitude": 34.015118, "politanName": "Atlanta, GA Metro ", "phone_number": "6785406642", "tags": [{"primary": true, "id": 1722, "name": "Restaurants"}], "fax_number": null, "expansion": {"count": null, "uri": null}, "impression_id": "000b00000072056610144544468ad9ddc182e0285a", "profile": "http://www.citysearch.com/profile/790803840/marietta_ga/sun_dried_restaurant.html", "address": {"city": "Marietta", "state": "GA", "street": "2635 Sandy Plains Rd", "postal_code": "30066"}, "capProviderId": null, "distance": null, "has_offers": false, "name": "Sun Dried Restaurant", "longitude": -84.495187, "has_menu": true, "awards": null, "user_review_count": 0}, {"business_operation_status": 1, "rating": null, "neighborhood": null, "image": null, "scorecard": null, "featured": false, "sample_categories": "Restaurants, Pizza, Carry Out", "public_id": "little-caesars-pizza-marietta-6", "id": 653553400, "votes": null, "tagline": null, "has_video": false, "website": "http://www.citysearch.com/profile/external/653553400/marietta_ga/little_caesars_pizza.html", "offers": null, "latitude": 33.923677, "politanName": "Atlanta, GA Metro ", "phone_number": "7709849400", "tags": [{"primary": false, "id": 1722, "name": "Restaurants"}, {"primary": false, "id": 11247, "name": "Carry Out"}, {"primary": true, "id": 11299, "name": "Pizza"}], "fax_number": null, "expansion": {"count": null, "uri": null}, "impression_id": "000b0000002f2f1d82cbcb4a2aaa4523df7e2fbe6b", "profile": "http://www.citysearch.com/profile/653553400/marietta_ga/little_caesars_pizza.html", "address": {"city": "Marietta", "state": "GA", "street": "2856 Delk Rd Se", "postal_code": "30067"}, "capProviderId": null, "distance": null, "has_offers": false, "name": "Little Caesars Pizza", "longitude": -84.471351, "has_menu": true, "awards": null, "user_review_count": 0}, {"business_operation_status": 1, "rating": null, "neighborhood": null, "image": null, "scorecard": null, "featured": false, "sample_categories": "Restaurants, Steakhouse", "public_id": "skips-steaks-marietta", "id": 743983550, "votes": null, "tagline": null, "has_video": false, "website": null, "offers": null, "latitude": 33.928458, "politanName": "Atlanta, GA Metro ", "phone_number": "7702269046", "tags": [{"primary": false, "id": 11316, "name": "Steakhouse"}, {"primary": true, "id": 1722, "name": "Restaurants"}], "fax_number": null, "expansion": {"count": null, "uri": null}, "impression_id": "000b00000091c48df08aad484cbdd5ec9cfb402dfe", "profile": "http://www.citysearch.com/profile/743983550/marietta_ga/skip_s_steaks.html", "address": {"city": "Marietta", "state": "GA", "street": "1033 Franklin Rd Se", "postal_code": "30067"}, "capProviderId": null, "distance": null, "has_offers": false, "name": "Skip's Steaks", "longitude": -84.492995, "has_menu": false, "awards": null, "user_review_count": 0}, {"business_operation_status": 0, "rating": null, "neighborhood": null, "image": null, "scorecard": null, "featured": false, "sample_categories": "Restaurants", "public_id": "sweet-pea-cafe-deli-marietta", "id": 655825170, "votes": null, "tagline": null, "has_video": false, "website": null, "offers": null, "latitude": 33.951248, "politanName": "Atlanta, GA Metro ", "phone_number": "7709777167", "tags": [{"primary": true, "id": 1722, "name": "Restaurants"}], "fax_number": null, "expansion": {"count": null, "uri": null}, "impression_id": "000b000000f27a30c5a5b9450591566b5f66844aa8", "profile": "http://www.citysearch.com/profile/655825170/marietta_ga/sweet_pea_cafe_deli.html", "address": {"city": "Marietta", "state": "GA", "street": "1516 Roswell Rd", "postal_code": "30062"}, "capProviderId": null, "distance": null, "has_offers": false, "name": "Sweet Pea Cafe & Deli", "longitude": -84.508172, "has_menu": true, "awards": null, "user_review_count": 0}, {"business_operation_status": 1, "rating": null, "neighborhood": null, "image": null, "scorecard": null, "featured": false, "sample_categories": "Restaurants, Caribbean", "public_id": "tassa-authentic-caribbean-marietta", "id": 655828500, "votes": null, "tagline": null, "has_video": false, "website": null, "offers": null, "latitude": 33.947468, "politanName": "Atlanta, GA Metro ", "phone_number": "7705781480", "tags": [{"primary": false, "id": 11195, "name": "Caribbean"}, {"primary": true, "id": 1722, "name": "Restaurants"}], "fax_number": null, "expansion": {"count": null, "uri": null}, "impression_id": "000b000000f68e46d6c84c42ad92410547bd8b8565", "profile": "http://www.citysearch.com/profile/655828500/marietta_ga/tassa_authentic_caribbean.html", "address": {"city": "Marietta", "state": "GA", "street": "224 Powers Ferry Rd Se", "postal_code": "30067"}, "capProviderId": null, "distance": null, "has_offers": false, "name": "Tassa Authentic Caribbean", "longitude": -84.500926, "has_menu": false, "awards": null, "user_review_count": 0}, {"business_operation_status": 1, "rating": null, "neighborhood": null, "image": null, "scorecard": null, "featured": false, "sample_categories": "Soda Fountain Shops", "public_id": "soda-stream-marietta", "id": 655833090, "votes": null, "tagline": null, "has_video": false, "website": null, "offers": null, "latitude": 33.916607, "politanName": "Atlanta, GA Metro ", "phone_number": "7709521637", "tags": [{"primary": true, "id": 1731, "name": "Soda Fountain Shops"}], "fax_number": null, "expansion": {"count": null, "uri": null}, "impression_id": "000b0000001309a0156eae4684a29b4c74c5f7d933", "profile": "http://www.citysearch.com/profile/655833090/marietta_ga/soda_stream.html", "address": {"city": "Marietta", "state": "GA", "street": "2051 Franklin Way Se", "postal_code": "30067"}, "capProviderId": null, "distance": null, "has_offers": false, "name": "Soda Stream", "longitude": -84.491622, "has_menu": false, "awards": null, "user_review_count": 0}, {"business_operation_status": 1, "rating": null, "neighborhood": null, "image": null, "scorecard": null, "featured": false, "sample_categories": "Restaurants", "public_id": "clay-oven-restaurant-marietta", "id": 754822000, "votes": null, "tagline": null, "has_video": false, "website": null, "offers": null, "latitude": 33.937014, "politanName": "Atlanta, GA Metro ", "phone_number": "6785811533", "tags": [{"primary": true, "id": 1722, "name": "Restaurants"}], "fax_number": null, "expansion": {"count": null, "uri": null}, "impression_id": "000b000000d78b6b460a4c4fb89509a00493296d94", "profile": "http://www.citysearch.com/profile/754822000/marietta_ga/clay_oven_restaurant.html", "address": {"city": "Marietta", "state": "GA", "street": "1115 Powder Springs St", "postal_code": "30064"}, "capProviderId": null, "distance": null, "has_offers": false, "name": "Clay Oven Restaurant", "longitude": -84.554706, "has_menu": false, "awards": null, "user_review_count": 0}, {"business_operation_status": 1, "rating": null, "neighborhood": null, "image": null, "scorecard": null, "featured": false, "sample_categories": "Restaurants, Pizza, Carry Out", "public_id": "pizza-hut-kennesaw-4", "id": 808398210, "votes": null, "tagline": null, "has_video": false, "website": null, "offers": null, "latitude": 34.014009, "politanName": "Atlanta, GA Metro ", "phone_number": "7704210752", "tags": [{"primary": false, "id": 1722, "name": "Restaurants"}, {"primary": false, "id": 11247, "name": "Carry Out"}, {"primary": true, "id": 11299, "name": "Pizza"}], "fax_number": null, "expansion": {"count": null, "uri": null}, "impression_id": "000b0000007382b1efc6434da78286110851e5f961", "profile": "http://www.citysearch.com/profile/808398210/kennesaw_ga/pizza_hut.html", "address": {"city": "Kennesaw", "state": "GA", "street": "400 Ernest W Barrett Pkwy NW", "postal_code": "30144"}, "capProviderId": null, "distance": null, "has_offers": false, "name": "Pizza Hut", "longitude": -84.561425, "has_menu": false, "awards": null, "user_review_count": 0}, {"business_operation_status": 1, "rating": null, "neighborhood": null, "image": null, "scorecard": null, "featured": false, "sample_categories": "Restaurants", "public_id": "los-dorados-grill-marietta", "id": 810451910, "votes": null, "tagline": null, "has_video": false, "website": null, "offers": null, "latitude": 33.980787, "politanName": "Atlanta, GA Metro ", "phone_number": "7705788013", "tags": [{"primary": true, "id": 1722, "name": "Restaurants"}], "fax_number": null, "expansion": {"count": null, "uri": null}, "impression_id": "000b000000d09ec801e19449c58e645f88e07fc2aa", "profile": "http://www.citysearch.com/profile/810451910/marietta_ga/los_dorados_grill.html", "address": {"city": "Marietta", "state": "GA", "street": "3101 Roswell Rd", "postal_code": "30062"}, "capProviderId": null, "distance": null, "has_offers": false, "name": "Los Dorados Grill", "longitude": -84.464028, "has_menu": false, "awards": null, "user_review_count": 0}, {"business_operation_status": 1, "rating": null, "neighborhood": null, "image": null, "scorecard": null, "featured": false, "sample_categories": "Restaurants, Traditional American, Carry Out", "public_id": "mr-philly-marietta", "id": 764893230, "votes": null, "tagline": null, "has_video": false, "website": null, "offers": null, "latitude": 33.953033, "politanName": "Atlanta, GA Metro ", "phone_number": "7705750615", "tags": [{"primary": false, "id": 11190, "name": "Traditional American"}, {"primary": false, "id": 11247, "name": "Carry Out"}, {"primary": true, "id": 1722, "name": "Restaurants"}], "fax_number": null, "expansion": {"count": null, "uri": null}, "impression_id": "000b0000004eb44ddafc6c4f1fa64cf0c73aa9d119", "profile": "http://www.citysearch.com/profile/764893230/marietta_ga/mr_philly.html", "address": {"city": "Marietta", "state": "GA", "street": "1000 Whitlock Ave NW # 110", "postal_code": "30064"}, "capProviderId": null, "distance": null, "has_offers": false, "name": "Mr Philly", "longitude": -84.581202, "has_menu": false, "awards": null, "user_review_count": 0}, {"business_operation_status": 1, "rating": null, "neighborhood": null, "image": null, "scorecard": null, "featured": false, "sample_categories": "Restaurants, Carry Out, Chicken", "public_id": "popeyes-chicken-biscuits-marietta-3", "id": 764903940, "votes": null, "tagline": null, "has_video": false, "website": null, "offers": null, "latitude": 33.922747, "politanName": "Atlanta, GA Metro ", "phone_number": "7707947031", "tags": [{"primary": false, "id": 11247, "name": "Carry Out"}, {"primary": false, "id": 12839, "name": "Chicken"}, {"primary": true, "id": 1722, "name": "Restaurants"}], "fax_number": null, "expansion": {"count": null, "uri": null}, "impression_id": "000b0000009be63b3810fe441d85e28e6f2318f1d3", "profile": "http://www.citysearch.com/profile/764903940/marietta_ga/popeye_s_chicken_biscuits.html", "address": {"city": "Marietta", "state": "GA", "street": "1444 Livingston Dr SW", "postal_code": "30064"}, "capProviderId": null, "distance": null, "has_offers": false, "name": "Popeye's Chicken & Biscuits", "longitude": -84.596038, "has_menu": false, "awards": null, "user_review_count": 0}, {"business_operation_status": 0, "rating": null, "neighborhood": null, "image": null, "scorecard": null, "featured": false, "sample_categories": "Restaurants, Delis And Delicatessens, Sandwich Shops, Carry Out", "public_id": "blimpie-subs-salads-atlanta-43", "id": 764834820, "votes": null, "tagline": null, "has_video": false, "website": null, "offers": null, "latitude": 33.878815, "politanName": "Atlanta, GA Metro ", "phone_number": "7709842707", "tags": [{"primary": false, "id": 1727, "name": "Delis And Delicatessens"}, {"primary": false, "id": 1736, "name": "Sandwich Shops"}, {"primary": false, "id": 11247, "name": "Carry Out"}, {"primary": true, "id": 1722, "name": "Restaurants"}], "fax_number": null, "expansion": {"count": null, "uri": null}, "impression_id": "000b000000bb73c430a063419b9c0dfee5a3298d8d", "profile": "http://www.citysearch.com/profile/764834820/atlanta_ga/blimpie_subs_salads.html", "address": {"city": "Atlanta", "state": "GA", "street": "180 Interst N Cir SE # 500", "postal_code": "30339"}, "capProviderId": null, "distance": null, "has_offers": false, "name": "Blimpie Subs & Salads", "longitude": -84.464518, "has_menu": false, "awards": null, "user_review_count": 0}, {"business_operation_status": 0, "rating": null, "neighborhood": null, "image": null, "scorecard": null, "featured": false, "sample_categories": "Restaurants, Pizza", "public_id": "brooklyn-pizza-department-austell", "id": 764860920, "votes": null, "tagline": null, "has_video": false, "website": null, "offers": null, "latitude": 33.860912, "politanName": "Atlanta, GA Metro ", "phone_number": "6783840980", "tags": [{"primary": false, "id": 11299, "name": "Pizza"}, {"primary": true, "id": 1722, "name": "Restaurants"}], "fax_number": null, "expansion": {"count": null, "uri": null}, "impression_id": "000b0000000b7dc8430161407abcc032bc84e9848b", "profile": "http://www.citysearch.com/profile/764860920/austell_ga/brooklyn_pizza_department.html", "address": {"city": "Austell", "state": "GA", "street": "2495 E West Connector", "postal_code": "30106"}, "capProviderId": null, "distance": null, "has_offers": false, "name": "Brooklyn Pizza Department", "longitude": -84.620637, "has_menu": false, "awards": null, "user_review_count": 2}, {"business_operation_status": 0, "rating": null, "neighborhood": null, "image": null, "scorecard": null, "featured": false, "sample_categories": "Restaurants, Carry Out", "public_id": "ocharleys-marietta-2", "id": 764861370, "votes": null, "tagline": null, "has_video": false, "website": null, "offers": null, "latitude": 34.009709, "politanName": "Atlanta, GA Metro ", "phone_number": "7705098868", "tags": [{"primary": false, "id": 11247, "name": "Carry Out"}, {"primary": true, "id": 1722, "name": "Restaurants"}], "fax_number": null, "expansion": {"count": null, "uri": null}, "impression_id": "000b000000ac959f0e52c14549b278d09ea74e2082", "profile": "http://www.citysearch.com/profile/764861370/marietta_ga/o_charley_s.html", "address": {"city": "Marietta", "state": "GA", "street": "2440 Sandy Plains Rd", "postal_code": "30066"}, "capProviderId": null, "distance": null, "has_offers": false, "name": "O'Charley's", "longitude": -84.496627, "has_menu": false, "awards": null, "user_review_count": 0}, {"business_operation_status": 1, "rating": null, "neighborhood": null, "image": null, "scorecard": null, "featured": false, "sample_categories": "Restaurants", "public_id": "beale-street-pub-marietta", "id": 811604540, "votes": null, "tagline": null, "has_video": false, "website": null, "offers": null, "latitude": 33.938176, "politanName": "Atlanta, GA Metro ", "phone_number": "7704266307", "tags": [{"primary": true, "id": 1722, "name": "Restaurants"}], "fax_number": null, "expansion": {"count": null, "uri": null}, "impression_id": "000b0000007e3fcd3811b94677a249e27665f18321", "profile": "http://www.citysearch.com/profile/811604540/marietta_ga/beale_street_pub.html", "address": {"city": "Marietta", "state": "GA", "street": "11 Garrison Rd SE", "postal_code": "30008"}, "capProviderId": null, "distance": null, "has_offers": false, "name": "Beale Street Pub", "longitude": -84.553301, "has_menu": false, "awards": null, "user_review_count": 0}, {"business_operation_status": 1, "rating": null, "neighborhood": null, "image": null, "scorecard": null, "featured": false, "sample_categories": "Restaurants", "public_id": "gato-bizco-cafe-inc-smyrna", "id": 813337660, "votes": null, "tagline": null, "has_video": false, "website": null, "offers": null, "latitude": 33.882251, "politanName": "Atlanta, GA Metro ", "phone_number": "7703333300", "tags": [{"primary": true, "id": 1722, "name": "Restaurants"}], "fax_number": null, "expansion": {"count": null, "uri": null}, "impression_id": "000b000000b6b6fff8c7bf4442be5c7ce859f94756", "profile": "http://www.citysearch.com/profile/813337660/smyrna_ga/gato_bizco_cafe_inc.html", "address": {"city": "Smyrna", "state": "GA", "street": "801 Country Park Dr SE", "postal_code": "30080"}, "capProviderId": null, "distance": null, "has_offers": false, "name": "Gato Bizco Cafe Inc", "longitude": -84.489138, "has_menu": false, "awards": null, "user_review_count": 0}, {"business_operation_status": 1, "rating": null, "neighborhood": null, "image": null, "scorecard": null, "featured": false, "sample_categories": "Delis And Delicatessens", "public_id": "kroger-deli-marietta-6", "id": 699835210, "votes": null, "tagline": null, "has_video": false, "website": "http://www.citysearch.com/profile/external/699835210/marietta_ga/kroger_deli.html", "offers": null, "latitude": 33.923629, "politanName": "Atlanta, GA Metro ", "phone_number": "7709551692", "tags": [{"primary": true, "id": 1727, "name": "Delis And Delicatessens"}], "fax_number": null, "expansion": {"count": null, "uri": null}, "impression_id": "000b000000953e791b0c564ad2ad83f96ef7bf7cf3", "profile": "http://www.citysearch.com/profile/699835210/marietta_ga/kroger_deli.html", "address": {"city": "Marietta", "state": "GA", "street": "1122 Powers Ferry Rd Se", "postal_code": "30067"}, "capProviderId": null, "distance": null, "has_offers": false, "name": "Kroger Deli", "longitude": -84.468586, "has_menu": false, "awards": null, "user_review_count": 0}, {"business_operation_status": 1, "rating": null, "neighborhood": null, "image": null, "scorecard": null, "featured": false, "sample_categories": "Restaurants, Pizza", "public_id": "salerno-pizza-kennesaw", "id": 790725350, "votes": null, "tagline": null, "has_video": false, "website": null, "offers": null, "latitude": 34.009664, "politanName": "Atlanta, GA Metro ", "phone_number": "7704997600", "tags": [{"primary": false, "id": 1722, "name": "Restaurants"}, {"primary": true, "id": 11299, "name": "Pizza"}], "fax_number": null, "expansion": {"count": null, "uri": null}, "impression_id": "000b0000000e0a3edd44844e13961fa6b5c1d28bcb", "profile": "http://www.citysearch.com/profile/790725350/kennesaw_ga/salerno_pizza.html", "address": {"city": "Kennesaw", "state": "GA", "street": "950 Cobb Place Blvd NW", "postal_code": "30144"}, "capProviderId": null, "distance": null, "has_offers": false, "name": "Salerno Pizza", "longitude": -84.582459, "has_menu": false, "awards": null, "user_review_count": 0}, {"business_operation_status": 1, "rating": null, "neighborhood": null, "image": null, "scorecard": null, "featured": false, "sample_categories": "Restaurants, Barbecue Restaurants", "public_id": "boyds-bar-be-que-smyrna", "id": 793283860, "votes": null, "tagline": null, "has_video": false, "website": null, "offers": null, "latitude": 33.890044, "politanName": "Atlanta, GA Metro ", "phone_number": "6783099726", "tags": [{"primary": false, "id": 1724, "name": "Barbecue Restaurants"}, {"primary": true, "id": 1722, "name": "Restaurants"}], "fax_number": null, "expansion": {"count": null, "uri": null}, "impression_id": "000b00000006f79507109b405491b37fc8ae1bfbe7", "profile": "http://www.citysearch.com/profile/793283860/smyrna_ga/boyd_s_bar_be_que.html", "address": {"city": "Smyrna", "state": "GA", "street": "2599 S Cobb Dr Se", "postal_code": "30080"}, "capProviderId": null, "distance": null, "has_offers": false, "name": "Boyd's Bar Be Que", "longitude": -84.536832, "has_menu": false, "awards": null, "user_review_count": 0}, {"business_operation_status": 1, "rating": null, "neighborhood": null, "image": null, "scorecard": null, "featured": false, "sample_categories": "Coffeehouses, Coffee & Tea Shops", "public_id": "starbucks-smyrna-5", "id": 713648460, "votes": null, "tagline": null, "has_video": false, "website": "http://www.citysearch.com/profile/external/713648460/smyrna_ga/starbucks.html", "offers": null, "latitude": 33.889232, "politanName": "Atlanta, GA Metro ", "phone_number": "7709550337", "tags": [{"primary": false, "id": 1711, "name": "Coffee & Tea Shops"}, {"primary": true, "id": 1726, "name": "Coffeehouses"}], "fax_number": null, "expansion": {"count": null, "uri": null}, "impression_id": "000b0000002d6fd2080fbe4a8eaf6168451cc5c2b3", "profile": "http://www.citysearch.com/profile/713648460/smyrna_ga/starbucks.html", "address": {"city": "Smyrna", "state": "GA", "street": "2600 Cobb Pkwy Se", "postal_code": "30080"}, "capProviderId": null, "distance": null, "has_offers": false, "name": "Starbucks", "longitude": -84.474858, "has_menu": false, "awards": null, "user_review_count": 0}, {"business_operation_status": 0, "rating": 9.0, "neighborhood": null, "image": null, "scorecard": null, "featured": false, "sample_categories": "Restaurants", "public_id": "great-american-soup-company-smyrna", "id": 2922976, "votes": null, "tagline": null, "has_video": false, "website": null, "offers": null, "latitude": 33.838436, "politanName": "Atlanta, GA Metro ", "phone_number": "4047927687", "tags": [{"primary": true, "id": 1722, "name": "Restaurants"}], "fax_number": null, "expansion": {"count": null, "uri": null}, "impression_id": "000b000000e6754a15f23244e1a0d117c44e6164f1", "profile": "http://www.citysearch.com/profile/2922976/smyrna_ga/great_american_soup_company.html", "address": {"city": "Smyrna", "state": "GA", "street": "4686 S Atlanta Rd SE", "postal_code": "30080"}, "capProviderId": null, "distance": null, "has_offers": false, "name": "Great American Soup Company", "longitude": -84.482318, "has_menu": false, "awards": null, "user_review_count": 0}, {"business_operation_status": 1, "rating": 10.0, "neighborhood": null, "image": null, "scorecard": null, "featured": false, "sample_categories": "Restaurants, Food Delivery, Traditional American, Carry Out", "public_id": "jolly-joes-cafe-mableton", "id": 2949724, "votes": null, "tagline": null, "has_video": false, "website": null, "offers": null, "latitude": 33.81733, "politanName": "Atlanta, GA Metro ", "phone_number": "7709410484", "tags": [{"primary": false, "id": 1722, "name": "Restaurants"}, {"primary": false, "id": 11190, "name": "Traditional American"}, {"primary": false, "id": 11247, "name": "Carry Out"}, {"primary": true, "id": 11267, "name": "Food Delivery"}], "fax_number": null, "expansion": {"count": null, "uri": null}, "impression_id": "000b00000020dd79b3afd14e5ea365bc55464f5a6c", "profile": "http://www.citysearch.com/profile/2949724/mableton_ga/jolly_joes_cafe.html", "address": {"city": "Mableton", "state": "GA", "street": "1153 Veterans Memorial Hwy SW", "postal_code": "30126"}, "capProviderId": null, "distance": null, "has_offers": false, "name": "Jolly Joes Cafe", "longitude": -84.588134, "has_menu": false, "awards": null, "user_review_count": 2}, {"business_operation_status": 1, "rating": null, "neighborhood": null, "image": null, "scorecard": null, "featured": false, "sample_categories": "Restaurants", "public_id": "hooters-of-winston-salem-inc-atlanta", "id": 766753440, "votes": null, "tagline": null, "has_video": false, "website": null, "offers": null, "latitude": 33.908131, "politanName": "Atlanta, GA Metro ", "phone_number": "7709512040", "tags": [{"primary": true, "id": 1722, "name": "Restaurants"}], "fax_number": null, "expansion": {"count": null, "uri": null}, "impression_id": "000b000000b75ae39da36c43219e994baebd0e8c39", "profile": "http://www.citysearch.com/profile/766753440/atlanta_ga/hooters_of_winston_salem_inc.html", "address": {"city": "Atlanta", "state": "GA", "street": "1815 the Exchange SE", "postal_code": "30339"}, "capProviderId": null, "distance": null, "has_offers": false, "name": "Hooters of Winston Salem Inc", "longitude": -84.479005, "has_menu": false, "awards": null, "user_review_count": 0}, {"business_operation_status": 1, "rating": null, "neighborhood": null, "image": null, "scorecard": null, "featured": false, "sample_categories": "Restaurants", "public_id": "cafe-ventures-inc-marietta", "id": 766783500, "votes": null, "tagline": null, "has_video": false, "website": null, "offers": null, "latitude": 33.939834, "politanName": "Atlanta, GA Metro ", "phone_number": "7704230045", "tags": [{"primary": true, "id": 1722, "name": "Restaurants"}], "fax_number": null, "expansion": {"count": null, "uri": null}, "impression_id": "000b000000a6a7ed86346241e39c173164e6448dea", "profile": "http://www.citysearch.com/profile/766783500/marietta_ga/cafe_ventures_inc.html", "address": {"city": "Marietta", "state": "GA", "street": "490 Franklin Rd SE", "postal_code": "30067"}, "capProviderId": null, "distance": null, "has_offers": false, "name": "Cafe Ventures Inc", "longitude": -84.50842, "has_menu": false, "awards": null, "user_review_count": 0}, {"business_operation_status": 1, "rating": null, "neighborhood": null, "image": null, "scorecard": null, "featured": false, "sample_categories": "Restaurants, Mexican, Carry Out", "public_id": "del-taco-kennesaw", "id": 754767850, "votes": null, "tagline": null, "has_video": false, "website": "http://www.citysearch.com/profile/external/754767850/kennesaw_ga/del_taco.html", "offers": null, "latitude": 34.035364, "politanName": "Atlanta, GA Metro ", "phone_number": "7707925980", "tags": [{"primary": false, "id": 11208, "name": "Mexican"}, {"primary": false, "id": 11247, "name": "Carry Out"}, {"primary": true, "id": 1722, "name": "Restaurants"}], "fax_number": null, "expansion": {"count": null, "uri": null}, "impression_id": "000b0000003b9f7ddac20c4045a0b87fef3ce77fb4", "profile": "http://www.citysearch.com/profile/754767850/kennesaw_ga/del_taco.html", "address": {"city": "Kennesaw", "state": "GA", "street": "745 Chastain Rd NW", "postal_code": "30144"}, "capProviderId": null, "distance": null, "has_offers": false, "name": "Del Taco", "longitude": -84.570141, "has_menu": false, "awards": null, "user_review_count": 0}, {"business_operation_status": 1, "rating": null, "neighborhood": null, "image": null, "scorecard": null, "featured": false, "sample_categories": "Restaurants, Bars & Clubs, Bars & Pubs", "public_id": "boomers-bar-grill-smyrna", "id": 764862000, "votes": null, "tagline": null, "has_video": false, "website": null, "offers": null, "latitude": 33.899075, "politanName": "Atlanta, GA Metro ", "phone_number": "7709569555", "tags": [{"primary": false, "id": 164, "name": "Bars & Clubs"}, {"primary": false, "id": 1686, "name": "Bars & Pubs"}, {"primary": true, "id": 1722, "name": "Restaurants"}], "fax_number": null, "expansion": {"count": null, "uri": null}, "impression_id": "000b000000c8cd3966350844dabb23c0d0f91442ed", "profile": "http://www.citysearch.com/profile/764862000/smyrna_ga/boomer_s_bar_grill.html", "address": {"city": "Smyrna", "state": "GA", "street": "2105 S Cobb Dr SE", "postal_code": "30080"}, "capProviderId": null, "distance": null, "has_offers": false, "name": "Boomer's Bar & Grill", "longitude": -84.54028, "has_menu": false, "awards": null, "user_review_count": 0}, {"business_operation_status": 1, "rating": null, "neighborhood": null, "image": null, "scorecard": null, "featured": false, "sample_categories": "Restaurants, Japanese", "public_id": "tokyo-japanese-steak-house-marietta", "id": 713533440, "votes": null, "tagline": null, "has_video": false, "website": null, "offers": null, "latitude": 34.045761, "politanName": "Atlanta, GA Metro ", "phone_number": "7709289386", "tags": [{"primary": false, "id": 11202, "name": "Japanese"}, {"primary": true, "id": 1722, "name": "Restaurants"}], "fax_number": null, "expansion": {"count": null, "uri": null}, "impression_id": "000b00000042c6884429f14514bef1500c20ec41b8", "profile": "http://www.citysearch.com/profile/713533440/marietta_ga/tokyo_japanese_steak_house.html", "address": {"city": "Marietta", "state": "GA", "street": "3930 Canton Rd", "postal_code": "30066"}, "capProviderId": null, "distance": null, "has_offers": false, "name": "Tokyo Japanese Steak House", "longitude": -84.529506, "has_menu": true, "awards": null, "user_review_count": 0}, {"business_operation_status": 0, "rating": null, "neighborhood": null, "image": null, "scorecard": null, "featured": false, "sample_categories": "Restaurants, Delis And Delicatessens", "public_id": "cajuns-cookin-po-boys-marietta", "id": 787117810, "votes": null, "tagline": null, "has_video": false, "website": null, "offers": null, "latitude": 33.991982, "politanName": "Atlanta, GA Metro ", "phone_number": "6783326262", "tags": [{"primary": false, "id": 1727, "name": "Delis And Delicatessens"}, {"primary": true, "id": 1722, "name": "Restaurants"}], "fax_number": null, "expansion": {"count": null, "uri": null}, "impression_id": "000b00000055e5ddfaf2364dafba40cc2d84439db4", "profile": "http://www.citysearch.com/profile/787117810/marietta_ga/cajun_s_cookin_po_boys.html", "address": {"city": "Marietta", "state": "GA", "street": "1199 Sandra Dr", "postal_code": "30062"}, "capProviderId": null, "distance": null, "has_offers": false, "name": "Cajun's Cookin' Po Boys", "longitude": -84.516441, "has_menu": false, "awards": null, "user_review_count": 0}, {"business_operation_status": 1, "rating": null, "neighborhood": null, "image": null, "scorecard": null, "featured": false, "sample_categories": "Restaurants, Traditional American, Carry Out, American Express, MasterCard", "public_id": "ruby-tuesday-kennesaw", "id": 2955306, "votes": null, "tagline": null, "has_video": false, "website": "http://www.citysearch.com/profile/external/2955306/kennesaw_ga/ruby_tuesday.html", "offers": null, "latitude": 34.019128, "politanName": "Atlanta, GA Metro ", "phone_number": "7704268061", "tags": [{"primary": false, "id": 11190, "name": "Traditional American"}, {"primary": false, "id": 11247, "name": "Carry Out"}, {"primary": false, "id": 11333, "name": "American Express"}, {"primary": false, "id": 11361, "name": "MasterCard"}, {"primary": false, "id": 11375, "name": "Shop Online"}, {"primary": false, "id": 11382, "name": "Visa"}, {"primary": true, "id": 1722, "name": "Restaurants"}], "fax_number": null, "expansion": {"count": null, "uri": null}, "impression_id": "000b000000bece90c5297b44c1ae49b8569cf5c131", "profile": "http://www.citysearch.com/profile/2955306/kennesaw_ga/ruby_tuesday.html", "address": {"city": "Kennesaw", "state": "GA", "street": "400 Ernest W Barrett Pkwy NW Ste 2612", "postal_code": "30144"}, "capProviderId": null, "distance": null, "has_offers": false, "name": "Ruby Tuesday", "longitude": -84.563608, "has_menu": true, "awards": null, "user_review_count": 0}, {"business_operation_status": 1, "rating": null, "neighborhood": null, "image": null, "scorecard": null, "featured": false, "sample_categories": "Restaurants, Mexican", "public_id": "taqueria-la-avelita-marietta", "id": 793328060, "votes": null, "tagline": null, "has_video": false, "website": null, "offers": null, "latitude": 33.934292, "politanName": "Atlanta, GA Metro ", "phone_number": "7707944551", "tags": [{"primary": false, "id": 11208, "name": "Mexican"}, {"primary": true, "id": 1722, "name": "Restaurants"}], "fax_number": null, "expansion": {"count": null, "uri": null}, "impression_id": "000b000000bbcf4e1e111446eb8aa43d86fa81a18d", "profile": "http://www.citysearch.com/profile/793328060/marietta_ga/taqueria_la_avelita.html", "address": {"city": "Marietta", "state": "GA", "street": "739 Franklin Rd Se # C", "postal_code": "30067"}, "capProviderId": null, "distance": null, "has_offers": false, "name": "Taqueria La Avelita", "longitude": -84.502546, "has_menu": false, "awards": null, "user_review_count": 0}, {"business_operation_status": 1, "rating": null, "neighborhood": null, "image": null, "scorecard": null, "featured": false, "sample_categories": "Restaurants", "public_id": "purple-restaurant-ent-marietta", "id": 793332920, "votes": null, "tagline": null, "has_video": false, "website": null, "offers": null, "latitude": 33.931495, "politanName": "Atlanta, GA Metro ", "phone_number": "7706727087", "tags": [{"primary": true, "id": 1722, "name": "Restaurants"}], "fax_number": null, "expansion": {"count": null, "uri": null}, "impression_id": "000b000000913926e16f19458380370fb15060988a", "profile": "http://www.citysearch.com/profile/793332920/marietta_ga/purple_restaurant_ent.html", "address": {"city": "Marietta", "state": "GA", "street": "2012 Powers Ferry Trce Se", "postal_code": "30067"}, "capProviderId": null, "distance": null, "has_offers": false, "name": "Purple Restaurant Ent", "longitude": -84.478312, "has_menu": false, "awards": null, "user_review_count": 0}, {"business_operation_status": 1, "rating": 6.0, "neighborhood": null, "image": null, "scorecard": null, "featured": false, "sample_categories": "Restaurants, Chinese, American Express, Discover, MasterCard", "public_id": "house-of-ming-marietta", "id": 2904716, "votes": null, "tagline": null, "has_video": false, "website": null, "offers": null, "latitude": 33.980787, "politanName": "Atlanta, GA Metro ", "phone_number": "7709777538", "tags": [{"primary": false, "id": 11252, "name": "Chinese"}, {"primary": false, "id": 11333, "name": "American Express"}, {"primary": false, "id": 11349, "name": "Discover"}, {"primary": false, "id": 11361, "name": "MasterCard"}, {"primary": false, "id": 11382, "name": "Visa"}, {"primary": true, "id": 1722, "name": "Restaurants"}], "fax_number": null, "expansion": {"count": null, "uri": null}, "impression_id": "000b0000004d1b87c4abf94d76a1e5358a99249395", "profile": "http://www.citysearch.com/profile/2904716/marietta_ga/house_of_ming.html", "address": {"city": "Marietta", "state": "GA", "street": "3101 Roswell Rd Ste F2", "postal_code": "30062"}, "capProviderId": null, "distance": null, "has_offers": false, "name": "House Of Ming", "longitude": -84.464028, "has_menu": false, "awards": null, "user_review_count": 1}, {"business_operation_status": 1, "rating": null, "neighborhood": null, "image": null, "scorecard": null, "featured": false, "sample_categories": "Restaurants, Pizza", "public_id": "buckhead-pizza-atlanta", "id": 775198370, "votes": null, "tagline": null, "has_video": false, "website": "http://www.citysearch.com/profile/external/775198370/atlanta_ga/buckhead_pizza.html", "offers": null, "latitude": 33.88416, "politanName": "Atlanta, GA Metro ", "phone_number": "7704050722", "tags": [{"primary": false, "id": 11299, "name": "Pizza"}, {"primary": true, "id": 1722, "name": "Restaurants"}], "fax_number": null, "expansion": {"count": null, "uri": null}, "impression_id": "000b0000006a62262d3eea45c58f93503168cfc44e", "profile": "http://www.citysearch.com/profile/775198370/atlanta_ga/buckhead_pizza.html", "address": {"city": "Atlanta", "state": "GA", "street": "1 Galleria Pkwy SE", "postal_code": "30339"}, "capProviderId": null, "distance": null, "has_offers": false, "name": "Buckhead Pizza", "longitude": -84.463727, "has_menu": true, "awards": null, "user_review_count": 1}, {"business_operation_status": 1, "rating": null, "neighborhood": null, "image": null, "scorecard": null, "featured": false, "sample_categories": "Restaurants", "public_id": "mamas-soulfood-kitchen-smyrna", "id": 777797920, "votes": null, "tagline": null, "has_video": false, "website": null, "offers": null, "latitude": 33.891089, "politanName": "Atlanta, GA Metro ", "phone_number": "7704357779", "tags": [{"primary": true, "id": 1722, "name": "Restaurants"}], "fax_number": null, "expansion": {"count": null, "uri": null}, "impression_id": "000b000000d22312aac00d417ea27e4b1994df61ec", "profile": "http://www.citysearch.com/profile/777797920/smyrna_ga/mama_s_soulfood_kitchen.html", "address": {"city": "Smyrna", "state": "GA", "street": "1651 Roswell St Se", "postal_code": "30080"}, "capProviderId": null, "distance": null, "has_offers": false, "name": "Mama's Soulfood Kitchen", "longitude": -84.504679, "has_menu": false, "awards": null, "user_review_count": 1}, {"business_operation_status": 1, "rating": null, "neighborhood": null, "image": null, "scorecard": null, "featured": false, "sample_categories": "Barbecue Restaurants", "public_id": "sams-bbq-one-marietta", "id": 787089000, "votes": null, "tagline": null, "has_video": false, "website": null, "offers": null, "latitude": 33.955116, "politanName": "Atlanta, GA Metro ", "phone_number": "6783241518", "tags": [{"primary": true, "id": 1724, "name": "Barbecue Restaurants"}], "fax_number": null, "expansion": {"count": null, "uri": null}, "impression_id": "000b0000001dd5db1d4827483188a5cf108e24d438", "profile": "http://www.citysearch.com/profile/787089000/marietta_ga/sam_s_bbq_one.html", "address": {"city": "Marietta", "state": "GA", "street": "3600 Dallas Hwy Sw", "postal_code": "30064"}, "capProviderId": null, "distance": null, "has_offers": false, "name": "Sam's BBQ One", "longitude": -84.656027, "has_menu": false, "awards": null, "user_review_count": 0}, {"business_operation_status": 1, "rating": null, "neighborhood": null, "image": null, "scorecard": null, "featured": false, "sample_categories": "Restaurants, Steakhouse", "public_id": "cliff-atlanta", "id": 787132740, "votes": null, "tagline": null, "has_video": false, "website": null, "offers": null, "latitude": 33.889051, "politanName": "Atlanta, GA Metro ", "phone_number": "7709801900", "tags": [{"primary": false, "id": 11316, "name": "Steakhouse"}, {"primary": true, "id": 1722, "name": "Restaurants"}], "fax_number": null, "expansion": {"count": null, "uri": null}, "impression_id": "000b00000084948068c15a4756a081199c372a532e", "profile": "http://www.citysearch.com/profile/787132740/atlanta_ga/cliff.html", "address": {"city": "Atlanta", "state": "GA", "street": "2780 Windy Ridge Pkwy Se", "postal_code": "30339"}, "capProviderId": null, "distance": null, "has_offers": false, "name": "Cliff", "longitude": -84.472806, "has_menu": false, "awards": null, "user_review_count": 0}, {"business_operation_status": 1, "rating": null, "neighborhood": null, "image": null, "scorecard": null, "featured": false, "sample_categories": "Restaurants, Carry Out, Hamburgers", "public_id": "mc-donalds-austell-3", "id": 742217920, "votes": null, "tagline": null, "has_video": false, "website": "http://www.citysearch.com/profile/external/742217920/austell_ga/mc_donald_s.html", "offers": null, "latitude": 33.866346, "politanName": "Atlanta, GA Metro ", "phone_number": "7702221927", "tags": [{"primary": false, "id": 11247, "name": "Carry Out"}, {"primary": false, "id": 11270, "name": "Hamburgers"}, {"primary": true, "id": 1722, "name": "Restaurants"}], "fax_number": null, "expansion": {"count": null, "uri": null}, "impression_id": "000b0000000e32a68983d24399b575eee58e14b7e6", "profile": "http://www.citysearch.com/profile/742217920/austell_ga/mc_donald_s.html", "address": {"city": "Austell", "state": "GA", "street": "E West Connector & Marathon", "postal_code": "30106"}, "capProviderId": null, "distance": null, "has_offers": false, "name": "Mc Donald's", "longitude": -84.626708, "has_menu": false, "awards": null, "user_review_count": 0}, {"business_operation_status": 1, "rating": null, "neighborhood": null, "image": null, "scorecard": null, "featured": false, "sample_categories": "Restaurants, Carry Out", "public_id": "churchs-chicken-marietta-5", "id": 809894000, "votes": null, "tagline": null, "has_video": false, "website": null, "offers": null, "latitude": 33.951817, "politanName": "Atlanta, GA Metro ", "phone_number": "7704228166", "tags": [{"primary": false, "id": 11247, "name": "Carry Out"}, {"primary": true, "id": 1722, "name": "Restaurants"}], "fax_number": null, "expansion": {"count": null, "uri": null}, "impression_id": "000b000000509e10ee6eaa44c88f5c9b7bfe15faf9", "profile": "http://www.citysearch.com/profile/809894000/marietta_ga/church_s_chicken.html", "address": {"city": "Marietta", "state": "GA", "street": "23 S Marietta Pkwy SW", "postal_code": "30064"}, "capProviderId": null, "distance": null, "has_offers": false, "name": "Church's Chicken", "longitude": -84.551523, "has_menu": false, "awards": null, "user_review_count": 0}, {"business_operation_status": 1, "rating": null, "neighborhood": null, "image": null, "scorecard": null, "featured": false, "sample_categories": "Restaurants", "public_id": "ayahs-bistro-kennesaw", "id": 816263730, "votes": null, "tagline": null, "has_video": false, "website": null, "offers": null, "latitude": 34.057627, "politanName": "Atlanta, GA Metro ", "phone_number": "6785940084", "tags": [{"primary": true, "id": 1722, "name": "Restaurants"}], "fax_number": null, "expansion": {"count": null, "uri": null}, "impression_id": "000b000000a25c5ebf5d344246849342a016a6bf51", "profile": "http://www.citysearch.com/profile/816263730/kennesaw_ga/ayah_s_bistro.html", "address": {"city": "Kennesaw", "state": "GA", "street": "4200 Wade Green Rd NW", "postal_code": "30144"}, "capProviderId": null, "distance": null, "has_offers": false, "name": "Ayah's Bistro", "longitude": -84.590928, "has_menu": false, "awards": null, "user_review_count": 0}, {"business_operation_status": 1, "rating": null, "neighborhood": null, "image": null, "scorecard": null, "featured": false, "sample_categories": "Restaurants", "public_id": "tropical-smoothie-cafe-smyrna", "id": 807164030, "votes": null, "tagline": null, "has_video": false, "website": null, "offers": null, "latitude": 33.884019, "politanName": "Atlanta, GA Metro ", "phone_number": "7704369980", "tags": [{"primary": true, "id": 1722, "name": "Restaurants"}], "fax_number": null, "expansion": {"count": null, "uri": null}, "impression_id": "000b00000002bbf1ef218448ac901f5857272b06bf", "profile": "http://www.citysearch.com/profile/807164030/smyrna_ga/tropical_smoothie_cafe.html", "address": {"city": "Smyrna", "state": "GA", "street": "1265 W Spring St SE", "postal_code": "30080"}, "capProviderId": null, "distance": null, "has_offers": false, "name": "Tropical Smoothie Cafe", "longitude": -84.515924, "has_menu": false, "awards": null, "user_review_count": 0}, {"business_operation_status": 1, "rating": null, "neighborhood": null, "image": null, "scorecard": null, "featured": false, "sample_categories": "Grocery Stores, Restaurants", "public_id": "genji-express-marietta", "id": 836645200, "votes": null, "tagline": null, "has_video": false, "website": null, "offers": null, "latitude": 33.948194, "politanName": "Atlanta, GA Metro ", "phone_number": "7705784400", "tags": [{"primary": false, "id": 1722, "name": "Restaurants"}, {"primary": true, "id": 1713, "name": "Grocery Stores"}], "fax_number": null, "expansion": {"count": null, "uri": null}, "impression_id": "000b000000ed7527cf666a4cc7b792033fe4d013a1", "profile": "http://www.citysearch.com/profile/836645200/marietta_ga/genji_express.html", "address": {"city": "Marietta", "state": "GA", "street": "70 Powers Ferry Rd SE", "postal_code": "30067"}, "capProviderId": null, "distance": null, "has_offers": false, "name": "Genji Express", "longitude": -84.513268, "has_menu": true, "awards": null, "user_review_count": 0}, {"business_operation_status": 1, "rating": null, "neighborhood": null, "image": null, "scorecard": null, "featured": false, "sample_categories": "Restaurants", "public_id": "valindas-cozy-kitchen-austell-2", "id": 814424400, "votes": null, "tagline": null, "has_video": false, "website": null, "offers": null, "latitude": 33.834562, "politanName": "Atlanta, GA Metro ", "phone_number": "7709440410", "tags": [{"primary": true, "id": 1722, "name": "Restaurants"}], "fax_number": null, "expansion": {"count": null, "uri": null}, "impression_id": "000b0000009ba2077b66514d35ba96b3e7f19fcfec", "profile": "http://www.citysearch.com/profile/814424400/austell_ga/valinda_s_cozy_kitchen.html", "address": {"city": "Austell", "state": "GA", "street": "2075 Warren Dr", "postal_code": "30106"}, "capProviderId": null, "distance": null, "has_offers": false, "name": "Valinda's Cozy Kitchen", "longitude": -84.61502, "has_menu": false, "awards": null, "user_review_count": 0}, {"business_operation_status": 1, "rating": null, "neighborhood": null, "image": null, "scorecard": null, "featured": false, "sample_categories": "Restaurants, Pizza, Carry Out", "public_id": "little-caesars-pizza-austell", "id": 817405370, "votes": null, "tagline": null, "has_video": false, "website": null, "offers": null, "latitude": 33.836659, "politanName": "Atlanta, GA Metro ", "phone_number": "7709485001", "tags": [{"primary": false, "id": 1722, "name": "Restaurants"}, {"primary": false, "id": 11247, "name": "Carry Out"}, {"primary": true, "id": 11299, "name": "Pizza"}], "fax_number": null, "expansion": {"count": null, "uri": null}, "impression_id": "000b000000e53bfd3da1f545eb88ee089ac078240f", "profile": "http://www.citysearch.com/profile/817405370/austell_ga/little_caesars_pizza.html", "address": {"city": "Austell", "state": "GA", "street": "3753 Austell Rd", "postal_code": "30106"}, "capProviderId": null, "distance": null, "has_offers": false, "name": "Little Caesars Pizza", "longitude": -84.611909, "has_menu": false, "awards": null, "user_review_count": 0}, {"business_operation_status": 1, "rating": null, "neighborhood": null, "image": null, "scorecard": null, "featured": false, "sample_categories": "Restaurants", "public_id": "marietta-marietta-2", "id": 838727430, "votes": null, "tagline": null, "has_video": false, "website": null, "offers": null, "latitude": 33.924583, "politanName": "Atlanta, GA Metro ", "phone_number": "7705907388", "tags": [{"primary": true, "id": 1722, "name": "Restaurants"}], "fax_number": null, "expansion": {"count": null, "uri": null}, "impression_id": "000b0000003db824fe87a24066991f369e43cb258c", "profile": "http://www.citysearch.com/profile/838727430/marietta_ga/marietta.html", "address": {"city": "Marietta", "state": "GA", "street": "1180 Powder Springs St", "postal_code": "30064"}, "capProviderId": null, "distance": null, "has_offers": false, "name": "Marietta", "longitude": -84.575231, "has_menu": false, "awards": null, "user_review_count": 0}, {"business_operation_status": 1, "rating": null, "neighborhood": null, "image": null, "scorecard": null, "featured": false, "sample_categories": "Restaurants, Carry Out, Hamburgers", "public_id": "wendys-kennesaw-4", "id": 775183780, "votes": null, "tagline": null, "has_video": false, "website": null, "offers": null, "latitude": 34.018974, "politanName": "Atlanta, GA Metro ", "phone_number": "7704273990", "tags": [{"primary": false, "id": 11247, "name": "Carry Out"}, {"primary": false, "id": 11270, "name": "Hamburgers"}, {"primary": true, "id": 1722, "name": "Restaurants"}], "fax_number": null, "expansion": {"count": null, "uri": null}, "impression_id": "000b000000039d92a358894c1bb9b41540b2a405db", "profile": "http://www.citysearch.com/profile/775183780/kennesaw_ga/wendy_s.html", "address": {"city": "Kennesaw", "state": "GA", "street": "400 Ernest W Barrett Pkwy NW", "postal_code": "30144"}, "capProviderId": null, "distance": null, "has_offers": false, "name": "Wendy's", "longitude": -84.563564, "has_menu": true, "awards": null, "user_review_count": 0}, {"business_operation_status": 1, "rating": null, "neighborhood": null, "image": null, "scorecard": null, "featured": false, "sample_categories": "Restaurants, Caribbean", "public_id": "theos-caribbean-grill-marietta", "id": 777756870, "votes": null, "tagline": null, "has_video": false, "website": null, "offers": null, "latitude": 34.020818, "politanName": "Atlanta, GA Metro ", "phone_number": "6785810107", "tags": [{"primary": false, "id": 11195, "name": "Caribbean"}, {"primary": true, "id": 1722, "name": "Restaurants"}], "fax_number": null, "expansion": {"count": null, "uri": null}, "impression_id": "000b000000ff84cdd2dbfa4205a1c02cf00471a8df", "profile": "http://www.citysearch.com/profile/777756870/marietta_ga/theo_s_caribbean_grill.html", "address": {"city": "Marietta", "state": "GA", "street": "2821 Chastain Meadows Pkwy 230", "postal_code": "30066"}, "capProviderId": null, "distance": null, "has_offers": false, "name": "Theo's Caribbean Grill", "longitude": -84.55554, "has_menu": false, "awards": null, "user_review_count": 0}], "histograms": [], "tag_ids": [1722], "uri": "http://api.citygridmedia.com:8080/search/places/v2/search/where?has_offers=false&type=restaurant&format=json&page=28&where=30060&rpp=50&histograms=false&publisher=10000009598&region_type=circle", "did_you_mean": "", "regions": [{"latitude": 33.92521, "default_radius": 3.68, "type": "postal_code", "name": "30060", "longitude": -84.546093}], "call_id": "000b00000074d97f7ac9fb4b5c91941dae8ee13b4c", "first_hit": 1351, "total_hits": 2103, "geo_ids": [26291], "page": 28, "last_hit": 1400}}