{"results": {"rpp": 50, "locations": [{"business_operation_status": 1, "rating": null, "neighborhood": null, "image": null, "scorecard": null, "featured": false, "sample_categories": "Restaurants, Traditional American", "public_id": "come-get-it-marietta", "id": 655806390, "votes": null, "tagline": null, "has_video": false, "website": "http://www.citysearch.com/profile/external/655806390/marietta_ga/come_get_it.html", "offers": null, "latitude": 33.97734, "politanName": "Atlanta, GA Metro ", "phone_number": "7704230010", "tags": [{"primary": false, "id": 11190, "name": "Traditional American"}, {"primary": true, "id": 1722, "name": "Restaurants"}], "fax_number": null, "expansion": {"count": null, "uri": null}, "impression_id": "000b000000288eb98d18be4a40b763912129ef5313", "profile": "http://www.citysearch.com/profile/655806390/marietta_ga/come_get_it.html", "address": {"city": "Marietta", "state": "GA", "street": "1409 Church Street Ext Ne # E", "postal_code": "30060"}, "capProviderId": null, "distance": null, "has_offers": false, "name": "Come & Get It", "longitude": -84.555829, "has_menu": false, "awards": null, "user_review_count": 0}, {"business_operation_status": 1, "rating": null, "neighborhood": null, "image": null, "scorecard": null, "featured": false, "sample_categories": "Restaurants, Mexican", "public_id": "mr-burrito-kennesaw", "id": 682318370, "votes": null, "tagline": null, "has_video": false, "website": null, "offers": null, "latitude": 34.028401, "politanName": "Atlanta, GA Metro ", "phone_number": "7709176061", "tags": [{"primary": false, "id": 11208, "name": "Mexican"}, {"primary": true, "id": 1722, "name": "Restaurants"}], "fax_number": null, "expansion": {"count": null, "uri": null}, "impression_id": "000b000000a151fb3dddb3469aa3c9393062b18d62", "profile": "http://www.citysearch.com/profile/682318370/kennesaw_ga/mr_burrito.html", "address": {"city": "Kennesaw", "state": "GA", "street": "3061 Jim Owens Rd NW", "postal_code": "30152"}, "capProviderId": null, "distance": null, "has_offers": false, "name": "Mr Burrito", "longitude": -84.65049, "has_menu": false, "awards": null, "user_review_count": 0}, {"business_operation_status": 1, "rating": null, "neighborhood": null, "image": null, "scorecard": null, "featured": false, "sample_categories": "Restaurants", "public_id": "metropolis-wing-station-marietta", "id": 682470740, "votes": null, "tagline": null, "has_video": false, "website": null, "offers": null, "latitude": 33.927554, "politanName": "Atlanta, GA Metro ", "phone_number": "6783545450", "tags": [{"primary": true, "id": 1722, "name": "Restaurants"}], "fax_number": null, "expansion": {"count": null, "uri": null}, "impression_id": "000b000000bd6c6cfeab76489eba45ee7900163349", "profile": "http://www.citysearch.com/profile/682470740/marietta_ga/metropolis_wing_station.html", "address": {"city": "Marietta", "state": "GA", "street": "1038 Franklin Rd Se", "postal_code": "30067"}, "capProviderId": null, "distance": null, "has_offers": false, "name": "Metropolis Wing Station", "longitude": -84.493666, "has_menu": false, "awards": null, "user_review_count": 0}, {"business_operation_status": 1, "rating": null, "neighborhood": null, "image": null, "scorecard": null, "featured": false, "sample_categories": "Ice Cream Parlors", "public_id": "high-road-craft-ice-cream-inc-marietta", "id": 803512700, "votes": null, "tagline": null, "has_video": false, "website": null, "offers": null, "latitude": 33.982909, "politanName": "Atlanta, GA Metro ", "phone_number": "7705651652", "tags": [{"primary": true, "id": 1730, "name": "Ice Cream Parlors"}], "fax_number": null, "expansion": {"count": null, "uri": null}, "impression_id": "000b000000700fbceeb66741038864f5fb1d5321fc", "profile": "http://www.citysearch.com/profile/803512700/marietta_ga/high_road_craft_ice_cream_inc.html", "address": {"city": "Marietta", "state": "GA", "street": "1730 W Oak Commons Ct", "postal_code": "30062"}, "capProviderId": null, "distance": null, "has_offers": false, "name": "High Road Craft Ice Cream INC", "longitude": -84.523354, "has_menu": false, "awards": null, "user_review_count": 0}, {"business_operation_status": 1, "rating": null, "neighborhood": null, "image": null, "scorecard": null, "featured": false, "sample_categories": "Restaurants", "public_id": "ken-mar-cafe-grill-marietta", "id": 808387530, "votes": null, "tagline": null, "has_video": false, "website": null, "offers": null, "latitude": 33.971179, "politanName": "Atlanta, GA Metro ", "phone_number": "7707950081", "tags": [{"primary": true, "id": 1722, "name": "Restaurants"}], "fax_number": null, "expansion": {"count": null, "uri": null}, "impression_id": "000b000000f8c13a046d8240539635e7e8bae5bbb5", "profile": "http://www.citysearch.com/profile/808387530/marietta_ga/ken_mar_cafe_grill.html", "address": {"city": "Marietta", "state": "GA", "street": "833 Campbell Hill St NW # 105", "postal_code": "30060"}, "capProviderId": null, "distance": null, "has_offers": false, "name": "Ken Mar Cafe & Grill", "longitude": -84.552313, "has_menu": false, "awards": null, "user_review_count": 0}, {"business_operation_status": 0, "rating": null, "neighborhood": null, "image": null, "scorecard": null, "featured": false, "sample_categories": "Restaurants, Pizza", "public_id": "macs-pizza-pasta-marietta", "id": 807737810, "votes": null, "tagline": null, "has_video": false, "website": null, "offers": null, "latitude": 33.929154, "politanName": "Atlanta, GA Metro ", "phone_number": "7704997600", "tags": [{"primary": false, "id": 1722, "name": "Restaurants"}, {"primary": true, "id": 11299, "name": "Pizza"}], "fax_number": null, "expansion": {"count": null, "uri": null}, "impression_id": "000b000000f3fadac0f38d42c886b6e8041023cb2e", "profile": "http://www.citysearch.com/profile/807737810/marietta_ga/mac_s_pizza_pasta.html", "address": {"city": "Marietta", "state": "GA", "street": "950 Cobb Pkwy S # 230", "postal_code": "30060"}, "capProviderId": null, "distance": null, "has_offers": false, "name": "Mac's Pizza & Pasta", "longitude": -84.510376, "has_menu": true, "awards": null, "user_review_count": 0}, {"business_operation_status": 1, "rating": null, "neighborhood": null, "image": null, "scorecard": null, "featured": false, "sample_categories": "Restaurants, Pizza", "public_id": "pronto-pizza-marietta", "id": 808339910, "votes": null, "tagline": null, "has_video": false, "website": null, "offers": null, "latitude": 33.865697, "politanName": "Atlanta, GA Metro ", "phone_number": "7704330803", "tags": [{"primary": false, "id": 1722, "name": "Restaurants"}, {"primary": true, "id": 11299, "name": "Pizza"}], "fax_number": null, "expansion": {"count": null, "uri": null}, "impression_id": "000b000000bac361c1d47948e597366bfb089a7a52", "profile": "http://www.citysearch.com/profile/808339910/marietta_ga/pronto_pizza.html", "address": {"city": "Marietta", "state": "GA", "street": "3565 Austell Rd SW # 1019", "postal_code": "30008"}, "capProviderId": null, "distance": null, "has_offers": false, "name": "Pronto Pizza", "longitude": -84.592502, "has_menu": true, "awards": null, "user_review_count": 0}, {"business_operation_status": 1, "rating": null, "neighborhood": null, "image": null, "scorecard": null, "featured": false, "sample_categories": "Restaurants, Luaus", "public_id": "summers-street-restaurant-kennesaw", "id": 833025270, "votes": null, "tagline": null, "has_video": false, "website": null, "offers": null, "latitude": 34.019119, "politanName": "Atlanta, GA Metro ", "phone_number": "7707922281", "tags": [{"primary": false, "id": 11285, "name": "Luaus"}, {"primary": true, "id": 1722, "name": "Restaurants"}], "fax_number": null, "expansion": {"count": null, "uri": null}, "impression_id": "000b000000e91c7d8668674470948260c31b0aec0f", "profile": "http://www.citysearch.com/profile/833025270/kennesaw_ga/summers_street_restaurant.html", "address": {"city": "Kennesaw", "state": "GA", "street": "2689 Summers St NW", "postal_code": "30144"}, "capProviderId": null, "distance": null, "has_offers": false, "name": "Summers Street Restaurant", "longitude": -84.61395, "has_menu": true, "awards": null, "user_review_count": 0}, {"business_operation_status": 1, "rating": null, "neighborhood": null, "image": null, "scorecard": null, "featured": false, "sample_categories": "Restaurants, Pizza, Carry Out", "public_id": "pizza-hut-marietta-14", "id": 814485380, "votes": null, "tagline": null, "has_video": false, "website": null, "offers": null, "latitude": 33.935534, "politanName": "Atlanta, GA Metro ", "phone_number": "7704291689", "tags": [{"primary": false, "id": 1722, "name": "Restaurants"}, {"primary": false, "id": 11247, "name": "Carry Out"}, {"primary": true, "id": 11299, "name": "Pizza"}], "fax_number": null, "expansion": {"count": null, "uri": null}, "impression_id": "000b0000002d17f7ecac194b3ab7273c0449f9324e", "profile": "http://www.citysearch.com/profile/814485380/marietta_ga/pizza_hut.html", "address": {"city": "Marietta", "state": "GA", "street": "690 Sandtown Rd SW", "postal_code": "30008"}, "capProviderId": null, "distance": null, "has_offers": false, "name": "Pizza Hut", "longitude": -84.556228, "has_menu": false, "awards": null, "user_review_count": 0}, {"business_operation_status": 1, "rating": null, "neighborhood": null, "image": null, "scorecard": null, "featured": false, "sample_categories": "Restaurants, Fast Food, Carry Out, Hamburgers, American Express", "public_id": "mc-donalds-acworth", "id": 45560369, "votes": null, "tagline": null, "has_video": false, "website": "http://www.citysearch.com/profile/external/45560369/acworth_ga/mc_donald_s.html", "offers": null, "latitude": 34.000342, "politanName": "Atlanta, GA Metro ", "phone_number": "7702189065", "tags": [{"primary": false, "id": 11199, "name": "Fast Food"}, {"primary": false, "id": 11247, "name": "Carry Out"}, {"primary": false, "id": 11270, "name": "Hamburgers"}, {"primary": false, "id": 11333, "name": "American Express"}, {"primary": false, "id": 11361, "name": "MasterCard"}, {"primary": false, "id": 11382, "name": "Visa"}, {"primary": true, "id": 1722, "name": "Restaurants"}], "fax_number": null, "expansion": {"count": null, "uri": null}, "impression_id": "000b0000000b86112d08ad46fea028adcdd86760c5", "profile": "http://www.citysearch.com/profile/45560369/acworth_ga/mc_donald_s.html", "address": {"city": "Acworth", "state": "GA", "street": "1855 Mars Hill Rd NW", "postal_code": "30101"}, "capProviderId": null, "distance": null, "has_offers": false, "name": "Mc Donald's", "longitude": -84.708385, "has_menu": true, "awards": null, "user_review_count": 0}, {"business_operation_status": 1, "rating": null, "neighborhood": null, "image": null, "scorecard": null, "featured": false, "sample_categories": "Restaurants", "public_id": "simply-chicken-austell", "id": 823240420, "votes": null, "tagline": null, "has_video": false, "website": null, "offers": null, "latitude": 33.850442, "politanName": "Atlanta, GA Metro ", "phone_number": "6789456144", "tags": [{"primary": true, "id": 1722, "name": "Restaurants"}], "fax_number": null, "expansion": {"count": null, "uri": null}, "impression_id": "000b0000008401556a54c84d2fbd860da735a8c87b", "profile": "http://www.citysearch.com/profile/823240420/austell_ga/simply_chicken.html", "address": {"city": "Austell", "state": "GA", "street": "4228 Floyd Rd", "postal_code": "30106"}, "capProviderId": null, "distance": null, "has_offers": false, "name": "Simply Chicken", "longitude": -84.588525, "has_menu": false, "awards": null, "user_review_count": 0}, {"business_operation_status": 1, "rating": null, "neighborhood": null, "image": null, "scorecard": null, "featured": false, "sample_categories": "Ice Cream Parlors", "public_id": "baskinrobbins-marietta-8", "id": 833503720, "votes": null, "tagline": null, "has_video": false, "website": null, "offers": null, "latitude": 33.949812, "politanName": "Atlanta, GA Metro ", "phone_number": "7709713251", "tags": [{"primary": true, "id": 1730, "name": "Ice Cream Parlors"}], "fax_number": null, "expansion": {"count": null, "uri": null}, "impression_id": "000b000000bfbe21e998f84ce5bff63de3f343a6f5", "profile": "http://www.citysearch.com/profile/833503720/marietta_ga/baskin_robbins.html", "address": {"city": "Marietta", "state": "GA", "street": "80 Powers Ferry Rd SE", "postal_code": "30067"}, "capProviderId": null, "distance": null, "has_offers": false, "name": "Baskin-Robbins", "longitude": -84.511129, "has_menu": true, "awards": null, "user_review_count": 0}, {"business_operation_status": 1, "rating": null, "neighborhood": null, "image": null, "scorecard": null, "featured": false, "sample_categories": "Restaurants, Delis And Delicatessens", "public_id": "great-wraps-marietta", "id": 621905160, "votes": null, "tagline": null, "has_video": false, "website": "http://www.citysearch.com/profile/external/621905160/marietta_ga/great_wraps.html", "offers": null, "latitude": 34.013539, "politanName": "Atlanta, GA Metro ", "phone_number": "6783540001", "tags": [{"primary": false, "id": 1727, "name": "Delis And Delicatessens"}, {"primary": true, "id": 1722, "name": "Restaurants"}], "fax_number": null, "expansion": {"count": null, "uri": null}, "impression_id": "000b000000d0747020f0a3425ab6155e2af236db25", "profile": "http://www.citysearch.com/profile/621905160/marietta_ga/great_wraps.html", "address": {"city": "Marietta", "state": "GA", "street": "125 Barrett Pkwy", "postal_code": "30066"}, "capProviderId": null, "distance": null, "has_offers": false, "name": "Great Wraps", "longitude": -84.552923, "has_menu": true, "awards": null, "user_review_count": 1}, {"business_operation_status": 1, "rating": null, "neighborhood": null, "image": null, "scorecard": null, "featured": false, "sample_categories": "Restaurants, Delis And Delicatessens, Sandwich Shops, Carry Out", "public_id": "subway-kennesaw-12", "id": 627566914, "votes": null, "tagline": null, "has_video": false, "website": "http://www.citysearch.com/profile/external/627566914/kennesaw_ga/subway.html", "offers": null, "latitude": 34.014011, "politanName": "Atlanta, GA Metro ", "phone_number": null, "tags": [{"primary": false, "id": 1727, "name": "Delis And Delicatessens"}, {"primary": false, "id": 1736, "name": "Sandwich Shops"}, {"primary": false, "id": 11247, "name": "Carry Out"}, {"primary": true, "id": 1722, "name": "Restaurants"}], "fax_number": null, "expansion": {"count": null, "uri": null}, "impression_id": "000b000000d231dcea3b484c3aaefbb40013693e34", "profile": "http://www.citysearch.com/profile/627566914/kennesaw_ga/subway.html", "address": {"city": "Kennesaw", "state": "GA", "street": "575 Ernest W Barrett Pkwy NW", "postal_code": "30144"}, "capProviderId": null, "distance": null, "has_offers": false, "name": "Subway", "longitude": -84.559013, "has_menu": false, "awards": null, "user_review_count": 0}, {"business_operation_status": 1, "rating": null, "neighborhood": null, "image": null, "scorecard": null, "featured": false, "sample_categories": "Restaurants, Barbecue Restaurants", "public_id": "wings-burger-haven-marietta", "id": 653579150, "votes": null, "tagline": null, "has_video": false, "website": null, "offers": null, "latitude": 33.988155, "politanName": "Atlanta, GA Metro ", "phone_number": "6784679223", "tags": [{"primary": false, "id": 1724, "name": "Barbecue Restaurants"}, {"primary": true, "id": 1722, "name": "Restaurants"}], "fax_number": null, "expansion": {"count": null, "uri": null}, "impression_id": "000b0000002cd3742cf26843329526d01cd90704c9", "profile": "http://www.citysearch.com/profile/653579150/marietta_ga/wings_burger_haven.html", "address": {"city": "Marietta", "state": "GA", "street": "1410 Glenover Cir", "postal_code": "30062"}, "capProviderId": null, "distance": null, "has_offers": false, "name": "Wings & Burger Haven", "longitude": -84.511569, "has_menu": false, "awards": null, "user_review_count": 0}, {"business_operation_status": 1, "rating": null, "neighborhood": null, "image": null, "scorecard": null, "featured": false, "sample_categories": "Restaurants", "public_id": "big-u-n-s-biscuits-dallas", "id": 790659730, "votes": null, "tagline": null, "has_video": false, "website": null, "offers": null, "latitude": 34.065889, "politanName": "Atlanta, GA Metro ", "phone_number": "6783634880", "tags": [{"primary": true, "id": 1722, "name": "Restaurants"}], "fax_number": null, "expansion": {"count": null, "uri": null}, "impression_id": "000b000000e021c9f02b52478ebdf9f477fc44b135", "profile": "http://www.citysearch.com/profile/790659730/dallas_ga/big_u_n_s_biscuits.html", "address": {"city": "Dallas", "state": "GA", "street": "11090 Cartersville Hwy", "postal_code": "30132"}, "capProviderId": null, "distance": null, "has_offers": false, "name": "Big U N S Biscuits", "longitude": -84.825325, "has_menu": false, "awards": null, "user_review_count": 0}, {"business_operation_status": 1, "rating": null, "neighborhood": null, "image": null, "scorecard": null, "featured": false, "sample_categories": "Restaurants, Greek", "public_id": "milos-restaurant-greek-tavern-marietta", "id": 793388790, "votes": null, "tagline": null, "has_video": false, "website": null, "offers": null, "latitude": 33.953276, "politanName": "Atlanta, GA Metro ", "phone_number": "6789033148", "tags": [{"primary": false, "id": 11268, "name": "Greek"}, {"primary": true, "id": 1722, "name": "Restaurants"}], "fax_number": null, "expansion": {"count": null, "uri": null}, "impression_id": "000b000000e6b5edfad99e4e8ead592a7d3bcee9a4", "profile": "http://www.citysearch.com/profile/793388790/marietta_ga/milos_restaurant_greek_tavern.html", "address": {"city": "Marietta", "state": "GA", "street": "26 Mill St Ne", "postal_code": "30060"}, "capProviderId": null, "distance": null, "has_offers": false, "name": "Milos Restaurant Greek Tavern", "longitude": -84.551885, "has_menu": false, "awards": null, "user_review_count": 0}, {"business_operation_status": 1, "rating": null, "neighborhood": null, "image": null, "scorecard": null, "featured": false, "sample_categories": "Restaurants", "public_id": "its-greek-to-us-marietta", "id": 804307170, "votes": null, "tagline": null, "has_video": false, "website": null, "offers": null, "latitude": 33.974019, "politanName": "Atlanta, GA Metro ", "phone_number": "7705753077", "tags": [{"primary": true, "id": 1722, "name": "Restaurants"}], "fax_number": null, "expansion": {"count": null, "uri": null}, "impression_id": "000b000000f7d1f5d8b6c740edb4656d6298bba57d", "profile": "http://www.citysearch.com/profile/804307170/marietta_ga/it_s_greek_to_us.html", "address": {"city": "Marietta", "state": "GA", "street": "1355 Church Street Ext Ne", "postal_code": "30060"}, "capProviderId": null, "distance": null, "has_offers": false, "name": "It's Greek To US", "longitude": -84.552835, "has_menu": true, "awards": null, "user_review_count": 0}, {"business_operation_status": 1, "rating": 6.0, "neighborhood": null, "image": null, "scorecard": null, "featured": false, "sample_categories": "Restaurants, Family-Friendly Dining", "public_id": "our-place-restaurant-marietta", "id": 43842559, "votes": null, "tagline": null, "has_video": false, "website": null, "offers": null, "latitude": 33.941343, "politanName": "Atlanta, GA Metro ", "phone_number": "7704223796", "tags": [{"primary": false, "id": 1722, "name": "Restaurants"}, {"primary": true, "id": 11263, "name": "Family-Friendly Dining"}], "fax_number": null, "expansion": {"count": null, "uri": null}, "impression_id": "000b00000045c6900e470a46e1ac8beca3031db64a", "profile": "http://www.citysearch.com/profile/43842559/marietta_ga/our_place_restaurant.html", "address": {"city": "Marietta", "state": "GA", "street": "940 S Marietta Pkwy SE", "postal_code": "30060"}, "capProviderId": null, "distance": null, "has_offers": false, "name": "Our Place Restaurant", "longitude": -84.523114, "has_menu": false, "awards": null, "user_review_count": 2}, {"business_operation_status": 0, "rating": 8.0, "neighborhood": null, "image": null, "scorecard": null, "featured": false, "sample_categories": "Restaurants, Mexican", "public_id": "la-hacienda-marietta", "id": 43844935, "votes": null, "tagline": null, "has_video": false, "website": null, "offers": null, "latitude": 34.029387, "politanName": "Atlanta, GA Metro ", "phone_number": "7704241554", "tags": [{"primary": false, "id": 1722, "name": "Restaurants"}, {"primary": true, "id": 11208, "name": "Mexican"}], "fax_number": null, "expansion": {"count": null, "uri": null}, "impression_id": "000b00000004c61b22b2aa4a76bea73506829df5b0", "profile": "http://www.citysearch.com/profile/43844935/marietta_ga/la_hacienda.html", "address": {"city": "Marietta", "state": "GA", "street": "3185 Canton Rd", "postal_code": "30066"}, "capProviderId": null, "distance": null, "has_offers": false, "name": "La Hacienda", "longitude": -84.528034, "has_menu": true, "awards": null, "user_review_count": 0}, {"business_operation_status": 1, "rating": null, "neighborhood": null, "image": null, "scorecard": null, "featured": false, "sample_categories": "Restaurants", "public_id": "cantons-donuts-marietta", "id": 805665440, "votes": null, "tagline": null, "has_video": false, "website": null, "offers": null, "latitude": 33.951218, "politanName": "Atlanta, GA Metro ", "phone_number": "7705792399", "tags": [{"primary": true, "id": 1722, "name": "Restaurants"}], "fax_number": null, "expansion": {"count": null, "uri": null}, "impression_id": "000b0000008c9b5c70dacc4becb6ef6502e0cfbf41", "profile": "http://www.citysearch.com/profile/805665440/marietta_ga/canton_s_donuts.html", "address": {"city": "Marietta", "state": "GA", "street": "1516 Roswell Rd", "postal_code": "30062"}, "capProviderId": null, "distance": null, "has_offers": false, "name": "Canton's Donuts", "longitude": -84.508253, "has_menu": false, "awards": null, "user_review_count": 0}, {"business_operation_status": 1, "rating": null, "neighborhood": null, "image": null, "scorecard": null, "featured": false, "sample_categories": "Restaurants, Delis And Delicatessens, Sandwich Shops, Carry Out, Soups", "public_id": "subway-dallas-37", "id": 43864475, "votes": null, "tagline": null, "has_video": false, "website": "http://www.citysearch.com/profile/external/43864475/dallas_ga/subway.html", "offers": null, "latitude": 33.957866, "politanName": "Atlanta, GA Metro ", "phone_number": "7704457566", "tags": [{"primary": false, "id": 1727, "name": "Delis And Delicatessens"}, {"primary": false, "id": 1736, "name": "Sandwich Shops"}, {"primary": false, "id": 11247, "name": "Carry Out"}, {"primary": false, "id": 11311, "name": "Soups"}, {"primary": false, "id": 11333, "name": "American Express"}, {"primary": false, "id": 11349, "name": "Discover"}, {"primary": false, "id": 11361, "name": "MasterCard"}, {"primary": false, "id": 11382, "name": "Visa"}, {"primary": true, "id": 1722, "name": "Restaurants"}], "fax_number": null, "expansion": {"count": null, "uri": null}, "impression_id": "000b000000410e4a3db08840f199edfc40d9bb0e46", "profile": "http://www.citysearch.com/profile/43864475/dallas_ga/subway.html", "address": {"city": "Dallas", "state": "GA", "street": "55 E Paulding Dr Ste 116", "postal_code": "30157"}, "capProviderId": null, "distance": null, "has_offers": false, "name": "Subway", "longitude": -84.787071, "has_menu": true, "awards": null, "user_review_count": 0}, {"business_operation_status": 1, "rating": null, "neighborhood": null, "image": null, "scorecard": null, "featured": false, "sample_categories": "Restaurants, Grocery Stores, Mexican", "public_id": "carniceria-i-taqueria-la-vllt-kennesaw", "id": 45993198, "votes": null, "tagline": null, "has_video": false, "website": null, "offers": null, "latitude": 34.020168, "politanName": "Atlanta, GA Metro ", "phone_number": "6782132841", "tags": [{"primary": false, "id": 1713, "name": "Grocery Stores"}, {"primary": false, "id": 11208, "name": "Mexican"}, {"primary": true, "id": 1722, "name": "Restaurants"}], "fax_number": null, "expansion": {"count": null, "uri": null}, "impression_id": "000b000000a445f5c5203f411f9c4c6d2c64be96a0", "profile": "http://www.citysearch.com/profile/45993198/kennesaw_ga/carniceria_i_taqueria_la_vllt.html", "address": {"city": "Kennesaw", "state": "GA", "street": "2730 Summers St NW", "postal_code": "30144"}, "capProviderId": null, "distance": null, "has_offers": false, "name": "Carniceria I Taqueria La Vllt", "longitude": -84.614116, "has_menu": false, "awards": null, "user_review_count": 0}, {"business_operation_status": 1, "rating": null, "neighborhood": null, "image": null, "scorecard": null, "featured": false, "sample_categories": "Restaurants, Pizza", "public_id": "bellas-pizzeria-austell", "id": 44775455, "votes": null, "tagline": null, "has_video": false, "website": null, "offers": null, "latitude": 33.860912, "politanName": "Atlanta, GA Metro ", "phone_number": "7064399555", "tags": [{"primary": false, "id": 11299, "name": "Pizza"}, {"primary": true, "id": 1722, "name": "Restaurants"}], "fax_number": null, "expansion": {"count": null, "uri": null}, "impression_id": "000b00000004c8d1c9e7474e30a4e9eafa5b559c47", "profile": "http://www.citysearch.com/profile/44775455/austell_ga/bellas_pizzeria.html", "address": {"city": "Austell", "state": "GA", "street": "2495 E West Connector", "postal_code": "30106"}, "capProviderId": null, "distance": null, "has_offers": false, "name": "Bellas Pizzeria", "longitude": -84.620637, "has_menu": true, "awards": null, "user_review_count": 0}, {"business_operation_status": 1, "rating": null, "neighborhood": null, "image": null, "scorecard": null, "featured": false, "sample_categories": "Restaurants", "public_id": "wings-101-smyrna", "id": 621900654, "votes": null, "tagline": null, "has_video": false, "website": null, "offers": null, "latitude": 33.894038, "politanName": "Atlanta, GA Metro ", "phone_number": "7709891520", "tags": [{"primary": true, "id": 1722, "name": "Restaurants"}], "fax_number": null, "expansion": {"count": null, "uri": null}, "impression_id": "000b000000f41346c20e4e457c94eb7b676c8a1dc8", "profile": "http://www.citysearch.com/profile/621900654/smyrna_ga/wings_101.html", "address": {"city": "Smyrna", "state": "GA", "street": "998 Windy Hill Rd SE", "postal_code": "30080"}, "capProviderId": null, "distance": null, "has_offers": false, "name": "Wings 101", "longitude": -84.524382, "has_menu": false, "awards": null, "user_review_count": 0}, {"business_operation_status": 1, "rating": null, "neighborhood": null, "image": null, "scorecard": null, "featured": false, "sample_categories": "Restaurants, Fast Food, Carry Out, MasterCard, Visa", "public_id": "bojangles-famous-chicken-marietta", "id": 43849344, "votes": null, "tagline": null, "has_video": false, "website": "http://www.citysearch.com/profile/external/43849344/marietta_ga/bojangles_famous_chicken.html", "offers": null, "latitude": 33.935998, "politanName": "Atlanta, GA Metro ", "phone_number": "7704226222", "tags": [{"primary": false, "id": 11199, "name": "Fast Food"}, {"primary": false, "id": 11247, "name": "Carry Out"}, {"primary": false, "id": 11361, "name": "MasterCard"}, {"primary": false, "id": 11382, "name": "Visa"}, {"primary": false, "id": 12839, "name": "Chicken"}, {"primary": true, "id": 1722, "name": "Restaurants"}], "fax_number": null, "expansion": {"count": null, "uri": null}, "impression_id": "000b0000004d16727976f64a5f88185be1d632df2c", "profile": "http://www.citysearch.com/profile/43849344/marietta_ga/bojangles_famous_chicken.html", "address": {"city": "Marietta", "state": "GA", "street": "681 Cobb Pkwy N", "postal_code": "30062"}, "capProviderId": null, "distance": null, "has_offers": false, "name": "Bojangles' Famous Chicken", "longitude": -84.511888, "has_menu": false, "awards": null, "user_review_count": 0}, {"business_operation_status": 1, "rating": null, "neighborhood": null, "image": null, "scorecard": null, "featured": false, "sample_categories": "Restaurants", "public_id": "volcano-steak-sushi-acworth", "id": 625813834, "votes": null, "tagline": null, "has_video": false, "website": null, "offers": null, "latitude": 33.99646, "politanName": "Atlanta, GA Metro ", "phone_number": "7704209888", "tags": [{"primary": true, "id": 1722, "name": "Restaurants"}], "fax_number": null, "expansion": {"count": null, "uri": null}, "impression_id": "000b0000002f0e7fdc84c14a21b665b30e38964d0f", "profile": "http://www.citysearch.com/profile/625813834/acworth_ga/volcano_steak_sushi.html", "address": {"city": "Acworth", "state": "GA", "street": "1720 Mars Hill Rd NW", "postal_code": "30101"}, "capProviderId": null, "distance": null, "has_offers": false, "name": "Volcano Steak & Sushi", "longitude": -84.70439, "has_menu": false, "awards": null, "user_review_count": 0}, {"business_operation_status": 1, "rating": null, "neighborhood": null, "image": null, "scorecard": null, "featured": false, "sample_categories": "Restaurants, Hamburgers", "public_id": "cheeseburger-bobbys-intl-llc-kennesaw", "id": 622247370, "votes": null, "tagline": null, "has_video": false, "website": null, "offers": null, "latitude": 34.003763, "politanName": "Atlanta, GA Metro ", "phone_number": "7702189962", "tags": [{"primary": false, "id": 11270, "name": "Hamburgers"}, {"primary": true, "id": 1722, "name": "Restaurants"}], "fax_number": null, "expansion": {"count": null, "uri": null}, "impression_id": "000b000000f6180bea342840a6bd6bad66b10a3938", "profile": "http://www.citysearch.com/profile/622247370/kennesaw_ga/cheeseburger_bobby_s_intl_llc.html", "address": {"city": "Kennesaw", "state": "GA", "street": "1690 Roberts Blvd Nw # 121", "postal_code": "30144"}, "capProviderId": null, "distance": null, "has_offers": false, "name": "Cheeseburger Bobby's Intl Llc", "longitude": -84.596245, "has_menu": false, "awards": null, "user_review_count": 0}, {"business_operation_status": 1, "rating": null, "neighborhood": null, "image": null, "scorecard": null, "featured": false, "sample_categories": "Restaurants, Cafes", "public_id": "giga-bites-cafe-marietta", "id": 631962750, "votes": null, "tagline": null, "has_video": false, "website": null, "offers": null, "latitude": 33.991608, "politanName": "Atlanta, GA Metro ", "phone_number": "4045186735", "tags": [{"primary": false, "id": 6190, "name": "Cafes"}, {"primary": true, "id": 1722, "name": "Restaurants"}], "fax_number": null, "expansion": {"count": null, "uri": null}, "impression_id": "000b000000f5c4ddb3be794ab982367d94bf2d71aa", "profile": "http://www.citysearch.com/profile/631962750/marietta_ga/giga_bites_cafe.html", "address": {"city": "Marietta", "state": "GA", "street": "2791 Craig Ct", "postal_code": "30062"}, "capProviderId": null, "distance": null, "has_offers": false, "name": "Giga Bites Cafe", "longitude": -84.47001, "has_menu": false, "awards": null, "user_review_count": 0}, {"business_operation_status": 1, "rating": null, "neighborhood": null, "image": null, "scorecard": null, "featured": false, "sample_categories": "Restaurants, Bakeries, Caribbean, MasterCard, Visa", "public_id": "golden-krust-bakery-grill-kennesaw", "id": 601313676, "votes": null, "tagline": null, "has_video": false, "website": "http://www.citysearch.com/profile/external/601313676/kennesaw_ga/golden_krust_bakery_grill.html", "offers": null, "latitude": 34.010363, "politanName": "Atlanta, GA Metro ", "phone_number": "6789212493", "tags": [{"primary": false, "id": 1685, "name": "Bakeries"}, {"primary": false, "id": 11195, "name": "Caribbean"}, {"primary": false, "id": 11361, "name": "MasterCard"}, {"primary": false, "id": 11382, "name": "Visa"}, {"primary": true, "id": 1722, "name": "Restaurants"}], "fax_number": null, "expansion": {"count": null, "uri": null}, "impression_id": "000b000000aa3f9dceaf2f467d8c9bd114b1183662", "profile": "http://www.citysearch.com/profile/601313676/kennesaw_ga/golden_krust_bakery_grill.html", "address": {"city": "Kennesaw", "state": "GA", "street": "501 Roberts Ct Nw", "postal_code": "30144"}, "capProviderId": null, "distance": null, "has_offers": false, "name": "Golden Krust Bakery & Grill", "longitude": -84.56331, "has_menu": false, "awards": null, "user_review_count": 0}, {"business_operation_status": 1, "rating": null, "neighborhood": null, "image": null, "scorecard": null, "featured": false, "sample_categories": "Restaurants", "public_id": "party-q-marietta", "id": 618276704, "votes": null, "tagline": null, "has_video": false, "website": null, "offers": null, "latitude": 34.020818, "politanName": "Atlanta, GA Metro ", "phone_number": "6786977808", "tags": [{"primary": true, "id": 1722, "name": "Restaurants"}], "fax_number": null, "expansion": {"count": null, "uri": null}, "impression_id": "000b0000008a1ca2830cb74424a17cea5b987fb879", "profile": "http://www.citysearch.com/profile/618276704/marietta_ga/party_q.html", "address": {"city": "Marietta", "state": "GA", "street": "2821 Chastain Meadows Pkwy", "postal_code": "30066"}, "capProviderId": null, "distance": null, "has_offers": false, "name": "Party Q", "longitude": -84.55554, "has_menu": false, "awards": null, "user_review_count": 0}, {"business_operation_status": 1, "rating": null, "neighborhood": null, "image": null, "scorecard": null, "featured": false, "sample_categories": "Restaurants, Fast Food, Carry Out, Hamburgers, American Express", "public_id": "mc-donalds-austell-2", "id": 37648233, "votes": null, "tagline": null, "has_video": false, "website": "http://www.citysearch.com/profile/external/37648233/austell_ga/mc_donald_s.html", "offers": null, "latitude": 33.856577, "politanName": "Atlanta, GA Metro ", "phone_number": "7704344002", "tags": [{"primary": false, "id": 11199, "name": "Fast Food"}, {"primary": false, "id": 11247, "name": "Carry Out"}, {"primary": false, "id": 11270, "name": "Hamburgers"}, {"primary": false, "id": 11333, "name": "American Express"}, {"primary": false, "id": 11349, "name": "Discover"}, {"primary": false, "id": 11361, "name": "MasterCard"}, {"primary": false, "id": 11382, "name": "Visa"}, {"primary": true, "id": 1722, "name": "Restaurants"}], "fax_number": null, "expansion": {"count": null, "uri": null}, "impression_id": "000b0000001608fd996994434b9f9f6e0f722d7ee1", "profile": "http://www.citysearch.com/profile/37648233/austell_ga/mc_donald_s.html", "address": {"city": "Austell", "state": "GA", "street": "1133 E West Connector", "postal_code": "30106"}, "capProviderId": null, "distance": null, "has_offers": false, "name": "Mc Donald's", "longitude": -84.58945, "has_menu": true, "awards": null, "user_review_count": 0}, {"business_operation_status": 1, "rating": null, "neighborhood": null, "image": null, "scorecard": null, "featured": false, "sample_categories": "Restaurants", "public_id": "blue-pig-restaurant-woodstock", "id": 813898230, "votes": null, "tagline": null, "has_video": false, "website": null, "offers": null, "latitude": 34.080769, "politanName": "Atlanta, GA Metro ", "phone_number": "7705172583", "tags": [{"primary": true, "id": 1722, "name": "Restaurants"}], "fax_number": null, "expansion": {"count": null, "uri": null}, "impression_id": "000b0000001e134f3d834f437caff5ecf52ad0c797", "profile": "http://www.citysearch.com/profile/813898230/woodstock_ga/blue_pig_restaurant.html", "address": {"city": "Woodstock", "state": "GA", "street": "9970 Main St", "postal_code": "30188"}, "capProviderId": null, "distance": null, "has_offers": false, "name": "Blue Pig Restaurant", "longitude": -84.520285, "has_menu": false, "awards": null, "user_review_count": 0}, {"business_operation_status": 1, "rating": null, "neighborhood": null, "image": null, "scorecard": null, "featured": false, "sample_categories": "Restaurants", "public_id": "stoney-river-legendary-steaks-marietta", "id": 732164930, "votes": null, "tagline": null, "has_video": false, "website": null, "offers": null, "latitude": 34.009709, "politanName": "Atlanta, GA Metro ", "phone_number": "7706671201", "tags": [{"primary": true, "id": 1722, "name": "Restaurants"}], "fax_number": null, "expansion": {"count": null, "uri": null}, "impression_id": "000b000000164329baf28e45d8b30688702d1fd503", "profile": "http://www.citysearch.com/profile/732164930/marietta_ga/stoney_river_legendary_steaks.html", "address": {"city": "Marietta", "state": "GA", "street": "2440 Sandy Plains Rd # 1-150", "postal_code": "30066"}, "capProviderId": null, "distance": null, "has_offers": false, "name": "Stoney River Legendary Steaks", "longitude": -84.496627, "has_menu": false, "awards": null, "user_review_count": 0}, {"business_operation_status": 1, "rating": null, "neighborhood": null, "image": null, "scorecard": null, "featured": false, "sample_categories": "Coffeehouses, Restaurants", "public_id": "higher-grounds-coffee-cafe-incorporated-dallas", "id": 37649206, "votes": null, "tagline": null, "has_video": false, "website": null, "offers": null, "latitude": 33.935326, "politanName": "Atlanta, GA Metro ", "phone_number": "7705055051", "tags": [{"primary": false, "id": 1722, "name": "Restaurants"}, {"primary": true, "id": 1726, "name": "Coffeehouses"}], "fax_number": null, "expansion": {"count": null, "uri": null}, "impression_id": "000b0000000e57d20fdbd54fd79766ab8cb3c7a980", "profile": "http://www.citysearch.com/profile/37649206/dallas_ga/higher_grounds_coffee_cafe_incorporated.html", "address": {"city": "Dallas", "state": "GA", "street": "4075 Charles Hardy Pkwy", "postal_code": "30157"}, "capProviderId": null, "distance": null, "has_offers": false, "name": "Higher Grounds Coffee Cafe Incorporated", "longitude": -84.725993, "has_menu": false, "awards": null, "user_review_count": 0}, {"business_operation_status": 1, "rating": null, "neighborhood": null, "image": null, "scorecard": null, "featured": false, "sample_categories": "Restaurants, Pizza", "public_id": "pizza-zone-inc-marietta", "id": 820298830, "votes": null, "tagline": null, "has_video": false, "website": null, "offers": null, "latitude": 33.904063, "politanName": "Atlanta, GA Metro ", "phone_number": "7704329364", "tags": [{"primary": false, "id": 1722, "name": "Restaurants"}, {"primary": true, "id": 11299, "name": "Pizza"}], "fax_number": null, "expansion": {"count": null, "uri": null}, "impression_id": "000b000000c6bb5353660f4ee596924c3a67a5e9f2", "profile": "http://www.citysearch.com/profile/820298830/marietta_ga/pizza_zone_inc.html", "address": {"city": "Marietta", "state": "GA", "street": "2022 S Cobb Dr SE", "postal_code": "30060"}, "capProviderId": null, "distance": null, "has_offers": false, "name": "Pizza Zone Inc", "longitude": -84.542723, "has_menu": false, "awards": null, "user_review_count": 0}, {"business_operation_status": 1, "rating": null, "neighborhood": null, "image": null, "scorecard": null, "featured": false, "sample_categories": "Restaurants", "public_id": "larrys-country-kitchen-marietta", "id": 827346130, "votes": null, "tagline": null, "has_video": false, "website": null, "offers": null, "latitude": 33.943185, "politanName": "Atlanta, GA Metro ", "phone_number": "7704269522", "tags": [{"primary": true, "id": 1722, "name": "Restaurants"}], "fax_number": null, "expansion": {"count": null, "uri": null}, "impression_id": "000b000000947510ac65f4408ca8712e926acadc92", "profile": "http://www.citysearch.com/profile/827346130/marietta_ga/larry_s_country_kitchen.html", "address": {"city": "Marietta", "state": "GA", "street": "625 S Marietta Pkwy SE", "postal_code": "30060"}, "capProviderId": null, "distance": null, "has_offers": false, "name": "Larry's Country Kitchen", "longitude": -84.533806, "has_menu": false, "awards": null, "user_review_count": 0}, {"business_operation_status": 0, "rating": null, "neighborhood": null, "image": null, "scorecard": null, "featured": false, "sample_categories": "Restaurants", "public_id": "gradys-american-grill-kennesaw", "id": 831505820, "votes": null, "tagline": null, "has_video": false, "website": null, "offers": null, "latitude": 34.012667, "politanName": "Atlanta, GA Metro ", "phone_number": "7709190090", "tags": [{"primary": true, "id": 1722, "name": "Restaurants"}], "fax_number": null, "expansion": {"count": null, "uri": null}, "impression_id": "000b00000003e0a7c157c94b6087914099158195f4", "profile": "http://www.citysearch.com/profile/831505820/kennesaw_ga/grady_s_american_grill.html", "address": {"city": "Kennesaw", "state": "GA", "street": "2475 George Busbee Pkwy NW", "postal_code": "30144"}, "capProviderId": null, "distance": null, "has_offers": false, "name": "Grady's American Grill", "longitude": -84.565651, "has_menu": false, "awards": null, "user_review_count": 0}, {"business_operation_status": 1, "rating": null, "neighborhood": null, "image": null, "scorecard": null, "featured": false, "sample_categories": "Restaurants", "public_id": "grand-champion-bbq-marietta", "id": 836972670, "votes": null, "tagline": null, "has_video": false, "website": null, "offers": null, "latitude": 33.952602, "politanName": "Atlanta, GA Metro ", "phone_number": "7709934227", "tags": [{"primary": true, "id": 1722, "name": "Restaurants"}], "fax_number": null, "expansion": {"count": null, "uri": null}, "impression_id": "000b000000a208bd8caabc4e7ab3e69cdf6fcbb9d5", "profile": "http://www.citysearch.com/profile/836972670/marietta_ga/grand_champion_bbq.html", "address": {"city": "Marietta", "state": "GA", "street": "[empty]", "postal_code": "30062"}, "capProviderId": null, "distance": null, "has_offers": false, "name": "Grand Champion BBQ", "longitude": -84.549933, "has_menu": false, "awards": null, "user_review_count": 0}, {"business_operation_status": 1, "rating": null, "neighborhood": null, "image": null, "scorecard": null, "featured": false, "sample_categories": "Restaurants, Mexican, Carry Out", "public_id": "taco-bell-kennesaw-6", "id": 757949530, "votes": null, "tagline": null, "has_video": false, "website": "http://www.citysearch.com/profile/external/757949530/kennesaw_ga/taco_bell.html", "offers": null, "latitude": 34.031419, "politanName": "Atlanta, GA Metro ", "phone_number": "6787979946", "tags": [{"primary": false, "id": 11208, "name": "Mexican"}, {"primary": false, "id": 11247, "name": "Carry Out"}, {"primary": true, "id": 1722, "name": "Restaurants"}], "fax_number": null, "expansion": {"count": null, "uri": null}, "impression_id": "000b0000002849a2539b4f4ba7bf156be40714df9c", "profile": "http://www.citysearch.com/profile/757949530/kennesaw_ga/taco_bell.html", "address": {"city": "Kennesaw", "state": "GA", "street": "3240 Barrett Lakes Blvd NW", "postal_code": "30144"}, "capProviderId": null, "distance": null, "has_offers": false, "name": "Taco Bell", "longitude": -84.578157, "has_menu": false, "awards": null, "user_review_count": 0}, {"business_operation_status": 1, "rating": null, "neighborhood": null, "image": null, "scorecard": null, "featured": false, "sample_categories": "Restaurants", "public_id": "pomarico-brothers-llc-powder", "id": 773421610, "votes": null, "tagline": null, "has_video": false, "website": null, "offers": null, "latitude": 33.864726, "politanName": "Atlanta, GA Metro ", "phone_number": "6785672626", "tags": [{"primary": true, "id": 1722, "name": "Restaurants"}], "fax_number": null, "expansion": {"count": null, "uri": null}, "impression_id": "000b0000004e68143b666b46c485adf194b8eaa916", "profile": "http://www.citysearch.com/profile/773421610/powder_springs_ga/pomarico_brothers_llc.html", "address": {"city": "Powder Springs", "state": "GA", "street": "1050 Richard D Sailors Pkwy", "postal_code": "30127"}, "capProviderId": null, "distance": null, "has_offers": false, "name": "Pomarico Brothers LLC", "longitude": -84.680179, "has_menu": false, "awards": null, "user_review_count": 0}, {"business_operation_status": 1, "rating": null, "neighborhood": null, "image": null, "scorecard": null, "featured": false, "sample_categories": "Restaurants", "public_id": "restaurant-concepts-inc-marietta", "id": 775223410, "votes": null, "tagline": null, "has_video": false, "website": null, "offers": null, "latitude": 33.930134, "politanName": "Atlanta, GA Metro ", "phone_number": "7709525943", "tags": [{"primary": true, "id": 1722, "name": "Restaurants"}], "fax_number": null, "expansion": {"count": null, "uri": null}, "impression_id": "000b000000f2f0b68e03604c5c92a71310af8c5325", "profile": "http://www.citysearch.com/profile/775223410/marietta_ga/restaurant_concepts_inc.html", "address": {"city": "Marietta", "state": "GA", "street": "2120 Powers Ferry Dr SE", "postal_code": "30067"}, "capProviderId": null, "distance": null, "has_offers": false, "name": "Restaurant Concepts Inc", "longitude": -84.486864, "has_menu": false, "awards": null, "user_review_count": 0}, {"business_operation_status": 0, "rating": null, "neighborhood": null, "image": null, "scorecard": null, "featured": false, "sample_categories": "Restaurants", "public_id": "aspen-west-cobb-marietta", "id": 41283282, "votes": null, "tagline": null, "has_video": false, "website": "http://www.citysearch.com/profile/external/41283282/marietta_ga/aspens.html", "offers": null, "latitude": 33.952164, "politanName": "Atlanta, GA Metro ", "phone_number": "7704191744", "tags": [{"primary": true, "id": 1722, "name": "Restaurants"}], "fax_number": null, "expansion": {"count": null, "uri": null}, "impression_id": "000b00000096afcc240e164a8f999bf513e8a11470", "profile": "http://www.citysearch.com/profile/41283282/marietta_ga/aspens.html", "address": {"city": "Marietta", "state": "GA", "street": "3625 Dallas Hwy SW Ste 715", "postal_code": "30064"}, "capProviderId": null, "distance": null, "has_offers": false, "name": "Aspens", "longitude": -84.657799, "has_menu": false, "awards": null, "user_review_count": 1}, {"business_operation_status": 1, "rating": null, "neighborhood": null, "image": null, "scorecard": null, "featured": false, "sample_categories": "Restaurants, Bars & Clubs", "public_id": "tio-bar-grill-smyrna", "id": 802510740, "votes": null, "tagline": null, "has_video": false, "website": null, "offers": null, "latitude": 33.886772, "politanName": "Atlanta, GA Metro ", "phone_number": "7709891065", "tags": [{"primary": false, "id": 164, "name": "Bars & Clubs"}, {"primary": true, "id": 1722, "name": "Restaurants"}], "fax_number": null, "expansion": {"count": null, "uri": null}, "impression_id": "000b00000096d7adf458674543b4fb745827d517e1", "profile": "http://www.citysearch.com/profile/802510740/smyrna_ga/tio_bar_grill.html", "address": {"city": "Smyrna", "state": "GA", "street": "2731 S Cobb Dr Se", "postal_code": "30080"}, "capProviderId": null, "distance": null, "has_offers": false, "name": "Tio Bar & Grill", "longitude": -84.534827, "has_menu": false, "awards": null, "user_review_count": 0}, {"business_operation_status": 1, "rating": null, "neighborhood": null, "image": null, "scorecard": null, "featured": false, "sample_categories": "Restaurants, Barbecue Restaurants, American Express, Discover, MasterCard", "public_id": "mac-land-wings-more-powder-spgs", "id": 43857803, "votes": null, "tagline": null, "has_video": false, "website": "http://www.citysearch.com/profile/external/43857803/powder_springs_ga/mac_land_wings_more.html", "offers": null, "latitude": 33.85841, "politanName": "Atlanta, GA Metro ", "phone_number": "7709433552", "tags": [{"primary": false, "id": 1724, "name": "Barbecue Restaurants"}, {"primary": false, "id": 11333, "name": "American Express"}, {"primary": false, "id": 11349, "name": "Discover"}, {"primary": false, "id": 11361, "name": "MasterCard"}, {"primary": false, "id": 11382, "name": "Visa"}, {"primary": true, "id": 1722, "name": "Restaurants"}], "fax_number": null, "expansion": {"count": null, "uri": null}, "impression_id": "000b000000f6dab6d0c0bd43d686284df662de2390", "profile": "http://www.citysearch.com/profile/43857803/powder_springs_ga/mac_land_wings_more.html", "address": {"city": "Powder Springs", "state": "GA", "street": "4181 Marietta St", "postal_code": "30127"}, "capProviderId": null, "distance": null, "has_offers": false, "name": "Mac Land Wings & More", "longitude": -84.675151, "has_menu": false, "awards": null, "user_review_count": 1}, {"business_operation_status": 1, "rating": null, "neighborhood": null, "image": null, "scorecard": null, "featured": false, "sample_categories": "Restaurants", "public_id": "smoothies-more-austell", "id": 43863527, "votes": null, "tagline": null, "has_video": false, "website": null, "offers": null, "latitude": 33.855384, "politanName": "Atlanta, GA Metro ", "phone_number": "6783099699", "tags": [{"primary": true, "id": 1722, "name": "Restaurants"}], "fax_number": null, "expansion": {"count": null, "uri": null}, "impression_id": "000b000000a6e6e000528e40678c562602e00316ab", "profile": "http://www.citysearch.com/profile/43863527/austell_ga/smoothies_more.html", "address": {"city": "Austell", "state": "GA", "street": "1025 E West Connector", "postal_code": "30106"}, "capProviderId": null, "distance": null, "has_offers": false, "name": "Smoothies & More", "longitude": -84.583167, "has_menu": false, "awards": null, "user_review_count": 0}, {"business_operation_status": 1, "rating": null, "neighborhood": null, "image": null, "scorecard": null, "featured": false, "sample_categories": "Ice Cream Parlors", "public_id": "consistency-enterprises-marietta", "id": 807599050, "votes": null, "tagline": null, "has_video": false, "website": null, "offers": null, "latitude": 34.003582, "politanName": "Atlanta, GA Metro ", "phone_number": "4045567996", "tags": [{"primary": true, "id": 1730, "name": "Ice Cream Parlors"}], "fax_number": null, "expansion": {"count": null, "uri": null}, "impression_id": "000b000000b83c4de406214f09b402043ef646abad", "profile": "http://www.citysearch.com/profile/807599050/marietta_ga/consistency_enterprises.html", "address": {"city": "Marietta", "state": "GA", "street": "2123 Plymouth Ln", "postal_code": "30062"}, "capProviderId": null, "distance": null, "has_offers": false, "name": "Consistency Enterprises", "longitude": -84.489848, "has_menu": false, "awards": null, "user_review_count": 0}, {"business_operation_status": 1, "rating": null, "neighborhood": null, "image": null, "scorecard": null, "featured": false, "sample_categories": "Restaurants", "public_id": "china-statistical-info-usa-marietta", "id": 810372840, "votes": null, "tagline": null, "has_video": false, "website": null, "offers": null, "latitude": 33.996599, "politanName": "Atlanta, GA Metro ", "phone_number": "7702180493", "tags": [{"primary": true, "id": 1722, "name": "Restaurants"}], "fax_number": null, "expansion": {"count": null, "uri": null}, "impression_id": "000b000000f820070d1e8344e7bcad9da067d3c955", "profile": "http://www.citysearch.com/profile/810372840/marietta_ga/china_statistical_info_usa.html", "address": {"city": "Marietta", "state": "GA", "street": "1441 Rosewood Creek Dr", "postal_code": "30066"}, "capProviderId": null, "distance": null, "has_offers": false, "name": "China Statistical Info USA", "longitude": -84.510317, "has_menu": false, "awards": null, "user_review_count": 0}, {"business_operation_status": 1, "rating": null, "neighborhood": null, "image": null, "scorecard": null, "featured": false, "sample_categories": "Restaurants", "public_id": "filimons-restaurant-smyrna", "id": 811872330, "votes": null, "tagline": null, "has_video": false, "website": null, "offers": null, "latitude": 33.887574, "politanName": "Atlanta, GA Metro ", "phone_number": "6782131556", "tags": [{"primary": true, "id": 1722, "name": "Restaurants"}], "fax_number": null, "expansion": {"count": null, "uri": null}, "impression_id": "000b00000025f003cdc45c46b8a97804c18d4382ad", "profile": "http://www.citysearch.com/profile/811872330/smyrna_ga/filimon_s_restaurant.html", "address": {"city": "Smyrna", "state": "GA", "street": "601 Powder Springs St SE", "postal_code": "30080"}, "capProviderId": null, "distance": null, "has_offers": false, "name": "Filimon's Restaurant", "longitude": -84.535901, "has_menu": false, "awards": null, "user_review_count": 0}, {"business_operation_status": 1, "rating": null, "neighborhood": null, "image": null, "scorecard": null, "featured": false, "sample_categories": "Restaurants", "public_id": "jbones-mableton", "id": 672571120, "votes": null, "tagline": null, "has_video": false, "website": null, "offers": null, "latitude": 33.816965, "politanName": "Atlanta, GA Metro ", "phone_number": null, "tags": [{"primary": true, "id": 1722, "name": "Restaurants"}], "fax_number": null, "expansion": {"count": null, "uri": null}, "impression_id": "000b0000001adf713f339d4340ae1db02ef77475f3", "profile": "http://www.citysearch.com/profile/672571120/mableton_ga/j_bones.html", "address": {"city": "Mableton", "state": "GA", "street": "499 Veterans Memorial Hwy SW", "postal_code": "30126"}, "capProviderId": null, "distance": null, "has_offers": false, "name": "J-Bones", "longitude": -84.568558, "has_menu": false, "awards": null, "user_review_count": 0}], "histograms": [], "tag_ids": [1722], "uri": "http://api.citygridmedia.com:8080/search/places/v2/search/where?has_offers=false&type=restaurant&format=json&page=30&where=30064&rpp=50&histograms=false&publisher=10000009598&region_type=circle", "did_you_mean": "", "regions": [{"latitude": 33.938860999999996, "default_radius": 5.31, "type": "postal_code", "name": "30064", "longitude": -84.614086}], "call_id": "000b0000000057d2eadbf14e09bc95062c4ccc65cc", "first_hit": 1451, "total_hits": 1588, "geo_ids": [26293], "page": 30, "last_hit": 1500}}