{"results": {"rpp": 50, "locations": [{"business_operation_status": 1, "rating": null, "neighborhood": null, "image": null, "scorecard": null, "featured": false, "sample_categories": "Restaurants, Carry Out", "public_id": "waffle-house-roswell-4", "id": 819242340, "votes": null, "tagline": null, "has_video": false, "website": null, "offers": null, "latitude": 34.067541, "politanName": "Atlanta, GA Metro ", "phone_number": "7705923984", "tags": [{"primary": false, "id": 11247, "name": "Carry Out"}, {"primary": true, "id": 1722, "name": "Restaurants"}], "fax_number": null, "expansion": {"count": null, "uri": null}, "impression_id": "000b0000005b664539f9ca4a57b9f7748f2d0e59fd", "profile": "http://www.citysearch.com/profile/819242340/roswell_ga/waffle_house.html", "address": {"city": "Roswell", "state": "GA", "street": "4875 Alabama Rd NE", "postal_code": "30075"}, "capProviderId": null, "distance": null, "has_offers": false, "name": "Waffle House", "longitude": -84.425685, "has_menu": false, "awards": null, "user_review_count": 0}, {"business_operation_status": 1, "rating": null, "neighborhood": null, "image": null, "scorecard": null, "featured": false, "sample_categories": "Restaurants", "public_id": "jims-catfish-marietta", "id": 824115460, "votes": null, "tagline": null, "has_video": false, "website": null, "offers": null, "latitude": 34.015715, "politanName": "Atlanta, GA Metro ", "phone_number": "7709989459", "tags": [{"primary": true, "id": 1722, "name": "Restaurants"}], "fax_number": null, "expansion": {"count": null, "uri": null}, "impression_id": "000b00000010bb44e8dcca44119926c66709fbe705", "profile": "http://www.citysearch.com/profile/824115460/marietta_ga/jims_catfish.html", "address": {"city": "Marietta", "state": "GA", "street": "2725 Alpine Trl", "postal_code": "30062"}, "capProviderId": null, "distance": null, "has_offers": false, "name": "Jims Catfish", "longitude": -84.424967, "has_menu": false, "awards": null, "user_review_count": 0}, {"business_operation_status": 0, "rating": null, "neighborhood": null, "image": null, "scorecard": null, "featured": false, "sample_categories": "Restaurants", "public_id": "the-party-q-bbq-restaurant-marietta", "id": 672617170, "votes": null, "tagline": null, "has_video": false, "website": null, "offers": null, "latitude": 34.016708, "politanName": "Atlanta, GA Metro ", "phone_number": "7704242225", "tags": [{"primary": true, "id": 1722, "name": "Restaurants"}], "fax_number": null, "expansion": {"count": null, "uri": null}, "impression_id": "000b000000e70cb442e9c14fdcac854828074de31f", "profile": "http://www.citysearch.com/profile/672617170/marietta_ga/the_party_q_bbq_restaurant.html", "address": {"city": "Marietta", "state": "GA", "street": "2821 Chastain Meadows Pkwy", "postal_code": "30066"}, "capProviderId": null, "distance": null, "has_offers": false, "name": "The Party Q! BBQ Restaurant", "longitude": -84.556251, "has_menu": false, "awards": null, "user_review_count": 0}, {"business_operation_status": 1, "rating": null, "neighborhood": null, "image": null, "scorecard": null, "featured": false, "sample_categories": "Restaurants", "public_id": "blue-plate-roadside-cafe-atlanta-2", "id": 672380290, "votes": null, "tagline": null, "has_video": false, "website": null, "offers": null, "latitude": 33.916678, "politanName": "Atlanta, GA Metro ", "phone_number": null, "tags": [{"primary": true, "id": 1722, "name": "Restaurants"}], "fax_number": null, "expansion": {"count": null, "uri": null}, "impression_id": "000b0000005a1e43d5707a4839994ebcd154afaeab", "profile": "http://www.citysearch.com/profile/672380290/atlanta_ga/blue_plate_roadside_cafe.html", "address": {"city": "Atlanta", "state": "GA", "street": "5920 Roswell Rd NE", "postal_code": "30328"}, "capProviderId": null, "distance": null, "has_offers": false, "name": "Blue Plate Roadside Cafe", "longitude": -84.381718, "has_menu": false, "awards": null, "user_review_count": 0}, {"business_operation_status": 1, "rating": null, "neighborhood": null, "image": null, "scorecard": null, "featured": false, "sample_categories": "Restaurants", "public_id": "t-me-enterprises-smyrna", "id": 2923026, "votes": null, "tagline": null, "has_video": false, "website": null, "offers": null, "latitude": 33.894569, "politanName": "Atlanta, GA Metro ", "phone_number": "7709849509", "tags": [{"primary": true, "id": 1722, "name": "Restaurants"}], "fax_number": null, "expansion": {"count": null, "uri": null}, "impression_id": "000b000000917047ea216b4c628c82c7020834b0fb", "profile": "http://www.citysearch.com/profile/2923026/smyrna_ga/t_me_enterprises.html", "address": {"city": "Smyrna", "state": "GA", "street": "2400 Herodian Way SE", "postal_code": "30080"}, "capProviderId": null, "distance": null, "has_offers": false, "name": "T Me Enterprises", "longitude": -84.472335, "has_menu": false, "awards": null, "user_review_count": 0}, {"business_operation_status": 1, "rating": null, "neighborhood": null, "image": null, "scorecard": null, "featured": false, "sample_categories": "Restaurants, Diners", "public_id": "entrees-cafe-catering-atlanta", "id": 3045219, "votes": null, "tagline": null, "has_video": false, "website": null, "offers": null, "latitude": 33.982725, "politanName": "Atlanta, GA Metro ", "phone_number": "7705873402", "tags": [{"primary": false, "id": 1732, "name": "Diners"}, {"primary": true, "id": 1722, "name": "Restaurants"}], "fax_number": null, "expansion": {"count": null, "uri": null}, "impression_id": "000b00000047fc072b9fa148b3bdef8ac2b6d17b68", "profile": "http://www.citysearch.com/profile/3045219/atlanta_ga/entree_s_cafe.html", "address": {"city": "Atlanta", "state": "GA", "street": "8329 Roswell Rd", "postal_code": "30350"}, "capProviderId": null, "distance": null, "has_offers": false, "name": "Entree's Cafe", "longitude": -84.348711, "has_menu": false, "awards": null, "user_review_count": 0}, {"business_operation_status": 1, "rating": null, "neighborhood": null, "image": null, "scorecard": null, "featured": false, "sample_categories": "Restaurants, Pizza, American Express, MasterCard, Visa", "public_id": "pizzatina-atlanta", "id": 622195900, "votes": null, "tagline": null, "has_video": false, "website": null, "offers": null, "latitude": 33.917883, "politanName": "Atlanta, GA Metro ", "phone_number": "4048450794", "tags": [{"primary": false, "id": 1722, "name": "Restaurants"}, {"primary": false, "id": 11333, "name": "American Express"}, {"primary": false, "id": 11361, "name": "MasterCard"}, {"primary": false, "id": 11382, "name": "Visa"}, {"primary": true, "id": 11299, "name": "Pizza"}], "fax_number": null, "expansion": {"count": null, "uri": null}, "impression_id": "000b000000e3b08cc285244c549dd9af8b7c33b245", "profile": "http://www.citysearch.com/profile/622195900/atlanta_ga/pizzatina.html", "address": {"city": "Atlanta", "state": "GA", "street": "5975 Roswell Rd Ne # 215", "postal_code": "30328"}, "capProviderId": null, "distance": null, "has_offers": false, "name": "Pizzatina", "longitude": -84.377671, "has_menu": false, "awards": null, "user_review_count": 1}, {"business_operation_status": 1, "rating": null, "neighborhood": null, "image": null, "scorecard": null, "featured": false, "sample_categories": "Restaurants", "public_id": "phish-phood-cafe-roswell", "id": 732189880, "votes": null, "tagline": null, "has_video": false, "website": "http://www.citysearch.com/profile/external/732189880/roswell_ga/phish_phood_cafe.html", "offers": null, "latitude": 34.058016, "politanName": "Atlanta, GA Metro ", "phone_number": "7705874474", "tags": [{"primary": true, "id": 1722, "name": "Restaurants"}], "fax_number": null, "expansion": {"count": null, "uri": null}, "impression_id": "000b0000004b5ec28140054a4ca49bf9574adcbf15", "profile": "http://www.citysearch.com/profile/732189880/roswell_ga/phish_phood_cafe.html", "address": {"city": "Roswell", "state": "GA", "street": "11255 Woodstock Rd", "postal_code": "30075"}, "capProviderId": null, "distance": null, "has_offers": false, "name": "Phish Phood Cafe", "longitude": -84.382952, "has_menu": false, "awards": null, "user_review_count": 0}, {"business_operation_status": 1, "rating": null, "neighborhood": null, "image": null, "scorecard": null, "featured": false, "sample_categories": "Restaurants, Hamburgers", "public_id": "stax-burger-bar-roswell", "id": 748278190, "votes": null, "tagline": null, "has_video": false, "website": null, "offers": null, "latitude": 34.033417, "politanName": "Atlanta, GA Metro ", "phone_number": "7709922229", "tags": [{"primary": false, "id": 11270, "name": "Hamburgers"}, {"primary": true, "id": 1722, "name": "Restaurants"}], "fax_number": null, "expansion": {"count": null, "uri": null}, "impression_id": "000b000000391149cd4d0147ccae30d1461f7b370c", "profile": "http://www.citysearch.com/profile/748278190/roswell_ga/stax_burger_bar.html", "address": {"city": "Roswell", "state": "GA", "street": "690 Holcomb Bridge Rd", "postal_code": "30076"}, "capProviderId": null, "distance": null, "has_offers": false, "name": "Stax Burger Bar", "longitude": -84.339787, "has_menu": false, "awards": null, "user_review_count": 0}, {"business_operation_status": 1, "rating": null, "neighborhood": null, "image": null, "scorecard": null, "featured": false, "sample_categories": "Restaurants, Grocery Stores", "public_id": "shivam-marietta", "id": 638803240, "votes": null, "tagline": null, "has_video": false, "website": null, "offers": null, "latitude": 33.998509, "politanName": "Atlanta, GA Metro ", "phone_number": "7709717448", "tags": [{"primary": false, "id": 1713, "name": "Grocery Stores"}, {"primary": true, "id": 1722, "name": "Restaurants"}], "fax_number": null, "expansion": {"count": null, "uri": null}, "impression_id": "000b000000a7b57c219afc4d91a55686c5be12a37f", "profile": "http://www.citysearch.com/profile/638803240/marietta_ga/shivam.html", "address": {"city": "Marietta", "state": "GA", "street": "1338 Eastbrooke Trce", "postal_code": "30066"}, "capProviderId": null, "distance": null, "has_offers": false, "name": "Shivam", "longitude": -84.505954, "has_menu": false, "awards": null, "user_review_count": 0}, {"business_operation_status": 1, "rating": null, "neighborhood": null, "image": null, "scorecard": null, "featured": false, "sample_categories": "Restaurants", "public_id": "peachtree-grill-atlanta", "id": 3001279, "votes": null, "tagline": null, "has_video": false, "website": null, "offers": null, "latitude": 33.92078, "politanName": "Atlanta, GA Metro ", "phone_number": "4048749448", "tags": [{"primary": true, "id": 1722, "name": "Restaurants"}], "fax_number": null, "expansion": {"count": null, "uri": null}, "impression_id": "000b00000049cccaef84e24a20ac215e21e2e7427b", "profile": "http://www.citysearch.com/profile/3001279/atlanta_ga/peachtree_grill.html", "address": {"city": "Atlanta", "state": "GA", "street": "1080 Riverside Trce NW", "postal_code": "30328"}, "capProviderId": null, "distance": null, "has_offers": false, "name": "Peachtree Grill", "longitude": -84.422827, "has_menu": false, "awards": null, "user_review_count": 0}, {"business_operation_status": 1, "rating": null, "neighborhood": null, "image": null, "scorecard": null, "featured": false, "sample_categories": "Restaurants", "public_id": "philly-connection-atlanta", "id": 3019432, "votes": null, "tagline": null, "has_video": false, "website": null, "offers": null, "latitude": 33.927141, "politanName": "Atlanta, GA Metro ", "phone_number": "7702559005", "tags": [{"primary": true, "id": 1722, "name": "Restaurants"}], "fax_number": null, "expansion": {"count": null, "uri": null}, "impression_id": "000b000000ca24b49ec8a64175a8bd7680f5b99d22", "profile": "http://www.citysearch.com/profile/3019432/atlanta_ga/philly_connection.html", "address": {"city": "Atlanta", "state": "GA", "street": "6309 Roswell Rd NE Ste 1B", "postal_code": "30328"}, "capProviderId": null, "distance": null, "has_offers": false, "name": "Philly Connection", "longitude": -84.378967, "has_menu": true, "awards": null, "user_review_count": 0}, {"business_operation_status": 1, "rating": null, "neighborhood": null, "image": null, "scorecard": null, "featured": false, "sample_categories": "Restaurants", "public_id": "powers-east-cafe-atlanta", "id": 3030529, "votes": null, "tagline": null, "has_video": false, "website": null, "offers": null, "latitude": 33.9096, "politanName": "Atlanta, GA Metro ", "phone_number": "7709512555", "tags": [{"primary": true, "id": 1722, "name": "Restaurants"}], "fax_number": null, "expansion": {"count": null, "uri": null}, "impression_id": "000b000000fa5a69b2f03f4cb68334c8d9ce66e51b", "profile": "http://www.citysearch.com/profile/3030529/atlanta_ga/powers_east_cafe.html", "address": {"city": "Atlanta", "state": "GA", "street": "6151 Powers Ferry Rd NW", "postal_code": "30339"}, "capProviderId": null, "distance": null, "has_offers": false, "name": "Powers East Cafe", "longitude": -84.426412, "has_menu": false, "awards": null, "user_review_count": 0}, {"business_operation_status": 0, "rating": null, "neighborhood": null, "image": null, "scorecard": null, "featured": false, "sample_categories": "Restaurants", "public_id": "georgia-meyvek-inc-roswell", "id": 766807110, "votes": null, "tagline": null, "has_video": false, "website": null, "offers": null, "latitude": 34.021097, "politanName": "Atlanta, GA Metro ", "phone_number": "7705525581", "tags": [{"primary": true, "id": 1722, "name": "Restaurants"}], "fax_number": null, "expansion": {"count": null, "uri": null}, "impression_id": "000b000000dfa02564d5154342bb73fb9ff3200c0a", "profile": "http://www.citysearch.com/profile/766807110/roswell_ga/georgia_meyvek_inc.html", "address": {"city": "Roswell", "state": "GA", "street": "1530 Old Alabama Rd # 190", "postal_code": "30076"}, "capProviderId": null, "distance": null, "has_offers": false, "name": "Georgia Meyvek Inc", "longitude": -84.317912, "has_menu": false, "awards": null, "user_review_count": 0}, {"business_operation_status": 1, "rating": null, "neighborhood": null, "image": null, "scorecard": null, "featured": false, "sample_categories": "Restaurants, Pizza", "public_id": "blue-moon-pizza-marietta-3", "id": 745594000, "votes": null, "tagline": null, "has_video": false, "website": null, "offers": null, "latitude": 33.913381, "politanName": "Atlanta, GA Metro ", "phone_number": "7709842444", "tags": [{"primary": false, "id": 1722, "name": "Restaurants"}, {"primary": true, "id": 11299, "name": "Pizza"}], "fax_number": null, "expansion": {"count": null, "uri": null}, "impression_id": "000b0000008edea9cb0dff45db8c2a8eb10117c935", "profile": "http://www.citysearch.com/profile/745594000/marietta_ga/blue_moon_pizza.html", "address": {"city": "Marietta", "state": "GA", "street": "1307 Wynnes Ridge Cir SE", "postal_code": "30067"}, "capProviderId": null, "distance": null, "has_offers": false, "name": "Blue Moon Pizza", "longitude": -84.468451, "has_menu": false, "awards": null, "user_review_count": 0}, {"business_operation_status": 1, "rating": null, "neighborhood": null, "image": null, "scorecard": null, "featured": false, "sample_categories": "Restaurants", "public_id": "r-cs-southern-cooking-marietta", "id": 754855600, "votes": null, "tagline": null, "has_video": false, "website": null, "offers": null, "latitude": 33.951248, "politanName": "Atlanta, GA Metro ", "phone_number": "7704854668", "tags": [{"primary": true, "id": 1722, "name": "Restaurants"}], "fax_number": null, "expansion": {"count": null, "uri": null}, "impression_id": "000b0000003ad53c42aebb4c2e96777bb19a7deffa", "profile": "http://www.citysearch.com/profile/754855600/marietta_ga/r_c_s_southern_cooking.html", "address": {"city": "Marietta", "state": "GA", "street": "1516 Roswell Rd", "postal_code": "30062"}, "capProviderId": null, "distance": null, "has_offers": false, "name": "R C's Southern Cooking", "longitude": -84.508172, "has_menu": false, "awards": null, "user_review_count": 0}, {"business_operation_status": 1, "rating": null, "neighborhood": null, "image": null, "scorecard": null, "featured": false, "sample_categories": "Restaurants", "public_id": "ariana-afghan-cuisine-atlanta", "id": 747436750, "votes": null, "tagline": null, "has_video": false, "website": null, "offers": null, "latitude": 33.913346, "politanName": "Atlanta, GA Metro ", "phone_number": "6787320468", "tags": [{"primary": true, "id": 1722, "name": "Restaurants"}], "fax_number": null, "expansion": {"count": null, "uri": null}, "impression_id": "000b000000fbd30cc7b2a64aafb3188587111ed414", "profile": "http://www.citysearch.com/profile/747436750/atlanta_ga/ariana_afghan_cuisine.html", "address": {"city": "Atlanta", "state": "GA", "street": "5785 Roswell Rd NE", "postal_code": "30328"}, "capProviderId": null, "distance": null, "has_offers": false, "name": "Ariana Afghan Cuisine", "longitude": -84.379219, "has_menu": false, "awards": null, "user_review_count": 0}, {"business_operation_status": 1, "rating": null, "neighborhood": null, "image": null, "scorecard": null, "featured": false, "sample_categories": "Restaurants", "public_id": "samad-grill-sandy", "id": 766803030, "votes": null, "tagline": null, "has_video": false, "website": null, "offers": null, "latitude": 34.002189, "politanName": "Atlanta, GA Metro ", "phone_number": "7708073700", "tags": [{"primary": true, "id": 1722, "name": "Restaurants"}], "fax_number": null, "expansion": {"count": null, "uri": null}, "impression_id": "000b0000002c293e070721478eb948532824607e4e", "profile": "http://www.citysearch.com/profile/766803030/sandy_springs_ga/samad_grill.html", "address": {"city": "Sandy Springs", "state": "GA", "street": "8897 Roswell Rd", "postal_code": "30350"}, "capProviderId": null, "distance": null, "has_offers": false, "name": "Samad Grill", "longitude": -84.350442, "has_menu": false, "awards": null, "user_review_count": 0}, {"business_operation_status": 1, "rating": null, "neighborhood": null, "image": null, "scorecard": null, "featured": false, "sample_categories": "Restaurants, Bars & Clubs, Traditional American, Carry Out, Shop Online", "public_id": "hooters-atlanta-4", "id": 775226180, "votes": null, "tagline": null, "has_video": false, "website": "http://www.citysearch.com/profile/external/775226180/atlanta_ga/hooters.html", "offers": null, "latitude": 33.908131, "politanName": "Atlanta, GA Metro ", "phone_number": "7709512040", "tags": [{"primary": false, "id": 164, "name": "Bars & Clubs"}, {"primary": false, "id": 11190, "name": "Traditional American"}, {"primary": false, "id": 11247, "name": "Carry Out"}, {"primary": false, "id": 11375, "name": "Shop Online"}, {"primary": true, "id": 1722, "name": "Restaurants"}], "fax_number": null, "expansion": {"count": null, "uri": null}, "impression_id": "000b000000bbd8905e592c4eb7a28b999bfedb5d3d", "profile": "http://www.citysearch.com/profile/775226180/atlanta_ga/hooters.html", "address": {"city": "Atlanta", "state": "GA", "street": "1815 the Exchange SE", "postal_code": "30339"}, "capProviderId": null, "distance": null, "has_offers": false, "name": "Hooters", "longitude": -84.479005, "has_menu": false, "awards": null, "user_review_count": 0}, {"business_operation_status": 1, "rating": null, "neighborhood": null, "image": null, "scorecard": null, "featured": false, "sample_categories": "Restaurants", "public_id": "la-hispaniola-marietta", "id": 672780210, "votes": null, "tagline": null, "has_video": false, "website": null, "offers": null, "latitude": 33.952062, "politanName": "Atlanta, GA Metro ", "phone_number": "7704240093", "tags": [{"primary": true, "id": 1722, "name": "Restaurants"}], "fax_number": null, "expansion": {"count": null, "uri": null}, "impression_id": "000b000000a5ff587de8f943f0941b16a6947235e0", "profile": "http://www.citysearch.com/profile/672780210/marietta_ga/la_hispaniola.html", "address": {"city": "Marietta", "state": "GA", "street": "168 Roswell St NE", "postal_code": "30060"}, "capProviderId": null, "distance": null, "has_offers": false, "name": "La Hispaniola", "longitude": -84.548376, "has_menu": false, "awards": null, "user_review_count": 0}, {"business_operation_status": 1, "rating": null, "neighborhood": null, "image": null, "scorecard": null, "featured": false, "sample_categories": "Restaurants, Carry Out, Pizza", "public_id": "jimmy-johns-marietta", "id": 672132390, "votes": null, "tagline": null, "has_video": false, "website": null, "offers": null, "latitude": 33.970943, "politanName": "Atlanta, GA Metro ", "phone_number": "6785814550", "tags": [{"primary": false, "id": 11247, "name": "Carry Out"}, {"primary": false, "id": 11299, "name": "Pizza"}, {"primary": true, "id": 1722, "name": "Restaurants"}], "fax_number": null, "expansion": {"count": null, "uri": null}, "impression_id": "000b0000008ab2ad8f4d0b4be7a944c7ec50cf51cd", "profile": "http://www.citysearch.com/profile/672132390/marietta_ga/jimmy_john_s.html", "address": {"city": "Marietta", "state": "GA", "street": "801 Church St NE Ste A", "postal_code": "30060"}, "capProviderId": null, "distance": null, "has_offers": false, "name": "Jimmy John's", "longitude": -84.550624, "has_menu": false, "awards": null, "user_review_count": 0}, {"business_operation_status": 1, "rating": null, "neighborhood": null, "image": null, "scorecard": null, "featured": false, "sample_categories": "Barbecue Restaurants", "public_id": "wanyes-brother-bbq-marietta", "id": 777668500, "votes": null, "tagline": null, "has_video": false, "website": null, "offers": null, "latitude": 33.977691, "politanName": "Atlanta, GA Metro ", "phone_number": "6783313892", "tags": [{"primary": true, "id": 1724, "name": "Barbecue Restaurants"}], "fax_number": null, "expansion": {"count": null, "uri": null}, "impression_id": "000b000000e8d7e8b933fc4f66980fe62fe7c95b12", "profile": "http://www.citysearch.com/profile/777668500/marietta_ga/wanye_s_brother_bbq.html", "address": {"city": "Marietta", "state": "GA", "street": "1160 Hayes Industrial Dr", "postal_code": "30062"}, "capProviderId": null, "distance": null, "has_offers": false, "name": "Wanye's Brother BBQ", "longitude": -84.542327, "has_menu": false, "awards": null, "user_review_count": 0}, {"business_operation_status": 1, "rating": null, "neighborhood": null, "image": null, "scorecard": null, "featured": false, "sample_categories": "Restaurants", "public_id": "noca-roswell", "id": 777669130, "votes": null, "tagline": null, "has_video": false, "website": "http://www.citysearch.com/profile/external/777669130/roswell_ga/noca.html", "offers": null, "latitude": 34.030534, "politanName": "Atlanta, GA Metro ", "phone_number": "7709928866", "tags": [{"primary": true, "id": 1722, "name": "Restaurants"}], "fax_number": null, "expansion": {"count": null, "uri": null}, "impression_id": "000b000000cdb4f7b889364fde834637e69c36e5b0", "profile": "http://www.citysearch.com/profile/777669130/roswell_ga/noca.html", "address": {"city": "Roswell", "state": "GA", "street": "1170 Canton St", "postal_code": "30075"}, "capProviderId": null, "distance": null, "has_offers": false, "name": "Noca", "longitude": -84.361529, "has_menu": false, "awards": null, "user_review_count": 0}, {"business_operation_status": 1, "rating": null, "neighborhood": null, "image": null, "scorecard": null, "featured": false, "sample_categories": "Restaurants", "public_id": "blue-agave-marietta", "id": 777622960, "votes": null, "tagline": null, "has_video": false, "website": null, "offers": null, "latitude": 33.927644, "politanName": "Atlanta, GA Metro ", "phone_number": "6786641133", "tags": [{"primary": true, "id": 1722, "name": "Restaurants"}], "fax_number": null, "expansion": {"count": null, "uri": null}, "impression_id": "000b000000c9729e10a4e8424680ff5983a53d3394", "profile": "http://www.citysearch.com/profile/777622960/marietta_ga/blue_agave.html", "address": {"city": "Marietta", "state": "GA", "street": "1090 Northchase Pkwy Se", "postal_code": "30067"}, "capProviderId": null, "distance": null, "has_offers": false, "name": "Blue Agave", "longitude": -84.482308, "has_menu": false, "awards": null, "user_review_count": 0}, {"business_operation_status": 1, "rating": null, "neighborhood": null, "image": null, "scorecard": null, "featured": false, "sample_categories": "Restaurants", "public_id": "hoboken-cafe-marietta", "id": 777676340, "votes": null, "tagline": null, "has_video": false, "website": null, "offers": null, "latitude": 33.951914, "politanName": "Atlanta, GA Metro ", "phone_number": "6789093375", "tags": [{"primary": true, "id": 1722, "name": "Restaurants"}], "fax_number": null, "expansion": {"count": null, "uri": null}, "impression_id": "000b000000d380f2e9397243a1b9078d275530c91f", "profile": "http://www.citysearch.com/profile/777676340/marietta_ga/hoboken_cafe.html", "address": {"city": "Marietta", "state": "GA", "street": "688 Whitlock Ave NW", "postal_code": "30064"}, "capProviderId": null, "distance": null, "has_offers": false, "name": "Hoboken Cafe", "longitude": -84.57265, "has_menu": false, "awards": null, "user_review_count": 0}, {"business_operation_status": 1, "rating": null, "neighborhood": null, "image": null, "scorecard": null, "featured": false, "sample_categories": "Restaurants, Pizza", "public_id": "village-slice-pizza-roswell", "id": 777726470, "votes": null, "tagline": null, "has_video": false, "website": null, "offers": null, "latitude": 34.073047, "politanName": "Atlanta, GA Metro ", "phone_number": "6784618272", "tags": [{"primary": false, "id": 11299, "name": "Pizza"}, {"primary": true, "id": 1722, "name": "Restaurants"}], "fax_number": null, "expansion": {"count": null, "uri": null}, "impression_id": "000b000000901f5ee7ff114636954e311f8e66d71a", "profile": "http://www.citysearch.com/profile/777726470/roswell_ga/village_slice_pizza.html", "address": {"city": "Roswell", "state": "GA", "street": "12020 Etris Rd # B140", "postal_code": "30075"}, "capProviderId": null, "distance": null, "has_offers": false, "name": "Village Slice Pizza", "longitude": -84.361591, "has_menu": false, "awards": null, "user_review_count": 1}, {"business_operation_status": 1, "rating": null, "neighborhood": null, "image": null, "scorecard": null, "featured": false, "sample_categories": "Restaurants, Catering, Delis And Delicatessens, Carry Out", "public_id": "jimmy-johns-marietta-3", "id": 796130460, "votes": null, "tagline": null, "has_video": false, "website": "http://www.citysearch.com/profile/external/796130460/marietta_ga/jimmy_john_s.html", "offers": null, "latitude": 33.91914, "politanName": "Atlanta, GA Metro ", "phone_number": "6783243630", "tags": [{"primary": false, "id": 1705, "name": "Catering"}, {"primary": false, "id": 1727, "name": "Delis And Delicatessens"}, {"primary": false, "id": 11247, "name": "Carry Out"}, {"primary": true, "id": 1722, "name": "Restaurants"}], "fax_number": null, "expansion": {"count": null, "uri": null}, "impression_id": "000b0000001b56ddc507154f98954f2200e392259f", "profile": "http://www.citysearch.com/profile/796130460/marietta_ga/jimmy_john_s.html", "address": {"city": "Marietta", "state": "GA", "street": "1337 Powers Ferry Rd Se", "postal_code": "30067"}, "capProviderId": null, "distance": null, "has_offers": false, "name": "Jimmy John's", "longitude": -84.466839, "has_menu": false, "awards": null, "user_review_count": 0}, {"business_operation_status": 1, "rating": null, "neighborhood": null, "image": null, "scorecard": null, "featured": false, "sample_categories": "Restaurants", "public_id": "sandy-springs-atlanta-2", "id": 35735254, "votes": null, "tagline": null, "has_video": false, "website": null, "offers": null, "latitude": 33.924784, "politanName": "Atlanta, GA Metro ", "phone_number": "4042564600", "tags": [{"primary": true, "id": 1722, "name": "Restaurants"}], "fax_number": null, "expansion": {"count": null, "uri": null}, "impression_id": "000b0000006ecb10f0153a49779812063154afbf12", "profile": "http://www.citysearch.com/profile/35735254/atlanta_ga/sandy_springs.html", "address": {"city": "Atlanta", "state": "GA", "street": "235 Johnson Ferry Road", "postal_code": "30328"}, "capProviderId": null, "distance": null, "has_offers": false, "name": "Sandy Springs", "longitude": -84.381817, "has_menu": false, "awards": null, "user_review_count": 0}, {"business_operation_status": 1, "rating": null, "neighborhood": null, "image": null, "scorecard": null, "featured": false, "sample_categories": "Restaurants", "public_id": "d-c-backyard-grill-inc-marietta", "id": 798805340, "votes": null, "tagline": null, "has_video": false, "website": null, "offers": null, "latitude": 33.942612, "politanName": "Atlanta, GA Metro ", "phone_number": "7709198797", "tags": [{"primary": true, "id": 1722, "name": "Restaurants"}], "fax_number": null, "expansion": {"count": null, "uri": null}, "impression_id": "000b000000b62f14e9ff8a47b3a41be0b612df6a89", "profile": "http://www.citysearch.com/profile/798805340/marietta_ga/d_c_backyard_grill_inc.html", "address": {"city": "Marietta", "state": "GA", "street": "547 Atlanta St Se", "postal_code": "30060"}, "capProviderId": null, "distance": null, "has_offers": false, "name": "D C Backyard Grill INC", "longitude": -84.545574, "has_menu": false, "awards": null, "user_review_count": 0}, {"business_operation_status": 1, "rating": null, "neighborhood": null, "image": null, "scorecard": null, "featured": false, "sample_categories": "Restaurants", "public_id": "las-drisas-number-2-marietta", "id": 713600220, "votes": null, "tagline": null, "has_video": false, "website": null, "offers": null, "latitude": 33.935213, "politanName": "Atlanta, GA Metro ", "phone_number": "6783542220", "tags": [{"primary": true, "id": 1722, "name": "Restaurants"}], "fax_number": null, "expansion": {"count": null, "uri": null}, "impression_id": "000b000000656791286d5e4f44ac7ba9dabaf6b417", "profile": "http://www.citysearch.com/profile/713600220/marietta_ga/las_drisas_number_2.html", "address": {"city": "Marietta", "state": "GA", "street": "715 Sandtown Rd Sw", "postal_code": "30008"}, "capProviderId": null, "distance": null, "has_offers": false, "name": "Las Drisas Number 2", "longitude": -84.555821, "has_menu": false, "awards": null, "user_review_count": 0}, {"business_operation_status": 1, "rating": null, "neighborhood": null, "image": null, "scorecard": null, "featured": false, "sample_categories": "Catering, Restaurants, Carry Out, Indian, Indian Goods", "public_id": "indian-chef-roswell", "id": 724613570, "votes": null, "tagline": null, "has_video": false, "website": "http://www.citysearch.com/profile/external/724613570/roswell_ga/indian_chef.html", "offers": null, "latitude": 34.03202, "politanName": "Atlanta, GA Metro ", "phone_number": "7708170661", "tags": [{"primary": false, "id": 1722, "name": "Restaurants"}, {"primary": false, "id": 11247, "name": "Carry Out"}, {"primary": false, "id": 11277, "name": "Indian"}, {"primary": false, "id": 12318, "name": "Indian Goods"}, {"primary": true, "id": 1705, "name": "Catering"}], "fax_number": null, "expansion": {"count": null, "uri": null}, "impression_id": "000b000000356736036fcb4b299fddc584b7883138", "profile": "http://www.citysearch.com/profile/724613570/roswell_ga/indian_chef.html", "address": {"city": "Roswell", "state": "GA", "street": "720 Holcomb Bridge Rd", "postal_code": "30076"}, "capProviderId": null, "distance": null, "has_offers": false, "name": "Indian Chef", "longitude": -84.339248, "has_menu": true, "awards": null, "user_review_count": 2}, {"business_operation_status": 1, "rating": null, "neighborhood": null, "image": null, "scorecard": null, "featured": false, "sample_categories": "Restaurants", "public_id": "c-j-cafe-atlanta", "id": 817633510, "votes": null, "tagline": null, "has_video": false, "website": null, "offers": null, "latitude": 33.914823, "politanName": "Atlanta, GA Metro ", "phone_number": "4048439841", "tags": [{"primary": true, "id": 1722, "name": "Restaurants"}], "fax_number": null, "expansion": {"count": null, "uri": null}, "impression_id": "000b000000e642ae0383d6406d81c8c9f23a760236", "profile": "http://www.citysearch.com/profile/817633510/atlanta_ga/c_j_cafe.html", "address": {"city": "Atlanta", "state": "GA", "street": "5825 Glenridge Dr", "postal_code": "30328"}, "capProviderId": null, "distance": null, "has_offers": false, "name": "C J Cafe", "longitude": -84.361566, "has_menu": false, "awards": null, "user_review_count": 0}, {"business_operation_status": 1, "rating": null, "neighborhood": null, "image": null, "scorecard": null, "featured": false, "sample_categories": "Restaurants", "public_id": "great-panda-restaurant-marietta", "id": 814222940, "votes": null, "tagline": null, "has_video": false, "website": null, "offers": null, "latitude": 33.953111, "politanName": "Atlanta, GA Metro ", "phone_number": "7704282831", "tags": [{"primary": true, "id": 1722, "name": "Restaurants"}], "fax_number": null, "expansion": {"count": null, "uri": null}, "impression_id": "000b0000004da2c4ebfd044fbdbb241572f59045fe", "profile": "http://www.citysearch.com/profile/814222940/marietta_ga/great_panda_restaurant.html", "address": {"city": "Marietta", "state": "GA", "street": "1000 Whitlock Ave NW", "postal_code": "30064"}, "capProviderId": null, "distance": null, "has_offers": false, "name": "Great Panda Restaurant", "longitude": -84.581272, "has_menu": false, "awards": null, "user_review_count": 0}, {"business_operation_status": 1, "rating": 8.0, "neighborhood": null, "image": null, "scorecard": null, "featured": false, "sample_categories": "Restaurants, Advertising, Ice Cream Parlors, $", "public_id": "ben-jerrys-marietta", "id": 45009019, "votes": null, "tagline": null, "has_video": false, "website": null, "offers": null, "latitude": 33.944038, "politanName": "Atlanta, GA Metro ", "phone_number": "7704248851", "tags": [{"primary": false, "id": 1722, "name": "Restaurants"}, {"primary": false, "id": 3372, "name": "Advertising"}, {"primary": false, "id": 11231, "name": "$"}, {"primary": true, "id": 1730, "name": "Ice Cream Parlors"}], "fax_number": null, "expansion": {"count": null, "uri": null}, "impression_id": "000b000000f32655bfb11042b2aaf2a00410ef85e4", "profile": "http://www.citysearch.com/profile/45009019/marietta_ga/ben_jerry_s.html", "address": {"city": "Marietta", "state": "GA", "street": "330 Franklin Rd SE", "postal_code": "30067"}, "capProviderId": null, "distance": null, "has_offers": false, "name": "Ben & Jerry's", "longitude": -84.512153, "has_menu": true, "awards": null, "user_review_count": 0}, {"business_operation_status": 1, "rating": null, "neighborhood": null, "image": null, "scorecard": null, "featured": false, "sample_categories": "Restaurants", "public_id": "burger-kin-atlanta", "id": 819870960, "votes": null, "tagline": null, "has_video": false, "website": null, "offers": null, "latitude": 33.930788, "politanName": "Atlanta, GA Metro ", "phone_number": "4042507888", "tags": [{"primary": true, "id": 1722, "name": "Restaurants"}], "fax_number": null, "expansion": {"count": null, "uri": null}, "impression_id": "000b0000004a1043e662014a91968974dd989951c5", "profile": "http://www.citysearch.com/profile/819870960/atlanta_ga/burger_kin.html", "address": {"city": "Atlanta", "state": "GA", "street": "1050 Crown Pointe Pkwy", "postal_code": "30338"}, "capProviderId": null, "distance": null, "has_offers": false, "name": "Burger Kin", "longitude": -84.344855, "has_menu": false, "awards": null, "user_review_count": 0}, {"business_operation_status": 1, "rating": null, "neighborhood": null, "image": null, "scorecard": null, "featured": false, "sample_categories": "Restaurants", "public_id": "pete-sneaky-inc-marietta", "id": 821568530, "votes": null, "tagline": null, "has_video": false, "website": null, "offers": null, "latitude": 33.906504, "politanName": "Atlanta, GA Metro ", "phone_number": "7709714838", "tags": [{"primary": true, "id": 1722, "name": "Restaurants"}], "fax_number": null, "expansion": {"count": null, "uri": null}, "impression_id": "000b000000665ea03b62dd4e5dad149b4052eed0ed", "profile": "http://www.citysearch.com/profile/821568530/marietta_ga/pete_sneaky_inc.html", "address": {"city": "Marietta", "state": "GA", "street": "PO Box 6572", "postal_code": "30065"}, "capProviderId": null, "distance": null, "has_offers": false, "name": "Pete Sneaky Inc", "longitude": -84.488386, "has_menu": false, "awards": null, "user_review_count": 0}, {"business_operation_status": 1, "rating": null, "neighborhood": null, "image": null, "scorecard": null, "featured": false, "sample_categories": "Restaurants", "public_id": "playa-azul-restaurant-marietta", "id": 822491930, "votes": null, "tagline": null, "has_video": false, "website": null, "offers": null, "latitude": 33.941881, "politanName": "Atlanta, GA Metro ", "phone_number": "6785946635", "tags": [{"primary": true, "id": 1722, "name": "Restaurants"}], "fax_number": null, "expansion": {"count": null, "uri": null}, "impression_id": "000b000000d3a7fc565bfd46a786af6e991ee76c48", "profile": "http://www.citysearch.com/profile/822491930/marietta_ga/playa_azul_restaurant.html", "address": {"city": "Marietta", "state": "GA", "street": "401 Rose Dr # 201", "postal_code": "30060"}, "capProviderId": null, "distance": null, "has_offers": false, "name": "Playa Azul Restaurant", "longitude": -84.523857, "has_menu": false, "awards": null, "user_review_count": 0}, {"business_operation_status": 1, "rating": null, "neighborhood": null, "image": null, "scorecard": null, "featured": false, "sample_categories": "Restaurants", "public_id": "atlanta-marriott-perimeter-center-atlanta", "id": 822770570, "votes": null, "tagline": null, "has_video": false, "website": null, "offers": null, "latitude": 33.93241, "politanName": "Atlanta, GA Metro ", "phone_number": "7703996422", "tags": [{"primary": true, "id": 1722, "name": "Restaurants"}], "fax_number": null, "expansion": {"count": null, "uri": null}, "impression_id": "000b00000098b7305e65c04ce7bdeb4ba0685a6261", "profile": "http://www.citysearch.com/profile/822770570/atlanta_ga/atlanta_marriott_perimeter_center.html", "address": {"city": "Atlanta", "state": "GA", "street": "246 Perimeter Walk", "postal_code": "30338"}, "capProviderId": null, "distance": null, "has_offers": false, "name": "Atlanta Marriott Perimeter Center", "longitude": -84.345166, "has_menu": false, "awards": null, "user_review_count": 0}, {"business_operation_status": 1, "rating": null, "neighborhood": null, "image": null, "scorecard": null, "featured": false, "sample_categories": "Restaurants", "public_id": "garden-fresh-restaurant-corp-atlanta", "id": 837415640, "votes": null, "tagline": null, "has_video": false, "website": null, "offers": null, "latitude": 33.929435, "politanName": "Atlanta, GA Metro ", "phone_number": "7709130203", "tags": [{"primary": true, "id": 1722, "name": "Restaurants"}], "fax_number": null, "expansion": {"count": null, "uri": null}, "impression_id": "000b0000002e577bc3d11a43b4bde18f00124f58e4", "profile": "http://www.citysearch.com/profile/837415640/atlanta_ga/garden_fresh_restaurant_corp.html", "address": {"city": "Atlanta", "state": "GA", "street": "6350 Peachtree Dunwoody Rd", "postal_code": "30328"}, "capProviderId": null, "distance": null, "has_offers": false, "name": "Garden Fresh Restaurant Corp", "longitude": -84.355136, "has_menu": false, "awards": null, "user_review_count": 0}, {"business_operation_status": 1, "rating": null, "neighborhood": null, "image": null, "scorecard": null, "featured": false, "sample_categories": "Restaurants, Chinese", "public_id": "great-panda-co-sandy-spgs", "id": 632900960, "votes": null, "tagline": null, "has_video": false, "website": null, "offers": null, "latitude": 33.92187, "politanName": "Atlanta, GA Metro ", "phone_number": "7706130023", "tags": [{"primary": false, "id": 11252, "name": "Chinese"}, {"primary": true, "id": 1722, "name": "Restaurants"}], "fax_number": null, "expansion": {"count": null, "uri": null}, "impression_id": "000b0000005c9224436aaf4355843a4426c553aed1", "profile": "http://www.citysearch.com/profile/632900960/sandy_springs_ga/great_panda_co.html", "address": {"city": "Sandy Springs", "state": "GA", "street": "6125 Roswell Rd", "postal_code": "30328"}, "capProviderId": null, "distance": null, "has_offers": false, "name": "Great Panda Co", "longitude": -84.379134, "has_menu": true, "awards": null, "user_review_count": 0}, {"business_operation_status": 1, "rating": null, "neighborhood": null, "image": null, "scorecard": null, "featured": false, "sample_categories": "Restaurants, MasterCard, Visa", "public_id": "top-meal-restaurant-sandy-spgs", "id": 605565740, "votes": null, "tagline": null, "has_video": false, "website": null, "offers": null, "latitude": 33.908964, "politanName": "Atlanta, GA Metro ", "phone_number": "7709331711", "tags": [{"primary": false, "id": 11361, "name": "MasterCard"}, {"primary": false, "id": 11382, "name": "Visa"}, {"primary": true, "id": 1722, "name": "Restaurants"}], "fax_number": null, "expansion": {"count": null, "uri": null}, "impression_id": "000b000000d40e49f85aeb497591ea7a166457f230", "profile": "http://www.citysearch.com/profile/605565740/sandy_springs_ga/top_meal_restaurant.html", "address": {"city": "Sandy Springs", "state": "GA", "street": "5660 New Northside Dr Nw", "postal_code": "30328"}, "capProviderId": null, "distance": null, "has_offers": false, "name": "Top Meal Restaurant", "longitude": -84.431126, "has_menu": false, "awards": null, "user_review_count": 0}, {"business_operation_status": 1, "rating": 8.0, "neighborhood": null, "image": null, "scorecard": null, "featured": false, "sample_categories": "Restaurants, Cajun & Creole, Carry Out, American Express, Cash", "public_id": "folks-southern-kitchen-marietta", "id": 2908299, "votes": null, "tagline": null, "has_video": false, "website": "http://www.citysearch.com/profile/external/2908299/marietta_ga/folks_southern_kitchen.html", "offers": null, "latitude": 33.995805, "politanName": "Atlanta, GA Metro ", "phone_number": "7704252322", "tags": [{"primary": false, "id": 11245, "name": "Cajun & Creole"}, {"primary": false, "id": 11247, "name": "Carry Out"}, {"primary": false, "id": 11333, "name": "American Express"}, {"primary": false, "id": 11339, "name": "Cash"}, {"primary": false, "id": 11349, "name": "Discover"}, {"primary": false, "id": 11361, "name": "MasterCard"}, {"primary": false, "id": 11382, "name": "Visa"}, {"primary": true, "id": 1722, "name": "Restaurants"}], "fax_number": null, "expansion": {"count": null, "uri": null}, "impression_id": "000b0000000b97f386b8ae432e9c601a32d6f5bcb8", "profile": "http://www.citysearch.com/profile/2908299/marietta_ga/folks_southern_kitchen.html", "address": {"city": "Marietta", "state": "GA", "street": "825 Sandy Plains Rd", "postal_code": "30066"}, "capProviderId": null, "distance": null, "has_offers": false, "name": "Folks Southern Kitchen", "longitude": -84.526018, "has_menu": true, "awards": null, "user_review_count": 1}, {"business_operation_status": 1, "rating": null, "neighborhood": null, "image": null, "scorecard": null, "featured": false, "sample_categories": "Restaurants", "public_id": "b-c-studio-atlanta-2", "id": 682624090, "votes": null, "tagline": null, "has_video": false, "website": null, "offers": null, "latitude": 33.907154, "politanName": "Atlanta, GA Metro ", "phone_number": "6789907691", "tags": [{"primary": true, "id": 1722, "name": "Restaurants"}], "fax_number": null, "expansion": {"count": null, "uri": null}, "impression_id": "000b000000401cf10b122a435fa10f850e81998cfc", "profile": "http://www.citysearch.com/profile/682624090/atlanta_ga/b_c_studio.html", "address": {"city": "Atlanta", "state": "GA", "street": "1820 The Exchange Se", "postal_code": "30339"}, "capProviderId": null, "distance": null, "has_offers": false, "name": "B & C Studio", "longitude": -84.479182, "has_menu": false, "awards": null, "user_review_count": 0}, {"business_operation_status": 1, "rating": null, "neighborhood": null, "image": null, "scorecard": null, "featured": false, "sample_categories": "Restaurants, Carry Out, Hamburgers", "public_id": "five-guys-burgers-fries-atlanta-6", "id": 622023500, "votes": null, "tagline": null, "has_video": false, "website": "http://www.citysearch.com/profile/external/622023500/atlanta_ga/five_guys_burgers_fries.html", "offers": null, "latitude": 33.894565, "politanName": "Atlanta, GA Metro ", "phone_number": "4046296577", "tags": [{"primary": false, "id": 11247, "name": "Carry Out"}, {"primary": false, "id": 11270, "name": "Hamburgers"}, {"primary": true, "id": 1722, "name": "Restaurants"}], "fax_number": null, "expansion": {"count": null, "uri": null}, "impression_id": "000b00000045926cf90621402597660a6693934244", "profile": "http://www.citysearch.com/profile/622023500/atlanta_ga/five_guys_burgers_fries.html", "address": {"city": "Atlanta", "state": "GA", "street": "2400 Herodian Way", "postal_code": "30331"}, "capProviderId": null, "distance": null, "has_offers": false, "name": "Five Guys Burgers & Fries", "longitude": -84.472334, "has_menu": false, "awards": null, "user_review_count": 0}, {"business_operation_status": 1, "rating": null, "neighborhood": null, "image": null, "scorecard": null, "featured": false, "sample_categories": "Restaurants", "public_id": "chicken-boss-llc-marietta", "id": 627930504, "votes": null, "tagline": null, "has_video": false, "website": null, "offers": null, "latitude": 33.933122, "politanName": "Atlanta, GA Metro ", "phone_number": "7705080980", "tags": [{"primary": true, "id": 1722, "name": "Restaurants"}], "fax_number": null, "expansion": {"count": null, "uri": null}, "impression_id": "000b000000bf97133e530a4fb3a4d94d0d9b5d01ea", "profile": "http://www.citysearch.com/profile/627930504/marietta_ga/chicken_boss_llc.html", "address": {"city": "Marietta", "state": "GA", "street": "803 Powder Springs St", "postal_code": "30064"}, "capProviderId": null, "distance": null, "has_offers": false, "name": "Chicken Boss LLC", "longitude": -84.559881, "has_menu": false, "awards": null, "user_review_count": 0}, {"business_operation_status": 1, "rating": null, "neighborhood": null, "image": null, "scorecard": null, "featured": false, "sample_categories": "Restaurants, Asian", "public_id": "ajima-asian-roswell", "id": 653613710, "votes": null, "tagline": null, "has_video": false, "website": null, "offers": null, "latitude": 34.073102, "politanName": "Atlanta, GA Metro ", "phone_number": "7706451688", "tags": [{"primary": false, "id": 11235, "name": "Asian"}, {"primary": true, "id": 1722, "name": "Restaurants"}], "fax_number": null, "expansion": {"count": null, "uri": null}, "impression_id": "000b000000972f452c50404398a029c4c85c638cb9", "profile": "http://www.citysearch.com/profile/653613710/roswell_ga/ajima_asian.html", "address": {"city": "Roswell", "state": "GA", "street": "12040 Etris Rd", "postal_code": "30075"}, "capProviderId": null, "distance": null, "has_offers": false, "name": "Ajima Asian", "longitude": -84.362597, "has_menu": false, "awards": null, "user_review_count": 0}, {"business_operation_status": 1, "rating": null, "neighborhood": null, "image": null, "scorecard": null, "featured": false, "sample_categories": "Restaurants", "public_id": "proper-taco-atlanta", "id": 732165250, "votes": null, "tagline": null, "has_video": false, "website": null, "offers": null, "latitude": 33.964714, "politanName": "Atlanta, GA Metro ", "phone_number": "6784439222", "tags": [{"primary": true, "id": 1722, "name": "Restaurants"}], "fax_number": null, "expansion": {"count": null, "uri": null}, "impression_id": "000b0000009966129155d04031897100c76b4cd0b9", "profile": "http://www.citysearch.com/profile/732165250/atlanta_ga/proper_taco.html", "address": {"city": "Atlanta", "state": "GA", "street": "1401 Treelodge Pkwy", "postal_code": "30350"}, "capProviderId": null, "distance": null, "has_offers": false, "name": "Proper Taco", "longitude": -84.352699, "has_menu": false, "awards": null, "user_review_count": 0}, {"business_operation_status": 1, "rating": null, "neighborhood": null, "image": null, "scorecard": null, "featured": false, "sample_categories": "Restaurants, Delis And Delicatessens, Sandwich Shops, Carry Out", "public_id": "subway-atlanta", "id": 655915720, "votes": null, "tagline": null, "has_video": false, "website": "http://www.citysearch.com/profile/external/655915720/atlanta_ga/subway.html", "offers": null, "latitude": 33.904334, "politanName": "Atlanta, GA Metro ", "phone_number": "7706611341", "tags": [{"primary": false, "id": 1727, "name": "Delis And Delicatessens"}, {"primary": false, "id": 1736, "name": "Sandwich Shops"}, {"primary": false, "id": 11247, "name": "Carry Out"}, {"primary": true, "id": 1722, "name": "Restaurants"}], "fax_number": null, "expansion": {"count": null, "uri": null}, "impression_id": "000b000000b61f5ada275042aeb32dc1848f770866", "profile": "http://www.citysearch.com/profile/655915720/atlanta_ga/subway.html", "address": {"city": "Atlanta", "state": "GA", "street": "6370 Powers Ferry Rd Nw", "postal_code": "30339"}, "capProviderId": null, "distance": null, "has_offers": false, "name": "Subway", "longitude": -84.431343, "has_menu": false, "awards": null, "user_review_count": 0}, {"business_operation_status": 1, "rating": null, "neighborhood": null, "image": null, "scorecard": null, "featured": false, "sample_categories": "Grocery Stores, Restaurants", "public_id": "super-la-vila-smyrna", "id": 655917520, "votes": null, "tagline": null, "has_video": false, "website": null, "offers": null, "latitude": 33.892933, "politanName": "Atlanta, GA Metro ", "phone_number": "7709518085", "tags": [{"primary": false, "id": 1722, "name": "Restaurants"}, {"primary": true, "id": 1713, "name": "Grocery Stores"}], "fax_number": null, "expansion": {"count": null, "uri": null}, "impression_id": "000b0000008238c67c928141449e870e86e6cfed50", "profile": "http://www.citysearch.com/profile/655917520/smyrna_ga/super_la_vila.html", "address": {"city": "Smyrna", "state": "GA", "street": "2431 Cobb Pkwy Se", "postal_code": "30080"}, "capProviderId": null, "distance": null, "has_offers": false, "name": "Super La Vila", "longitude": -84.478172, "has_menu": false, "awards": null, "user_review_count": 0}, {"business_operation_status": 1, "rating": null, "neighborhood": null, "image": null, "scorecard": null, "featured": false, "sample_categories": "Restaurants, Mexican", "public_id": "chepes-mexican-grill-iii-llc-marietta", "id": 655846240, "votes": null, "tagline": null, "has_video": false, "website": null, "offers": null, "latitude": 34.036382, "politanName": "Atlanta, GA Metro ", "phone_number": "7709711171", "tags": [{"primary": false, "id": 11208, "name": "Mexican"}, {"primary": true, "id": 1722, "name": "Restaurants"}], "fax_number": null, "expansion": {"count": null, "uri": null}, "impression_id": "000b000000357f9c7a227341a2a92f0266cc80433f", "profile": "http://www.citysearch.com/profile/655846240/marietta_ga/chepe_s_mexican_grill_iii_llc.html", "address": {"city": "Marietta", "state": "GA", "street": "3052 Shallowford Rd", "postal_code": "30062"}, "capProviderId": null, "distance": null, "has_offers": false, "name": "Chepe's Mexican Grill Iii Llc", "longitude": -84.461652, "has_menu": false, "awards": null, "user_review_count": 0}], "histograms": [], "tag_ids": [1722], "uri": "http://api.citygridmedia.com:8080/search/places/v2/search/where?has_offers=false&type=restaurant&format=json&page=40&where=30068&rpp=50&histograms=false&publisher=10000009598&region_type=circle", "did_you_mean": "", "regions": [{"latitude": 33.967813, "default_radius": 3.91, "type": "postal_code", "name": "30068", "longitude": -84.433422}], "call_id": "000b000000c7adf28c312e4ddf99937525acfb116a", "first_hit": 1951, "total_hits": 2028, "geo_ids": [26296], "page": 40, "last_hit": 2000}}