{"results": {"rpp": 50, "locations": [{"business_operation_status": 1, "rating": null, "neighborhood": null, "image": null, "scorecard": null, "featured": false, "sample_categories": "Restaurants, Pizza", "public_id": "bella-bocca-marietta", "id": 822361720, "votes": null, "tagline": null, "has_video": false, "website": null, "offers": null, "latitude": 33.951001, "politanName": "Atlanta, GA Metro ", "phone_number": "7707958984", "tags": [{"primary": false, "id": 1722, "name": "Restaurants"}, {"primary": true, "id": 11299, "name": "Pizza"}], "fax_number": null, "expansion": {"count": null, "uri": null}, "impression_id": "000b000000defa442af549465e85045f05eca86986", "profile": "http://www.citysearch.com/profile/822361720/marietta_ga/bella_bocca.html", "address": {"city": "Marietta", "state": "GA", "street": "999 Whitlock Ave SW", "postal_code": "30064"}, "capProviderId": null, "distance": null, "has_offers": false, "name": "Bella Bocca", "longitude": -84.57917, "has_menu": false, "awards": null, "user_review_count": 1}, {"business_operation_status": 1, "rating": null, "neighborhood": null, "image": null, "scorecard": null, "featured": false, "sample_categories": "Restaurants, Pizza", "public_id": "jimmys-pizza-marietta", "id": 822422560, "votes": null, "tagline": null, "has_video": false, "website": null, "offers": null, "latitude": 33.901926, "politanName": "Atlanta, GA Metro ", "phone_number": "7704357664", "tags": [{"primary": false, "id": 1722, "name": "Restaurants"}, {"primary": true, "id": 11299, "name": "Pizza"}], "fax_number": null, "expansion": {"count": null, "uri": null}, "impression_id": "000b000000b2339bf553344a268914e3adc6ae8f38", "profile": "http://www.citysearch.com/profile/822422560/marietta_ga/jimmy_s_pizza.html", "address": {"city": "Marietta", "state": "GA", "street": "495 Pat Mell Rd SW # 104", "postal_code": "30060"}, "capProviderId": null, "distance": null, "has_offers": false, "name": "Jimmy's Pizza", "longitude": -84.567429, "has_menu": false, "awards": null, "user_review_count": 0}, {"business_operation_status": 1, "rating": null, "neighborhood": null, "image": null, "scorecard": null, "featured": false, "sample_categories": "Restaurants", "public_id": "jonesgissendanner-catfish-smyrna", "id": 827366690, "votes": null, "tagline": null, "has_video": false, "website": null, "offers": null, "latitude": 33.869097, "politanName": "Atlanta, GA Metro ", "phone_number": "6785943257", "tags": [{"primary": true, "id": 1722, "name": "Restaurants"}], "fax_number": null, "expansion": {"count": null, "uri": null}, "impression_id": "000b00000002d6e6190e4e425d84889e55ead3721e", "profile": "http://www.citysearch.com/profile/827366690/smyrna_ga/jones_gissendanner_catfish.html", "address": {"city": "Smyrna", "state": "GA", "street": "2 Villa CT SE", "postal_code": "30080"}, "capProviderId": null, "distance": null, "has_offers": false, "name": "Jones-Gissendanner Catfish", "longitude": -84.495999, "has_menu": false, "awards": null, "user_review_count": 0}, {"business_operation_status": 1, "rating": null, "neighborhood": null, "image": null, "scorecard": null, "featured": false, "sample_categories": "Restaurants", "public_id": "finca-bonita-mexican-grill-marietta", "id": 838631820, "votes": null, "tagline": null, "has_video": false, "website": null, "offers": null, "latitude": 33.951258, "politanName": "Atlanta, GA Metro ", "phone_number": "7704198290", "tags": [{"primary": true, "id": 1722, "name": "Restaurants"}], "fax_number": null, "expansion": {"count": null, "uri": null}, "impression_id": "000b00000095c0f955c1e744c4ab3e1f40a49d5e12", "profile": "http://www.citysearch.com/profile/838631820/marietta_ga/finca_bonita_mexican_grill.html", "address": {"city": "Marietta", "state": "GA", "street": "1157 Roswell Rd", "postal_code": "30062"}, "capProviderId": null, "distance": null, "has_offers": false, "name": "Finca Bonita Mexican Grill", "longitude": -84.517723, "has_menu": false, "awards": null, "user_review_count": 1}, {"business_operation_status": 1, "rating": null, "neighborhood": null, "image": null, "scorecard": null, "featured": false, "sample_categories": "Restaurants", "public_id": "whitcher-street-caf-marietta", "id": 713628600, "votes": null, "tagline": null, "has_video": false, "website": null, "offers": null, "latitude": 33.967469, "politanName": "Atlanta, GA Metro ", "phone_number": "6785813888", "tags": [{"primary": true, "id": 1722, "name": "Restaurants"}], "fax_number": null, "expansion": {"count": null, "uri": null}, "impression_id": "000b000000cd60ec17678f457bb95c97d19b66dee3", "profile": "http://www.citysearch.com/profile/713628600/marietta_ga/whitcher_street_caf.html", "address": {"city": "Marietta", "state": "GA", "street": "55 Whitcher St Ne", "postal_code": "30060"}, "capProviderId": null, "distance": null, "has_offers": false, "name": "Whitcher Street Caf", "longitude": -84.551412, "has_menu": false, "awards": null, "user_review_count": 0}, {"business_operation_status": 1, "rating": null, "neighborhood": null, "image": null, "scorecard": null, "featured": false, "sample_categories": "Restaurants, Delis And Delicatessens", "public_id": "d-w-cafe-marietta", "id": 775198490, "votes": null, "tagline": null, "has_video": false, "website": null, "offers": null, "latitude": 33.972386, "politanName": "Atlanta, GA Metro ", "phone_number": "6784018966", "tags": [{"primary": false, "id": 1727, "name": "Delis And Delicatessens"}, {"primary": true, "id": 1722, "name": "Restaurants"}], "fax_number": null, "expansion": {"count": null, "uri": null}, "impression_id": "000b000000760769fc74b9409aa9ccafc273a95f6a", "profile": "http://www.citysearch.com/profile/775198490/marietta_ga/d_w_cafe.html", "address": {"city": "Marietta", "state": "GA", "street": "833 Campbell Hill St NW", "postal_code": "30060"}, "capProviderId": null, "distance": null, "has_offers": false, "name": "D W Cafe", "longitude": -84.552023, "has_menu": false, "awards": null, "user_review_count": 0}, {"business_operation_status": 1, "rating": null, "neighborhood": null, "image": null, "scorecard": null, "featured": false, "sample_categories": "Restaurants, Carry Out, Chicken", "public_id": "zaxbys-marietta-6", "id": 787134660, "votes": null, "tagline": null, "has_video": false, "website": "http://www.citysearch.com/profile/external/787134660/marietta_ga/zaxby_s.html", "offers": null, "latitude": 33.952602, "politanName": "Atlanta, GA Metro ", "phone_number": "6788521483", "tags": [{"primary": false, "id": 11247, "name": "Carry Out"}, {"primary": false, "id": 12839, "name": "Chicken"}, {"primary": true, "id": 1722, "name": "Restaurants"}], "fax_number": null, "expansion": {"count": null, "uri": null}, "impression_id": "000b000000b6009d0d8d294251abf473c81b55ab73", "profile": "http://www.citysearch.com/profile/787134660/marietta_ga/zaxby_s.html", "address": {"city": "Marietta", "state": "GA", "street": "2756 Sandy Plains Rd", "postal_code": "30066"}, "capProviderId": null, "distance": null, "has_offers": false, "name": "Zaxby's", "longitude": -84.549933, "has_menu": true, "awards": null, "user_review_count": 0}, {"business_operation_status": 1, "rating": null, "neighborhood": null, "image": null, "scorecard": null, "featured": false, "sample_categories": "Restaurants", "public_id": "bandido-wings-marietta", "id": 838396080, "votes": null, "tagline": null, "has_video": false, "website": null, "offers": null, "latitude": 33.902517, "politanName": "Atlanta, GA Metro ", "phone_number": "7706528890", "tags": [{"primary": true, "id": 1722, "name": "Restaurants"}], "fax_number": null, "expansion": {"count": null, "uri": null}, "impression_id": "000b000000074ceb7224a1473a873919e6d58b7c6d", "profile": "http://www.citysearch.com/profile/838396080/marietta_ga/bandido_wings.html", "address": {"city": "Marietta", "state": "GA", "street": "371 Pat Mell Rd SE # 137", "postal_code": "30060"}, "capProviderId": null, "distance": null, "has_offers": false, "name": "Bandido Wings", "longitude": -84.543334, "has_menu": false, "awards": null, "user_review_count": 0}, {"business_operation_status": 1, "rating": null, "neighborhood": null, "image": null, "scorecard": null, "featured": false, "sample_categories": "Food Stores, Restaurants", "public_id": "atlanta-smokehouse-prodcuts-marietta", "id": 793290190, "votes": null, "tagline": null, "has_video": false, "website": null, "offers": null, "latitude": 33.912568, "politanName": "Atlanta, GA Metro ", "phone_number": "7706934435", "tags": [{"primary": false, "id": 1722, "name": "Restaurants"}, {"primary": true, "id": 1706, "name": "Food Stores"}], "fax_number": null, "expansion": {"count": null, "uri": null}, "impression_id": "000b000000295213a6e28b44ae8c8f40995cfa3809", "profile": "http://www.citysearch.com/profile/793290190/marietta_ga/atlanta_smokehouse_prodcuts.html", "address": {"city": "Marietta", "state": "GA", "street": "1700 Enterprise Way Se", "postal_code": "30067"}, "capProviderId": null, "distance": null, "has_offers": false, "name": "Atlanta Smokehouse Prodcuts", "longitude": -84.492151, "has_menu": false, "awards": null, "user_review_count": 0}, {"business_operation_status": 1, "rating": null, "neighborhood": null, "image": null, "scorecard": null, "featured": false, "sample_categories": "Restaurants, Diners, Cafes", "public_id": "campus-cafe-marietta", "id": 33669246, "votes": null, "tagline": null, "has_video": false, "website": null, "offers": null, "latitude": 33.930756, "politanName": "Atlanta, GA Metro ", "phone_number": "7707926042", "tags": [{"primary": false, "id": 1732, "name": "Diners"}, {"primary": false, "id": 6190, "name": "Cafes"}, {"primary": true, "id": 1722, "name": "Restaurants"}], "fax_number": null, "expansion": {"count": null, "uri": null}, "impression_id": "000b000000d604d3df5e254f8890652da491ee6b37", "profile": "http://www.citysearch.com/profile/33669246/marietta_ga/campus_cafe.html", "address": {"city": "Marietta", "state": "GA", "street": "1269 Barclay Cir SE", "postal_code": "30060"}, "capProviderId": null, "distance": null, "has_offers": false, "name": "Campus Cafe", "longitude": -84.514539, "has_menu": false, "awards": null, "user_review_count": 0}, {"business_operation_status": 1, "rating": 10.0, "neighborhood": null, "image": null, "scorecard": null, "featured": false, "sample_categories": "Catering, Restaurants", "public_id": "williamson-brothers-catering-marietta", "id": 2901685, "votes": null, "tagline": null, "has_video": false, "website": "http://www.citysearch.com/profile/external/2901685/marietta_ga/williamson_brothers_catering.html", "offers": null, "latitude": 33.942617, "politanName": "Atlanta, GA Metro ", "phone_number": "7704251739", "tags": [{"primary": false, "id": 1705, "name": "Catering"}, {"primary": true, "id": 1722, "name": "Restaurants"}], "fax_number": null, "expansion": {"count": null, "uri": null}, "impression_id": "000b0000000275052f912143faa0161c4c3a64a964", "profile": "http://www.citysearch.com/profile/2901685/marietta_ga/williamson_brothers_catering.html", "address": {"city": "Marietta", "state": "GA", "street": "403 Sycamore St SE", "postal_code": "30060"}, "capProviderId": null, "distance": null, "has_offers": false, "name": "Williamson Brothers Catering", "longitude": -84.541082, "has_menu": false, "awards": null, "user_review_count": 1}, {"business_operation_status": 1, "rating": null, "neighborhood": null, "image": null, "scorecard": null, "featured": false, "sample_categories": "Restaurants", "public_id": "drive-time-marrietta", "id": 831886880, "votes": null, "tagline": null, "has_video": false, "website": null, "offers": null, "latitude": 33.939976, "politanName": "Atlanta, GA Metro ", "phone_number": "7705773077", "tags": [{"primary": true, "id": 1722, "name": "Restaurants"}], "fax_number": null, "expansion": {"count": null, "uri": null}, "impression_id": "000b0000000a99acc559964eeea441c5659e0830a2", "profile": "http://www.citysearch.com/profile/831886880/marrietta_ga/drive_time.html", "address": {"city": "Marrietta", "state": "GA", "street": "502 S Cobb Parkway", "postal_code": "30060"}, "capProviderId": null, "distance": null, "has_offers": false, "name": "Drive Time", "longitude": -84.515396, "has_menu": false, "awards": null, "user_review_count": 0}, {"business_operation_status": 1, "rating": null, "neighborhood": null, "image": null, "scorecard": null, "featured": false, "sample_categories": "Restaurants", "public_id": "j-christophers-corporate-marietta", "id": 838483640, "votes": null, "tagline": null, "has_video": false, "website": null, "offers": null, "latitude": 33.921701, "politanName": "Atlanta, GA Metro ", "phone_number": "7707381170", "tags": [{"primary": true, "id": 1722, "name": "Restaurants"}], "fax_number": null, "expansion": {"count": null, "uri": null}, "impression_id": "000b00000038ec606578124ec981bc4a26bbce0c22", "profile": "http://www.citysearch.com/profile/838483640/marietta_ga/j_christopher_s_corporate.html", "address": {"city": "Marietta", "state": "GA", "street": "1275 Powers Ferry Rd SE", "postal_code": "30067"}, "capProviderId": null, "distance": null, "has_offers": false, "name": "J Christopher's Corporate", "longitude": -84.466483, "has_menu": false, "awards": null, "user_review_count": 0}, {"business_operation_status": 1, "rating": null, "neighborhood": null, "image": null, "scorecard": null, "featured": false, "sample_categories": "Restaurants, Pizza, Carry Out", "public_id": "little-caesars-pizza-marietta-2", "id": 653582070, "votes": null, "tagline": null, "has_video": false, "website": "http://www.citysearch.com/profile/external/653582070/marietta_ga/little_caesars_pizza.html", "offers": null, "latitude": 33.952972, "politanName": "Atlanta, GA Metro ", "phone_number": "6784014181", "tags": [{"primary": false, "id": 1722, "name": "Restaurants"}, {"primary": false, "id": 11247, "name": "Carry Out"}, {"primary": true, "id": 11299, "name": "Pizza"}], "fax_number": null, "expansion": {"count": null, "uri": null}, "impression_id": "000b000000f3601d740dcc422b89f5cb022c17e14b", "profile": "http://www.citysearch.com/profile/653582070/marietta_ga/little_caesars_pizza.html", "address": {"city": "Marietta", "state": "GA", "street": "3405 Dallas Hwy Sw", "postal_code": "30064"}, "capProviderId": null, "distance": null, "has_offers": false, "name": "Little Caesars Pizza", "longitude": -84.651096, "has_menu": false, "awards": null, "user_review_count": 0}, {"business_operation_status": 1, "rating": null, "neighborhood": null, "image": null, "scorecard": null, "featured": false, "sample_categories": "Restaurants", "public_id": "silver-lodestone-inc-marietta-2", "id": 682289320, "votes": null, "tagline": null, "has_video": false, "website": null, "offers": null, "latitude": 33.938198, "politanName": "Atlanta, GA Metro ", "phone_number": "7705907778", "tags": [{"primary": true, "id": 1722, "name": "Restaurants"}], "fax_number": null, "expansion": {"count": null, "uri": null}, "impression_id": "000b0000008329ea38312d49dcbbb25ccae3e1ae22", "profile": "http://www.citysearch.com/profile/682289320/marietta_ga/silver_lodestone_inc.html", "address": {"city": "Marietta", "state": "GA", "street": "10 Garrison Rd Se", "postal_code": "30008"}, "capProviderId": null, "distance": null, "has_offers": false, "name": "Silver Lodestone INC", "longitude": -84.553364, "has_menu": false, "awards": null, "user_review_count": 0}, {"business_operation_status": 1, "rating": null, "neighborhood": null, "image": null, "scorecard": null, "featured": false, "sample_categories": "Bakeries, Restaurants", "public_id": "lapepite-france-bakery-marietta", "id": 793328380, "votes": null, "tagline": null, "has_video": false, "website": null, "offers": null, "latitude": 33.978482, "politanName": "Atlanta, GA Metro ", "phone_number": "7707904140", "tags": [{"primary": false, "id": 1722, "name": "Restaurants"}, {"primary": true, "id": 1685, "name": "Bakeries"}], "fax_number": null, "expansion": {"count": null, "uri": null}, "impression_id": "000b000000d78e661294254eb1a57ca309efc33b43", "profile": "http://www.citysearch.com/profile/793328380/marietta_ga/lapepite_france_bakery.html", "address": {"city": "Marietta", "state": "GA", "street": "1070 Atlanta Industrial Dr", "postal_code": "30066"}, "capProviderId": null, "distance": null, "has_offers": false, "name": "Lapepite France Bakery", "longitude": -84.532674, "has_menu": false, "awards": null, "user_review_count": 0}, {"business_operation_status": 1, "rating": null, "neighborhood": null, "image": null, "scorecard": null, "featured": false, "sample_categories": "Restaurants", "public_id": "thg-holdings-atlanta", "id": 813270480, "votes": null, "tagline": null, "has_video": false, "website": null, "offers": null, "latitude": 33.908822, "politanName": "Atlanta, GA Metro ", "phone_number": "7709538334", "tags": [{"primary": true, "id": 1722, "name": "Restaurants"}], "fax_number": null, "expansion": {"count": null, "uri": null}, "impression_id": "000b00000053d4c8dab7c6423b8fe204fe1c4c4bf5", "profile": "http://www.citysearch.com/profile/813270480/atlanta_ga/thg_holdings.html", "address": {"city": "Atlanta", "state": "GA", "street": "1770 The Exchange SE # 220", "postal_code": "30339"}, "capProviderId": null, "distance": null, "has_offers": false, "name": "THG Holdings", "longitude": -84.480468, "has_menu": false, "awards": null, "user_review_count": 0}, {"business_operation_status": 1, "rating": null, "neighborhood": null, "image": null, "scorecard": null, "featured": false, "sample_categories": "Restaurants, Carry Out", "public_id": "long-john-silvers-marietta-3", "id": 764851430, "votes": null, "tagline": null, "has_video": false, "website": null, "offers": null, "latitude": 33.950876, "politanName": "Atlanta, GA Metro ", "phone_number": "7704247755", "tags": [{"primary": false, "id": 11247, "name": "Carry Out"}, {"primary": true, "id": 1722, "name": "Restaurants"}], "fax_number": null, "expansion": {"count": null, "uri": null}, "impression_id": "000b000000c0ef5f1e66ab4d5abf914dcce59d2f4b", "profile": "http://www.citysearch.com/profile/764851430/marietta_ga/long_john_silver_s.html", "address": {"city": "Marietta", "state": "GA", "street": "1176 Roswell Rd", "postal_code": "30062"}, "capProviderId": null, "distance": null, "has_offers": false, "name": "Long John Silver's", "longitude": -84.518285, "has_menu": true, "awards": null, "user_review_count": 0}, {"business_operation_status": 1, "rating": null, "neighborhood": null, "image": null, "scorecard": null, "featured": false, "sample_categories": "Restaurants", "public_id": "cafe-210-smyrna", "id": 821687430, "votes": null, "tagline": null, "has_video": false, "website": null, "offers": null, "latitude": 33.89467, "politanName": "Atlanta, GA Metro ", "phone_number": "7704380077", "tags": [{"primary": true, "id": 1722, "name": "Restaurants"}], "fax_number": null, "expansion": {"count": null, "uri": null}, "impression_id": "000b00000065cfa30e984a46eaa2156dffd557191e", "profile": "http://www.citysearch.com/profile/821687430/smyrna_ga/cafe_210.html", "address": {"city": "Smyrna", "state": "GA", "street": "2233 Lake Park Dr SE", "postal_code": "30080"}, "capProviderId": null, "distance": null, "has_offers": false, "name": "Cafe 210", "longitude": -84.484401, "has_menu": false, "awards": null, "user_review_count": 0}, {"business_operation_status": 1, "rating": null, "neighborhood": null, "image": null, "scorecard": null, "featured": false, "sample_categories": "Restaurants", "public_id": "atlanta-halftime-cafe-marietta", "id": 838782380, "votes": null, "tagline": null, "has_video": false, "website": null, "offers": null, "latitude": 33.900651, "politanName": "Atlanta, GA Metro ", "phone_number": "7708500868", "tags": [{"primary": true, "id": 1722, "name": "Restaurants"}], "fax_number": null, "expansion": {"count": null, "uri": null}, "impression_id": "000b0000003613ed2b25ea4427931ed617956e4f4a", "profile": "http://www.citysearch.com/profile/838782380/marietta_ga/atlanta_halftime_cafe.html", "address": {"city": "Marietta", "state": "GA", "street": "2580 Windy Hill Rd SE", "postal_code": "30067"}, "capProviderId": null, "distance": null, "has_offers": false, "name": "Atlanta Halftime Cafe", "longitude": -84.477783, "has_menu": false, "awards": null, "user_review_count": 0}, {"business_operation_status": 1, "rating": null, "neighborhood": null, "image": null, "scorecard": null, "featured": false, "sample_categories": "Restaurants, Mexican", "public_id": "lunas-taqueria-marietta", "id": 793347450, "votes": null, "tagline": null, "has_video": false, "website": null, "offers": null, "latitude": 33.905061, "politanName": "Atlanta, GA Metro ", "phone_number": "6785569766", "tags": [{"primary": false, "id": 11208, "name": "Mexican"}, {"primary": true, "id": 1722, "name": "Restaurants"}], "fax_number": null, "expansion": {"count": null, "uri": null}, "impression_id": "000b000000df4a6f24866e484b93fc22292c795c5c", "profile": "http://www.citysearch.com/profile/793347450/marietta_ga/luna_s_taqueria.html", "address": {"city": "Marietta", "state": "GA", "street": "1977 S Cobb Dr Se", "postal_code": "30060"}, "capProviderId": null, "distance": null, "has_offers": false, "name": "Luna's Taqueria", "longitude": -84.542525, "has_menu": false, "awards": null, "user_review_count": 0}, {"business_operation_status": 1, "rating": null, "neighborhood": null, "image": null, "scorecard": null, "featured": false, "sample_categories": "Restaurants", "public_id": "hollie-guacamole-marietta", "id": 806226200, "votes": null, "tagline": null, "has_video": false, "website": null, "offers": null, "latitude": 33.952258, "politanName": "Atlanta, GA Metro ", "phone_number": "6782732403", "tags": [{"primary": true, "id": 1722, "name": "Restaurants"}], "fax_number": null, "expansion": {"count": null, "uri": null}, "impression_id": "000b00000023fe8c0918984c12a79598b922058a56", "profile": "http://www.citysearch.com/profile/806226200/marietta_ga/hollie_guacamole_.html", "address": {"city": "Marietta", "state": "GA", "street": "154 Roswell St SE", "postal_code": "30060"}, "capProviderId": null, "distance": null, "has_offers": false, "name": "Hollie Guacamole!", "longitude": -84.54874, "has_menu": false, "awards": null, "user_review_count": 0}, {"business_operation_status": 1, "rating": null, "neighborhood": null, "image": null, "scorecard": null, "featured": false, "sample_categories": "Restaurants", "public_id": "cafe-amazonia-marietta", "id": 808265410, "votes": null, "tagline": null, "has_video": false, "website": null, "offers": null, "latitude": 33.952198, "politanName": "Atlanta, GA Metro ", "phone_number": "7705796773", "tags": [{"primary": true, "id": 1722, "name": "Restaurants"}], "fax_number": null, "expansion": {"count": null, "uri": null}, "impression_id": "000b00000053e38e4edd394420b3c5ba7e95c56467", "profile": "http://www.citysearch.com/profile/808265410/marietta_ga/cafe_amazonia.html", "address": {"city": "Marietta", "state": "GA", "street": "1355 Roswell Rd # 152", "postal_code": "30062"}, "capProviderId": null, "distance": null, "has_offers": false, "name": "Cafe Amazonia", "longitude": -84.512302, "has_menu": false, "awards": null, "user_review_count": 0}, {"business_operation_status": 1, "rating": null, "neighborhood": null, "image": null, "scorecard": null, "featured": false, "sample_categories": "Restaurants", "public_id": "mythos-pizzeria-marietta", "id": 627338904, "votes": null, "tagline": null, "has_video": false, "website": null, "offers": null, "latitude": 33.953414, "politanName": "Atlanta, GA Metro ", "phone_number": "7704255100", "tags": [{"primary": true, "id": 1722, "name": "Restaurants"}], "fax_number": null, "expansion": {"count": null, "uri": null}, "impression_id": "000b0000003f93e6ae925545cea85c84500c0a7171", "profile": "http://www.citysearch.com/profile/627338904/marietta_ga/mythos_pizzeria.html", "address": {"city": "Marietta", "state": "GA", "street": "1000 Whitlock Ave NW", "postal_code": "30064"}, "capProviderId": null, "distance": null, "has_offers": false, "name": "Mythos Pizzeria", "longitude": -84.581304, "has_menu": false, "awards": null, "user_review_count": 0}, {"business_operation_status": 1, "rating": null, "neighborhood": null, "image": null, "scorecard": null, "featured": false, "sample_categories": "Restaurants", "public_id": "suniece-cafe-marietta", "id": 655897070, "votes": null, "tagline": null, "has_video": false, "website": null, "offers": null, "latitude": 33.972386, "politanName": "Atlanta, GA Metro ", "phone_number": "7704272005", "tags": [{"primary": true, "id": 1722, "name": "Restaurants"}], "fax_number": null, "expansion": {"count": null, "uri": null}, "impression_id": "000b000000e288be74269c46b897043f96fa4dfbbe", "profile": "http://www.citysearch.com/profile/655897070/marietta_ga/suniece_cafe.html", "address": {"city": "Marietta", "state": "GA", "street": "833 Campbell Hill St Nw", "postal_code": "30060"}, "capProviderId": null, "distance": null, "has_offers": false, "name": "Suniece Cafe", "longitude": -84.552023, "has_menu": false, "awards": null, "user_review_count": 0}, {"business_operation_status": 1, "rating": null, "neighborhood": null, "image": null, "scorecard": null, "featured": false, "sample_categories": "Restaurants", "public_id": "vaqueros-marietta", "id": 672714020, "votes": null, "tagline": null, "has_video": false, "website": null, "offers": null, "latitude": 33.953033, "politanName": "Atlanta, GA Metro ", "phone_number": "6787385431", "tags": [{"primary": true, "id": 1722, "name": "Restaurants"}], "fax_number": null, "expansion": {"count": null, "uri": null}, "impression_id": "000b000000d49b4f3471b44c3b9ea01bd2c90a7a44", "profile": "http://www.citysearch.com/profile/672714020/marietta_ga/vaqueros.html", "address": {"city": "Marietta", "state": "GA", "street": "1000 Whitlock Ave. #400", "postal_code": "30064"}, "capProviderId": null, "distance": null, "has_offers": false, "name": "Vaqueros", "longitude": -84.581202, "has_menu": false, "awards": null, "user_review_count": 0}, {"business_operation_status": 1, "rating": null, "neighborhood": null, "image": null, "scorecard": null, "featured": false, "sample_categories": "Restaurants", "public_id": "presto-latin-restaurant-marietta", "id": 672230170, "votes": null, "tagline": null, "has_video": false, "website": null, "offers": null, "latitude": 33.951248, "politanName": "Atlanta, GA Metro ", "phone_number": "7709731282", "tags": [{"primary": true, "id": 1722, "name": "Restaurants"}], "fax_number": null, "expansion": {"count": null, "uri": null}, "impression_id": "000b000000cddafe4b05ca46d78e2d7ff0e5c4fc73", "profile": "http://www.citysearch.com/profile/672230170/marietta_ga/presto_latin_restaurant.html", "address": {"city": "Marietta", "state": "GA", "street": "1392-B Roswell Road", "postal_code": "30062"}, "capProviderId": null, "distance": null, "has_offers": false, "name": "Presto Latin Restaurant", "longitude": -84.508172, "has_menu": false, "awards": null, "user_review_count": 0}, {"business_operation_status": 1, "rating": null, "neighborhood": null, "image": null, "scorecard": null, "featured": false, "sample_categories": "Restaurants, Carry Out, American Express, Discover, MasterCard", "public_id": "churchs-chicken-marietta-4", "id": 682647720, "votes": null, "tagline": null, "has_video": false, "website": "http://www.citysearch.com/profile/external/682647720/marietta_ga/church_s_chicken.html", "offers": null, "latitude": 33.94964, "politanName": "Atlanta, GA Metro ", "phone_number": "7704241193", "tags": [{"primary": false, "id": 11247, "name": "Carry Out"}, {"primary": false, "id": 11333, "name": "American Express"}, {"primary": false, "id": 11349, "name": "Discover"}, {"primary": false, "id": 11361, "name": "MasterCard"}, {"primary": false, "id": 11382, "name": "Visa"}, {"primary": false, "id": 12839, "name": "Chicken"}, {"primary": true, "id": 1722, "name": "Restaurants"}], "fax_number": null, "expansion": {"count": null, "uri": null}, "impression_id": "000b000000d131c31b361b4e65a3a1ee2cfba379a6", "profile": "http://www.citysearch.com/profile/682647720/marietta_ga/church_s_chicken.html", "address": {"city": "Marietta", "state": "GA", "street": "75 S Marietta Pkwy Sw", "postal_code": "30064"}, "capProviderId": null, "distance": null, "has_offers": false, "name": "Church's Chicken", "longitude": -84.55079, "has_menu": false, "awards": null, "user_review_count": 0}, {"business_operation_status": 1, "rating": null, "neighborhood": null, "image": null, "scorecard": null, "featured": false, "sample_categories": "Restaurants", "public_id": "niks-place-marietta", "id": 618038054, "votes": null, "tagline": null, "has_video": false, "website": "http://www.citysearch.com/profile/external/618038054/marietta_ga/niks_place.html", "offers": null, "latitude": 33.952096, "politanName": "Atlanta, GA Metro ", "phone_number": "7707926666", "tags": [{"primary": true, "id": 1722, "name": "Restaurants"}], "fax_number": null, "expansion": {"count": null, "uri": null}, "impression_id": "000b00000049d5191bc3704d68aed81d8f08898ead", "profile": "http://www.citysearch.com/profile/618038054/marietta_ga/niks_place.html", "address": {"city": "Marietta", "state": "GA", "street": "Whitlock Ave NW", "postal_code": "30064"}, "capProviderId": null, "distance": null, "has_offers": false, "name": "Niks Place", "longitude": -84.576903, "has_menu": true, "awards": null, "user_review_count": 0}, {"business_operation_status": 1, "rating": null, "neighborhood": null, "image": null, "scorecard": null, "featured": false, "sample_categories": "Restaurants, Ice Cream Parlors, Carry Out", "public_id": "churchs-chicken-marietta-6", "id": 812139520, "votes": null, "tagline": null, "has_video": false, "website": null, "offers": null, "latitude": 33.95153, "politanName": "Atlanta, GA Metro ", "phone_number": "7704228166", "tags": [{"primary": false, "id": 1730, "name": "Ice Cream Parlors"}, {"primary": false, "id": 11247, "name": "Carry Out"}, {"primary": true, "id": 1722, "name": "Restaurants"}], "fax_number": null, "expansion": {"count": null, "uri": null}, "impression_id": "000b000000dc324009d7a24b22be233663b8956d26", "profile": "http://www.citysearch.com/profile/812139520/marietta_ga/church_s_chicken.html", "address": {"city": "Marietta", "state": "GA", "street": "23 Powder Springs St", "postal_code": "30064"}, "capProviderId": null, "distance": null, "has_offers": false, "name": "Church's Chicken", "longitude": -84.550217, "has_menu": false, "awards": null, "user_review_count": 0}, {"business_operation_status": 1, "rating": null, "neighborhood": null, "image": null, "scorecard": null, "featured": false, "sample_categories": "Restaurants", "public_id": "san-luis-marietta-2", "id": 815793680, "votes": null, "tagline": null, "has_video": false, "website": null, "offers": null, "latitude": 33.939122, "politanName": "Atlanta, GA Metro ", "phone_number": "7705147050", "tags": [{"primary": true, "id": 1722, "name": "Restaurants"}], "fax_number": null, "expansion": {"count": null, "uri": null}, "impression_id": "000b000000348f701dddef41b2b1c10796eba5be42", "profile": "http://www.citysearch.com/profile/815793680/marietta_ga/san_luis.html", "address": {"city": "Marietta", "state": "GA", "street": "971 S Marietta Pkwy SE", "postal_code": "30060"}, "capProviderId": null, "distance": null, "has_offers": false, "name": "San Luis", "longitude": -84.526386, "has_menu": false, "awards": null, "user_review_count": 0}, {"business_operation_status": 1, "rating": 6.0, "neighborhood": null, "image": null, "scorecard": null, "featured": false, "sample_categories": "Restaurants", "public_id": "back-porch-of-marietta-marietta", "id": 37646043, "votes": null, "tagline": null, "has_video": false, "website": "http://www.citysearch.com/profile/external/37646043/marietta_ga/back_porch_of_marietta.html", "offers": null, "latitude": 33.951281, "politanName": "Atlanta, GA Metro ", "phone_number": "7707926666", "tags": [{"primary": true, "id": 1722, "name": "Restaurants"}], "fax_number": null, "expansion": {"count": null, "uri": null}, "impression_id": "000b0000008e0fcd988ce2487dab322bf5763b0d2c", "profile": "http://www.citysearch.com/profile/37646043/marietta_ga/back_porch_of_marietta.html", "address": {"city": "Marietta", "state": "GA", "street": "645 Whitlock Ave SW", "postal_code": "30064"}, "capProviderId": null, "distance": null, "has_offers": false, "name": "Back Porch Of Marietta", "longitude": -84.571275, "has_menu": false, "awards": null, "user_review_count": 1}, {"business_operation_status": 1, "rating": null, "neighborhood": null, "image": null, "scorecard": null, "featured": false, "sample_categories": "Restaurants", "public_id": "k-j-fish-chicken-marietta", "id": 816880880, "votes": null, "tagline": null, "has_video": false, "website": null, "offers": null, "latitude": 33.894433, "politanName": "Atlanta, GA Metro ", "phone_number": "7704058877", "tags": [{"primary": true, "id": 1722, "name": "Restaurants"}], "fax_number": null, "expansion": {"count": null, "uri": null}, "impression_id": "000b000000dc07b0ce8f5d446b9e0c32d95410b5cb", "profile": "http://www.citysearch.com/profile/816880880/marietta_ga/k_j_fish_chicken.html", "address": {"city": "Marietta", "state": "GA", "street": "234 Windy Hill Rd SE", "postal_code": "30060"}, "capProviderId": null, "distance": null, "has_offers": false, "name": "K J Fish & Chicken", "longitude": -84.552798, "has_menu": false, "awards": null, "user_review_count": 0}, {"business_operation_status": 1, "rating": null, "neighborhood": null, "image": null, "scorecard": null, "featured": false, "sample_categories": "Restaurants", "public_id": "real-cabana-restaurant-inc-marietta", "id": 764845910, "votes": null, "tagline": null, "has_video": false, "website": null, "offers": null, "latitude": 33.905083, "politanName": "Atlanta, GA Metro ", "phone_number": "7704364079", "tags": [{"primary": true, "id": 1722, "name": "Restaurants"}], "fax_number": null, "expansion": {"count": null, "uri": null}, "impression_id": "000b0000008c1b27a99f4b473d9bc2106174e9508a", "profile": "http://www.citysearch.com/profile/764845910/marietta_ga/real_cabana_restaurant_inc.html", "address": {"city": "Marietta", "state": "GA", "street": "1977 S Cobb Dr SE", "postal_code": "30060"}, "capProviderId": null, "distance": null, "has_offers": false, "name": "Real Cabana Restaurant Inc", "longitude": -84.542545, "has_menu": false, "awards": null, "user_review_count": 0}, {"business_operation_status": 1, "rating": null, "neighborhood": null, "image": null, "scorecard": null, "featured": false, "sample_categories": "Restaurants, Bars & Pubs", "public_id": "breaking-point-sports-bar-marietta", "id": 764906570, "votes": null, "tagline": null, "has_video": false, "website": null, "offers": null, "latitude": 33.936757, "politanName": "Atlanta, GA Metro ", "phone_number": "7704264199", "tags": [{"primary": false, "id": 1686, "name": "Bars & Pubs"}, {"primary": true, "id": 1722, "name": "Restaurants"}], "fax_number": null, "expansion": {"count": null, "uri": null}, "impression_id": "000b0000004122723215aa449daed6b974b1a6714d", "profile": "http://www.citysearch.com/profile/764906570/marietta_ga/breaking_point_sports_bar.html", "address": {"city": "Marietta", "state": "GA", "street": "680 Powder Springs St", "postal_code": "30064"}, "capProviderId": null, "distance": null, "has_offers": false, "name": "Breaking Point Sports Bar", "longitude": -84.557357, "has_menu": false, "awards": null, "user_review_count": 0}, {"business_operation_status": 1, "rating": null, "neighborhood": null, "image": null, "scorecard": null, "featured": false, "sample_categories": "Restaurants", "public_id": "wave-restaurant-lounge-marietta", "id": 828326640, "votes": null, "tagline": null, "has_video": false, "website": null, "offers": null, "latitude": 33.914806, "politanName": "Atlanta, GA Metro ", "phone_number": "6784263250", "tags": [{"primary": true, "id": 1722, "name": "Restaurants"}], "fax_number": null, "expansion": {"count": null, "uri": null}, "impression_id": "000b00000057acbdf41743451da800a0fd24a89896", "profile": "http://www.citysearch.com/profile/828326640/marietta_ga/wave_restaurant_lounge.html", "address": {"city": "Marietta", "state": "GA", "street": "2767 Windy Hill Rd SE", "postal_code": "30067"}, "capProviderId": null, "distance": null, "has_offers": false, "name": "Wave Restaurant & Lounge", "longitude": -84.45906, "has_menu": false, "awards": null, "user_review_count": 0}, {"business_operation_status": 1, "rating": null, "neighborhood": null, "image": null, "scorecard": null, "featured": false, "sample_categories": "Restaurants", "public_id": "vito-goldbergs-marietta", "id": 814374650, "votes": null, "tagline": null, "has_video": false, "website": "http://www.citysearch.com/profile/external/814374650/marietta_ga/vito_goldberg_s.html", "offers": null, "latitude": 33.951001, "politanName": "Atlanta, GA Metro ", "phone_number": "7707958631", "tags": [{"primary": true, "id": 1722, "name": "Restaurants"}], "fax_number": null, "expansion": {"count": null, "uri": null}, "impression_id": "000b000000532dba77e98a4244a597841e244121f4", "profile": "http://www.citysearch.com/profile/814374650/marietta_ga/vito_goldberg_s.html", "address": {"city": "Marietta", "state": "GA", "street": "999 Whitlock Ave SW", "postal_code": "30064"}, "capProviderId": null, "distance": null, "has_offers": false, "name": "Vito Goldberg's", "longitude": -84.57917, "has_menu": false, "awards": null, "user_review_count": 0}, {"business_operation_status": 1, "rating": null, "neighborhood": null, "image": null, "scorecard": null, "featured": false, "sample_categories": "Ice Cream Parlors", "public_id": "marble-slab-creamery-smyrna", "id": 822378770, "votes": null, "tagline": null, "has_video": false, "website": null, "offers": null, "latitude": 33.884889, "politanName": "Atlanta, GA Metro ", "phone_number": "7704333336", "tags": [{"primary": true, "id": 1730, "name": "Ice Cream Parlors"}], "fax_number": null, "expansion": {"count": null, "uri": null}, "impression_id": "000b0000005eb2566142074f40aaa70d3b9cac5252", "profile": "http://www.citysearch.com/profile/822378770/smyrna_ga/marble_slab_creamery.html", "address": {"city": "Smyrna", "state": "GA", "street": "400 Village Green Cir SE", "postal_code": "30080"}, "capProviderId": null, "distance": null, "has_offers": false, "name": "Marble Slab Creamery", "longitude": -84.516415, "has_menu": false, "awards": null, "user_review_count": 0}, {"business_operation_status": 1, "rating": null, "neighborhood": null, "image": null, "scorecard": null, "featured": false, "sample_categories": "Restaurants", "public_id": "wings-burger-haven-marietta-2", "id": 836916740, "votes": null, "tagline": null, "has_video": false, "website": null, "offers": null, "latitude": 33.948939, "politanName": "Atlanta, GA Metro ", "phone_number": "7709771411", "tags": [{"primary": true, "id": 1722, "name": "Restaurants"}], "fax_number": null, "expansion": {"count": null, "uri": null}, "impression_id": "000b00000083892b6b45ee4934803eb4785dac9a0a", "profile": "http://www.citysearch.com/profile/836916740/marietta_ga/wings_burger_haven.html", "address": {"city": "Marietta", "state": "GA", "street": "279 Powers Ferry Rd SE", "postal_code": "30067"}, "capProviderId": null, "distance": null, "has_offers": false, "name": "Wings & Burger Haven", "longitude": -84.503582, "has_menu": true, "awards": null, "user_review_count": 0}, {"business_operation_status": 1, "rating": null, "neighborhood": null, "image": null, "scorecard": null, "featured": false, "sample_categories": "Restaurants", "public_id": "bridgetown-grill-kennesaw", "id": 622308600, "votes": null, "tagline": null, "has_video": false, "website": null, "offers": null, "latitude": 34.019128, "politanName": "Atlanta, GA Metro ", "phone_number": "6782900450", "tags": [{"primary": true, "id": 1722, "name": "Restaurants"}], "fax_number": null, "expansion": {"count": null, "uri": null}, "impression_id": "000b000000f9036d0d4a94480fa44cf0f7b2f5d365", "profile": "http://www.citysearch.com/profile/622308600/kennesaw_ga/bridgetown_grill.html", "address": {"city": "Kennesaw", "state": "GA", "street": "400 Ernest W Barrett Pkwy Nw", "postal_code": "30144"}, "capProviderId": null, "distance": null, "has_offers": false, "name": "Bridgetown Grill", "longitude": -84.563608, "has_menu": false, "awards": null, "user_review_count": 1}, {"business_operation_status": 1, "rating": null, "neighborhood": null, "image": null, "scorecard": null, "featured": false, "sample_categories": "Restaurants", "public_id": "statewide-development-atlanta", "id": 808723820, "votes": null, "tagline": null, "has_video": false, "website": null, "offers": null, "latitude": 33.9093, "politanName": "Atlanta, GA Metro ", "phone_number": "6785466070", "tags": [{"primary": true, "id": 1722, "name": "Restaurants"}], "fax_number": null, "expansion": {"count": null, "uri": null}, "impression_id": "000b00000072f81ed7e936420393d0c19453299993", "profile": "http://www.citysearch.com/profile/808723820/atlanta_ga/statewide_development.html", "address": {"city": "Atlanta", "state": "GA", "street": "1775 The Exchange SE # 190", "postal_code": "30339"}, "capProviderId": null, "distance": null, "has_offers": false, "name": "Statewide Development", "longitude": -84.480035, "has_menu": false, "awards": null, "user_review_count": 0}, {"business_operation_status": 1, "rating": 8.0, "neighborhood": null, "image": null, "scorecard": null, "featured": false, "sample_categories": "Restaurants, Pizza", "public_id": "marietta-pizza-company-kennesaw", "id": 41424081, "votes": null, "tagline": null, "has_video": false, "website": null, "offers": null, "latitude": 34.016024, "politanName": "Atlanta, GA Metro ", "phone_number": "6782856722", "tags": [{"primary": false, "id": 1722, "name": "Restaurants"}, {"primary": true, "id": 11299, "name": "Pizza"}], "fax_number": null, "expansion": {"count": null, "uri": null}, "impression_id": "000b0000004867bcbba1eb4ad18e1983aa6d2a4222", "profile": "http://www.citysearch.com/profile/41424081/kennesaw_ga/marietta_pizza_company.html", "address": {"city": "Kennesaw", "state": "GA", "street": "2500 Cobb Place Ln NW", "postal_code": "30144"}, "capProviderId": null, "distance": null, "has_offers": false, "name": "Marietta Pizza Company", "longitude": -84.571897, "has_menu": true, "awards": null, "user_review_count": 0}, {"business_operation_status": 1, "rating": null, "neighborhood": null, "image": null, "scorecard": null, "featured": false, "sample_categories": "Restaurants, Ice Cream Parlors", "public_id": "tcby-marietta-3", "id": 814186530, "votes": null, "tagline": null, "has_video": false, "website": "http://www.citysearch.com/profile/external/814186530/marietta_ga/tcby.html", "offers": null, "latitude": 33.969806, "politanName": "Atlanta, GA Metro ", "phone_number": "7705798833", "tags": [{"primary": false, "id": 1730, "name": "Ice Cream Parlors"}, {"primary": true, "id": 1722, "name": "Restaurants"}], "fax_number": null, "expansion": {"count": null, "uri": null}, "impression_id": "000b00000020f54bc71ce34da59605ae27e13d96cf", "profile": "http://www.citysearch.com/profile/814186530/marietta_ga/tcby.html", "address": {"city": "Marietta", "state": "GA", "street": "2200 Roswell Rd", "postal_code": "30062"}, "capProviderId": null, "distance": null, "has_offers": false, "name": "TCBY", "longitude": -84.487911, "has_menu": true, "awards": null, "user_review_count": 0}, {"business_operation_status": 1, "rating": null, "neighborhood": null, "image": null, "scorecard": null, "featured": false, "sample_categories": "Restaurants", "public_id": "champs-barbq-smyrna", "id": 819797740, "votes": null, "tagline": null, "has_video": false, "website": null, "offers": null, "latitude": 33.896088, "politanName": "Atlanta, GA Metro ", "phone_number": "7704386618", "tags": [{"primary": true, "id": 1722, "name": "Restaurants"}], "fax_number": null, "expansion": {"count": null, "uri": null}, "impression_id": "000b00000002c98dbb6b9f448d8c68ea7b24e609e9", "profile": "http://www.citysearch.com/profile/819797740/smyrna_ga/champs_bar_b_q.html", "address": {"city": "Smyrna", "state": "GA", "street": "2300 S Cobb Dr SE", "postal_code": "30080"}, "capProviderId": null, "distance": null, "has_offers": false, "name": "Champs Bar-B-Q", "longitude": -84.539784, "has_menu": false, "awards": null, "user_review_count": 0}, {"business_operation_status": 1, "rating": null, "neighborhood": null, "image": null, "scorecard": null, "featured": false, "sample_categories": "Restaurants", "public_id": "unsukay-inc-atlanta", "id": 793286370, "votes": null, "tagline": null, "has_video": false, "website": null, "offers": null, "latitude": 33.907787, "politanName": "Atlanta, GA Metro ", "phone_number": "6784028471", "tags": [{"primary": true, "id": 1722, "name": "Restaurants"}], "fax_number": null, "expansion": {"count": null, "uri": null}, "impression_id": "000b0000004d84980225854803bd81218063b5b21a", "profile": "http://www.citysearch.com/profile/793286370/atlanta_ga/unsukay_inc.html", "address": {"city": "Atlanta", "state": "GA", "street": "1899 Powers Ferry Rd Se", "postal_code": "30339"}, "capProviderId": null, "distance": null, "has_offers": false, "name": "Unsukay INC", "longitude": -84.463769, "has_menu": false, "awards": null, "user_review_count": 0}, {"business_operation_status": 1, "rating": null, "neighborhood": null, "image": null, "scorecard": null, "featured": false, "sample_categories": "Restaurants", "public_id": "out-of-the-box-gifts-marietta", "id": 812371140, "votes": null, "tagline": null, "has_video": false, "website": null, "offers": null, "latitude": 33.982834, "politanName": "Atlanta, GA Metro ", "phone_number": "7702185455", "tags": [{"primary": true, "id": 1722, "name": "Restaurants"}], "fax_number": null, "expansion": {"count": null, "uri": null}, "impression_id": "000b00000049e4cc859b91418383e958ca86bcaa35", "profile": "http://www.citysearch.com/profile/812371140/marietta_ga/out_of_the_box_gifts.html", "address": {"city": "Marietta", "state": "GA", "street": "1343 Canton Rd", "postal_code": "30066"}, "capProviderId": null, "distance": null, "has_offers": false, "name": "Out Of The Box Gifts", "longitude": -84.538604, "has_menu": false, "awards": null, "user_review_count": 0}, {"business_operation_status": 1, "rating": null, "neighborhood": null, "image": null, "scorecard": null, "featured": false, "sample_categories": "Restaurants, Coffeehouses", "public_id": "starbucks-smyrna-6", "id": 834619900, "votes": null, "tagline": null, "has_video": false, "website": null, "offers": null, "latitude": 33.887919, "politanName": "Atlanta, GA Metro ", "phone_number": "7709550322", "tags": [{"primary": false, "id": 1726, "name": "Coffeehouses"}, {"primary": true, "id": 1722, "name": "Restaurants"}], "fax_number": null, "expansion": {"count": null, "uri": null}, "impression_id": "000b0000003128fc44254545b699a06a44689ea48e", "profile": "http://www.citysearch.com/profile/834619900/smyrna_ga/starbucks.html", "address": {"city": "Smyrna", "state": "GA", "street": "2670 Cobb Pkwy SE", "postal_code": "30080"}, "capProviderId": null, "distance": null, "has_offers": false, "name": "Starbucks", "longitude": -84.474232, "has_menu": true, "awards": null, "user_review_count": 0}, {"business_operation_status": 1, "rating": null, "neighborhood": null, "image": null, "scorecard": null, "featured": false, "sample_categories": "Coffeehouses", "public_id": "starbucks-marietta-15", "id": 781239340, "votes": null, "tagline": null, "has_video": false, "website": "http://www.citysearch.com/profile/external/781239340/marietta_ga/starbucks.html", "offers": null, "latitude": 33.91616, "politanName": "Atlanta, GA Metro ", "phone_number": "7708509807", "tags": [{"primary": true, "id": 1726, "name": "Coffeehouses"}], "fax_number": null, "expansion": {"count": null, "uri": null}, "impression_id": "000b000000646f90102e2e436a9dbd1cb6dc019b15", "profile": "http://www.citysearch.com/profile/781239340/marietta_ga/starbucks.html", "address": {"city": "Marietta", "state": "GA", "street": "1453 Terrell Mill Rd Se", "postal_code": "30067"}, "capProviderId": null, "distance": null, "has_offers": false, "name": "Starbucks", "longitude": -84.467925, "has_menu": false, "awards": null, "user_review_count": 0}, {"business_operation_status": 1, "rating": null, "neighborhood": null, "image": null, "scorecard": null, "featured": false, "sample_categories": "Restaurants, Delis And Delicatessens, Sandwich Shops, Carry Out, Soups", "public_id": "subway-marietta-33", "id": 43851179, "votes": null, "tagline": null, "has_video": false, "website": "http://www.citysearch.com/profile/external/43851179/marietta_ga/subway.html", "offers": null, "latitude": 34.019217, "politanName": "Atlanta, GA Metro ", "phone_number": "7705289499", "tags": [{"primary": false, "id": 1727, "name": "Delis And Delicatessens"}, {"primary": false, "id": 1736, "name": "Sandwich Shops"}, {"primary": false, "id": 11247, "name": "Carry Out"}, {"primary": false, "id": 11311, "name": "Soups"}, {"primary": false, "id": 11361, "name": "MasterCard"}, {"primary": false, "id": 11382, "name": "Visa"}, {"primary": true, "id": 1722, "name": "Restaurants"}], "fax_number": null, "expansion": {"count": null, "uri": null}, "impression_id": "000b00000080aa20e794034594badb04aac931bc18", "profile": "http://www.citysearch.com/profile/43851179/marietta_ga/subway.html", "address": {"city": "Marietta", "state": "GA", "street": "2795 Chastain Meadows Pkwy", "postal_code": "30066"}, "capProviderId": null, "distance": null, "has_offers": false, "name": "Subway", "longitude": -84.556431, "has_menu": true, "awards": null, "user_review_count": 0}, {"business_operation_status": 1, "rating": null, "neighborhood": null, "image": null, "scorecard": null, "featured": false, "sample_categories": "Restaurants, Food Service Management", "public_id": "la-cosecha-food-svc-marietta", "id": 44771149, "votes": null, "tagline": null, "has_video": false, "website": null, "offers": null, "latitude": 33.986297, "politanName": "Atlanta, GA Metro ", "phone_number": "7702189859", "tags": [{"primary": false, "id": 1722, "name": "Restaurants"}, {"primary": true, "id": 11120, "name": "Food Service Management"}], "fax_number": null, "expansion": {"count": null, "uri": null}, "impression_id": "000b000000b846d47ac4cf44548d31a8ad1eaaf19e", "profile": "http://www.citysearch.com/profile/44771149/marietta_ga/la_cosecha_food_service.html", "address": {"city": "Marietta", "state": "GA", "street": "1123 Cobb Pkwy S", "postal_code": "30060"}, "capProviderId": null, "distance": null, "has_offers": false, "name": "La Cosecha Food Service", "longitude": -84.569936, "has_menu": false, "awards": null, "user_review_count": 0}], "histograms": [], "tag_ids": [1722], "uri": "http://api.citygridmedia.com:8080/search/places/v2/search/where?has_offers=false&type=restaurant&format=json&page=5&where=30063&rpp=50&histograms=false&publisher=10000009598&region_type=circle", "did_you_mean": "", "regions": [{"latitude": 33.9525, "default_radius": 0.25, "type": "postal_code", "name": "30063", "longitude": -84.55}], "call_id": "000b000000cb7d3ae41cca40869be43fd2a257582f", "first_hit": 201, "total_hits": 545, "geo_ids": [137025], "page": 5, "last_hit": 250}}