{"results": {"rpp": 50, "locations": [{"business_operation_status": 1, "rating": null, "neighborhood": null, "image": "http://o5.aolcdn.com/dims-shared/dims3/PATCH/resize/600x450/http://hss-prod.hss.aol.com/hss/storage/patch/27acb4e4c0f04a7912b09bfd53b7f804", "scorecard": null, "featured": false, "sample_categories": "Doughnut Shops, Coffeehouses", "public_id": "dunkin-donuts-marietta-2", "id": 647356890, "votes": null, "tagline": null, "has_video": false, "website": "http://www.citysearch.com/profile/external/647356890/marietta_ga/dunkin_donuts.html", "offers": null, "latitude": 33.974656, "politanName": "Atlanta, GA Metro ", "phone_number": "7709718360", "tags": [{"primary": false, "id": 1726, "name": "Coffeehouses"}, {"primary": true, "id": 1734, "name": "Doughnut Shops"}], "fax_number": null, "expansion": {"count": null, "uri": null}, "impression_id": "000b00000000ca2c73028c4c7db0f2125235978801", "profile": "http://www.citysearch.com/profile/647356890/marietta_ga/dunkin_donuts.html", "address": {"city": "Marietta", "state": "GA", "street": "980 E Piedmont Rd", "postal_code": "30062"}, "capProviderId": null, "distance": null, "has_offers": false, "name": "Dunkin' Donuts", "longitude": -84.479091, "has_menu": false, "awards": null, "user_review_count": 0}, {"business_operation_status": 1, "rating": 3.0, "neighborhood": null, "image": null, "scorecard": null, "featured": false, "sample_categories": "Restaurants", "public_id": "loco-willys-marietta", "id": 655809500, "votes": null, "tagline": null, "has_video": false, "website": null, "offers": null, "latitude": 33.952594, "politanName": "Atlanta, GA Metro ", "phone_number": "7704990077", "tags": [{"primary": true, "id": 1722, "name": "Restaurants"}], "fax_number": null, "expansion": {"count": null, "uri": null}, "impression_id": "000b000000ad6ed499b9f24342aa4664d6d6491e81", "profile": "http://www.citysearch.com/profile/655809500/marietta_ga/loco_willy_s.html", "address": {"city": "Marietta", "state": "GA", "street": "800 Whitlock Ave Nw", "postal_code": "30064"}, "capProviderId": null, "distance": null, "has_offers": false, "name": "Loco Willy's", "longitude": -84.575881, "has_menu": false, "awards": null, "user_review_count": 2}, {"business_operation_status": 1, "rating": null, "neighborhood": null, "image": "http://o2.aolcdn.com/dims-shared/dims3/PATCH/resize/600x450/http://hss-prod.hss.aol.com/hss/storage/patch/dd0fe819fac066d8a771665f80c9e987", "scorecard": null, "featured": false, "sample_categories": "Restaurants, Pizza, MasterCard, Visa", "public_id": "stevi-bs-pizza-marietta", "id": 605541360, "votes": null, "tagline": null, "has_video": false, "website": "http://www.citysearch.com/profile/external/605541360/marietta_ga/stevi_b_s_pizza.html", "offers": null, "latitude": 33.950252, "politanName": "Atlanta, GA Metro ", "phone_number": "6783545694", "tags": [{"primary": false, "id": 1722, "name": "Restaurants"}, {"primary": false, "id": 11361, "name": "MasterCard"}, {"primary": false, "id": 11382, "name": "Visa"}, {"primary": true, "id": 11299, "name": "Pizza"}], "fax_number": null, "expansion": {"count": null, "uri": null}, "impression_id": "000b00000020edaca491624a1caeddd0c9727edafd", "profile": "http://www.citysearch.com/profile/605541360/marietta_ga/stevi_b_s_pizza.html", "address": {"city": "Marietta", "state": "GA", "street": "2500 Dallas Hwy Sw # 400", "postal_code": "30064"}, "capProviderId": null, "distance": null, "has_offers": false, "name": "Stevi B's Pizza", "longitude": -84.638093, "has_menu": false, "awards": null, "user_review_count": 0}, {"business_operation_status": 1, "rating": null, "neighborhood": null, "image": "http://o1.aolcdn.com/dims-shared/dims3/PATCH/resize/600x450/http://hss-prod.hss.aol.com/hss/storage/patch/8f06130d7a0d260a45b4f9ad6073d686", "scorecard": null, "featured": false, "sample_categories": "Restaurants, Mexican", "public_id": "el-tejanito-mexican-grill-marietta-2", "id": 682513710, "votes": null, "tagline": null, "has_video": false, "website": null, "offers": null, "latitude": 33.908921, "politanName": "Atlanta, GA Metro ", "phone_number": "7704360303", "tags": [{"primary": false, "id": 11208, "name": "Mexican"}, {"primary": true, "id": 1722, "name": "Restaurants"}], "fax_number": null, "expansion": {"count": null, "uri": null}, "impression_id": "000b000000ffeebf674a634d3ca10918022b73f8a6", "profile": "http://www.citysearch.com/profile/682513710/marietta_ga/el_tejanito_mexican_grill.html", "address": {"city": "Marietta", "state": "GA", "street": "1815 S Cobb Dr Se # 107", "postal_code": "30060"}, "capProviderId": null, "distance": null, "has_offers": false, "name": "El Tejanito Mexican Grill", "longitude": -84.544065, "has_menu": false, "awards": null, "user_review_count": 0}, {"business_operation_status": 1, "rating": 6.0, "neighborhood": null, "image": "http://o2.aolcdn.com/dims-shared/dims3/PATCH/resize/600x450/http://hss-prod.hss.aol.com/hss/storage/patch/4fc89531812e14e2493f1a3e9f8273d5", "scorecard": null, "featured": false, "sample_categories": "Restaurants, Bakeries, Carry Out, American Express, Discover", "public_id": "atlanta-bread-co-marietta", "id": 2908295, "votes": null, "tagline": null, "has_video": false, "website": "http://www.citysearch.com/profile/external/2908295/marietta_ga/atlanta_bread_co.html", "offers": null, "latitude": 34.020004, "politanName": "Atlanta, GA Metro ", "phone_number": "7704209225", "tags": [{"primary": false, "id": 1685, "name": "Bakeries"}, {"primary": false, "id": 11247, "name": "Carry Out"}, {"primary": false, "id": 11333, "name": "American Express"}, {"primary": false, "id": 11349, "name": "Discover"}, {"primary": false, "id": 11361, "name": "MasterCard"}, {"primary": false, "id": 11382, "name": "Visa"}, {"primary": true, "id": 1722, "name": "Restaurants"}], "fax_number": null, "expansion": {"count": null, "uri": null}, "impression_id": "000b000000b60b0a90db4146bfb81a9bc6693fce4a", "profile": "http://www.citysearch.com/profile/2908295/marietta_ga/atlanta_bread_co.html", "address": {"city": "Marietta", "state": "GA", "street": "2555 Prado Ln", "postal_code": "30066"}, "capProviderId": null, "distance": null, "has_offers": false, "name": "Atlanta Bread Co", "longitude": -84.55189, "has_menu": true, "awards": null, "user_review_count": 1}, {"business_operation_status": 1, "rating": null, "neighborhood": null, "image": "http://o3.aolcdn.com/dims-shared/dims3/PATCH/resize/600x450/http://hss-prod.hss.aol.com/hss/storage/patch/896e4cbc0fff3f60b2b1e989a2a6dade", "scorecard": null, "featured": false, "sample_categories": "Restaurants, Bars & Clubs, Bars & Pubs", "public_id": "texano-bar-grill-marietta", "id": 732177110, "votes": null, "tagline": null, "has_video": false, "website": null, "offers": null, "latitude": 33.928458, "politanName": "Atlanta, GA Metro ", "phone_number": "7709525139", "tags": [{"primary": false, "id": 164, "name": "Bars & Clubs"}, {"primary": false, "id": 1686, "name": "Bars & Pubs"}, {"primary": true, "id": 1722, "name": "Restaurants"}], "fax_number": null, "expansion": {"count": null, "uri": null}, "impression_id": "000b000000d91f88eea6e241b5a64d06f9e69688e2", "profile": "http://www.citysearch.com/profile/732177110/marietta_ga/texano_bar_grill.html", "address": {"city": "Marietta", "state": "GA", "street": "1033 Franklin Rd SE # 13", "postal_code": "30067"}, "capProviderId": null, "distance": null, "has_offers": false, "name": "Texano Bar & Grill", "longitude": -84.492995, "has_menu": false, "awards": null, "user_review_count": 0}, {"business_operation_status": 1, "rating": null, "neighborhood": null, "image": "http://o2.aolcdn.com/dims-shared/dims3/PATCH/resize/600x450/http://hss-prod.hss.aol.com/hss/storage/patch/e802bd295b1d47e92acb88ec4495bf9c", "scorecard": null, "featured": false, "sample_categories": "Restaurants, Mexican", "public_id": "taqueria-mi-pueblito-marietta", "id": 43854124, "votes": null, "tagline": null, "has_video": false, "website": null, "offers": null, "latitude": 33.928458, "politanName": "Atlanta, GA Metro ", "phone_number": "7709551133", "tags": [{"primary": false, "id": 11208, "name": "Mexican"}, {"primary": true, "id": 1722, "name": "Restaurants"}], "fax_number": null, "expansion": {"count": null, "uri": null}, "impression_id": "000b0000004e9bd670e2f5450fafca45eb0693ad42", "profile": "http://www.citysearch.com/profile/43854124/marietta_ga/taqueria_mi_pueblito.html", "address": {"city": "Marietta", "state": "GA", "street": "1033 Franklin Rd SE", "postal_code": "30067"}, "capProviderId": null, "distance": null, "has_offers": false, "name": "Taqueria Mi Pueblito", "longitude": -84.492995, "has_menu": false, "awards": null, "user_review_count": 0}, {"business_operation_status": 1, "rating": null, "neighborhood": null, "image": "http://o4.aolcdn.com/dims-shared/dims3/PATCH/resize/600x450/http://hss-prod.hss.aol.com/hss/storage/patch/adb1adfbc3165a9e1a1694110ac7d4af", "scorecard": null, "featured": false, "sample_categories": "Restaurants, Asian, American Express, Discover, MasterCard", "public_id": "grand-asian-buffett-marietta", "id": 45550255, "votes": null, "tagline": null, "has_video": false, "website": null, "offers": null, "latitude": 34.016708, "politanName": "Atlanta, GA Metro ", "phone_number": "7704232221", "tags": [{"primary": false, "id": 11235, "name": "Asian"}, {"primary": false, "id": 11333, "name": "American Express"}, {"primary": false, "id": 11349, "name": "Discover"}, {"primary": false, "id": 11361, "name": "MasterCard"}, {"primary": false, "id": 11382, "name": "Visa"}, {"primary": true, "id": 1722, "name": "Restaurants"}], "fax_number": null, "expansion": {"count": null, "uri": null}, "impression_id": "000b0000006d9fe90bb04f46148c1b739d3008fa22", "profile": "http://www.citysearch.com/profile/45550255/marietta_ga/grand_asian_buffett.html", "address": {"city": "Marietta", "state": "GA", "street": "2821 Chastain Meadows Pkwy Ste 2-250", "postal_code": "30066"}, "capProviderId": null, "distance": null, "has_offers": false, "name": "Grand Asian Buffett", "longitude": -84.556251, "has_menu": false, "awards": null, "user_review_count": 0}, {"business_operation_status": 1, "rating": null, "neighborhood": null, "image": "http://o3.aolcdn.com/dims-shared/dims3/PATCH/resize/600x450/http://hss-prod.hss.aol.com/hss/storage/patch/2e130a76582be0ee93cc5299638a9237", "scorecard": null, "featured": false, "sample_categories": "Restaurants, Japanese, Asian", "public_id": "sushi-bites-kennesaw", "id": 655846740, "votes": null, "tagline": null, "has_video": false, "website": null, "offers": null, "latitude": 34.016024, "politanName": "Atlanta, GA Metro ", "phone_number": "7707920222", "tags": [{"primary": false, "id": 11202, "name": "Japanese"}, {"primary": false, "id": 11235, "name": "Asian"}, {"primary": true, "id": 1722, "name": "Restaurants"}], "fax_number": null, "expansion": {"count": null, "uri": null}, "impression_id": "000b00000089555803c58345769810f48dab0267fe", "profile": "http://www.citysearch.com/profile/655846740/kennesaw_ga/sushi_bites.html", "address": {"city": "Kennesaw", "state": "GA", "street": "2500 Cobb Place Ln Nw", "postal_code": "30144"}, "capProviderId": null, "distance": null, "has_offers": false, "name": "Sushi Bites", "longitude": -84.571897, "has_menu": true, "awards": null, "user_review_count": 0}, {"business_operation_status": 1, "rating": null, "neighborhood": null, "image": "http://o4.aolcdn.com/dims-shared/dims3/PATCH/resize/600x450/http://hss-prod.hss.aol.com/hss/storage/patch/f020e7c3f214aed1cac877fd4b1f798f", "scorecard": null, "featured": false, "sample_categories": "Restaurants", "public_id": "stevi-bs-pizza-marietta-2", "id": 672604550, "votes": null, "tagline": null, "has_video": false, "website": "http://www.citysearch.com/profile/external/672604550/marietta_ga/stevi_b_s_pizza.html", "offers": null, "latitude": 33.908275, "politanName": "Atlanta, GA Metro ", "phone_number": "6783840052", "tags": [{"primary": true, "id": 1722, "name": "Restaurants"}], "fax_number": null, "expansion": {"count": null, "uri": null}, "impression_id": "000b0000004105ef34c4da46f99202e19d503ab983", "profile": "http://www.citysearch.com/profile/672604550/marietta_ga/stevi_b_s_pizza.html", "address": {"city": "Marietta", "state": "GA", "street": "2667 Powder Springs Road", "postal_code": "30064"}, "capProviderId": null, "distance": null, "has_offers": false, "name": "Stevi B's Pizza", "longitude": -84.600952, "has_menu": false, "awards": null, "user_review_count": 0}, {"business_operation_status": 1, "rating": null, "neighborhood": null, "image": "http://o4.aolcdn.com/dims-shared/dims3/PATCH/resize/600x450/http://hss-prod.hss.aol.com/hss/storage/patch/9fce2cc8503d44ca8754319369fa6ff8", "scorecard": null, "featured": false, "sample_categories": "Restaurants, Diners, Traditional American, Carry Out", "public_id": "waffle-house-marietta-2", "id": 601298083, "votes": null, "tagline": null, "has_video": false, "website": "http://www.citysearch.com/profile/external/601298083/marietta_ga/waffle_house.html", "offers": null, "latitude": 33.951934, "politanName": "Atlanta, GA Metro ", "phone_number": "6783547741", "tags": [{"primary": false, "id": 1732, "name": "Diners"}, {"primary": false, "id": 11190, "name": "Traditional American"}, {"primary": false, "id": 11247, "name": "Carry Out"}, {"primary": true, "id": 1722, "name": "Restaurants"}], "fax_number": null, "expansion": {"count": null, "uri": null}, "impression_id": "000b000000a731181191d540f3a1da74f5c75bbeb2", "profile": "http://www.citysearch.com/profile/601298083/marietta_ga/waffle_house.html", "address": {"city": "Marietta", "state": "GA", "street": "650 Whitlock Ave Nw", "postal_code": "30064"}, "capProviderId": null, "distance": null, "has_offers": false, "name": "Waffle House", "longitude": -84.571232, "has_menu": true, "awards": null, "user_review_count": 1}, {"business_operation_status": 1, "rating": null, "neighborhood": null, "image": "http://o3.aolcdn.com/dims-shared/dims3/PATCH/resize/600x450/http://hss-prod.hss.aol.com/hss/storage/patch/2ce9ceefabf6ad41ebd346a50e0eaf1e", "scorecard": null, "featured": false, "sample_categories": "Restaurants", "public_id": "starlight-cafe-marietta", "id": 672361670, "votes": null, "tagline": null, "has_video": false, "website": null, "offers": null, "latitude": 33.952296, "politanName": "Atlanta, GA Metro ", "phone_number": "7704194668", "tags": [{"primary": true, "id": 1722, "name": "Restaurants"}], "fax_number": null, "expansion": {"count": null, "uri": null}, "impression_id": "000b000000ed186562513d41e598b0fafca7891609", "profile": "http://www.citysearch.com/profile/672361670/marietta_ga/starlight_cafe.html", "address": {"city": "Marietta", "state": "GA", "street": "166 Roswell Street", "postal_code": "30060"}, "capProviderId": null, "distance": null, "has_offers": false, "name": "Starlight Cafe", "longitude": -84.548467, "has_menu": false, "awards": null, "user_review_count": 0}, {"business_operation_status": 1, "rating": null, "neighborhood": null, "image": "http://o3.aolcdn.com/dims-shared/dims3/PATCH/resize/600x450/http://hss-prod.hss.aol.com/hss/storage/patch/68039d3fe959e72a929f836a642a2f84", "scorecard": null, "featured": false, "sample_categories": "Restaurants, Diners", "public_id": "divine-diner-marietta", "id": 647350040, "votes": null, "tagline": null, "has_video": false, "website": null, "offers": null, "latitude": 33.997727, "politanName": "Atlanta, GA Metro ", "phone_number": "7704210225", "tags": [{"primary": false, "id": 1732, "name": "Diners"}, {"primary": true, "id": 1722, "name": "Restaurants"}], "fax_number": null, "expansion": {"count": null, "uri": null}, "impression_id": "000b0000008ccdb19b929544b4ad7966f96c4392ec", "profile": "http://www.citysearch.com/profile/647350040/marietta_ga/divine_diner.html", "address": {"city": "Marietta", "state": "GA", "street": "1951 Canton Rd", "postal_code": "30066"}, "capProviderId": null, "distance": null, "has_offers": false, "name": "Divine Diner", "longitude": -84.525055, "has_menu": false, "awards": null, "user_review_count": 0}, {"business_operation_status": 1, "rating": 6.0, "neighborhood": null, "image": "http://o3.aolcdn.com/dims-shared/dims3/PATCH/resize/600x450/http://hss-prod.hss.aol.com/hss/storage/patch/98a52a931f1ff76d70970d179ae8c36c", "scorecard": null, "featured": false, "sample_categories": "Restaurants", "public_id": "winstons-food-spirits-marietta", "id": 33570851, "votes": null, "tagline": null, "has_video": false, "website": null, "offers": null, "latitude": 33.993785, "politanName": "Atlanta, GA Metro ", "phone_number": "6785601923", "tags": [{"primary": true, "id": 1722, "name": "Restaurants"}], "fax_number": null, "expansion": {"count": null, "uri": null}, "impression_id": "000b0000001ae519fccdb44e969d2ad73e0670b835", "profile": "http://www.citysearch.com/profile/33570851/marietta_ga/winston_s_food_spirits.html", "address": {"city": "Marietta", "state": "GA", "street": "1860 Sandy Plains Rd 101", "postal_code": "30066"}, "capProviderId": null, "distance": null, "has_offers": false, "name": "Winston's Food & Spirits", "longitude": -84.509472, "has_menu": true, "awards": null, "user_review_count": 3}, {"business_operation_status": 1, "rating": 10.0, "neighborhood": null, "image": "http://o5.aolcdn.com/dims-shared/dims3/PATCH/resize/600x450/http://hss-prod.hss.aol.com/hss/storage/patch/c2f67fd51138c98d6268e362752b3533", "scorecard": null, "featured": false, "sample_categories": "Restaurants, Bars & Clubs, Cajun & Creole", "public_id": "cajun-cafe-grill-kennesaw", "id": 37648987, "votes": null, "tagline": null, "has_video": false, "website": null, "offers": null, "latitude": 34.019128, "politanName": "Atlanta, GA Metro ", "phone_number": "7707951987", "tags": [{"primary": false, "id": 164, "name": "Bars & Clubs"}, {"primary": false, "id": 11245, "name": "Cajun & Creole"}, {"primary": true, "id": 1722, "name": "Restaurants"}], "fax_number": null, "expansion": {"count": null, "uri": null}, "impression_id": "000b0000003bbfa285de6b4cefb21d8775957e8201", "profile": "http://www.citysearch.com/profile/37648987/kennesaw_ga/cajun_cafe_grill.html", "address": {"city": "Kennesaw", "state": "GA", "street": "400 Ernest W Barrett Pkwy NW", "postal_code": "30144"}, "capProviderId": null, "distance": null, "has_offers": false, "name": "Cajun Cafe Grill", "longitude": -84.563608, "has_menu": false, "awards": null, "user_review_count": 0}, {"business_operation_status": 1, "rating": null, "neighborhood": null, "image": "http://o3.aolcdn.com/dims-shared/dims3/PATCH/resize/600x450/http://hss-prod.hss.aol.com/hss/storage/patch/9892b4d6fdac4a2f36e9fd2426b040ad", "scorecard": null, "featured": false, "sample_categories": "Health Food Stores, Restaurants, Ice Cream Parlors, Health Food Stores", "public_id": "smoothie-king-kennesaw-2", "id": 37648788, "votes": null, "tagline": null, "has_video": false, "website": "http://www.citysearch.com/profile/external/37648788/kennesaw_ga/smoothie_king.html", "offers": null, "latitude": 34.019128, "politanName": "Atlanta, GA Metro ", "phone_number": "7705286050", "tags": [{"primary": false, "id": 1722, "name": "Restaurants"}, {"primary": false, "id": 1730, "name": "Ice Cream Parlors"}, {"primary": false, "id": 17570, "name": "Health Food Stores"}, {"primary": true, "id": 1716, "name": "Health Food Stores"}], "fax_number": null, "expansion": {"count": null, "uri": null}, "impression_id": "000b0000003dcd96e9881740b5982872d549220d7e", "profile": "http://www.citysearch.com/profile/37648788/kennesaw_ga/smoothie_king.html", "address": {"city": "Kennesaw", "state": "GA", "street": "400 Ernest W Barrett Pkwy NW", "postal_code": "30144"}, "capProviderId": null, "distance": null, "has_offers": false, "name": "Smoothie King", "longitude": -84.563608, "has_menu": true, "awards": null, "user_review_count": 0}, {"business_operation_status": 1, "rating": null, "neighborhood": null, "image": "http://o1.aolcdn.com/dims-shared/dims3/PATCH/resize/600x450/http://hss-prod.hss.aol.com/hss/storage/patch/32747be73bc8f662d96d7dcf50a0e731", "scorecard": null, "featured": false, "sample_categories": "Restaurants, Mexican, American Express, Discover, MasterCard", "public_id": "los-bravos-mexican-restaurant-marietta-3", "id": 682238140, "votes": null, "tagline": null, "has_video": false, "website": "http://www.citysearch.com/profile/external/682238140/marietta_ga/los_bravos_mexican_restaurant.html", "offers": null, "latitude": 33.967272, "politanName": "Atlanta, GA Metro ", "phone_number": "7705658919", "tags": [{"primary": false, "id": 11208, "name": "Mexican"}, {"primary": false, "id": 11333, "name": "American Express"}, {"primary": false, "id": 11349, "name": "Discover"}, {"primary": false, "id": 11361, "name": "MasterCard"}, {"primary": false, "id": 11382, "name": "Visa"}, {"primary": true, "id": 1722, "name": "Restaurants"}], "fax_number": null, "expansion": {"count": null, "uri": null}, "impression_id": "000b0000005e35ddf80e464ade9a685bb0b3159017", "profile": "http://www.citysearch.com/profile/682238140/marietta_ga/los_bravos_mexican_restaurant.html", "address": {"city": "Marietta", "state": "GA", "street": "2125 Roswell Rd # 40", "postal_code": "30062"}, "capProviderId": null, "distance": null, "has_offers": false, "name": "Los Bravos Mexican Restaurant", "longitude": -84.491705, "has_menu": true, "awards": null, "user_review_count": 4}, {"business_operation_status": 1, "rating": null, "neighborhood": null, "image": "http://o2.aolcdn.com/dims-shared/dims3/PATCH/resize/600x450/http://hss-prod.hss.aol.com/hss/storage/patch/f65419b2ead5f6b21d0cd300ebbd0aa6", "scorecard": null, "featured": false, "sample_categories": "Restaurants, Asian, Thai", "public_id": "asian-chao-kennesaw", "id": 648893720, "votes": null, "tagline": null, "has_video": false, "website": null, "offers": null, "latitude": 34.019128, "politanName": "Atlanta, GA Metro ", "phone_number": "7709191804", "tags": [{"primary": false, "id": 11235, "name": "Asian"}, {"primary": false, "id": 11319, "name": "Thai"}, {"primary": true, "id": 1722, "name": "Restaurants"}], "fax_number": null, "expansion": {"count": null, "uri": null}, "impression_id": "000b000000b8a0123d9127438b92b1d9ede25d939d", "profile": "http://www.citysearch.com/profile/648893720/kennesaw_ga/asian_chao.html", "address": {"city": "Kennesaw", "state": "GA", "street": "400 Ernest W Barrett Pkwy NW Ste 120", "postal_code": "30144"}, "capProviderId": null, "distance": null, "has_offers": false, "name": "Asian Chao", "longitude": -84.563608, "has_menu": true, "awards": null, "user_review_count": 0}, {"business_operation_status": 1, "rating": null, "neighborhood": null, "image": "http://o5.aolcdn.com/dims-shared/dims3/PATCH/resize/600x450/http://hss-prod.hss.aol.com/hss/storage/patch/3a5546060a2d1ac7b2506e2f3a03474", "scorecard": null, "featured": false, "sample_categories": "Bars & Pubs, Bars & Clubs, Restaurants", "public_id": "sidelines-grille-kennesaw-2", "id": 698336640, "votes": null, "tagline": null, "has_video": false, "website": "http://www.citysearch.com/profile/external/698336640/kennesaw_ga/sidelines_grille.html", "offers": null, "latitude": 34.009545, "politanName": "Atlanta, GA Metro ", "phone_number": "7709198688", "tags": [{"primary": false, "id": 164, "name": "Bars & Clubs"}, {"primary": false, "id": 1722, "name": "Restaurants"}, {"primary": true, "id": 1686, "name": "Bars & Pubs"}], "fax_number": null, "expansion": {"count": null, "uri": null}, "impression_id": "000b000000b7a1965d6648499f8939ab8274569d37", "profile": "http://www.citysearch.com/profile/698336640/kennesaw_ga/sidelines_grille.html", "address": {"city": "Kennesaw", "state": "GA", "street": "800 Ernest W Barrett Pkwy NW", "postal_code": "30144"}, "capProviderId": null, "distance": null, "has_offers": false, "name": "Sidelines Grille", "longitude": -84.57491, "has_menu": false, "awards": null, "user_review_count": 2}, {"business_operation_status": 1, "rating": null, "neighborhood": null, "image": "http://images.citysearch.net/assets/imgdb/merchant/2012/5/22/0/ipJGnjoj120.jpeg", "scorecard": null, "featured": false, "sample_categories": "Restaurants, Catering, New American, Seafood, Food Delivery", "public_id": "soul-food-train-marietta", "id": 605691632, "votes": null, "tagline": null, "has_video": false, "website": null, "offers": null, "latitude": 33.938607, "politanName": "Atlanta, GA Metro ", "phone_number": "4044228576", "tags": [{"primary": false, "id": 1705, "name": "Catering"}, {"primary": false, "id": 11189, "name": "New American"}, {"primary": false, "id": 11228, "name": "Seafood"}, {"primary": false, "id": 11267, "name": "Food Delivery"}, {"primary": false, "id": 11333, "name": "American Express"}, {"primary": false, "id": 11339, "name": "Cash"}, {"primary": false, "id": 11341, "name": "Check"}, {"primary": false, "id": 11349, "name": "Discover"}, {"primary": false, "id": 11361, "name": "MasterCard"}, {"primary": false, "id": 11382, "name": "Visa"}, {"primary": false, "id": 12839, "name": "Chicken"}, {"primary": false, "id": 15140, "name": "Soul"}, {"primary": true, "id": 1722, "name": "Restaurants"}], "fax_number": null, "expansion": {"count": null, "uri": null}, "impression_id": "000b000000d77aa6faceb14d71828f6379ae03c522", "profile": "http://www.citysearch.com/profile/605691632/marietta_ga/soul_food_train.html", "address": {"city": "Marietta", "state": "GA", "street": "585 Franklin Rd SE Ste 240", "postal_code": "30067"}, "capProviderId": null, "distance": null, "has_offers": false, "name": "Soul Food Train", "longitude": -84.50623, "has_menu": false, "awards": null, "user_review_count": 0}, {"business_operation_status": 1, "rating": null, "neighborhood": null, "image": "http://o4.aolcdn.com/dims-shared/dims3/PATCH/resize/600x450/http://hss-prod.hss.aol.com/hss/storage/patch/25e6479d3e4c495f1c2fe1f60ed4c49c", "scorecard": null, "featured": false, "sample_categories": "Restaurants, Ice Cream Parlors", "public_id": "romas-italian-ice-and-gelato-marietta", "id": 672283750, "votes": null, "tagline": null, "has_video": false, "website": "http://www.citysearch.com/profile/external/672283750/marietta_ga/roma_s_italian_ice_and_gelato.html", "offers": null, "latitude": 33.976739, "politanName": "Atlanta, GA Metro ", "phone_number": "7703210954", "tags": [{"primary": false, "id": 1730, "name": "Ice Cream Parlors"}, {"primary": true, "id": 1722, "name": "Restaurants"}], "fax_number": null, "expansion": {"count": null, "uri": null}, "impression_id": "000b0000008d3e51a92e8b426b95f2fc9e9cc66a3a", "profile": "http://www.citysearch.com/profile/672283750/marietta_ga/roma_s_italian_ice_and_gelato.html", "address": {"city": "Marietta", "state": "GA", "street": "1050 E Piedmont Rd", "postal_code": "30062"}, "capProviderId": null, "distance": null, "has_offers": false, "name": "Roma's Italian Ice and Gelato", "longitude": -84.479676, "has_menu": false, "awards": null, "user_review_count": 0}, {"business_operation_status": 1, "rating": null, "neighborhood": null, "image": "http://o4.aolcdn.com/dims-shared/dims3/PATCH/resize/600x450/http://hss-prod.hss.aol.com/hss/storage/patch/bc02cc686e4efdd2f3391f2edd5ada2d", "scorecard": null, "featured": false, "sample_categories": "Restaurants", "public_id": "la-carreta-tienda-hispana-marietta", "id": 2904533, "votes": null, "tagline": null, "has_video": false, "website": "http://www.citysearch.com/profile/external/2904533/marietta_ga/la_carreta_tienda_hispana.html", "offers": null, "latitude": 33.950815, "politanName": "Atlanta, GA Metro ", "phone_number": "7705792963", "tags": [{"primary": true, "id": 1722, "name": "Restaurants"}], "fax_number": null, "expansion": {"count": null, "uri": null}, "impression_id": "000b000000ae46b0f159054219b3555ac33afc9f09", "profile": "http://www.citysearch.com/profile/2904533/marietta_ga/la_carreta_tienda_hispana.html", "address": {"city": "Marietta", "state": "GA", "street": "1288 Roswell Rd", "postal_code": "30062"}, "capProviderId": null, "distance": null, "has_offers": false, "name": "La Carreta Tienda Hispana", "longitude": -84.514776, "has_menu": false, "awards": null, "user_review_count": 0}, {"business_operation_status": 0, "rating": null, "neighborhood": null, "image": "http://o1.aolcdn.com/dims-shared/dims3/PATCH/resize/600x450/http://hss-prod.hss.aol.com/hss/storage/patch/d31a6a0e4188ec85cee61e3f665dee59", "scorecard": null, "featured": false, "sample_categories": "Restaurants", "public_id": "slopes-bbq-kennesaw", "id": 682330240, "votes": null, "tagline": null, "has_video": false, "website": "http://www.citysearch.com/profile/external/682330240/kennesaw_ga/slopes_bbq.html", "offers": null, "latitude": 34.009034, "politanName": "Atlanta, GA Metro ", "phone_number": "7707948600", "tags": [{"primary": true, "id": 1722, "name": "Restaurants"}], "fax_number": null, "expansion": {"count": null, "uri": null}, "impression_id": "000b0000009452e8eb33894b668f6c2cc103d11d3f", "profile": "http://www.citysearch.com/profile/682330240/kennesaw_ga/slopes_bbq.html", "address": {"city": "Kennesaw", "state": "GA", "street": "840 Ernest W Barrett Pkwy NW", "postal_code": "30144"}, "capProviderId": null, "distance": null, "has_offers": false, "name": "Slopes BBQ", "longitude": -84.576434, "has_menu": false, "awards": null, "user_review_count": 0}, {"business_operation_status": 1, "rating": 8.0, "neighborhood": null, "image": "http://o5.aolcdn.com/dims-shared/dims3/PATCH/resize/600x450/http://hss-prod.hss.aol.com/hss/storage/patch/e4c77e00242f549046a9ae56e267136f", "scorecard": null, "featured": false, "sample_categories": "Restaurants, Delis And Delicatessens, American Express, Debit Card, Discover", "public_id": "great-wraps-restaurant-kennesaw", "id": 2955188, "votes": null, "tagline": null, "has_video": false, "website": null, "offers": null, "latitude": 34.019128, "politanName": "Atlanta, GA Metro ", "phone_number": "7704287788", "tags": [{"primary": false, "id": 1727, "name": "Delis And Delicatessens"}, {"primary": false, "id": 11333, "name": "American Express"}, {"primary": false, "id": 11347, "name": "Debit Card"}, {"primary": false, "id": 11349, "name": "Discover"}, {"primary": false, "id": 11361, "name": "MasterCard"}, {"primary": false, "id": 11382, "name": "Visa"}, {"primary": true, "id": 1722, "name": "Restaurants"}], "fax_number": null, "expansion": {"count": null, "uri": null}, "impression_id": "000b000000524075d108474af6adfafc3e59cdded7", "profile": "http://www.citysearch.com/profile/2955188/kennesaw_ga/great_wraps_restaurant.html", "address": {"city": "Kennesaw", "state": "GA", "street": "400 Ernest W Barrett Pkwy NW Ste 130", "postal_code": "30144"}, "capProviderId": null, "distance": null, "has_offers": false, "name": "Great Wraps Restaurant", "longitude": -84.563608, "has_menu": true, "awards": null, "user_review_count": 0}, {"business_operation_status": 1, "rating": null, "neighborhood": null, "image": "http://o1.aolcdn.com/dims-shared/dims3/PATCH/resize/600x450/http://hss-prod.hss.aol.com/hss/storage/patch/bf68d1e28758f5c5c91b0785cfcd9f0e", "scorecard": null, "featured": false, "sample_categories": "Restaurants, Delis And Delicatessens, Sandwich Shops, Carry Out", "public_id": "subway-marietta-18", "id": 632907390, "votes": null, "tagline": null, "has_video": false, "website": "http://www.citysearch.com/profile/external/632907390/marietta_ga/subway.html", "offers": null, "latitude": 33.946054, "politanName": "Atlanta, GA Metro ", "phone_number": "7704231986", "tags": [{"primary": false, "id": 1727, "name": "Delis And Delicatessens"}, {"primary": false, "id": 1736, "name": "Sandwich Shops"}, {"primary": false, "id": 11247, "name": "Carry Out"}, {"primary": true, "id": 1722, "name": "Restaurants"}], "fax_number": null, "expansion": {"count": null, "uri": null}, "impression_id": "000b000000e08c56f675384dc5a0ce99c2e115df68", "profile": "http://www.citysearch.com/profile/632907390/marietta_ga/subway.html", "address": {"city": "Marietta", "state": "GA", "street": "210 Cobb Pkwy S", "postal_code": "30060"}, "capProviderId": null, "distance": null, "has_offers": false, "name": "Subway", "longitude": -84.522037, "has_menu": true, "awards": null, "user_review_count": 0}, {"business_operation_status": 1, "rating": null, "neighborhood": null, "image": "http://o2.aolcdn.com/dims-shared/dims3/PATCH/resize/600x450/http://hss-prod.hss.aol.com/hss/storage/patch/bc7c8904a5898122d986133562a77af0", "scorecard": null, "featured": false, "sample_categories": "Restaurants, Barbecue Restaurants", "public_id": "cafe-wings-marietta", "id": 655840550, "votes": null, "tagline": null, "has_video": false, "website": null, "offers": null, "latitude": 33.933132, "politanName": "Atlanta, GA Metro ", "phone_number": "7705909656", "tags": [{"primary": false, "id": 1724, "name": "Barbecue Restaurants"}, {"primary": true, "id": 1722, "name": "Restaurants"}], "fax_number": null, "expansion": {"count": null, "uri": null}, "impression_id": "000b00000043a0446081a5410c9016a7d5cd754524", "profile": "http://www.citysearch.com/profile/655840550/marietta_ga/cafe_wings.html", "address": {"city": "Marietta", "state": "GA", "street": "803 Powder Springs St # 2", "postal_code": "30064"}, "capProviderId": null, "distance": null, "has_offers": false, "name": "Cafe Wings", "longitude": -84.559871, "has_menu": false, "awards": null, "user_review_count": 0}, {"business_operation_status": 1, "rating": 8.0, "neighborhood": null, "image": "http://o3.aolcdn.com/dims-shared/dims3/PATCH/resize/600x450/http://hss-prod.hss.aol.com/hss/storage/patch/9b14a1fe11ff5b23995071ff09e93575", "scorecard": null, "featured": false, "sample_categories": "Restaurants, Barbecue Restaurants, Beer, American Express, Discover", "public_id": "wings-town-marietta", "id": 2910528, "votes": null, "tagline": null, "has_video": false, "website": null, "offers": null, "latitude": 33.928458, "politanName": "Atlanta, GA Metro ", "phone_number": "7709510690", "tags": [{"primary": false, "id": 1724, "name": "Barbecue Restaurants"}, {"primary": false, "id": 11178, "name": "Beer"}, {"primary": false, "id": 11333, "name": "American Express"}, {"primary": false, "id": 11349, "name": "Discover"}, {"primary": false, "id": 11361, "name": "MasterCard"}, {"primary": false, "id": 11382, "name": "Visa"}, {"primary": true, "id": 1722, "name": "Restaurants"}], "fax_number": null, "expansion": {"count": null, "uri": null}, "impression_id": "000b000000a8ce09feca814a8b9eb4fb0f083bb5b9", "profile": "http://www.citysearch.com/profile/2910528/marietta_ga/wings_town.html", "address": {"city": "Marietta", "state": "GA", "street": "1033 Franklin Rd SE Ste E", "postal_code": "30067"}, "capProviderId": null, "distance": null, "has_offers": false, "name": "Wings Town", "longitude": -84.492995, "has_menu": false, "awards": null, "user_review_count": 1}, {"business_operation_status": 1, "rating": null, "neighborhood": null, "image": "http://o4.aolcdn.com/dims-shared/dims3/PATCH/resize/600x450/http://hss-prod.hss.aol.com/hss/storage/patch/51c1d50d54050122b0d0f5c7c4bd1da8", "scorecard": null, "featured": false, "sample_categories": "Restaurants", "public_id": "ajs-famous-seafood-po-boys-marietta", "id": 766802810, "votes": null, "tagline": null, "has_video": false, "website": null, "offers": null, "latitude": 33.968758, "politanName": "Atlanta, GA Metro ", "phone_number": "6789990767", "tags": [{"primary": true, "id": 1722, "name": "Restaurants"}], "fax_number": null, "expansion": {"count": null, "uri": null}, "impression_id": "000b0000001cb59ceea7a34ebbaaa228c63f9a314b", "profile": "http://www.citysearch.com/profile/766802810/marietta_ga/aj_s_famous_seafood_po_boy_s.html", "address": {"city": "Marietta", "state": "GA", "street": "2100 Roswell Rd # 2148", "postal_code": "30062"}, "capProviderId": null, "distance": null, "has_offers": false, "name": "Aj's Famous Seafood & PO Boy's", "longitude": -84.488447, "has_menu": false, "awards": null, "user_review_count": 0}, {"business_operation_status": 1, "rating": null, "neighborhood": null, "image": "http://o4.aolcdn.com/dims-shared/dims3/PATCH/resize/600x450/http://hss-prod.hss.aol.com/hss/storage/patch/4b186b0a40701b40642ba0ca9d7690a0", "scorecard": null, "featured": false, "sample_categories": "Restaurants, Japanese", "public_id": "rusans-kennesaw", "id": 682258600, "votes": null, "tagline": null, "has_video": false, "website": "http://www.citysearch.com/profile/external/682258600/kennesaw_ga/rusans.html", "offers": null, "latitude": 34.01182, "politanName": "Atlanta, GA Metro ", "phone_number": "6787660598", "tags": [{"primary": false, "id": 11202, "name": "Japanese"}, {"primary": true, "id": 1722, "name": "Restaurants"}], "fax_number": null, "expansion": {"count": null, "uri": null}, "impression_id": "000b0000004bbfcc458af04049a929b81dca6e667c", "profile": "http://www.citysearch.com/profile/682258600/kennesaw_ga/rusans.html", "address": {"city": "Kennesaw", "state": "GA", "street": "425 Ernest W Barrett Pkwy NW", "postal_code": "30144"}, "capProviderId": null, "distance": null, "has_offers": false, "name": "Rusans", "longitude": -84.561979, "has_menu": true, "awards": null, "user_review_count": 5}, {"business_operation_status": 1, "rating": null, "neighborhood": null, "image": "http://o4.aolcdn.com/dims-shared/dims3/PATCH/resize/600x450/http://hss-prod.hss.aol.com/hss/storage/patch/585edc8a481c83bbfe26698f315c6f0f", "scorecard": null, "featured": false, "sample_categories": "Restaurants, Pizza", "public_id": "wingspizzanthings-marietta", "id": 642144600, "votes": null, "tagline": null, "has_video": false, "website": null, "offers": null, "latitude": 33.899518, "politanName": "Atlanta, GA Metro ", "phone_number": "6783318388", "tags": [{"primary": false, "id": 1722, "name": "Restaurants"}, {"primary": true, "id": 11299, "name": "Pizza"}], "fax_number": null, "expansion": {"count": null, "uri": null}, "impression_id": "000b0000008b27304ebd4f4c969c5b8a4f4f92b1e4", "profile": "http://www.citysearch.com/profile/642144600/marietta_ga/wings_pizza_n_things.html", "address": {"city": "Marietta", "state": "GA", "street": "1812 Powder Springs Rd Sw", "postal_code": "30064"}, "capProviderId": null, "distance": null, "has_offers": false, "name": "Wings-Pizza-N-Things", "longitude": -84.606801, "has_menu": true, "awards": null, "user_review_count": 0}, {"business_operation_status": 1, "rating": 10.0, "neighborhood": null, "image": "http://o1.aolcdn.com/dims-shared/dims3/PATCH/resize/600x450/http://hss-prod.hss.aol.com/hss/storage/patch/83c74a5e9a1998d6ee249ff562ecca73", "scorecard": null, "featured": false, "sample_categories": "Restaurants, Chinese, MasterCard, Visa", "public_id": "china-great-wall-marietta", "id": 33571519, "votes": null, "tagline": null, "has_video": false, "website": null, "offers": null, "latitude": 33.995879, "politanName": "Atlanta, GA Metro ", "phone_number": "7705781488", "tags": [{"primary": false, "id": 11252, "name": "Chinese"}, {"primary": false, "id": 11361, "name": "MasterCard"}, {"primary": false, "id": 11382, "name": "Visa"}, {"primary": true, "id": 1722, "name": "Restaurants"}], "fax_number": null, "expansion": {"count": null, "uri": null}, "impression_id": "000b00000045494e294ffb4281af94d14152b78338", "profile": "http://www.citysearch.com/profile/33571519/marietta_ga/china_great_wall.html", "address": {"city": "Marietta", "state": "GA", "street": "1860 Sandy Plains Rd", "postal_code": "30066"}, "capProviderId": null, "distance": null, "has_offers": false, "name": "China Great Wall", "longitude": -84.507715, "has_menu": true, "awards": null, "user_review_count": 5}, {"business_operation_status": 1, "rating": null, "neighborhood": null, "image": "http://o4.aolcdn.com/dims-shared/dims3/PATCH/resize/600x450/http://hss-prod.hss.aol.com/hss/storage/patch/512853b152c74ea0d996a0622e79b82", "scorecard": null, "featured": false, "sample_categories": "Restaurants", "public_id": "cajun-johns-restaurant-marietta-2", "id": 682582820, "votes": null, "tagline": null, "has_video": false, "website": null, "offers": null, "latitude": 33.92448, "politanName": "Atlanta, GA Metro ", "phone_number": "7704998700", "tags": [{"primary": true, "id": 1722, "name": "Restaurants"}], "fax_number": null, "expansion": {"count": null, "uri": null}, "impression_id": "000b0000007a2f62f5bf1b47f0a3009e57c10cf412", "profile": "http://www.citysearch.com/profile/682582820/marietta_ga/cajun_john_s_restaurant.html", "address": {"city": "Marietta", "state": "GA", "street": "1175 Powder Springs St", "postal_code": "30064"}, "capProviderId": null, "distance": null, "has_offers": false, "name": "Cajun John's Restaurant", "longitude": -84.574615, "has_menu": false, "awards": null, "user_review_count": 0}, {"business_operation_status": 1, "rating": null, "neighborhood": null, "image": "http://o1.aolcdn.com/dims-shared/dims3/PATCH/resize/600x450/http://hss-prod.hss.aol.com/hss/storage/patch/d52fcfb6d390e649aa9429f2fa3dc444", "scorecard": null, "featured": false, "sample_categories": "Catering, Restaurants", "public_id": "lahore-grill-restaurant-marietta", "id": 621961930, "votes": null, "tagline": null, "has_video": false, "website": "http://www.citysearch.com/profile/external/621961930/marietta_ga/lahore_grill.html", "offers": null, "latitude": 33.906963, "politanName": "Atlanta, GA Metro ", "phone_number": "6783989868", "tags": [{"primary": false, "id": 1722, "name": "Restaurants"}, {"primary": true, "id": 1705, "name": "Catering"}], "fax_number": null, "expansion": {"count": null, "uri": null}, "impression_id": "000b00000042658a1b88884ba1a731f5a79c72c66d", "profile": "http://www.citysearch.com/profile/621961930/marietta_ga/lahore_grill.html", "address": {"city": "Marietta", "state": "GA", "street": "1869 Cobb Pkwy S 150", "postal_code": "30060"}, "capProviderId": null, "distance": null, "has_offers": false, "name": "Lahore Grill", "longitude": -84.488987, "has_menu": false, "awards": null, "user_review_count": 1}, {"business_operation_status": 1, "rating": null, "neighborhood": null, "image": "http://o1.aolcdn.com/dims-shared/dims3/PATCH/resize/600x450/http://hss-prod.hss.aol.com/hss/storage/patch/5a043fcd87408894f766c4ed51a43828", "scorecard": null, "featured": false, "sample_categories": "Restaurants, Indian", "public_id": "calypso-island-cuisine-marietta-2", "id": 713326280, "votes": null, "tagline": null, "has_video": false, "website": null, "offers": null, "latitude": 33.933132, "politanName": "Atlanta, GA Metro ", "phone_number": "6787975470", "tags": [{"primary": false, "id": 11277, "name": "Indian"}, {"primary": true, "id": 1722, "name": "Restaurants"}], "fax_number": null, "expansion": {"count": null, "uri": null}, "impression_id": "000b0000000e31c3d42b264dc4867bb595d215333a", "profile": "http://www.citysearch.com/profile/713326280/marietta_ga/calypso_island_cuisine.html", "address": {"city": "Marietta", "state": "GA", "street": "803 Powder Springs St # 1", "postal_code": "30064"}, "capProviderId": null, "distance": null, "has_offers": false, "name": "Calypso Island Cuisine", "longitude": -84.559871, "has_menu": false, "awards": null, "user_review_count": 2}, {"business_operation_status": 1, "rating": null, "neighborhood": null, "image": "http://o4.aolcdn.com/dims-shared/dims3/PATCH/resize/600x450/http://hss-prod.hss.aol.com/hss/storage/patch/1be1d2f41c53238cd0e4f8398f18986f", "scorecard": null, "featured": false, "sample_categories": "Restaurants, Mexican, American Express, Discover, MasterCard", "public_id": "willys-mexicana-grill-kennesaw", "id": 682674500, "votes": null, "tagline": null, "has_video": false, "website": "http://www.citysearch.com/profile/external/682674500/kennesaw_ga/willy_s_mexicana_grill.html", "offers": null, "latitude": 34.009034, "politanName": "Atlanta, GA Metro ", "phone_number": "7704299515", "tags": [{"primary": false, "id": 11208, "name": "Mexican"}, {"primary": false, "id": 11333, "name": "American Express"}, {"primary": false, "id": 11349, "name": "Discover"}, {"primary": false, "id": 11361, "name": "MasterCard"}, {"primary": false, "id": 11382, "name": "Visa"}, {"primary": true, "id": 1722, "name": "Restaurants"}], "fax_number": null, "expansion": {"count": null, "uri": null}, "impression_id": "000b0000002a6f10340cfa421daf7212be2e83bed5", "profile": "http://www.citysearch.com/profile/682674500/kennesaw_ga/willy_s_mexicana_grill.html", "address": {"city": "Kennesaw", "state": "GA", "street": "840 Ernest W Barrett Pkwy NW", "postal_code": "30144"}, "capProviderId": null, "distance": null, "has_offers": false, "name": "Willy's Mexicana Grill", "longitude": -84.576434, "has_menu": true, "awards": null, "user_review_count": 0}, {"business_operation_status": 1, "rating": null, "neighborhood": null, "image": "http://o4.aolcdn.com/dims-shared/dims3/PATCH/resize/600x450/http://hss-prod.hss.aol.com/hss/storage/patch/eb4c51a042b12b5c341326e155aff009", "scorecard": null, "featured": false, "sample_categories": "Restaurants, Barbecue Restaurants, MasterCard, Visa", "public_id": "wing-factory-marietta-2", "id": 682717940, "votes": null, "tagline": null, "has_video": false, "website": null, "offers": null, "latitude": 33.937014, "politanName": "Atlanta, GA Metro ", "phone_number": "7704259533", "tags": [{"primary": false, "id": 1724, "name": "Barbecue Restaurants"}, {"primary": false, "id": 11361, "name": "MasterCard"}, {"primary": false, "id": 11382, "name": "Visa"}, {"primary": true, "id": 1722, "name": "Restaurants"}], "fax_number": null, "expansion": {"count": null, "uri": null}, "impression_id": "000b000000cbc506c2a8a941ed81db027aa490e623", "profile": "http://www.citysearch.com/profile/682717940/marietta_ga/wing_factory.html", "address": {"city": "Marietta", "state": "GA", "street": "1161 Powder Springs St", "postal_code": "30064"}, "capProviderId": null, "distance": null, "has_offers": false, "name": "Wing Factory", "longitude": -84.554706, "has_menu": true, "awards": null, "user_review_count": 2}, {"business_operation_status": 1, "rating": 6.0, "neighborhood": null, "image": null, "scorecard": null, "featured": false, "sample_categories": "Restaurants, Traditional American, American Express, MasterCard, Visa", "public_id": "nicks-marietta", "id": 41480106, "votes": null, "tagline": null, "has_video": false, "website": "http://www.citysearch.com/profile/external/41480106/marietta_ga/nick_s.html", "offers": null, "latitude": 33.951281, "politanName": "Atlanta, GA Metro ", "phone_number": "6783551088", "tags": [{"primary": false, "id": 11190, "name": "Traditional American"}, {"primary": false, "id": 11333, "name": "American Express"}, {"primary": false, "id": 11361, "name": "MasterCard"}, {"primary": false, "id": 11382, "name": "Visa"}, {"primary": true, "id": 1722, "name": "Restaurants"}], "fax_number": null, "expansion": {"count": null, "uri": null}, "impression_id": "000b0000001981c4fbb22d40aead8fa5cc398f67a9", "profile": "http://www.citysearch.com/profile/41480106/marietta_ga/nick_s.html", "address": {"city": "Marietta", "state": "GA", "street": "645 Whitlock Ave SW", "postal_code": "30064"}, "capProviderId": null, "distance": null, "has_offers": false, "name": "Nick's", "longitude": -84.571275, "has_menu": true, "awards": null, "user_review_count": 3}, {"business_operation_status": 1, "rating": 4.0, "neighborhood": null, "image": null, "scorecard": null, "featured": false, "sample_categories": "Restaurants, Delis And Delicatessens, Sandwich Shops, Carry Out, Soups", "public_id": "subway-marietta-25", "id": 44474389, "votes": null, "tagline": null, "has_video": false, "website": "http://www.citysearch.com/profile/external/44474389/marietta_ga/subway.html", "offers": null, "latitude": 33.943622, "politanName": "Atlanta, GA Metro ", "phone_number": "6785812644", "tags": [{"primary": false, "id": 1727, "name": "Delis And Delicatessens"}, {"primary": false, "id": 1736, "name": "Sandwich Shops"}, {"primary": false, "id": 11247, "name": "Carry Out"}, {"primary": false, "id": 11311, "name": "Soups"}, {"primary": false, "id": 11361, "name": "MasterCard"}, {"primary": false, "id": 11382, "name": "Visa"}, {"primary": true, "id": 1722, "name": "Restaurants"}], "fax_number": null, "expansion": {"count": null, "uri": null}, "impression_id": "000b000000256eef535ffa4ea3a95cff25578db919", "profile": "http://www.citysearch.com/profile/44474389/marietta_ga/subway.html", "address": {"city": "Marietta", "state": "GA", "street": "603 S Marietta Pkwy SE 100", "postal_code": "30060"}, "capProviderId": null, "distance": null, "has_offers": false, "name": "Subway", "longitude": -84.533742, "has_menu": true, "awards": null, "user_review_count": 1}, {"business_operation_status": 1, "rating": null, "neighborhood": null, "image": "http://images.citysearch.net/assets/imgdb2/reinvent/profile/2013/3/13/9/lCnPPFKF.jpg", "scorecard": null, "featured": false, "sample_categories": "New American, Traditional American, Seafood", "public_id": "pier-213-marietta", "id": 772376880, "votes": null, "tagline": null, "has_video": false, "website": null, "offers": null, "latitude": 33.951025, "politanName": "Atlanta, GA Metro ", "phone_number": "4049812788", "tags": [{"primary": false, "id": 11190, "name": "Traditional American"}, {"primary": false, "id": 11228, "name": "Seafood"}, {"primary": true, "id": 11189, "name": "New American"}], "fax_number": null, "expansion": {"count": null, "uri": null}, "impression_id": "000b00000070ac7d38ec2e472cb4e12efc02bb7f91", "profile": "http://www.citysearch.com/profile/772376880/marietta_ga/pier_213.html", "address": {"city": "Marietta", "state": "GA", "street": "35 South Marietta Parkway Southwest", "postal_code": "30064"}, "capProviderId": null, "distance": null, "has_offers": false, "name": "Pier 213", "longitude": -84.551785, "has_menu": false, "awards": null, "user_review_count": 0}, {"business_operation_status": 1, "rating": null, "neighborhood": null, "image": "http://images.citysearch.net/assets/imgdb2/reinvent/profile/2012/8/3/2/AYZcZrGG.jpg", "scorecard": null, "featured": false, "sample_categories": "Restaurants", "public_id": "dynasty-china-marietta", "id": 810370130, "votes": null, "tagline": null, "has_video": false, "website": null, "offers": null, "latitude": 33.936757, "politanName": "Atlanta, GA Metro ", "phone_number": "7704255122", "tags": [{"primary": true, "id": 1722, "name": "Restaurants"}], "fax_number": null, "expansion": {"count": null, "uri": null}, "impression_id": "000b0000008c629a335a364c78a395f21e4f5158ed", "profile": "http://www.citysearch.com/profile/810370130/marietta_ga/dynasty_china.html", "address": {"city": "Marietta", "state": "GA", "street": "680 Powder Springs St", "postal_code": "30064"}, "capProviderId": null, "distance": null, "has_offers": false, "name": "Dynasty China", "longitude": -84.557357, "has_menu": false, "awards": null, "user_review_count": 0}, {"business_operation_status": 1, "rating": null, "neighborhood": null, "image": "http://images.citysearch.net/assets/imgdb/merchant/2012/3/29/0/DWvAqYgw115.jpeg", "scorecard": null, "featured": false, "sample_categories": "Sandwich Shops, Delis And Delicatessens", "public_id": "deli-delights-marietta-2", "id": 605563072, "votes": null, "tagline": null, "has_video": false, "website": null, "offers": null, "latitude": 33.952594, "politanName": "Atlanta, GA Metro ", "phone_number": "6784016001", "tags": [{"primary": false, "id": 1727, "name": "Delis And Delicatessens"}, {"primary": true, "id": 1736, "name": "Sandwich Shops"}], "fax_number": null, "expansion": {"count": null, "uri": null}, "impression_id": "000b000000f8582bf665df40428cabdada849bf847", "profile": "http://www.citysearch.com/profile/605563072/marietta_ga/deli_delights.html", "address": {"city": "Marietta", "state": "GA", "street": "800 Whitlock Ave NW", "postal_code": "30064"}, "capProviderId": null, "distance": null, "has_offers": false, "name": "Deli Delights", "longitude": -84.575881, "has_menu": false, "awards": null, "user_review_count": 0}, {"business_operation_status": 1, "rating": null, "neighborhood": null, "image": "http://images.citysearch.net/assets/imgdb/merchant/2012/10/23/0/GhxDeFJc31.jpeg", "scorecard": null, "featured": false, "sample_categories": "Restaurants, Jamaican, Caribbean, American Express, Cash", "public_id": "jerk-kitchen-restaurant-marietta", "id": 764903050, "votes": null, "tagline": null, "has_video": false, "website": null, "offers": null, "latitude": 34.016708, "politanName": "Atlanta, GA Metro ", "phone_number": "7707944473", "tags": [{"primary": false, "id": 11193, "name": "Jamaican"}, {"primary": false, "id": 11195, "name": "Caribbean"}, {"primary": false, "id": 11333, "name": "American Express"}, {"primary": false, "id": 11339, "name": "Cash"}, {"primary": false, "id": 11341, "name": "Check"}, {"primary": false, "id": 11347, "name": "Debit Card"}, {"primary": false, "id": 11349, "name": "Discover"}, {"primary": false, "id": 11361, "name": "MasterCard"}, {"primary": false, "id": 11382, "name": "Visa"}, {"primary": true, "id": 1722, "name": "Restaurants"}], "fax_number": null, "expansion": {"count": null, "uri": null}, "impression_id": "000b000000632964c90fb741f58b86c27c943bdc45", "profile": "http://www.citysearch.com/profile/764903050/marietta_ga/jerk_kitchen_restaurant.html", "address": {"city": "Marietta", "state": "GA", "street": "2821 Chastain Meadows Pkwy", "postal_code": "30066"}, "capProviderId": null, "distance": null, "has_offers": false, "name": "Jerk Kitchen Restaurant", "longitude": -84.556251, "has_menu": false, "awards": null, "user_review_count": 0}, {"business_operation_status": 1, "rating": null, "neighborhood": null, "image": null, "scorecard": null, "featured": false, "sample_categories": "Restaurants, Delis And Delicatessens", "public_id": "american-deli-marietta-4", "id": 45556668, "votes": null, "tagline": null, "has_video": false, "website": "http://www.citysearch.com/profile/external/45556668/marietta_ga/american_deli.html", "offers": null, "latitude": 33.946671, "politanName": "Atlanta, GA Metro ", "phone_number": "7705901178", "tags": [{"primary": false, "id": 1727, "name": "Delis And Delicatessens"}, {"primary": true, "id": 1722, "name": "Restaurants"}], "fax_number": null, "expansion": {"count": null, "uri": null}, "impression_id": "000b000000db40b8f2579847d0862d7272fbe152ee", "profile": "http://www.citysearch.com/profile/45556668/marietta_ga/american_deli.html", "address": {"city": "Marietta", "state": "GA", "street": "180 Cobb Pkwy S", "postal_code": "30060"}, "capProviderId": null, "distance": null, "has_offers": false, "name": "American Deli", "longitude": -84.522736, "has_menu": true, "awards": null, "user_review_count": 0}, {"business_operation_status": 1, "rating": null, "neighborhood": null, "image": null, "scorecard": null, "featured": false, "sample_categories": "Restaurants", "public_id": "manna-house-marietta", "id": 609705304, "votes": null, "tagline": null, "has_video": false, "website": null, "offers": null, "latitude": 33.929099, "politanName": "Atlanta, GA Metro ", "phone_number": "6783100923", "tags": [{"primary": true, "id": 1722, "name": "Restaurants"}], "fax_number": null, "expansion": {"count": null, "uri": null}, "impression_id": "000b0000000a4471aa6bda480582e6735378b4700a", "profile": "http://www.citysearch.com/profile/609705304/marietta_ga/manna_house.html", "address": {"city": "Marietta", "state": "GA", "street": "45 Fairground St", "postal_code": "30067"}, "capProviderId": null, "distance": null, "has_offers": false, "name": "Manna House", "longitude": -84.469766, "has_menu": false, "awards": null, "user_review_count": 0}, {"business_operation_status": 1, "rating": null, "neighborhood": null, "image": null, "scorecard": null, "featured": false, "sample_categories": "Coffeehouses, Coffee & Tea Shops, Restaurants, American Express, Discover", "public_id": "starbucks-kennesaw-5", "id": 605561020, "votes": null, "tagline": null, "has_video": false, "website": "http://www.citysearch.com/profile/external/605561020/kennesaw_ga/starbucks.html", "offers": null, "latitude": 34.019128, "politanName": "Atlanta, GA Metro ", "phone_number": "7707944741", "tags": [{"primary": false, "id": 1711, "name": "Coffee & Tea Shops"}, {"primary": false, "id": 1722, "name": "Restaurants"}, {"primary": false, "id": 11333, "name": "American Express"}, {"primary": false, "id": 11349, "name": "Discover"}, {"primary": false, "id": 11361, "name": "MasterCard"}, {"primary": false, "id": 11382, "name": "Visa"}, {"primary": true, "id": 1726, "name": "Coffeehouses"}], "fax_number": null, "expansion": {"count": null, "uri": null}, "impression_id": "000b0000000764e8381c0b4673ad725ff62c0e2137", "profile": "http://www.citysearch.com/profile/605561020/kennesaw_ga/starbucks.html", "address": {"city": "Kennesaw", "state": "GA", "street": "400 Ernest W Barrett Nw # 267", "postal_code": "30144"}, "capProviderId": null, "distance": null, "has_offers": false, "name": "Starbucks", "longitude": -84.563608, "has_menu": true, "awards": null, "user_review_count": 2}, {"business_operation_status": 1, "rating": null, "neighborhood": null, "image": null, "scorecard": null, "featured": false, "sample_categories": "Restaurants, Chinese, American Express, MasterCard, Visa", "public_id": "xin-xin-chinese-marietta", "id": 33572088, "votes": null, "tagline": null, "has_video": false, "website": null, "offers": null, "latitude": 33.928458, "politanName": "Atlanta, GA Metro ", "phone_number": "7709842233", "tags": [{"primary": false, "id": 11252, "name": "Chinese"}, {"primary": false, "id": 11333, "name": "American Express"}, {"primary": false, "id": 11361, "name": "MasterCard"}, {"primary": false, "id": 11382, "name": "Visa"}, {"primary": true, "id": 1722, "name": "Restaurants"}], "fax_number": null, "expansion": {"count": null, "uri": null}, "impression_id": "000b00000025ee0eafbff842b9af1c01dd8f402c84", "profile": "http://www.citysearch.com/profile/33572088/marietta_ga/xin_xin_chinese.html", "address": {"city": "Marietta", "state": "GA", "street": "1033 Franklin Rd SE", "postal_code": "30067"}, "capProviderId": null, "distance": null, "has_offers": false, "name": "Xin Xin Chinese", "longitude": -84.492995, "has_menu": true, "awards": null, "user_review_count": 1}, {"business_operation_status": 1, "rating": null, "neighborhood": null, "image": null, "scorecard": null, "featured": false, "sample_categories": "Restaurants", "public_id": "thats-a-wrap-marietta", "id": 814226120, "votes": null, "tagline": null, "has_video": false, "website": null, "offers": null, "latitude": 34.017341, "politanName": "Atlanta, GA Metro ", "phone_number": "6787979992", "tags": [{"primary": true, "id": 1722, "name": "Restaurants"}], "fax_number": null, "expansion": {"count": null, "uri": null}, "impression_id": "000b00000084745be7390e494aaeafd2caf0027a59", "profile": "http://www.citysearch.com/profile/814226120/marietta_ga/that_s_a_wrap.html", "address": {"city": "Marietta", "state": "GA", "street": "2769 Chastain Meadows Pkwy", "postal_code": "30066"}, "capProviderId": null, "distance": null, "has_offers": false, "name": "That's A Wrap", "longitude": -84.555709, "has_menu": false, "awards": null, "user_review_count": 0}, {"business_operation_status": 1, "rating": null, "neighborhood": null, "image": null, "scorecard": null, "featured": false, "sample_categories": "Restaurants", "public_id": "asian-express-marietta", "id": 617926934, "votes": null, "tagline": null, "has_video": false, "website": null, "offers": null, "latitude": 34.020818, "politanName": "Atlanta, GA Metro ", "phone_number": "7704201819", "tags": [{"primary": true, "id": 1722, "name": "Restaurants"}], "fax_number": null, "expansion": {"count": null, "uri": null}, "impression_id": "000b0000008b15be8707524d61ad94d11aa8467bd0", "profile": "http://www.citysearch.com/profile/617926934/marietta_ga/asian_express.html", "address": {"city": "Marietta", "state": "GA", "street": "2821 Chastain Meadows Pkwy", "postal_code": "30066"}, "capProviderId": null, "distance": null, "has_offers": false, "name": "Asian Express", "longitude": -84.55554, "has_menu": false, "awards": null, "user_review_count": 0}, {"business_operation_status": 1, "rating": null, "neighborhood": null, "image": null, "scorecard": null, "featured": false, "sample_categories": "Restaurants", "public_id": "chequers-seafood-steak-marietta", "id": 612034824, "votes": null, "tagline": null, "has_video": false, "website": "http://www.citysearch.com/profile/external/612034824/marietta_ga/chequers_seafood_steak.html", "offers": null, "latitude": 33.984638, "politanName": "Atlanta, GA Metro ", "phone_number": "7709779324", "tags": [{"primary": true, "id": 1722, "name": "Restaurants"}], "fax_number": null, "expansion": {"count": null, "uri": null}, "impression_id": "000b000000367e996652064bb098e631434a97ec19", "profile": "http://www.citysearch.com/profile/612034824/marietta_ga/chequers_seafood_steak.html", "address": {"city": "Marietta", "state": "GA", "street": "1401 Johnson Ferry Rd", "postal_code": "30062"}, "capProviderId": null, "distance": null, "has_offers": false, "name": "Chequers Seafood & Steak", "longitude": -84.427737, "has_menu": false, "awards": null, "user_review_count": 0}, {"business_operation_status": 1, "rating": null, "neighborhood": null, "image": null, "scorecard": null, "featured": false, "sample_categories": "Restaurants", "public_id": "stockyard-burgers-marietta", "id": 621272344, "votes": null, "tagline": null, "has_video": false, "website": null, "offers": null, "latitude": 33.953436, "politanName": "Atlanta, GA Metro ", "phone_number": "6785032760", "tags": [{"primary": true, "id": 1722, "name": "Restaurants"}], "fax_number": null, "expansion": {"count": null, "uri": null}, "impression_id": "000b000000374b5823f3d24064ab12f09376feeb07", "profile": "http://www.citysearch.com/profile/621272344/marietta_ga/stockyard_burgers.html", "address": {"city": "Marietta", "state": "GA", "street": "26 Mill St NE", "postal_code": "30060"}, "capProviderId": null, "distance": null, "has_offers": false, "name": "Stockyard Burgers", "longitude": -84.550777, "has_menu": false, "awards": null, "user_review_count": 0}], "histograms": [], "tag_ids": [1722], "uri": "http://api.citygridmedia.com:8080/search/places/v2/search/where?has_offers=false&type=restaurant&format=json&page=3&where=30065&rpp=50&histograms=false&publisher=10000009598&region_type=circle", "did_you_mean": "", "regions": [{"latitude": 33.9525, "default_radius": 0.25, "type": "postal_code", "name": "30065", "longitude": -84.55}], "call_id": "000b0000005418532f3679469295a617f90a0b4223", "first_hit": 101, "total_hits": 513, "geo_ids": [137026], "page": 3, "last_hit": 150}}