{"results": {"rpp": 50, "locations": [{"business_operation_status": 1, "rating": null, "neighborhood": null, "image": null, "scorecard": null, "featured": false, "sample_categories": "Restaurants, Traditional American, Carry Out, American Express, MasterCard", "public_id": "ruby-tuesday-kennesaw", "id": 2955306, "votes": null, "tagline": null, "has_video": false, "website": "http://www.citysearch.com/profile/external/2955306/kennesaw_ga/ruby_tuesday.html", "offers": null, "latitude": 34.019128, "politanName": "Atlanta, GA Metro ", "phone_number": "7704268061", "tags": [{"primary": false, "id": 11190, "name": "Traditional American"}, {"primary": false, "id": 11247, "name": "Carry Out"}, {"primary": false, "id": 11333, "name": "American Express"}, {"primary": false, "id": 11361, "name": "MasterCard"}, {"primary": false, "id": 11375, "name": "Shop Online"}, {"primary": false, "id": 11382, "name": "Visa"}, {"primary": true, "id": 1722, "name": "Restaurants"}], "fax_number": null, "expansion": {"count": null, "uri": null}, "impression_id": "000b000000213f6da246ef41959924fe4cc5c2cb8f", "profile": "http://www.citysearch.com/profile/2955306/kennesaw_ga/ruby_tuesday.html", "address": {"city": "Kennesaw", "state": "GA", "street": "400 Ernest W Barrett Pkwy NW Ste 2612", "postal_code": "30144"}, "capProviderId": null, "distance": null, "has_offers": false, "name": "Ruby Tuesday", "longitude": -84.563608, "has_menu": true, "awards": null, "user_review_count": 0}, {"business_operation_status": 1, "rating": null, "neighborhood": null, "image": null, "scorecard": null, "featured": false, "sample_categories": "Restaurants", "public_id": "camasinis-woodstock", "id": 793292330, "votes": null, "tagline": null, "has_video": false, "website": null, "offers": null, "latitude": 34.087003, "politanName": "Atlanta, GA Metro ", "phone_number": "7706726996", "tags": [{"primary": true, "id": 1722, "name": "Restaurants"}], "fax_number": null, "expansion": {"count": null, "uri": null}, "impression_id": "000b000000b7609d784f6f47dead06b5890bdb26ea", "profile": "http://www.citysearch.com/profile/793292330/woodstock_ga/camasini_s.html", "address": {"city": "Woodstock", "state": "GA", "street": "9425 Highway 92", "postal_code": "30188"}, "capProviderId": null, "distance": null, "has_offers": false, "name": "Camasini's", "longitude": -84.532577, "has_menu": false, "awards": null, "user_review_count": 0}, {"business_operation_status": 1, "rating": null, "neighborhood": null, "image": null, "scorecard": null, "featured": false, "sample_categories": "Restaurants, Mexican", "public_id": "taqueria-la-avelita-marietta", "id": 793328060, "votes": null, "tagline": null, "has_video": false, "website": null, "offers": null, "latitude": 33.934292, "politanName": "Atlanta, GA Metro ", "phone_number": "7707944551", "tags": [{"primary": false, "id": 11208, "name": "Mexican"}, {"primary": true, "id": 1722, "name": "Restaurants"}], "fax_number": null, "expansion": {"count": null, "uri": null}, "impression_id": "000b0000006241c921090443c196ba5732131477c7", "profile": "http://www.citysearch.com/profile/793328060/marietta_ga/taqueria_la_avelita.html", "address": {"city": "Marietta", "state": "GA", "street": "739 Franklin Rd Se # C", "postal_code": "30067"}, "capProviderId": null, "distance": null, "has_offers": false, "name": "Taqueria La Avelita", "longitude": -84.502546, "has_menu": false, "awards": null, "user_review_count": 0}, {"business_operation_status": 1, "rating": null, "neighborhood": null, "image": null, "scorecard": null, "featured": false, "sample_categories": "Restaurants, Delis And Delicatessens", "public_id": "zoes-kitchen-roswell", "id": 793373150, "votes": null, "tagline": null, "has_video": false, "website": null, "offers": null, "latitude": 34.062667, "politanName": "Atlanta, GA Metro ", "phone_number": "7706451193", "tags": [{"primary": false, "id": 1727, "name": "Delis And Delicatessens"}, {"primary": true, "id": 1722, "name": "Restaurants"}], "fax_number": null, "expansion": {"count": null, "uri": null}, "impression_id": "000b00000088b1fae145a642e8850a24691d0d6c6f", "profile": "http://www.citysearch.com/profile/793373150/roswell_ga/zoes_kitchen.html", "address": {"city": "Roswell", "state": "GA", "street": "1105 Woodstock Rd", "postal_code": "30075"}, "capProviderId": null, "distance": null, "has_offers": false, "name": "Zoes Kitchen", "longitude": -84.394988, "has_menu": false, "awards": null, "user_review_count": 0}, {"business_operation_status": 1, "rating": 6.0, "neighborhood": null, "image": null, "scorecard": null, "featured": false, "sample_categories": "Restaurants, Chinese, American Express, Discover, MasterCard", "public_id": "house-of-ming-marietta", "id": 2904716, "votes": null, "tagline": null, "has_video": false, "website": null, "offers": null, "latitude": 33.980787, "politanName": "Atlanta, GA Metro ", "phone_number": "7709777538", "tags": [{"primary": false, "id": 11252, "name": "Chinese"}, {"primary": false, "id": 11333, "name": "American Express"}, {"primary": false, "id": 11349, "name": "Discover"}, {"primary": false, "id": 11361, "name": "MasterCard"}, {"primary": false, "id": 11382, "name": "Visa"}, {"primary": true, "id": 1722, "name": "Restaurants"}], "fax_number": null, "expansion": {"count": null, "uri": null}, "impression_id": "000b0000003f3d6aa2e303407f935e883c0e1f5c35", "profile": "http://www.citysearch.com/profile/2904716/marietta_ga/house_of_ming.html", "address": {"city": "Marietta", "state": "GA", "street": "3101 Roswell Rd Ste F2", "postal_code": "30062"}, "capProviderId": null, "distance": null, "has_offers": false, "name": "House Of Ming", "longitude": -84.464028, "has_menu": false, "awards": null, "user_review_count": 1}, {"business_operation_status": 1, "rating": null, "neighborhood": null, "image": null, "scorecard": null, "featured": false, "sample_categories": "Barbecue Restaurants", "public_id": "sams-bbq-one-marietta", "id": 787089000, "votes": null, "tagline": null, "has_video": false, "website": null, "offers": null, "latitude": 33.955116, "politanName": "Atlanta, GA Metro ", "phone_number": "6783241518", "tags": [{"primary": true, "id": 1724, "name": "Barbecue Restaurants"}], "fax_number": null, "expansion": {"count": null, "uri": null}, "impression_id": "000b0000003d2bd6b03b8b44899392f4ff81ee91e5", "profile": "http://www.citysearch.com/profile/787089000/marietta_ga/sam_s_bbq_one.html", "address": {"city": "Marietta", "state": "GA", "street": "3600 Dallas Hwy Sw", "postal_code": "30064"}, "capProviderId": null, "distance": null, "has_offers": false, "name": "Sam's BBQ One", "longitude": -84.656027, "has_menu": false, "awards": null, "user_review_count": 0}, {"business_operation_status": 1, "rating": null, "neighborhood": null, "image": null, "scorecard": null, "featured": false, "sample_categories": "Restaurants, Carry Out", "public_id": "churchs-chicken-marietta-5", "id": 809894000, "votes": null, "tagline": null, "has_video": false, "website": null, "offers": null, "latitude": 33.951817, "politanName": "Atlanta, GA Metro ", "phone_number": "7704228166", "tags": [{"primary": false, "id": 11247, "name": "Carry Out"}, {"primary": true, "id": 1722, "name": "Restaurants"}], "fax_number": null, "expansion": {"count": null, "uri": null}, "impression_id": "000b0000002889be11db984cfa91d322778ee33595", "profile": "http://www.citysearch.com/profile/809894000/marietta_ga/church_s_chicken.html", "address": {"city": "Marietta", "state": "GA", "street": "23 S Marietta Pkwy SW", "postal_code": "30064"}, "capProviderId": null, "distance": null, "has_offers": false, "name": "Church's Chicken", "longitude": -84.551523, "has_menu": false, "awards": null, "user_review_count": 0}, {"business_operation_status": 1, "rating": null, "neighborhood": null, "image": null, "scorecard": null, "featured": false, "sample_categories": "Restaurants, Pizza", "public_id": "taste-of-italy-woodstock-3", "id": 751338580, "votes": null, "tagline": null, "has_video": false, "website": "http://www.citysearch.com/profile/external/751338580/woodstock_ga/taste_of_italy.html", "offers": null, "latitude": 34.129993, "politanName": "Atlanta, GA Metro ", "phone_number": "6783887270", "tags": [{"primary": false, "id": 1722, "name": "Restaurants"}, {"primary": true, "id": 11299, "name": "Pizza"}], "fax_number": null, "expansion": {"count": null, "uri": null}, "impression_id": "000b00000019768acaee09444bab54b4f845c51151", "profile": "http://www.citysearch.com/profile/751338580/woodstock_ga/taste_of_italy.html", "address": {"city": "Woodstock", "state": "GA", "street": "6234 Old Highway 5 # D4", "postal_code": "30188"}, "capProviderId": null, "distance": null, "has_offers": false, "name": "Taste of Italy", "longitude": -84.497788, "has_menu": true, "awards": null, "user_review_count": 6}, {"business_operation_status": 1, "rating": null, "neighborhood": null, "image": null, "scorecard": null, "featured": false, "sample_categories": "Restaurants", "public_id": "p-l-p-restaurant-marietta", "id": 796108680, "votes": null, "tagline": null, "has_video": false, "website": null, "offers": null, "latitude": 33.952602, "politanName": "Atlanta, GA Metro ", "phone_number": "7704990139", "tags": [{"primary": true, "id": 1722, "name": "Restaurants"}], "fax_number": null, "expansion": {"count": null, "uri": null}, "impression_id": "000b0000002578e886a45941af801934e405b78a4d", "profile": "http://www.citysearch.com/profile/796108680/marietta_ga/p_l_p_restaurant.html", "address": {"city": "Marietta", "state": "GA", "street": "3960 Mary Eliza Trce NW", "postal_code": "30064"}, "capProviderId": null, "distance": null, "has_offers": false, "name": "P L P Restaurant", "longitude": -84.549933, "has_menu": false, "awards": null, "user_review_count": 0}, {"business_operation_status": 1, "rating": null, "neighborhood": null, "image": null, "scorecard": null, "featured": false, "sample_categories": "Restaurants", "public_id": "ayahs-bistro-kennesaw", "id": 816263730, "votes": null, "tagline": null, "has_video": false, "website": null, "offers": null, "latitude": 34.057627, "politanName": "Atlanta, GA Metro ", "phone_number": "6785940084", "tags": [{"primary": true, "id": 1722, "name": "Restaurants"}], "fax_number": null, "expansion": {"count": null, "uri": null}, "impression_id": "000b0000008d249362cf58492d967cb282c7bac1b7", "profile": "http://www.citysearch.com/profile/816263730/kennesaw_ga/ayah_s_bistro.html", "address": {"city": "Kennesaw", "state": "GA", "street": "4200 Wade Green Rd NW", "postal_code": "30144"}, "capProviderId": null, "distance": null, "has_offers": false, "name": "Ayah's Bistro", "longitude": -84.590928, "has_menu": false, "awards": null, "user_review_count": 0}, {"business_operation_status": 1, "rating": null, "neighborhood": null, "image": null, "scorecard": null, "featured": false, "sample_categories": "Restaurants", "public_id": "tropical-smoothie-cafe-smyrna", "id": 807164030, "votes": null, "tagline": null, "has_video": false, "website": null, "offers": null, "latitude": 33.884019, "politanName": "Atlanta, GA Metro ", "phone_number": "7704369980", "tags": [{"primary": true, "id": 1722, "name": "Restaurants"}], "fax_number": null, "expansion": {"count": null, "uri": null}, "impression_id": "000b00000061d6df18a1c34a478117f78513c2e074", "profile": "http://www.citysearch.com/profile/807164030/smyrna_ga/tropical_smoothie_cafe.html", "address": {"city": "Smyrna", "state": "GA", "street": "1265 W Spring St SE", "postal_code": "30080"}, "capProviderId": null, "distance": null, "has_offers": false, "name": "Tropical Smoothie Cafe", "longitude": -84.515924, "has_menu": false, "awards": null, "user_review_count": 0}, {"business_operation_status": 1, "rating": null, "neighborhood": null, "image": null, "scorecard": null, "featured": false, "sample_categories": "Restaurants", "public_id": "planet-smoothie-marietta-6", "id": 808830020, "votes": null, "tagline": null, "has_video": false, "website": null, "offers": null, "latitude": 33.952602, "politanName": "Atlanta, GA Metro ", "phone_number": "7704272700", "tags": [{"primary": true, "id": 1722, "name": "Restaurants"}], "fax_number": null, "expansion": {"count": null, "uri": null}, "impression_id": "000b000000684b8cd4331b49d3b764b5503f1d839c", "profile": "http://www.citysearch.com/profile/808830020/marietta_ga/planet_smoothie.html", "address": {"city": "Marietta", "state": "GA", "street": "23451 Ernest Barrett Pkwy", "postal_code": "30064"}, "capProviderId": null, "distance": null, "has_offers": false, "name": "Planet Smoothie", "longitude": -84.549933, "has_menu": false, "awards": null, "user_review_count": 0}, {"business_operation_status": 1, "rating": null, "neighborhood": null, "image": null, "scorecard": null, "featured": false, "sample_categories": "Grocery Stores, Restaurants", "public_id": "genji-express-marietta", "id": 836645200, "votes": null, "tagline": null, "has_video": false, "website": null, "offers": null, "latitude": 33.948194, "politanName": "Atlanta, GA Metro ", "phone_number": "7705784400", "tags": [{"primary": false, "id": 1722, "name": "Restaurants"}, {"primary": true, "id": 1713, "name": "Grocery Stores"}], "fax_number": null, "expansion": {"count": null, "uri": null}, "impression_id": "000b00000021289c58962a4030bbc5ddfbd36861ce", "profile": "http://www.citysearch.com/profile/836645200/marietta_ga/genji_express.html", "address": {"city": "Marietta", "state": "GA", "street": "70 Powers Ferry Rd SE", "postal_code": "30067"}, "capProviderId": null, "distance": null, "has_offers": false, "name": "Genji Express", "longitude": -84.513268, "has_menu": true, "awards": null, "user_review_count": 0}, {"business_operation_status": 1, "rating": null, "neighborhood": null, "image": null, "scorecard": null, "featured": false, "sample_categories": "Restaurants, Pizza, Carry Out", "public_id": "little-caesars-pizza-marietta-12", "id": 772192550, "votes": null, "tagline": null, "has_video": false, "website": "http://www.citysearch.com/profile/external/772192550/marietta_ga/little_caesars_pizza.html", "offers": null, "latitude": 34.021599, "politanName": "Atlanta, GA Metro ", "phone_number": "7706454678", "tags": [{"primary": false, "id": 1722, "name": "Restaurants"}, {"primary": false, "id": 11247, "name": "Carry Out"}, {"primary": true, "id": 11299, "name": "Pizza"}], "fax_number": null, "expansion": {"count": null, "uri": null}, "impression_id": "000b000000cb24cfb25a6444a6927eb26d1beb52ad", "profile": "http://www.citysearch.com/profile/772192550/marietta_ga/little_caesars_pizza.html", "address": {"city": "Marietta", "state": "GA", "street": "2986 Johnson Ferry Rd", "postal_code": "30062"}, "capProviderId": null, "distance": null, "has_offers": false, "name": "Little Caesars Pizza", "longitude": -84.426314, "has_menu": false, "awards": null, "user_review_count": 0}, {"business_operation_status": 1, "rating": null, "neighborhood": null, "image": null, "scorecard": null, "featured": false, "sample_categories": "Restaurants", "public_id": "marietta-marietta-2", "id": 838727430, "votes": null, "tagline": null, "has_video": false, "website": null, "offers": null, "latitude": 33.924583, "politanName": "Atlanta, GA Metro ", "phone_number": "7705907388", "tags": [{"primary": true, "id": 1722, "name": "Restaurants"}], "fax_number": null, "expansion": {"count": null, "uri": null}, "impression_id": "000b0000004e1fe94830344569ab9d6eba257a878d", "profile": "http://www.citysearch.com/profile/838727430/marietta_ga/marietta.html", "address": {"city": "Marietta", "state": "GA", "street": "1180 Powder Springs St", "postal_code": "30064"}, "capProviderId": null, "distance": null, "has_offers": false, "name": "Marietta", "longitude": -84.575231, "has_menu": false, "awards": null, "user_review_count": 0}, {"business_operation_status": 1, "rating": null, "neighborhood": null, "image": null, "scorecard": null, "featured": false, "sample_categories": "Restaurants, Carry Out, Hamburgers", "public_id": "wendys-kennesaw-4", "id": 775183780, "votes": null, "tagline": null, "has_video": false, "website": null, "offers": null, "latitude": 34.018974, "politanName": "Atlanta, GA Metro ", "phone_number": "7704273990", "tags": [{"primary": false, "id": 11247, "name": "Carry Out"}, {"primary": false, "id": 11270, "name": "Hamburgers"}, {"primary": true, "id": 1722, "name": "Restaurants"}], "fax_number": null, "expansion": {"count": null, "uri": null}, "impression_id": "000b0000002cc90dc0f0444a00bbbaa39df98285fa", "profile": "http://www.citysearch.com/profile/775183780/kennesaw_ga/wendy_s.html", "address": {"city": "Kennesaw", "state": "GA", "street": "400 Ernest W Barrett Pkwy NW", "postal_code": "30144"}, "capProviderId": null, "distance": null, "has_offers": false, "name": "Wendy's", "longitude": -84.563564, "has_menu": true, "awards": null, "user_review_count": 0}, {"business_operation_status": 1, "rating": null, "neighborhood": null, "image": null, "scorecard": null, "featured": false, "sample_categories": "Ice Cream Parlors, Bakeries, Restaurants", "public_id": "carvel-ice-cream-bakery-alpharetta", "id": 777688380, "votes": null, "tagline": null, "has_video": false, "website": "http://www.citysearch.com/profile/external/777688380/alpharetta_ga/carvel_ice_cream_bakery.html", "offers": null, "latitude": 34.079303, "politanName": "Atlanta, GA Metro ", "phone_number": "7704100086", "tags": [{"primary": false, "id": 1685, "name": "Bakeries"}, {"primary": false, "id": 1722, "name": "Restaurants"}, {"primary": true, "id": 1730, "name": "Ice Cream Parlors"}], "fax_number": null, "expansion": {"count": null, "uri": null}, "impression_id": "000b00000097a4b1bc696940fe8981b13dff0bb10f", "profile": "http://www.citysearch.com/profile/777688380/alpharetta_ga/carvel_ice_cream_bakery.html", "address": {"city": "Alpharetta", "state": "GA", "street": "270 Rucker Rd", "postal_code": "30004"}, "capProviderId": null, "distance": null, "has_offers": false, "name": "Carvel Ice Cream & Bakery", "longitude": -84.358069, "has_menu": true, "awards": null, "user_review_count": 0}, {"business_operation_status": 0, "rating": null, "neighborhood": null, "image": null, "scorecard": null, "featured": false, "sample_categories": "Restaurants", "public_id": "up-the-creek-woodstock", "id": 777709980, "votes": null, "tagline": null, "has_video": false, "website": null, "offers": null, "latitude": 34.116761, "politanName": "Atlanta, GA Metro ", "phone_number": "7705176944", "tags": [{"primary": true, "id": 1722, "name": "Restaurants"}], "fax_number": null, "expansion": {"count": null, "uri": null}, "impression_id": "000b0000007be29114e76848378ef2f3dc0b159f5b", "profile": "http://www.citysearch.com/profile/777709980/woodstock_ga/up_the_creek.html", "address": {"city": "Woodstock", "state": "GA", "street": "6426 Bells Ferry Rd", "postal_code": "30189"}, "capProviderId": null, "distance": null, "has_offers": false, "name": "Up The Creek", "longitude": -84.582993, "has_menu": false, "awards": null, "user_review_count": 0}, {"business_operation_status": 1, "rating": null, "neighborhood": null, "image": null, "scorecard": null, "featured": false, "sample_categories": "Restaurants", "public_id": "soulful-grille-woodstock", "id": 825609470, "votes": null, "tagline": null, "has_video": false, "website": null, "offers": null, "latitude": 34.087712, "politanName": "Atlanta, GA Metro ", "phone_number": "6784450004", "tags": [{"primary": true, "id": 1722, "name": "Restaurants"}], "fax_number": null, "expansion": {"count": null, "uri": null}, "impression_id": "000b000000ebcdc8e006ed4ef5917576ad8b2845d4", "profile": "http://www.citysearch.com/profile/825609470/woodstock_ga/soulful_grille.html", "address": {"city": "Woodstock", "state": "GA", "street": "12910 Highway 92", "postal_code": "30188"}, "capProviderId": null, "distance": null, "has_offers": false, "name": "Soulful Grille", "longitude": -84.471755, "has_menu": false, "awards": null, "user_review_count": 0}, {"business_operation_status": 1, "rating": null, "neighborhood": null, "image": null, "scorecard": null, "featured": false, "sample_categories": "Ice Cream Parlors", "public_id": "marble-slab-creamery-kennesaw", "id": 829114200, "votes": null, "tagline": null, "has_video": false, "website": "http://www.citysearch.com/profile/external/829114200/kennesaw_ga/marble_slab_creamery.html", "offers": null, "latitude": 34.012738, "politanName": "Atlanta, GA Metro ", "phone_number": "6783555424", "tags": [{"primary": true, "id": 1730, "name": "Ice Cream Parlors"}], "fax_number": null, "expansion": {"count": null, "uri": null}, "impression_id": "000b000000a140038a8d3d4f85bfb27ed2cefe4576", "profile": "http://www.citysearch.com/profile/829114200/kennesaw_ga/marble_slab_creamery.html", "address": {"city": "Kennesaw", "state": "GA", "street": "440 Ernest W Barrett Pkwy NW", "postal_code": "30144"}, "capProviderId": null, "distance": null, "has_offers": false, "name": "Marble Slab Creamery", "longitude": -84.5643, "has_menu": true, "awards": null, "user_review_count": 0}, {"business_operation_status": 1, "rating": null, "neighborhood": null, "image": null, "scorecard": null, "featured": false, "sample_categories": "Restaurants, Pizza", "public_id": "pizza-n-beyond-kennesaw", "id": 798806950, "votes": null, "tagline": null, "has_video": false, "website": "http://www.citysearch.com/profile/external/798806950/kennesaw_ga/pizza_n_beyond.html", "offers": null, "latitude": 34.018008, "politanName": "Atlanta, GA Metro ", "phone_number": "7706756108", "tags": [{"primary": false, "id": 1722, "name": "Restaurants"}, {"primary": true, "id": 11299, "name": "Pizza"}], "fax_number": null, "expansion": {"count": null, "uri": null}, "impression_id": "000b0000008c7d4f814ae1440499e4a4b91fa134b5", "profile": "http://www.citysearch.com/profile/798806950/kennesaw_ga/pizza_n_beyond.html", "address": {"city": "Kennesaw", "state": "GA", "street": "2655 Cobb Pkwy NW", "postal_code": "30152"}, "capProviderId": null, "distance": null, "has_offers": false, "name": "Pizza N Beyond", "longitude": -84.619527, "has_menu": true, "awards": null, "user_review_count": 1}, {"business_operation_status": 1, "rating": null, "neighborhood": null, "image": null, "scorecard": null, "featured": false, "sample_categories": "Restaurants, Barbecue Restaurants", "public_id": "wingstop-kennesaw", "id": 762816620, "votes": null, "tagline": null, "has_video": false, "website": "http://www.citysearch.com/profile/external/762816620/kennesaw_ga/wingstop.html", "offers": null, "latitude": 34.030476, "politanName": "Atlanta, GA Metro ", "phone_number": "7704289464", "tags": [{"primary": false, "id": 1724, "name": "Barbecue Restaurants"}, {"primary": true, "id": 1722, "name": "Restaurants"}], "fax_number": null, "expansion": {"count": null, "uri": null}, "impression_id": "000b000000cdad600284e74e6ca5b79e6b729c4f27", "profile": "http://www.citysearch.com/profile/762816620/kennesaw_ga/wingstop.html", "address": {"city": "Kennesaw", "state": "GA", "street": "1133 Chastain Rd NW # 300", "postal_code": "30144"}, "capProviderId": null, "distance": null, "has_offers": false, "name": "Wingstop", "longitude": -84.58315, "has_menu": false, "awards": null, "user_review_count": 0}, {"business_operation_status": 1, "rating": null, "neighborhood": null, "image": null, "scorecard": null, "featured": false, "sample_categories": "Barbecue Restaurants, Restaurants", "public_id": "als-barbeque-marietta", "id": 764865730, "votes": null, "tagline": null, "has_video": false, "website": null, "offers": null, "latitude": 33.951118, "politanName": "Atlanta, GA Metro ", "phone_number": "7704999774", "tags": [{"primary": false, "id": 1722, "name": "Restaurants"}, {"primary": true, "id": 1724, "name": "Barbecue Restaurants"}], "fax_number": null, "expansion": {"count": null, "uri": null}, "impression_id": "000b00000015dab71cc4724bec9a43f2681137ef84", "profile": "http://www.citysearch.com/profile/764865730/marietta_ga/al_s_barbeque.html", "address": {"city": "Marietta", "state": "GA", "street": "34 Powder Springs St", "postal_code": "30064"}, "capProviderId": null, "distance": null, "has_offers": false, "name": "Al's Barbeque", "longitude": -84.550542, "has_menu": true, "awards": null, "user_review_count": 0}, {"business_operation_status": 1, "rating": null, "neighborhood": null, "image": null, "scorecard": null, "featured": false, "sample_categories": "Restaurants", "public_id": "chaplin-restaurant-roswell", "id": 764878060, "votes": null, "tagline": null, "has_video": false, "website": "http://www.citysearch.com/profile/external/764878060/roswell_ga/chaplin_restaurant.html", "offers": null, "latitude": 34.0134, "politanName": "Atlanta, GA Metro ", "phone_number": "7706426981", "tags": [{"primary": true, "id": 1722, "name": "Restaurants"}], "fax_number": null, "expansion": {"count": null, "uri": null}, "impression_id": "000b00000092c6ef2d34ac4151a91f5da403d582ff", "profile": "http://www.citysearch.com/profile/764878060/roswell_ga/chaplin_restaurant.html", "address": {"city": "Roswell", "state": "GA", "street": "555 S Atlanta St", "postal_code": "30075"}, "capProviderId": null, "distance": null, "has_offers": false, "name": "Chaplin Restaurant", "longitude": -84.362872, "has_menu": false, "awards": null, "user_review_count": 0}, {"business_operation_status": 0, "rating": null, "neighborhood": null, "image": null, "scorecard": null, "featured": false, "sample_categories": "Restaurants", "public_id": "real-deal-roswell", "id": 713555980, "votes": null, "tagline": null, "has_video": false, "website": null, "offers": null, "latitude": 34.034238, "politanName": "Atlanta, GA Metro ", "phone_number": "6787950394", "tags": [{"primary": true, "id": 1722, "name": "Restaurants"}], "fax_number": null, "expansion": {"count": null, "uri": null}, "impression_id": "000b00000042a1181f2cd34a7da02ec69b69bebfb3", "profile": "http://www.citysearch.com/profile/713555980/roswell_ga/real_deal.html", "address": {"city": "Roswell", "state": "GA", "street": "10479 Alpharetta St # 1", "postal_code": "30075"}, "capProviderId": null, "distance": null, "has_offers": false, "name": "Real Deal", "longitude": -84.345527, "has_menu": false, "awards": null, "user_review_count": 0}, {"business_operation_status": 1, "rating": null, "neighborhood": null, "image": null, "scorecard": null, "featured": false, "sample_categories": "Restaurants, Mexican", "public_id": "la-paz-restaurant-kennesaw", "id": 775214130, "votes": null, "tagline": null, "has_video": false, "website": null, "offers": null, "latitude": 34.048726, "politanName": "Atlanta, GA Metro ", "phone_number": "7704053220", "tags": [{"primary": false, "id": 11208, "name": "Mexican"}, {"primary": true, "id": 1722, "name": "Restaurants"}], "fax_number": null, "expansion": {"count": null, "uri": null}, "impression_id": "000b000000da374364f55040f792166c35f20ae24e", "profile": "http://www.citysearch.com/profile/775214130/kennesaw_ga/la_paz_restaurant.html", "address": {"city": "Kennesaw", "state": "GA", "street": "1275 Shiloh Rd NW # 2950", "postal_code": "30144"}, "capProviderId": null, "distance": null, "has_offers": false, "name": "La Paz Restaurant", "longitude": -84.58852, "has_menu": false, "awards": null, "user_review_count": 0}, {"business_operation_status": 1, "rating": null, "neighborhood": null, "image": null, "scorecard": null, "featured": false, "sample_categories": "Restaurants, Bars & Clubs", "public_id": "highlands-grill-kennesaw-3", "id": 775224210, "votes": null, "tagline": null, "has_video": false, "website": null, "offers": null, "latitude": 34.013172, "politanName": "Atlanta, GA Metro ", "phone_number": "7704261515", "tags": [{"primary": false, "id": 164, "name": "Bars & Clubs"}, {"primary": true, "id": 1722, "name": "Restaurants"}], "fax_number": null, "expansion": {"count": null, "uri": null}, "impression_id": "000b000000a562c6bce8b541d7809d721e1aca01a2", "profile": "http://www.citysearch.com/profile/775224210/kennesaw_ga/highlands_grill.html", "address": {"city": "Kennesaw", "state": "GA", "street": "2615 George Busbee Pky NW # 28", "postal_code": "30144"}, "capProviderId": null, "distance": null, "has_offers": false, "name": "Highlands Grill", "longitude": -84.567215, "has_menu": false, "awards": null, "user_review_count": 0}, {"business_operation_status": 1, "rating": null, "neighborhood": null, "image": null, "scorecard": null, "featured": false, "sample_categories": "Juice & Smoothie Shops, Restaurants, Ice Cream Parlors, Carry Out", "public_id": "orange-julius-kennesaw", "id": 777716120, "votes": null, "tagline": null, "has_video": false, "website": "http://www.citysearch.com/profile/external/777716120/kennesaw_ga/orange_julius.html", "offers": null, "latitude": 34.014009, "politanName": "Atlanta, GA Metro ", "phone_number": "7704281468", "tags": [{"primary": false, "id": 1722, "name": "Restaurants"}, {"primary": false, "id": 1730, "name": "Ice Cream Parlors"}, {"primary": false, "id": 11247, "name": "Carry Out"}, {"primary": true, "id": 1735, "name": "Juice & Smoothie Shops"}], "fax_number": null, "expansion": {"count": null, "uri": null}, "impression_id": "000b000000c3a682c00ffa48bb9352ec883e89b3fc", "profile": "http://www.citysearch.com/profile/777716120/kennesaw_ga/orange_julius.html", "address": {"city": "Kennesaw", "state": "GA", "street": "400 Ernest W Barrett Pkwy NW", "postal_code": "30144"}, "capProviderId": null, "distance": null, "has_offers": false, "name": "Orange Julius", "longitude": -84.561425, "has_menu": true, "awards": null, "user_review_count": 0}, {"business_operation_status": 0, "rating": null, "neighborhood": null, "image": null, "scorecard": null, "featured": false, "sample_categories": "Restaurants, Delis And Delicatessens, Sandwich Shops, Carry Out", "public_id": "quiznos-kennesaw", "id": 648900450, "votes": null, "tagline": null, "has_video": false, "website": null, "offers": null, "latitude": 34.030476, "politanName": "Atlanta, GA Metro ", "phone_number": "7705147844", "tags": [{"primary": false, "id": 1727, "name": "Delis And Delicatessens"}, {"primary": false, "id": 1736, "name": "Sandwich Shops"}, {"primary": false, "id": 11247, "name": "Carry Out"}, {"primary": true, "id": 1722, "name": "Restaurants"}], "fax_number": null, "expansion": {"count": null, "uri": null}, "impression_id": "000b000000b4ab9682e41a4831836f039922b2ed20", "profile": "http://www.citysearch.com/profile/648900450/kennesaw_ga/quiznos.html", "address": {"city": "Kennesaw", "state": "GA", "street": "1133 Chastain Rd NW Ste C", "postal_code": "30144"}, "capProviderId": null, "distance": null, "has_offers": false, "name": "Quiznos", "longitude": -84.58315, "has_menu": true, "awards": null, "user_review_count": 0}, {"business_operation_status": 1, "rating": null, "neighborhood": null, "image": null, "scorecard": null, "featured": false, "sample_categories": "Restaurants, Bars & Clubs, Bars & Pubs", "public_id": "kastaways-food-spirits-marietta", "id": 655851930, "votes": null, "tagline": null, "has_video": false, "website": null, "offers": null, "latitude": 33.934059, "politanName": "Atlanta, GA Metro ", "phone_number": "7704294922", "tags": [{"primary": false, "id": 164, "name": "Bars & Clubs"}, {"primary": false, "id": 1686, "name": "Bars & Pubs"}, {"primary": true, "id": 1722, "name": "Restaurants"}], "fax_number": null, "expansion": {"count": null, "uri": null}, "impression_id": "000b0000006dac60096b024bc7b383122ae1cb817e", "profile": "http://www.citysearch.com/profile/655851930/marietta_ga/kastaways_food_spirits.html", "address": {"city": "Marietta", "state": "GA", "street": "795 Powder Springs St", "postal_code": "30064"}, "capProviderId": null, "distance": null, "has_offers": false, "name": "Kastaways Food & Spirits", "longitude": -84.559181, "has_menu": false, "awards": null, "user_review_count": 0}, {"business_operation_status": 1, "rating": null, "neighborhood": null, "image": null, "scorecard": null, "featured": false, "sample_categories": "Restaurants, Chinese", "public_id": "china-one-atlanta", "id": 655906650, "votes": null, "tagline": null, "has_video": false, "website": null, "offers": null, "latitude": 34.111377, "politanName": "Atlanta, GA Metro ", "phone_number": "7709096899", "tags": [{"primary": false, "id": 11252, "name": "Chinese"}, {"primary": true, "id": 1722, "name": "Restaurants"}], "fax_number": null, "expansion": {"count": null, "uri": null}, "impression_id": "000b000000d2b2b62a47ae4577b2f1823c33a30653", "profile": "http://www.citysearch.com/profile/655906650/atlanta_ga/china_one.html", "address": {"city": "Atlanta", "state": "GA", "street": "5456 Riverstation Blvd", "postal_code": "30349"}, "capProviderId": null, "distance": null, "has_offers": false, "name": "China One", "longitude": -84.462097, "has_menu": false, "awards": null, "user_review_count": 0}, {"business_operation_status": 1, "rating": null, "neighborhood": null, "image": null, "scorecard": null, "featured": false, "sample_categories": "Restaurants", "public_id": "crossroads-neighborhood-grille-dallas", "id": 790624770, "votes": null, "tagline": null, "has_video": false, "website": null, "offers": null, "latitude": 34.022077, "politanName": "Atlanta, GA Metro ", "phone_number": "7709757712", "tags": [{"primary": true, "id": 1722, "name": "Restaurants"}], "fax_number": null, "expansion": {"count": null, "uri": null}, "impression_id": "000b000000a486562d09c54af688a9e18350d96cda", "profile": "http://www.citysearch.com/profile/790624770/dallas_ga/crossroads_neighborhood_grille.html", "address": {"city": "Dallas", "state": "GA", "street": "1305 Cedarcrest Rd", "postal_code": "30132"}, "capProviderId": null, "distance": null, "has_offers": false, "name": "Crossroads Neighborhood Grille", "longitude": -84.771962, "has_menu": false, "awards": null, "user_review_count": 0}, {"business_operation_status": 1, "rating": null, "neighborhood": null, "image": null, "scorecard": null, "featured": false, "sample_categories": "Restaurants, Asian, Chinese", "public_id": "chinese-restaurant-marietta", "id": 682576220, "votes": null, "tagline": null, "has_video": false, "website": "http://www.citysearch.com/profile/external/682576220/marietta_ga/chinese_restaurant.html", "offers": null, "latitude": 33.968527, "politanName": "Atlanta, GA Metro ", "phone_number": "7703218202", "tags": [{"primary": false, "id": 11235, "name": "Asian"}, {"primary": false, "id": 11252, "name": "Chinese"}, {"primary": true, "id": 1722, "name": "Restaurants"}], "fax_number": null, "expansion": {"count": null, "uri": null}, "impression_id": "000b000000ae63d50263484937ad4faea7f62a1d02", "profile": "http://www.citysearch.com/profile/682576220/marietta_ga/chinese_restaurant.html", "address": {"city": "Marietta", "state": "GA", "street": "2145 Roswell Rd", "postal_code": "30062"}, "capProviderId": null, "distance": null, "has_offers": false, "name": "Chinese Restaurant", "longitude": -84.491622, "has_menu": false, "awards": null, "user_review_count": 0}, {"business_operation_status": 1, "rating": null, "neighborhood": null, "image": null, "scorecard": null, "featured": false, "sample_categories": "Restaurants, Pizza", "public_id": "decios-new-york-style-pizza-woodstock", "id": 764857170, "votes": null, "tagline": null, "has_video": false, "website": null, "offers": null, "latitude": 34.112372, "politanName": "Atlanta, GA Metro ", "phone_number": "7709269743", "tags": [{"primary": false, "id": 11299, "name": "Pizza"}, {"primary": true, "id": 1722, "name": "Restaurants"}], "fax_number": null, "expansion": {"count": null, "uri": null}, "impression_id": "000b00000083b93d2c796e496faffebcbf7f3f7022", "profile": "http://www.citysearch.com/profile/764857170/woodstock_ga/decio_s_new_york_style_pizza.html", "address": {"city": "Woodstock", "state": "GA", "street": "2990 Eagle Dr", "postal_code": "30189"}, "capProviderId": null, "distance": null, "has_offers": false, "name": "Decio's New York Style Pizza", "longitude": -84.561077, "has_menu": false, "awards": null, "user_review_count": 0}, {"business_operation_status": 1, "rating": null, "neighborhood": null, "image": null, "scorecard": null, "featured": false, "sample_categories": "Restaurants, Luaus, Mexican", "public_id": "taco-mac-kennesaw", "id": 766794950, "votes": null, "tagline": null, "has_video": false, "website": null, "offers": null, "latitude": 34.014045, "politanName": "Atlanta, GA Metro ", "phone_number": "7704261515", "tags": [{"primary": false, "id": 1722, "name": "Restaurants"}, {"primary": false, "id": 11208, "name": "Mexican"}, {"primary": true, "id": 11285, "name": "Luaus"}], "fax_number": null, "expansion": {"count": null, "uri": null}, "impression_id": "000b000000e7af9104346f4b0b94f39c141af20723", "profile": "http://www.citysearch.com/profile/766794950/kennesaw_ga/taco_mac.html", "address": {"city": "Kennesaw", "state": "GA", "street": "2615 Busbee Pkwy NW # 28", "postal_code": "30144"}, "capProviderId": null, "distance": null, "has_offers": false, "name": "Taco Mac", "longitude": -84.56696, "has_menu": false, "awards": null, "user_review_count": 0}, {"business_operation_status": 1, "rating": null, "neighborhood": null, "image": null, "scorecard": null, "featured": false, "sample_categories": "Restaurants, Pizza", "public_id": "gondolier-pizza-1-kennesaw", "id": 809188170, "votes": null, "tagline": null, "has_video": false, "website": null, "offers": null, "latitude": 34.007674, "politanName": "Atlanta, GA Metro ", "phone_number": "7704199979", "tags": [{"primary": false, "id": 1722, "name": "Restaurants"}, {"primary": true, "id": 11299, "name": "Pizza"}], "fax_number": null, "expansion": {"count": null, "uri": null}, "impression_id": "000b000000b2fa9f466ad741438780bdcccb67c330", "profile": "http://www.citysearch.com/profile/809188170/kennesaw_ga/gondolier_pizza_1.html", "address": {"city": "Kennesaw", "state": "GA", "street": "740 Ernest W Barrett Pkwy NW", "postal_code": "30144"}, "capProviderId": null, "distance": null, "has_offers": false, "name": "Gondolier Pizza 1", "longitude": -84.571702, "has_menu": false, "awards": null, "user_review_count": 0}, {"business_operation_status": 1, "rating": null, "neighborhood": null, "image": null, "scorecard": null, "featured": false, "sample_categories": "Restaurants", "public_id": "seattle-suttons-healthy-roswell", "id": 809649590, "votes": null, "tagline": null, "has_video": false, "website": null, "offers": null, "latitude": 34.049276, "politanName": "Atlanta, GA Metro ", "phone_number": "7709983232", "tags": [{"primary": true, "id": 1722, "name": "Restaurants"}], "fax_number": null, "expansion": {"count": null, "uri": null}, "impression_id": "000b000000255aded611be4127b533dc6a2b29ecc1", "profile": "http://www.citysearch.com/profile/809649590/roswell_ga/seattle_sutton_s_healthy.html", "address": {"city": "Roswell", "state": "GA", "street": "45 W Crossville Rd", "postal_code": "30075"}, "capProviderId": null, "distance": null, "has_offers": false, "name": "Seattle Sutton's Healthy", "longitude": -84.362549, "has_menu": false, "awards": null, "user_review_count": 0}, {"business_operation_status": 1, "rating": null, "neighborhood": null, "image": null, "scorecard": null, "featured": false, "sample_categories": "Restaurants, Japanese", "public_id": "access-japan-inc-marietta", "id": 775202150, "votes": null, "tagline": null, "has_video": false, "website": null, "offers": null, "latitude": 33.959931, "politanName": "Atlanta, GA Metro ", "phone_number": "7709714847", "tags": [{"primary": false, "id": 11202, "name": "Japanese"}, {"primary": true, "id": 1722, "name": "Restaurants"}], "fax_number": null, "expansion": {"count": null, "uri": null}, "impression_id": "000b000000dd8510637af44754a73ce51b9bf77e66", "profile": "http://www.citysearch.com/profile/775202150/marietta_ga/access_japan_inc.html", "address": {"city": "Marietta", "state": "GA", "street": "360 Willow Glen Dr", "postal_code": "30068"}, "capProviderId": null, "distance": null, "has_offers": false, "name": "Access Japan Inc", "longitude": -84.485385, "has_menu": false, "awards": null, "user_review_count": 0}, {"business_operation_status": 1, "rating": null, "neighborhood": null, "image": null, "scorecard": null, "featured": false, "sample_categories": "Barbecue Restaurants, Restaurants, Hot Dogs", "public_id": "bbq-1-roswell", "id": 713485770, "votes": null, "tagline": null, "has_video": false, "website": "http://www.citysearch.com/profile/external/713485770/roswell_ga/bbq_1.html", "offers": null, "latitude": 34.027716, "politanName": "Atlanta, GA Metro ", "phone_number": "7705872271", "tags": [{"primary": false, "id": 1722, "name": "Restaurants"}, {"primary": false, "id": 11274, "name": "Hot Dogs"}, {"primary": true, "id": 1724, "name": "Barbecue Restaurants"}], "fax_number": null, "expansion": {"count": null, "uri": null}, "impression_id": "000b0000009d078f438c4546d9a1ba8011938150c9", "profile": "http://www.citysearch.com/profile/713485770/roswell_ga/bbq_1.html", "address": {"city": "Roswell", "state": "GA", "street": "4401 Shallowford Rd", "postal_code": "30075"}, "capProviderId": null, "distance": null, "has_offers": false, "name": "BBQ 1", "longitude": -84.420333, "has_menu": false, "awards": null, "user_review_count": 0}, {"business_operation_status": 1, "rating": null, "neighborhood": null, "image": null, "scorecard": null, "featured": false, "sample_categories": "Restaurants, Pizza, Carry Out", "public_id": "sals-pizzeria-acworth", "id": 790746800, "votes": null, "tagline": null, "has_video": false, "website": null, "offers": null, "latitude": 34.062771, "politanName": "Atlanta, GA Metro ", "phone_number": "7704275368", "tags": [{"primary": false, "id": 1722, "name": "Restaurants"}, {"primary": false, "id": 11247, "name": "Carry Out"}, {"primary": true, "id": 11299, "name": "Pizza"}], "fax_number": null, "expansion": {"count": null, "uri": null}, "impression_id": "000b0000005066ed1514024784adb83fd5e1428a25", "profile": "http://www.citysearch.com/profile/790746800/acworth_ga/sals_pizzeria.html", "address": {"city": "Acworth", "state": "GA", "street": "1361 Hearthstone Way NW", "postal_code": "30102"}, "capProviderId": null, "distance": null, "has_offers": false, "name": "Sals Pizzeria", "longitude": -84.585107, "has_menu": false, "awards": null, "user_review_count": 0}, {"business_operation_status": 1, "rating": null, "neighborhood": null, "image": null, "scorecard": null, "featured": false, "sample_categories": "Restaurants, Bars & Clubs, Bars & Pubs", "public_id": "abbey-road-bar-grill-marietta", "id": 728039580, "votes": null, "tagline": null, "has_video": false, "website": "http://www.citysearch.com/profile/external/728039580/marietta_ga/abbey_road_bar_grill.html", "offers": null, "latitude": 34.020856, "politanName": "Atlanta, GA Metro ", "phone_number": "7706430138", "tags": [{"primary": false, "id": 164, "name": "Bars & Clubs"}, {"primary": false, "id": 1686, "name": "Bars & Pubs"}, {"primary": true, "id": 1722, "name": "Restaurants"}], "fax_number": null, "expansion": {"count": null, "uri": null}, "impression_id": "000b000000e5ef2912f3944d8eb8c3e5b1c88b49a4", "profile": "http://www.citysearch.com/profile/728039580/marietta_ga/abbey_road_bar_grill.html", "address": {"city": "Marietta", "state": "GA", "street": "2940 Johnson Ferry Rd", "postal_code": "30062"}, "capProviderId": null, "distance": null, "has_offers": false, "name": "Abbey Road Bar & Grill", "longitude": -84.426832, "has_menu": false, "awards": null, "user_review_count": 0}, {"business_operation_status": 1, "rating": null, "neighborhood": null, "image": null, "scorecard": null, "featured": false, "sample_categories": "Ice Cream Parlors", "public_id": "smyrna-old-fashioned-ice-cream-smyrna", "id": 829274170, "votes": null, "tagline": null, "has_video": false, "website": null, "offers": null, "latitude": 33.8824, "politanName": "Atlanta, GA Metro ", "phone_number": "7704345560", "tags": [{"primary": true, "id": 1730, "name": "Ice Cream Parlors"}], "fax_number": null, "expansion": {"count": null, "uri": null}, "impression_id": "000b0000004eb95f6bfeb946ab930da628f468fb8d", "profile": "http://www.citysearch.com/profile/829274170/smyrna_ga/smyrna_old_fashioned_ice_cream.html", "address": {"city": "Smyrna", "state": "GA", "street": "885 Flagler Cir SE", "postal_code": "30080"}, "capProviderId": null, "distance": null, "has_offers": false, "name": "Smyrna Old Fashioned Ice Cream", "longitude": -84.527884, "has_menu": false, "awards": null, "user_review_count": 0}, {"business_operation_status": 1, "rating": null, "neighborhood": null, "image": null, "scorecard": null, "featured": false, "sample_categories": "Restaurants, Greek, Middle Eastern, Family Style Dining, Mediterranean", "public_id": "milos-greek-taverna-marietta", "id": 798213230, "votes": null, "tagline": null, "has_video": false, "website": null, "offers": null, "latitude": 33.953276, "politanName": "Atlanta, GA Metro ", "phone_number": "6789033148", "tags": [{"primary": false, "id": 1722, "name": "Restaurants"}, {"primary": false, "id": 11215, "name": "Middle Eastern"}, {"primary": false, "id": 11262, "name": "Family Style Dining"}, {"primary": false, "id": 11289, "name": "Mediterranean"}, {"primary": true, "id": 11268, "name": "Greek"}], "fax_number": "6789033149", "expansion": {"count": null, "uri": null}, "impression_id": "000b000000ee0bf9c934b640579601a5492a25667f", "profile": "http://www.citysearch.com/profile/798213230/marietta_ga/milos_greek_taverna.html", "address": {"city": "Marietta", "state": "GA", "street": "26 Mill St NE", "postal_code": "30060"}, "capProviderId": null, "distance": null, "has_offers": false, "name": "Milos Greek Taverna", "longitude": -84.551885, "has_menu": false, "awards": null, "user_review_count": 0}, {"business_operation_status": 1, "rating": null, "neighborhood": null, "image": null, "scorecard": null, "featured": false, "sample_categories": "Coffeehouses", "public_id": "port-city-java-alpharetta", "id": 732205760, "votes": null, "tagline": null, "has_video": false, "website": null, "offers": null, "latitude": 34.077695, "politanName": "Atlanta, GA Metro ", "phone_number": "7706195793", "tags": [{"primary": true, "id": 1726, "name": "Coffeehouses"}], "fax_number": null, "expansion": {"count": null, "uri": null}, "impression_id": "000b000000d50877a126f74391bc55b44f09d818c8", "profile": "http://www.citysearch.com/profile/732205760/alpharetta_ga/port_city_java.html", "address": {"city": "Alpharetta", "state": "GA", "street": "295 Rucker Rd", "postal_code": "30004"}, "capProviderId": null, "distance": null, "has_offers": false, "name": "Port City Java", "longitude": -84.352541, "has_menu": false, "awards": null, "user_review_count": 0}, {"business_operation_status": 1, "rating": null, "neighborhood": null, "image": null, "scorecard": null, "featured": false, "sample_categories": "Restaurants, Pizza", "public_id": "brixx-wood-fired-pizza-marietta", "id": 836778520, "votes": null, "tagline": null, "has_video": false, "website": null, "offers": null, "latitude": 33.98752, "politanName": "Atlanta, GA Metro ", "phone_number": "6789034410", "tags": [{"primary": false, "id": 1722, "name": "Restaurants"}, {"primary": true, "id": 11299, "name": "Pizza"}], "fax_number": null, "expansion": {"count": null, "uri": null}, "impression_id": "000b000000d52267fd6c0b4a59a8ad62f2441df411", "profile": "http://www.citysearch.com/profile/836778520/marietta_ga/brixx_wood_fired_pizza.html", "address": {"city": "Marietta", "state": "GA", "street": "4475 Roswell Rd # 1700", "postal_code": "30062"}, "capProviderId": null, "distance": null, "has_offers": false, "name": "Brixx Wood Fired Pizza", "longitude": -84.42189, "has_menu": false, "awards": null, "user_review_count": 0}, {"business_operation_status": 1, "rating": null, "neighborhood": null, "image": null, "scorecard": null, "featured": false, "sample_categories": "Restaurants", "public_id": "tappan-street-restaurant-group-roswell-2", "id": 808718630, "votes": null, "tagline": null, "has_video": false, "website": null, "offers": null, "latitude": 34.025741, "politanName": "Atlanta, GA Metro ", "phone_number": "7706431090", "tags": [{"primary": true, "id": 1722, "name": "Restaurants"}], "fax_number": null, "expansion": {"count": null, "uri": null}, "impression_id": "000b0000008b3f6dab42b24f589cdea260261c7646", "profile": "http://www.citysearch.com/profile/808718630/roswell_ga/tappan_street_restaurant_group.html", "address": {"city": "Roswell", "state": "GA", "street": "66 Norcross St", "postal_code": "30075"}, "capProviderId": null, "distance": null, "has_offers": false, "name": "Tappan Street Restaurant Group", "longitude": -84.359094, "has_menu": false, "awards": null, "user_review_count": 0}, {"business_operation_status": 1, "rating": null, "neighborhood": null, "image": null, "scorecard": null, "featured": false, "sample_categories": "Frozen Yogurt Shops, Grocery Stores, Restaurants", "public_id": "oolala-marietta", "id": 732204990, "votes": null, "tagline": null, "has_video": false, "website": "http://www.citysearch.com/profile/external/732204990/marietta_ga/oolala.html", "offers": null, "latitude": 33.950252, "politanName": "Atlanta, GA Metro ", "phone_number": "6783836129", "tags": [{"primary": false, "id": 1713, "name": "Grocery Stores"}, {"primary": false, "id": 1722, "name": "Restaurants"}, {"primary": true, "id": 1729, "name": "Frozen Yogurt Shops"}], "fax_number": null, "expansion": {"count": null, "uri": null}, "impression_id": "000b00000094333968b03a497daa2618397e356896", "profile": "http://www.citysearch.com/profile/732204990/marietta_ga/oolala.html", "address": {"city": "Marietta", "state": "GA", "street": "2500 Dallas Hwy SW # 650", "postal_code": "30064"}, "capProviderId": null, "distance": null, "has_offers": false, "name": "Oolala", "longitude": -84.638093, "has_menu": false, "awards": null, "user_review_count": 0}, {"business_operation_status": 1, "rating": null, "neighborhood": null, "image": null, "scorecard": null, "featured": false, "sample_categories": "Coffeehouses", "public_id": "volcanica-coffee-inc-coral", "id": 732048930, "votes": null, "tagline": null, "has_video": false, "website": null, "offers": "Free Shipping", "latitude": 33.988892, "politanName": "Atlanta, GA Metro ", "phone_number": "8774547031", "tags": [{"primary": true, "id": 1726, "name": "Coffeehouses"}], "fax_number": null, "expansion": {"count": null, "uri": null}, "impression_id": "000b000000a9044a00568448168658fc58f4762b7e", "profile": "http://www.citysearch.com/profile/732048930/atlanta_ga/volcanica_coffee_inc.html", "address": {"city": "Atlanta", "state": "GA", "street": "1831-C West Oak Parkway", "postal_code": "30062"}, "capProviderId": null, "distance": null, "has_offers": true, "name": "Volcanica Coffee Inc", "longitude": -84.525273, "has_menu": false, "awards": null, "user_review_count": 0}, {"business_operation_status": 0, "rating": null, "neighborhood": null, "image": null, "scorecard": null, "featured": false, "sample_categories": "Restaurants", "public_id": "beefobradys-woodstock", "id": 764887810, "votes": null, "tagline": null, "has_video": false, "website": null, "offers": null, "latitude": 34.087615, "politanName": "Atlanta, GA Metro ", "phone_number": "7705169976", "tags": [{"primary": true, "id": 1722, "name": "Restaurants"}], "fax_number": null, "expansion": {"count": null, "uri": null}, "impression_id": "000b0000000e4413fe27574154a944de0590d6a1d6", "profile": "http://www.citysearch.com/profile/764887810/woodstock_ga/beef_o_brady_s.html", "address": {"city": "Woodstock", "state": "GA", "street": "12100 Highway 92", "postal_code": "30188"}, "capProviderId": null, "distance": null, "has_offers": false, "name": "Beef'o'brady's", "longitude": -84.485124, "has_menu": false, "awards": null, "user_review_count": 0}, {"business_operation_status": 1, "rating": null, "neighborhood": null, "image": null, "scorecard": null, "featured": false, "sample_categories": "Health Food Stores, Restaurants", "public_id": "planet-smoothie-marietta", "id": 36642521, "votes": null, "tagline": null, "has_video": false, "website": "http://www.citysearch.com/profile/external/36642521/marietta_ga/planet_smoothie.html", "offers": null, "latitude": 33.969856, "politanName": "Atlanta, GA Metro ", "phone_number": "6785604001", "tags": [{"primary": false, "id": 1722, "name": "Restaurants"}, {"primary": true, "id": 1716, "name": "Health Food Stores"}], "fax_number": null, "expansion": {"count": null, "uri": null}, "impression_id": "000b0000001cacfaba68bb4df59f1956d5de213f31", "profile": "http://www.citysearch.com/profile/36642521/marietta_ga/planet_smoothie.html", "address": {"city": "Marietta", "state": "GA", "street": "2200 Roswell Rd", "postal_code": "30062"}, "capProviderId": null, "distance": null, "has_offers": false, "name": "Planet Smoothie", "longitude": -84.488427, "has_menu": true, "awards": null, "user_review_count": 0}], "histograms": [], "tag_ids": [1722], "uri": "http://api.citygridmedia.com:8080/search/places/v2/search/where?has_offers=false&type=restaurant&format=json&page=28&where=30066&rpp=50&histograms=false&publisher=10000009598&region_type=circle", "did_you_mean": "", "regions": [{"latitude": 34.034132, "default_radius": 5.28, "type": "postal_code", "name": "30066", "longitude": -84.508332}], "call_id": "000b000000ebbc7dd03c9d4589ada1027fc0bfcdd1", "first_hit": 1351, "total_hits": 2075, "geo_ids": [26294], "page": 28, "last_hit": 1400}}