{"results": {"rpp": 50, "locations": [{"business_operation_status": 1, "rating": null, "neighborhood": null, "image": null, "scorecard": null, "featured": false, "sample_categories": "Barbecue Restaurants", "public_id": "bbq-ninety-two-woodstock", "id": 787095460, "votes": null, "tagline": null, "has_video": false, "website": null, "offers": null, "latitude": 34.088137, "politanName": "Atlanta, GA Metro ", "phone_number": "7704856298", "tags": [{"primary": true, "id": 1724, "name": "Barbecue Restaurants"}], "fax_number": null, "expansion": {"count": null, "uri": null}, "impression_id": "000b000000969c18f960534a7ebf132d1feb92a081", "profile": "http://www.citysearch.com/profile/787095460/woodstock_ga/bbq_ninety_two.html", "address": {"city": "Woodstock", "state": "GA", "street": "300 Village Center Dr", "postal_code": "30188"}, "capProviderId": null, "distance": null, "has_offers": false, "name": "BBQ Ninety Two", "longitude": -84.468337, "has_menu": false, "awards": null, "user_review_count": 0}, {"business_operation_status": 1, "rating": null, "neighborhood": null, "image": null, "scorecard": null, "featured": false, "sample_categories": "Restaurants", "public_id": "atlwest-mariett-marietta", "id": 787106980, "votes": null, "tagline": null, "has_video": false, "website": null, "offers": null, "latitude": 33.944719, "politanName": "Atlanta, GA Metro ", "phone_number": "7707927933", "tags": [{"primary": true, "id": 1722, "name": "Restaurants"}], "fax_number": null, "expansion": {"count": null, "uri": null}, "impression_id": "000b0000005bc324f3887b41f398c183a770a6b258", "profile": "http://www.citysearch.com/profile/787106980/marietta_ga/atl_west_mariett.html", "address": {"city": "Marietta", "state": "GA", "street": "2535 Dallas Hwy Sw", "postal_code": "30064"}, "capProviderId": null, "distance": null, "has_offers": false, "name": "Atl-West Mariett", "longitude": -84.625194, "has_menu": false, "awards": null, "user_review_count": 0}, {"business_operation_status": 1, "rating": null, "neighborhood": null, "image": null, "scorecard": null, "featured": false, "sample_categories": "Restaurants, Italian", "public_id": "i-p-ps-pastaria-bar-rstrnt-woodstock", "id": 728043760, "votes": null, "tagline": null, "has_video": false, "website": null, "offers": null, "latitude": 34.102444, "politanName": "Atlanta, GA Metro ", "phone_number": "7705177305", "tags": [{"primary": false, "id": 11279, "name": "Italian"}, {"primary": true, "id": 1722, "name": "Restaurants"}], "fax_number": null, "expansion": {"count": null, "uri": null}, "impression_id": "000b000000c0b50b8835d145c1855c5bb6953d85c0", "profile": "http://www.citysearch.com/profile/728043760/woodstock_ga/i_p_p_s_pastaria_bar_rstrnt.html", "address": {"city": "Woodstock", "state": "GA", "street": "8496 Main St", "postal_code": "30188"}, "capProviderId": null, "distance": null, "has_offers": false, "name": "I P P's Pastaria & Bar Rstrnt", "longitude": -84.519881, "has_menu": false, "awards": null, "user_review_count": 0}, {"business_operation_status": 1, "rating": null, "neighborhood": null, "image": null, "scorecard": null, "featured": false, "sample_categories": "Restaurants", "public_id": "stricks-southern-flavor-grill-marietta", "id": 728066170, "votes": null, "tagline": null, "has_video": false, "website": null, "offers": null, "latitude": 33.955558, "politanName": "Atlanta, GA Metro ", "phone_number": "6783555538", "tags": [{"primary": true, "id": 1722, "name": "Restaurants"}], "fax_number": null, "expansion": {"count": null, "uri": null}, "impression_id": "000b00000044e2e1dd8fe74404acbc6d280dd3fa43", "profile": "http://www.citysearch.com/profile/728066170/marietta_ga/strick_s_southern_flavor_grill.html", "address": {"city": "Marietta", "state": "GA", "street": "168 Hunt St Ne", "postal_code": "30060"}, "capProviderId": null, "distance": null, "has_offers": false, "name": "Strick's Southern Flavor Grill", "longitude": -84.544275, "has_menu": false, "awards": null, "user_review_count": 0}, {"business_operation_status": 1, "rating": null, "neighborhood": null, "image": null, "scorecard": null, "featured": false, "sample_categories": "Barbecue Restaurants, Restaurants", "public_id": "grand-champion-bbq-alpharetta", "id": 790609500, "votes": null, "tagline": null, "has_video": false, "website": null, "offers": null, "latitude": 34.089254, "politanName": "Atlanta, GA Metro ", "phone_number": "7709934227", "tags": [{"primary": false, "id": 1722, "name": "Restaurants"}, {"primary": true, "id": 1724, "name": "Barbecue Restaurants"}], "fax_number": null, "expansion": {"count": null, "uri": null}, "impression_id": "000b0000005378a2e8d4464ba1b8fafed188c730f9", "profile": "http://www.citysearch.com/profile/790609500/alpharetta_ga/grand_champion_bbq.html", "address": {"city": "Alpharetta", "state": "GA", "street": "12635 Crabapple Rd", "postal_code": "30004"}, "capProviderId": null, "distance": null, "has_offers": false, "name": "Grand Champion BBQ", "longitude": -84.342597, "has_menu": false, "awards": null, "user_review_count": 0}, {"business_operation_status": 1, "rating": null, "neighborhood": null, "image": null, "scorecard": null, "featured": false, "sample_categories": "Restaurants, Luaus", "public_id": "sapporo-japanese-steak-seafood-marietta", "id": 807245910, "votes": null, "tagline": null, "has_video": false, "website": null, "offers": null, "latitude": 33.984475, "politanName": "Atlanta, GA Metro ", "phone_number": "7705657018", "tags": [{"primary": false, "id": 11285, "name": "Luaus"}, {"primary": true, "id": 1722, "name": "Restaurants"}], "fax_number": null, "expansion": {"count": null, "uri": null}, "impression_id": "000b000000e31855f8ebee4ce890dc9ebf925d22e3", "profile": "http://www.citysearch.com/profile/807245910/marietta_ga/sapporo_japanese_steak_seafood.html", "address": {"city": "Marietta", "state": "GA", "street": "1401 Johnson Ferry Rd # 268d", "postal_code": "30062"}, "capProviderId": null, "distance": null, "has_offers": false, "name": "Sapporo Japanese Steak Seafood", "longitude": -84.427681, "has_menu": false, "awards": null, "user_review_count": 0}, {"business_operation_status": 1, "rating": null, "neighborhood": null, "image": null, "scorecard": null, "featured": false, "sample_categories": "Restaurants, Chinese, American Express, Discover, MasterCard", "public_id": "china-sun-restaurant-marietta", "id": 2906495, "votes": null, "tagline": null, "has_video": false, "website": null, "offers": null, "latitude": 33.926201, "politanName": "Atlanta, GA Metro ", "phone_number": "7704268780", "tags": [{"primary": false, "id": 11252, "name": "Chinese"}, {"primary": false, "id": 11333, "name": "American Express"}, {"primary": false, "id": 11349, "name": "Discover"}, {"primary": false, "id": 11361, "name": "MasterCard"}, {"primary": false, "id": 11382, "name": "Visa"}, {"primary": true, "id": 1722, "name": "Restaurants"}], "fax_number": null, "expansion": {"count": null, "uri": null}, "impression_id": "000b000000030d38ae54334961a78631ce713f69f0", "profile": "http://www.citysearch.com/profile/2906495/marietta_ga/china_sun_restaurant.html", "address": {"city": "Marietta", "state": "GA", "street": "1150 Powder Springs St Ste 20", "postal_code": "30064"}, "capProviderId": null, "distance": null, "has_offers": false, "name": "China Sun Restaurant", "longitude": -84.574094, "has_menu": false, "awards": null, "user_review_count": 1}, {"business_operation_status": 1, "rating": null, "neighborhood": null, "image": null, "scorecard": null, "featured": false, "sample_categories": "Restaurants", "public_id": "long-horn-steakhouse-marietta", "id": 2909609, "votes": null, "tagline": null, "has_video": false, "website": null, "offers": null, "latitude": 33.937797, "politanName": "Atlanta, GA Metro ", "phone_number": "7704244353", "tags": [{"primary": true, "id": 1722, "name": "Restaurants"}], "fax_number": null, "expansion": {"count": null, "uri": null}, "impression_id": "000b000000fb8b99856b7d4db8942c4283d6ed138c", "profile": "http://www.citysearch.com/profile/2909609/marietta_ga/long_horn_steakhouse.html", "address": {"city": "Marietta", "state": "GA", "street": "585 Franklin Rd SE Ste 585", "postal_code": "30067"}, "capProviderId": null, "distance": null, "has_offers": false, "name": "Long Horn Steakhouse", "longitude": -84.506993, "has_menu": true, "awards": null, "user_review_count": 0}, {"business_operation_status": 1, "rating": 10.0, "neighborhood": null, "image": null, "scorecard": null, "featured": false, "sample_categories": "Delis And Delicatessens, Restaurants, Sandwich Shops", "public_id": "blimpie-subs-sandwiches-acworth", "id": 2939723, "votes": null, "tagline": null, "has_video": false, "website": "http://www.citysearch.com/profile/external/2939723/acworth_ga/blimpie_subs_sandwiches.html", "offers": null, "latitude": 34.088626, "politanName": "Atlanta, GA Metro ", "phone_number": "7709241725", "tags": [{"primary": false, "id": 1722, "name": "Restaurants"}, {"primary": false, "id": 1736, "name": "Sandwich Shops"}, {"primary": true, "id": 1727, "name": "Delis And Delicatessens"}], "fax_number": null, "expansion": {"count": null, "uri": null}, "impression_id": "000b00000086f9d07ed1ac416994f280ec79b8400a", "profile": "http://www.citysearch.com/profile/2939723/acworth_ga/blimpie_subs_sandwiches.html", "address": {"city": "Acworth", "state": "GA", "street": "6161 Highway 92", "postal_code": "30102"}, "capProviderId": null, "distance": null, "has_offers": false, "name": "Blimpie Subs & Sandwiches", "longitude": -84.586852, "has_menu": true, "awards": null, "user_review_count": 0}, {"business_operation_status": 1, "rating": null, "neighborhood": null, "image": null, "scorecard": null, "featured": false, "sample_categories": "Food & Dining, Restaurants, Attorneys & Legal Services, Legal Services, German", "public_id": "frankfurt-doner-woodstock", "id": 750374840, "votes": null, "tagline": null, "has_video": false, "website": null, "offers": null, "latitude": 34.085329, "politanName": "Atlanta, GA Metro ", "phone_number": "6784014991", "tags": [{"primary": false, "id": 1722, "name": "Restaurants"}, {"primary": false, "id": 204, "name": "Attorneys & Legal Services"}, {"primary": false, "id": 232, "name": "Legal Services"}, {"primary": false, "id": 11220, "name": "German"}, {"primary": true, "id": 1684, "name": "Food & Dining"}], "fax_number": null, "expansion": {"count": null, "uri": null}, "impression_id": "000b0000008f19b50d23284649bcc69a9ae245b546", "profile": "http://www.citysearch.com/profile/750374840/woodstock_ga/frankfurt_doner.html", "address": {"city": "Woodstock", "state": "GA", "street": "6845 Hwy 92", "postal_code": "30189"}, "capProviderId": null, "distance": null, "has_offers": false, "name": "Frankfurt Doner", "longitude": -84.555916, "has_menu": false, "awards": null, "user_review_count": 0}, {"business_operation_status": 1, "rating": null, "neighborhood": null, "image": null, "scorecard": null, "featured": false, "sample_categories": "Restaurants, Pizza", "public_id": "pizza-314-woodstock-2", "id": 751319670, "votes": null, "tagline": null, "has_video": false, "website": null, "offers": null, "latitude": 34.113125, "politanName": "Atlanta, GA Metro ", "phone_number": "6784017250", "tags": [{"primary": false, "id": 11299, "name": "Pizza"}, {"primary": true, "id": 1722, "name": "Restaurants"}], "fax_number": null, "expansion": {"count": null, "uri": null}, "impression_id": "000b000000f36f201622294fc897529d0bb706ddf0", "profile": "http://www.citysearch.com/profile/751319670/woodstock_ga/pizza_314.html", "address": {"city": "Woodstock", "state": "GA", "street": "6424 Bells Ferry Rd", "postal_code": "30189"}, "capProviderId": null, "distance": null, "has_offers": false, "name": "Pizza 314", "longitude": -84.582117, "has_menu": false, "awards": null, "user_review_count": 0}, {"business_operation_status": 1, "rating": null, "neighborhood": null, "image": null, "scorecard": null, "featured": false, "sample_categories": "Restaurants", "public_id": "tpm-enterprises-roswell", "id": 766781120, "votes": null, "tagline": null, "has_video": false, "website": null, "offers": null, "latitude": 34.013938, "politanName": "Atlanta, GA Metro ", "phone_number": "7706432090", "tags": [{"primary": true, "id": 1722, "name": "Restaurants"}], "fax_number": null, "expansion": {"count": null, "uri": null}, "impression_id": "000b000000dd66efb0d3cd43429a4a1d2d2d2443db", "profile": "http://www.citysearch.com/profile/766781120/roswell_ga/tpm_enterprises.html", "address": {"city": "Roswell", "state": "GA", "street": "126 Marietta Hwy", "postal_code": "30075"}, "capProviderId": null, "distance": null, "has_offers": false, "name": "TPM Enterprises", "longitude": -84.365765, "has_menu": false, "awards": null, "user_review_count": 0}, {"business_operation_status": 1, "rating": null, "neighborhood": null, "image": null, "scorecard": null, "featured": false, "sample_categories": "Restaurants", "public_id": "la-tagliatellakennesaw-kennesaw", "id": 768794230, "votes": null, "tagline": null, "has_video": false, "website": null, "offers": null, "latitude": 34.002327, "politanName": "Atlanta, GA Metro ", "phone_number": "6789053611", "tags": [{"primary": true, "id": 1722, "name": "Restaurants"}], "fax_number": null, "expansion": {"count": null, "uri": null}, "impression_id": "000b000000a916fe18d16f4848baf103fb2028aac5", "profile": "http://www.citysearch.com/profile/768794230/kennesaw_ga/la_tagliatella_kennesaw.html", "address": {"city": "Kennesaw", "state": "GA", "street": "2045 Attic Pkwy NW", "postal_code": "30152"}, "capProviderId": null, "distance": null, "has_offers": false, "name": "La Tagliatella-Kennesaw", "longitude": -84.604376, "has_menu": false, "awards": null, "user_review_count": 0}, {"business_operation_status": 1, "rating": null, "neighborhood": null, "image": null, "scorecard": null, "featured": false, "sample_categories": "Restaurants, Chinese", "public_id": "manchu-wok-kennesaw", "id": 2955024, "votes": null, "tagline": null, "has_video": false, "website": null, "offers": null, "latitude": 34.019128, "politanName": "Atlanta, GA Metro ", "phone_number": "7704239488", "tags": [{"primary": false, "id": 11252, "name": "Chinese"}, {"primary": true, "id": 1722, "name": "Restaurants"}], "fax_number": null, "expansion": {"count": null, "uri": null}, "impression_id": "000b000000122f0e25d5ba4c6784d92e05fa938b73", "profile": "http://www.citysearch.com/profile/2955024/kennesaw_ga/manchu_wok.html", "address": {"city": "Kennesaw", "state": "GA", "street": "400 Ernest W Barrett Pkwy NW", "postal_code": "30144"}, "capProviderId": null, "distance": null, "has_offers": false, "name": "Manchu Wok", "longitude": -84.563608, "has_menu": true, "awards": null, "user_review_count": 0}, {"business_operation_status": 1, "rating": null, "neighborhood": null, "image": null, "scorecard": null, "featured": false, "sample_categories": "Restaurants, Catering, Barbecue Restaurants", "public_id": "shelias-bbq-alpharetta", "id": 777687190, "votes": null, "tagline": null, "has_video": false, "website": null, "offers": null, "latitude": 34.118961, "politanName": "Atlanta, GA Metro ", "phone_number": "7704429878", "tags": [{"primary": false, "id": 1705, "name": "Catering"}, {"primary": false, "id": 1724, "name": "Barbecue Restaurants"}, {"primary": true, "id": 1722, "name": "Restaurants"}], "fax_number": null, "expansion": {"count": null, "uri": null}, "impression_id": "000b000000938e325d25074d55ba3bf742326939af", "profile": "http://www.citysearch.com/profile/777687190/alpharetta_ga/shelia_s_b_b_q.html", "address": {"city": "Alpharetta", "state": "GA", "street": "21970 Providence Rd", "postal_code": "30004"}, "capProviderId": null, "distance": null, "has_offers": false, "name": "Shelia's B-B-Q", "longitude": -84.341928, "has_menu": false, "awards": null, "user_review_count": 0}, {"business_operation_status": 1, "rating": null, "neighborhood": null, "image": null, "scorecard": null, "featured": false, "sample_categories": "Restaurants", "public_id": "pyramid-restaurant-hookah-marietta", "id": 777743980, "votes": null, "tagline": null, "has_video": false, "website": null, "offers": null, "latitude": 33.942926, "politanName": "Atlanta, GA Metro ", "phone_number": "6782131030", "tags": [{"primary": true, "id": 1722, "name": "Restaurants"}], "fax_number": null, "expansion": {"count": null, "uri": null}, "impression_id": "000b000000ceda1342bfb947caad4373229f587e7f", "profile": "http://www.citysearch.com/profile/777743980/marietta_ga/pyramid_restaurant_hookah.html", "address": {"city": "Marietta", "state": "GA", "street": "600 S Marietta Pkwy Se", "postal_code": "30060"}, "capProviderId": null, "distance": null, "has_offers": false, "name": "Pyramid Restaurant & Hookah", "longitude": -84.534635, "has_menu": false, "awards": null, "user_review_count": 0}, {"business_operation_status": 1, "rating": null, "neighborhood": null, "image": null, "scorecard": null, "featured": false, "sample_categories": "Restaurants, Barbecue Restaurants", "public_id": "wings-grill-woodstock", "id": 777797080, "votes": null, "tagline": null, "has_video": false, "website": null, "offers": null, "latitude": 34.087507, "politanName": "Atlanta, GA Metro ", "phone_number": "7709261919", "tags": [{"primary": false, "id": 1724, "name": "Barbecue Restaurants"}, {"primary": true, "id": 1722, "name": "Restaurants"}], "fax_number": null, "expansion": {"count": null, "uri": null}, "impression_id": "000b000000dddfe92476a64d77a8e5ab1e649f680e", "profile": "http://www.citysearch.com/profile/777797080/woodstock_ga/wings_grill.html", "address": {"city": "Woodstock", "state": "GA", "street": "12186 Highway 92 # 108", "postal_code": "30188"}, "capProviderId": null, "distance": null, "has_offers": false, "name": "Wings & Grill", "longitude": -84.480846, "has_menu": false, "awards": null, "user_review_count": 0}, {"business_operation_status": 1, "rating": null, "neighborhood": null, "image": null, "scorecard": null, "featured": false, "sample_categories": "Restaurants, Delis And Delicatessens, Sandwich Shops, Carry Out", "public_id": "reisner-restaurants-inc-woodstock", "id": 768829050, "votes": null, "tagline": null, "has_video": false, "website": "http://www.citysearch.com/profile/external/768829050/woodstock_ga/reisner_restaurants_inc.html", "offers": null, "latitude": 34.101487, "politanName": "Atlanta, GA Metro ", "phone_number": "7704852212", "tags": [{"primary": false, "id": 1727, "name": "Delis And Delicatessens"}, {"primary": false, "id": 1736, "name": "Sandwich Shops"}, {"primary": false, "id": 11247, "name": "Carry Out"}, {"primary": true, "id": 1722, "name": "Restaurants"}], "fax_number": null, "expansion": {"count": null, "uri": null}, "impression_id": "000b000000c9673275986443068f2598f254c36407", "profile": "http://www.citysearch.com/profile/768829050/woodstock_ga/reisner_restaurants_inc.html", "address": {"city": "Woodstock", "state": "GA", "street": "8265 Highway Ninety Two Ste 10", "postal_code": "30189"}, "capProviderId": null, "distance": null, "has_offers": false, "name": "Reisner Restaurants Inc", "longitude": -84.519375, "has_menu": false, "awards": null, "user_review_count": 0}, {"business_operation_status": 1, "rating": null, "neighborhood": null, "image": null, "scorecard": null, "featured": false, "sample_categories": "Restaurants", "public_id": "featherstones-grille-woodstock", "id": 787102740, "votes": null, "tagline": null, "has_video": false, "website": null, "offers": null, "latitude": 34.117645, "politanName": "Atlanta, GA Metro ", "phone_number": "7709266097", "tags": [{"primary": true, "id": 1722, "name": "Restaurants"}], "fax_number": null, "expansion": {"count": null, "uri": null}, "impression_id": "000b0000003eb5085b15974634b15e02b933353417", "profile": "http://www.citysearch.com/profile/787102740/woodstock_ga/featherstones_grille.html", "address": {"city": "Woodstock", "state": "GA", "street": "1003 Towne Lake Hls E", "postal_code": "30189"}, "capProviderId": null, "distance": null, "has_offers": false, "name": "Featherstones Grille", "longitude": -84.55336, "has_menu": false, "awards": null, "user_review_count": 0}, {"business_operation_status": 1, "rating": null, "neighborhood": null, "image": null, "scorecard": null, "featured": false, "sample_categories": "Restaurants, Bistros, Bars & Clubs", "public_id": "north-park-bistro-marietta", "id": 777790950, "votes": null, "tagline": null, "has_video": false, "website": "http://www.citysearch.com/profile/external/777790950/marietta_ga/kish_restaurant_bar.html", "offers": null, "latitude": 33.953606, "politanName": "Atlanta, GA Metro ", "phone_number": "7706726803", "tags": [{"primary": false, "id": 13690, "name": "Bistros"}, {"primary": false, "id": 164, "name": "Bars & Clubs"}, {"primary": true, "id": 1722, "name": "Restaurants"}], "fax_number": null, "expansion": {"count": null, "uri": null}, "impression_id": "000b000000fd75fb3aaf23462699f8acc4f6011c2c", "profile": "http://www.citysearch.com/profile/777790950/marietta_ga/kish_restaurant_bar.html", "address": {"city": "Marietta", "state": "GA", "street": "105 N Park Sq NE", "postal_code": "30060"}, "capProviderId": null, "distance": null, "has_offers": false, "name": "Kish Restaurant & Bar", "longitude": -84.549403, "has_menu": false, "awards": null, "user_review_count": 0}, {"business_operation_status": 1, "rating": null, "neighborhood": null, "image": null, "scorecard": null, "featured": false, "sample_categories": "Restaurants, Carry Out, Hamburgers", "public_id": "mc-donalds-woodstock-7", "id": 796135750, "votes": null, "tagline": null, "has_video": false, "website": "http://www.citysearch.com/profile/external/796135750/woodstock_ga/mc_donald_s.html", "offers": null, "latitude": 34.119763, "politanName": "Atlanta, GA Metro ", "phone_number": "6784940736", "tags": [{"primary": false, "id": 11247, "name": "Carry Out"}, {"primary": false, "id": 11270, "name": "Hamburgers"}, {"primary": true, "id": 1722, "name": "Restaurants"}], "fax_number": null, "expansion": {"count": null, "uri": null}, "impression_id": "000b000000f912a337dccc49e396cb3d66da261d71", "profile": "http://www.citysearch.com/profile/796135750/woodstock_ga/mc_donald_s.html", "address": {"city": "Woodstock", "state": "GA", "street": "931 Ridgewalk Pkwy", "postal_code": "30188"}, "capProviderId": null, "distance": null, "has_offers": false, "name": "Mc Donald's", "longitude": -84.518527, "has_menu": false, "awards": null, "user_review_count": 0}, {"business_operation_status": 1, "rating": null, "neighborhood": null, "image": null, "scorecard": null, "featured": false, "sample_categories": "Restaurants, Carry Out, Shop Online, Chicken", "public_id": "kfc-roswell-8", "id": 801095720, "votes": null, "tagline": null, "has_video": false, "website": "http://www.citysearch.com/profile/external/801095720/roswell_ga/kfc.html", "offers": null, "latitude": 34.048413, "politanName": "Atlanta, GA Metro ", "phone_number": "7706502901", "tags": [{"primary": false, "id": 11247, "name": "Carry Out"}, {"primary": false, "id": 11375, "name": "Shop Online"}, {"primary": false, "id": 12839, "name": "Chicken"}, {"primary": true, "id": 1722, "name": "Restaurants"}], "fax_number": null, "expansion": {"count": null, "uri": null}, "impression_id": "000b0000009cdfedc1886446858ddeaa835fbad673", "profile": "http://www.citysearch.com/profile/801095720/roswell_ga/kfc.html", "address": {"city": "Roswell", "state": "GA", "street": "1204 Macy Dr", "postal_code": "30076"}, "capProviderId": null, "distance": null, "has_offers": false, "name": "KFC", "longitude": -84.358897, "has_menu": false, "awards": null, "user_review_count": 0}, {"business_operation_status": 1, "rating": null, "neighborhood": null, "image": null, "scorecard": null, "featured": false, "sample_categories": "Restaurants", "public_id": "julias-cafe-marietta", "id": 787109210, "votes": null, "tagline": null, "has_video": false, "website": null, "offers": null, "latitude": 33.938568, "politanName": "Atlanta, GA Metro ", "phone_number": "7704284400", "tags": [{"primary": true, "id": 1722, "name": "Restaurants"}], "fax_number": null, "expansion": {"count": null, "uri": null}, "impression_id": "000b000000f6e2e04171624d02824d1875f83eab2f", "profile": "http://www.citysearch.com/profile/787109210/marietta_ga/julia_s_cafe.html", "address": {"city": "Marietta", "state": "GA", "street": "1775 Pkwy Pl NW", "postal_code": "30067"}, "capProviderId": null, "distance": null, "has_offers": false, "name": "Julia's Cafe", "longitude": -84.505213, "has_menu": false, "awards": null, "user_review_count": 0}, {"business_operation_status": 1, "rating": null, "neighborhood": null, "image": null, "scorecard": null, "featured": false, "sample_categories": "Restaurants, Gourmet Foods", "public_id": "gourmet-curiosities-roswell", "id": 787113350, "votes": null, "tagline": null, "has_video": false, "website": null, "offers": null, "latitude": 34.021931, "politanName": "Atlanta, GA Metro ", "phone_number": "4049158987", "tags": [{"primary": false, "id": 11169, "name": "Gourmet Foods"}, {"primary": true, "id": 1722, "name": "Restaurants"}], "fax_number": null, "expansion": {"count": null, "uri": null}, "impression_id": "000b000000b3303f58fbf444a985cc3e30d7a6bc7d", "profile": "http://www.citysearch.com/profile/787113350/roswell_ga/gourmet_curiosities.html", "address": {"city": "Roswell", "state": "GA", "street": "859 Mimosa Blvd", "postal_code": "30075"}, "capProviderId": null, "distance": null, "has_offers": false, "name": "Gourmet Curiosities", "longitude": -84.362912, "has_menu": false, "awards": null, "user_review_count": 0}, {"business_operation_status": 1, "rating": null, "neighborhood": null, "image": null, "scorecard": null, "featured": false, "sample_categories": "Restaurants", "public_id": "el-caporal-2-bar-grill-marietta", "id": 801060990, "votes": null, "tagline": null, "has_video": false, "website": null, "offers": null, "latitude": 33.955116, "politanName": "Atlanta, GA Metro ", "phone_number": "7704261422", "tags": [{"primary": true, "id": 1722, "name": "Restaurants"}], "fax_number": null, "expansion": {"count": null, "uri": null}, "impression_id": "000b00000096a5479bd0284b87810b8ebde7b37787", "profile": "http://www.citysearch.com/profile/801060990/marietta_ga/el_caporal_2_bar_grill.html", "address": {"city": "Marietta", "state": "GA", "street": "3600 Dallas Hwy Sw", "postal_code": "30064"}, "capProviderId": null, "distance": null, "has_offers": false, "name": "El Caporal 2 Bar & Grill", "longitude": -84.656027, "has_menu": false, "awards": null, "user_review_count": 0}, {"business_operation_status": 1, "rating": null, "neighborhood": null, "image": null, "scorecard": null, "featured": false, "sample_categories": "Restaurants, Thai", "public_id": "f-j-thai-pepper-llc-kennesaw", "id": 793231080, "votes": null, "tagline": null, "has_video": false, "website": null, "offers": null, "latitude": 34.01386, "politanName": "Atlanta, GA Metro ", "phone_number": "7704199500", "tags": [{"primary": false, "id": 11319, "name": "Thai"}, {"primary": true, "id": 1722, "name": "Restaurants"}], "fax_number": null, "expansion": {"count": null, "uri": null}, "impression_id": "000b00000019c3b8fd4a4748c9b761a6e7b0ebb59f", "profile": "http://www.citysearch.com/profile/793231080/kennesaw_ga/f_j_thai_pepper_llc.html", "address": {"city": "Kennesaw", "state": "GA", "street": "2606 George Busbee Pkwy NW", "postal_code": "30144"}, "capProviderId": null, "distance": null, "has_offers": false, "name": "F J Thai Pepper LLC", "longitude": -84.565725, "has_menu": false, "awards": null, "user_review_count": 0}, {"business_operation_status": 1, "rating": null, "neighborhood": null, "image": null, "scorecard": null, "featured": false, "sample_categories": "Restaurants", "public_id": "el-sarape-marietta", "id": 815403830, "votes": null, "tagline": null, "has_video": false, "website": null, "offers": null, "latitude": 33.969085, "politanName": "Atlanta, GA Metro ", "phone_number": "7705908887", "tags": [{"primary": true, "id": 1722, "name": "Restaurants"}], "fax_number": null, "expansion": {"count": null, "uri": null}, "impression_id": "000b000000f5ab92a10e1f4c74a7002372bb039ba3", "profile": "http://www.citysearch.com/profile/815403830/marietta_ga/el_sarape.html", "address": {"city": "Marietta", "state": "GA", "street": "745 Cobb Pkwy N", "postal_code": "30062"}, "capProviderId": null, "distance": null, "has_offers": false, "name": "El Sarape", "longitude": -84.538349, "has_menu": false, "awards": null, "user_review_count": 0}, {"business_operation_status": 1, "rating": null, "neighborhood": null, "image": null, "scorecard": null, "featured": false, "sample_categories": "Restaurants", "public_id": "j-mann-cafe-grille-marietta", "id": 815522810, "votes": null, "tagline": null, "has_video": false, "website": null, "offers": null, "latitude": 33.948544, "politanName": "Atlanta, GA Metro ", "phone_number": "7705280262", "tags": [{"primary": true, "id": 1722, "name": "Restaurants"}], "fax_number": null, "expansion": {"count": null, "uri": null}, "impression_id": "000b000000aa27eb1cba634fdeab603b2787c278b8", "profile": "http://www.citysearch.com/profile/815522810/marietta_ga/j_mann_cafe_grille.html", "address": {"city": "Marietta", "state": "GA", "street": "191 S Marietta Pkwy SW", "postal_code": "30064"}, "capProviderId": null, "distance": null, "has_offers": false, "name": "J Mann Cafe & Grille", "longitude": -84.550204, "has_menu": false, "awards": null, "user_review_count": 0}, {"business_operation_status": 1, "rating": null, "neighborhood": null, "image": null, "scorecard": null, "featured": false, "sample_categories": "Restaurants", "public_id": "cobb-kennesaw", "id": 812569790, "votes": null, "tagline": null, "has_video": false, "website": null, "offers": null, "latitude": 34.007674, "politanName": "Atlanta, GA Metro ", "phone_number": "7704256895", "tags": [{"primary": true, "id": 1722, "name": "Restaurants"}], "fax_number": null, "expansion": {"count": null, "uri": null}, "impression_id": "000b0000006dca459fa2d94f279c70fa42faf609d8", "profile": "http://www.citysearch.com/profile/812569790/kennesaw_ga/cobb.html", "address": {"city": "Kennesaw", "state": "GA", "street": "740 Ernest W Barrett Pkwy NW", "postal_code": "30144"}, "capProviderId": null, "distance": null, "has_offers": false, "name": "Cobb", "longitude": -84.571702, "has_menu": false, "awards": null, "user_review_count": 0}, {"business_operation_status": 1, "rating": null, "neighborhood": null, "image": null, "scorecard": null, "featured": false, "sample_categories": "Restaurants", "public_id": "miramcho-marietta", "id": 815118630, "votes": null, "tagline": null, "has_video": false, "website": null, "offers": null, "latitude": 33.933881, "politanName": "Atlanta, GA Metro ", "phone_number": "7707940330", "tags": [{"primary": true, "id": 1722, "name": "Restaurants"}], "fax_number": null, "expansion": {"count": null, "uri": null}, "impression_id": "000b000000aba58901dc934d348ff0afbf1ae5db4f", "profile": "http://www.citysearch.com/profile/815118630/marietta_ga/miramcho.html", "address": {"city": "Marietta", "state": "GA", "street": "760 Sandtown Rd SW", "postal_code": "30008"}, "capProviderId": null, "distance": null, "has_offers": false, "name": "Miramcho", "longitude": -84.555669, "has_menu": false, "awards": null, "user_review_count": 1}, {"business_operation_status": 1, "rating": null, "neighborhood": null, "image": null, "scorecard": null, "featured": false, "sample_categories": "Restaurants, Diners", "public_id": "your-diner-woodstock", "id": 801144940, "votes": null, "tagline": null, "has_video": false, "website": null, "offers": null, "latitude": 34.083699, "politanName": "Atlanta, GA Metro ", "phone_number": "6782527919", "tags": [{"primary": false, "id": 1732, "name": "Diners"}, {"primary": true, "id": 1722, "name": "Restaurants"}], "fax_number": null, "expansion": {"count": null, "uri": null}, "impression_id": "000b00000035f4596989454e43bbf9775ffc1ba62a", "profile": "http://www.citysearch.com/profile/801144940/woodstock_ga/your_diner.html", "address": {"city": "Woodstock", "state": "GA", "street": "295 Molly Ln # 0", "postal_code": "30189"}, "capProviderId": null, "distance": null, "has_offers": false, "name": "Your Diner", "longitude": -84.540292, "has_menu": false, "awards": null, "user_review_count": 0}, {"business_operation_status": 1, "rating": null, "neighborhood": null, "image": null, "scorecard": null, "featured": false, "sample_categories": "Restaurants", "public_id": "caits-tea-room-kennesaw", "id": 820023430, "votes": null, "tagline": null, "has_video": false, "website": null, "offers": null, "latitude": 34.034038, "politanName": "Atlanta, GA Metro ", "phone_number": "7704265177", "tags": [{"primary": true, "id": 1722, "name": "Restaurants"}], "fax_number": null, "expansion": {"count": null, "uri": null}, "impression_id": "000b000000f62a4e79b65744ea83a8bb8991e68ebd", "profile": "http://www.citysearch.com/profile/820023430/kennesaw_ga/cait_s_tea_room.html", "address": {"city": "Kennesaw", "state": "GA", "street": "2950 Moon Station Rd NW", "postal_code": "30144"}, "capProviderId": null, "distance": null, "has_offers": false, "name": "Cait's Tea Room", "longitude": -84.616388, "has_menu": false, "awards": null, "user_review_count": 0}, {"business_operation_status": 1, "rating": null, "neighborhood": null, "image": null, "scorecard": null, "featured": false, "sample_categories": "Restaurants, Pizza", "public_id": "bella-bocca-marietta", "id": 822361720, "votes": null, "tagline": null, "has_video": false, "website": null, "offers": null, "latitude": 33.951001, "politanName": "Atlanta, GA Metro ", "phone_number": "7707958984", "tags": [{"primary": false, "id": 1722, "name": "Restaurants"}, {"primary": true, "id": 11299, "name": "Pizza"}], "fax_number": null, "expansion": {"count": null, "uri": null}, "impression_id": "000b000000c8efa3269de64eb3aa380c5be3d4ac3b", "profile": "http://www.citysearch.com/profile/822361720/marietta_ga/bella_bocca.html", "address": {"city": "Marietta", "state": "GA", "street": "999 Whitlock Ave SW", "postal_code": "30064"}, "capProviderId": null, "distance": null, "has_offers": false, "name": "Bella Bocca", "longitude": -84.57917, "has_menu": false, "awards": null, "user_review_count": 1}, {"business_operation_status": 1, "rating": null, "neighborhood": null, "image": null, "scorecard": null, "featured": false, "sample_categories": "Restaurants, Pizza", "public_id": "jimmys-pizza-marietta", "id": 822422560, "votes": null, "tagline": null, "has_video": false, "website": null, "offers": null, "latitude": 33.901926, "politanName": "Atlanta, GA Metro ", "phone_number": "7704357664", "tags": [{"primary": false, "id": 1722, "name": "Restaurants"}, {"primary": true, "id": 11299, "name": "Pizza"}], "fax_number": null, "expansion": {"count": null, "uri": null}, "impression_id": "000b000000cd40bec10c9d4629871e11ccd737ad27", "profile": "http://www.citysearch.com/profile/822422560/marietta_ga/jimmy_s_pizza.html", "address": {"city": "Marietta", "state": "GA", "street": "495 Pat Mell Rd SW # 104", "postal_code": "30060"}, "capProviderId": null, "distance": null, "has_offers": false, "name": "Jimmy's Pizza", "longitude": -84.567429, "has_menu": false, "awards": null, "user_review_count": 0}, {"business_operation_status": 0, "rating": null, "neighborhood": null, "image": null, "scorecard": null, "featured": false, "sample_categories": "Restaurants, Pizza", "public_id": "luna-pizza-kennesaw", "id": 824661650, "votes": null, "tagline": null, "has_video": false, "website": null, "offers": null, "latitude": 34.013172, "politanName": "Atlanta, GA Metro ", "phone_number": "6787660449", "tags": [{"primary": false, "id": 1722, "name": "Restaurants"}, {"primary": true, "id": 11299, "name": "Pizza"}], "fax_number": null, "expansion": {"count": null, "uri": null}, "impression_id": "000b000000da5a2735a4f94d01a3a174a0228dec9a", "profile": "http://www.citysearch.com/profile/824661650/kennesaw_ga/luna_pizza.html", "address": {"city": "Kennesaw", "state": "GA", "street": "2615 George Busbee Pkwy NW", "postal_code": "30144"}, "capProviderId": null, "distance": null, "has_offers": false, "name": "Luna Pizza", "longitude": -84.567215, "has_menu": false, "awards": null, "user_review_count": 0}, {"business_operation_status": 1, "rating": null, "neighborhood": null, "image": null, "scorecard": null, "featured": false, "sample_categories": "Restaurants", "public_id": "boxcara-cheesecake-cafe-kennesaw", "id": 823298160, "votes": null, "tagline": null, "has_video": false, "website": null, "offers": null, "latitude": 34.024396, "politanName": "Atlanta, GA Metro ", "phone_number": "7709197740", "tags": [{"primary": true, "id": 1722, "name": "Restaurants"}], "fax_number": null, "expansion": {"count": null, "uri": null}, "impression_id": "000b000000bd725a88af854640987c4819b215896e", "profile": "http://www.citysearch.com/profile/823298160/kennesaw_ga/boxcar_a_cheesecake_cafe.html", "address": {"city": "Kennesaw", "state": "GA", "street": "2893 N Main St NW", "postal_code": "30144"}, "capProviderId": null, "distance": null, "has_offers": false, "name": "Boxcar-A Cheesecake Cafe", "longitude": -84.615917, "has_menu": true, "awards": null, "user_review_count": 3}, {"business_operation_status": 1, "rating": null, "neighborhood": null, "image": null, "scorecard": null, "featured": false, "sample_categories": "Restaurants", "public_id": "seattles-best-coffee-alpharetta", "id": 825117780, "votes": null, "tagline": null, "has_video": false, "website": null, "offers": null, "latitude": 34.085638, "politanName": "Atlanta, GA Metro ", "phone_number": "7707515102", "tags": [{"primary": true, "id": 1722, "name": "Restaurants"}], "fax_number": null, "expansion": {"count": null, "uri": null}, "impression_id": "000b000000155458010925409988c2db5a7bd09282", "profile": "http://www.citysearch.com/profile/825117780/alpharetta_ga/seattles_best_coffee.html", "address": {"city": "Alpharetta", "state": "GA", "street": "12460 Crabapple Rd", "postal_code": "30004"}, "capProviderId": null, "distance": null, "has_offers": false, "name": "Seattles Best Coffee", "longitude": -84.356689, "has_menu": false, "awards": null, "user_review_count": 0}, {"business_operation_status": 1, "rating": null, "neighborhood": null, "image": null, "scorecard": null, "featured": false, "sample_categories": "Restaurants", "public_id": "fish-bowl-asian-bistro-roswell", "id": 827476940, "votes": null, "tagline": null, "has_video": false, "website": null, "offers": null, "latitude": 34.047226, "politanName": "Atlanta, GA Metro ", "phone_number": "6784618765", "tags": [{"primary": true, "id": 1722, "name": "Restaurants"}], "fax_number": null, "expansion": {"count": null, "uri": null}, "impression_id": "000b000000584a48ba9a004fc08cd8ddb12969109a", "profile": "http://www.citysearch.com/profile/827476940/roswell_ga/fish_bowl_asian_bistro.html", "address": {"city": "Roswell", "state": "GA", "street": "10930 Crabapple Rd # 5", "postal_code": "30075"}, "capProviderId": null, "distance": null, "has_offers": false, "name": "Fish Bowl Asian Bistro", "longitude": -84.362959, "has_menu": false, "awards": null, "user_review_count": 0}, {"business_operation_status": 1, "rating": null, "neighborhood": null, "image": null, "scorecard": null, "featured": false, "sample_categories": "Restaurants", "public_id": "rumba-cuban-cafe-woodstock", "id": 830065690, "votes": null, "tagline": null, "has_video": false, "website": null, "offers": null, "latitude": 34.086211, "politanName": "Atlanta, GA Metro ", "phone_number": "7705915333", "tags": [{"primary": true, "id": 1722, "name": "Restaurants"}], "fax_number": null, "expansion": {"count": null, "uri": null}, "impression_id": "000b0000001ff69076af814a418d8d5a16d9bb7154", "profile": "http://www.citysearch.com/profile/830065690/woodstock_ga/rumba_cuban_cafe.html", "address": {"city": "Woodstock", "state": "GA", "street": "9550 Main St", "postal_code": "30188"}, "capProviderId": null, "distance": null, "has_offers": false, "name": "Rumba Cuban Cafe", "longitude": -84.519459, "has_menu": false, "awards": null, "user_review_count": 0}, {"business_operation_status": 1, "rating": null, "neighborhood": null, "image": null, "scorecard": null, "featured": false, "sample_categories": "Restaurants", "public_id": "los-sauces-restaurante-mxcn-woodstock", "id": 817033450, "votes": null, "tagline": null, "has_video": false, "website": null, "offers": null, "latitude": 34.085853, "politanName": "Atlanta, GA Metro ", "phone_number": "7709244999", "tags": [{"primary": true, "id": 1722, "name": "Restaurants"}], "fax_number": null, "expansion": {"count": null, "uri": null}, "impression_id": "000b000000157c103eae224c56b7d6864ffd8b9b76", "profile": "http://www.citysearch.com/profile/817033450/woodstock_ga/los_sauces_restaurante_mxcn.html", "address": {"city": "Woodstock", "state": "GA", "street": "10010 Highway 92 # 198a", "postal_code": "30188"}, "capProviderId": null, "distance": null, "has_offers": false, "name": "Los Sauces Restaurante Mxcn", "longitude": -84.521582, "has_menu": false, "awards": null, "user_review_count": 0}, {"business_operation_status": 1, "rating": null, "neighborhood": null, "image": null, "scorecard": null, "featured": false, "sample_categories": "Restaurants", "public_id": "finca-bonita-mexican-grill-marietta", "id": 838631820, "votes": null, "tagline": null, "has_video": false, "website": null, "offers": null, "latitude": 33.951258, "politanName": "Atlanta, GA Metro ", "phone_number": "7704198290", "tags": [{"primary": true, "id": 1722, "name": "Restaurants"}], "fax_number": null, "expansion": {"count": null, "uri": null}, "impression_id": "000b000000ae76502951284a82ad1483f4400db13c", "profile": "http://www.citysearch.com/profile/838631820/marietta_ga/finca_bonita_mexican_grill.html", "address": {"city": "Marietta", "state": "GA", "street": "1157 Roswell Rd", "postal_code": "30062"}, "capProviderId": null, "distance": null, "has_offers": false, "name": "Finca Bonita Mexican Grill", "longitude": -84.517723, "has_menu": false, "awards": null, "user_review_count": 1}, {"business_operation_status": 0, "rating": null, "neighborhood": null, "image": null, "scorecard": null, "featured": false, "sample_categories": "Restaurants, Carry Out", "public_id": "atlanta-bread-co-marietta-3", "id": 818761800, "votes": null, "tagline": null, "has_video": false, "website": null, "offers": null, "latitude": 33.947326, "politanName": "Atlanta, GA Metro ", "phone_number": "7704250442", "tags": [{"primary": false, "id": 11247, "name": "Carry Out"}, {"primary": true, "id": 1722, "name": "Restaurants"}], "fax_number": null, "expansion": {"count": null, "uri": null}, "impression_id": "000b000000d13eaafa85ec47a48c7ef9e748300a04", "profile": "http://www.citysearch.com/profile/818761800/marietta_ga/atlanta_bread_co.html", "address": {"city": "Marietta", "state": "GA", "street": "3451 Ernest W Barrett NW # 200", "postal_code": "30064"}, "capProviderId": null, "distance": null, "has_offers": false, "name": "Atlanta Bread Co", "longitude": -84.622965, "has_menu": false, "awards": null, "user_review_count": 0}, {"business_operation_status": 1, "rating": null, "neighborhood": null, "image": null, "scorecard": null, "featured": false, "sample_categories": "Restaurants", "public_id": "sonic-restaurant-woodstock", "id": 713556510, "votes": null, "tagline": null, "has_video": false, "website": null, "offers": null, "latitude": 34.090863, "politanName": "Atlanta, GA Metro ", "phone_number": "7705910033", "tags": [{"primary": true, "id": 1722, "name": "Restaurants"}], "fax_number": null, "expansion": {"count": null, "uri": null}, "impression_id": "000b00000008a5347b30864a638deebb99378af50b", "profile": "http://www.citysearch.com/profile/713556510/woodstock_ga/sonic_restaurant.html", "address": {"city": "Woodstock", "state": "GA", "street": "777 Neese Rd", "postal_code": "30188"}, "capProviderId": null, "distance": null, "has_offers": false, "name": "Sonic Restaurant", "longitude": -84.492082, "has_menu": false, "awards": null, "user_review_count": 0}, {"business_operation_status": 1, "rating": null, "neighborhood": null, "image": null, "scorecard": null, "featured": false, "sample_categories": "Restaurants", "public_id": "whitcher-street-caf-marietta", "id": 713628600, "votes": null, "tagline": null, "has_video": false, "website": null, "offers": null, "latitude": 33.967469, "politanName": "Atlanta, GA Metro ", "phone_number": "6785813888", "tags": [{"primary": true, "id": 1722, "name": "Restaurants"}], "fax_number": null, "expansion": {"count": null, "uri": null}, "impression_id": "000b0000008692103033ae4388a408e65f4981c32f", "profile": "http://www.citysearch.com/profile/713628600/marietta_ga/whitcher_street_caf.html", "address": {"city": "Marietta", "state": "GA", "street": "55 Whitcher St Ne", "postal_code": "30060"}, "capProviderId": null, "distance": null, "has_offers": false, "name": "Whitcher Street Caf", "longitude": -84.551412, "has_menu": false, "awards": null, "user_review_count": 0}, {"business_operation_status": 1, "rating": null, "neighborhood": null, "image": null, "scorecard": null, "featured": false, "sample_categories": "Restaurants, Delis And Delicatessens", "public_id": "d-w-cafe-marietta", "id": 775198490, "votes": null, "tagline": null, "has_video": false, "website": null, "offers": null, "latitude": 33.972386, "politanName": "Atlanta, GA Metro ", "phone_number": "6784018966", "tags": [{"primary": false, "id": 1727, "name": "Delis And Delicatessens"}, {"primary": true, "id": 1722, "name": "Restaurants"}], "fax_number": null, "expansion": {"count": null, "uri": null}, "impression_id": "000b0000009ebbd6afa00541ed8a8952afc068ee4e", "profile": "http://www.citysearch.com/profile/775198490/marietta_ga/d_w_cafe.html", "address": {"city": "Marietta", "state": "GA", "street": "833 Campbell Hill St NW", "postal_code": "30060"}, "capProviderId": null, "distance": null, "has_offers": false, "name": "D W Cafe", "longitude": -84.552023, "has_menu": false, "awards": null, "user_review_count": 0}, {"business_operation_status": 1, "rating": null, "neighborhood": null, "image": null, "scorecard": null, "featured": false, "sample_categories": "Restaurants", "public_id": "golden-choice-pet-foods-llc-kennesaw", "id": 787124940, "votes": null, "tagline": null, "has_video": false, "website": "http://www.citysearch.com/profile/external/787124940/kennesaw_ga/golden_choice_pet_foods_llc.html", "offers": null, "latitude": 34.003702, "politanName": "Atlanta, GA Metro ", "phone_number": "7704255412", "tags": [{"primary": true, "id": 1722, "name": "Restaurants"}], "fax_number": null, "expansion": {"count": null, "uri": null}, "impression_id": "000b0000005c491617509447599c273ce7ca4a0382", "profile": "http://www.citysearch.com/profile/787124940/kennesaw_ga/golden_choice_pet_foods_llc.html", "address": {"city": "Kennesaw", "state": "GA", "street": "2084 Battlewood Dr NW", "postal_code": "30152"}, "capProviderId": null, "distance": null, "has_offers": false, "name": "Golden Choice Pet Foods LLC", "longitude": -84.622899, "has_menu": false, "awards": null, "user_review_count": 0}, {"business_operation_status": 1, "rating": 8.0, "neighborhood": null, "image": null, "scorecard": null, "featured": false, "sample_categories": "Restaurants, Chinese", "public_id": "new-china-house-marietta", "id": 2904692, "votes": null, "tagline": null, "has_video": false, "website": "http://www.citysearch.com/profile/external/2904692/marietta_ga/new_china_house.html", "offers": null, "latitude": 33.971616, "politanName": "Atlanta, GA Metro ", "phone_number": "7704286409", "tags": [{"primary": false, "id": 11252, "name": "Chinese"}, {"primary": true, "id": 1722, "name": "Restaurants"}], "fax_number": null, "expansion": {"count": null, "uri": null}, "impression_id": "000b0000005f9bcad9c8f64169b5131cac101b34e1", "profile": "http://www.citysearch.com/profile/2904692/marietta_ga/new_china_house.html", "address": {"city": "Marietta", "state": "GA", "street": "803 Cobb Pkwy N", "postal_code": "30062"}, "capProviderId": null, "distance": null, "has_offers": false, "name": "New China House", "longitude": -84.540539, "has_menu": true, "awards": null, "user_review_count": 1}, {"business_operation_status": 1, "rating": null, "neighborhood": null, "image": null, "scorecard": null, "featured": false, "sample_categories": "Restaurants", "public_id": "bandido-wings-marietta", "id": 838396080, "votes": null, "tagline": null, "has_video": false, "website": null, "offers": null, "latitude": 33.902517, "politanName": "Atlanta, GA Metro ", "phone_number": "7706528890", "tags": [{"primary": true, "id": 1722, "name": "Restaurants"}], "fax_number": null, "expansion": {"count": null, "uri": null}, "impression_id": "000b00000028583e8a361545758e39657acb0fb22f", "profile": "http://www.citysearch.com/profile/838396080/marietta_ga/bandido_wings.html", "address": {"city": "Marietta", "state": "GA", "street": "371 Pat Mell Rd SE # 137", "postal_code": "30060"}, "capProviderId": null, "distance": null, "has_offers": false, "name": "Bandido Wings", "longitude": -84.543334, "has_menu": false, "awards": null, "user_review_count": 0}, {"business_operation_status": 1, "rating": 6.0, "neighborhood": null, "image": null, "scorecard": null, "featured": false, "sample_categories": "Restaurants, Traditional American, Carry Out, Steakhouse, American Express", "public_id": "golden-corral-buffet-grill-kennesaw", "id": 2955047, "votes": null, "tagline": null, "has_video": false, "website": "http://www.citysearch.com/profile/external/2955047/kennesaw_ga/golden_corral_buffet_grill.html", "offers": null, "latitude": 34.007877, "politanName": "Atlanta, GA Metro ", "phone_number": "7704286770", "tags": [{"primary": false, "id": 11190, "name": "Traditional American"}, {"primary": false, "id": 11247, "name": "Carry Out"}, {"primary": false, "id": 11316, "name": "Steakhouse"}, {"primary": false, "id": 11333, "name": "American Express"}, {"primary": false, "id": 11349, "name": "Discover"}, {"primary": false, "id": 11361, "name": "MasterCard"}, {"primary": false, "id": 11382, "name": "Visa"}, {"primary": true, "id": 1722, "name": "Restaurants"}], "fax_number": null, "expansion": {"count": null, "uri": null}, "impression_id": "000b00000060adb43dc05f46388719841ce411be8f", "profile": "http://www.citysearch.com/profile/2955047/kennesaw_ga/golden_corral_buffet_grill.html", "address": {"city": "Kennesaw", "state": "GA", "street": "700 Ernest W Barrett Pkwy NW", "postal_code": "30144"}, "capProviderId": null, "distance": null, "has_offers": false, "name": "Golden Corral Buffet & Grill", "longitude": -84.572373, "has_menu": true, "awards": null, "user_review_count": 8}, {"business_operation_status": 1, "rating": null, "neighborhood": null, "image": null, "scorecard": null, "featured": false, "sample_categories": "Restaurants, Diners, Cafes", "public_id": "campus-cafe-marietta", "id": 33669246, "votes": null, "tagline": null, "has_video": false, "website": null, "offers": null, "latitude": 33.930756, "politanName": "Atlanta, GA Metro ", "phone_number": "7707926042", "tags": [{"primary": false, "id": 1732, "name": "Diners"}, {"primary": false, "id": 6190, "name": "Cafes"}, {"primary": true, "id": 1722, "name": "Restaurants"}], "fax_number": null, "expansion": {"count": null, "uri": null}, "impression_id": "000b000000af646cc7b7f74ad1b91cc03b37806d4f", "profile": "http://www.citysearch.com/profile/33669246/marietta_ga/campus_cafe.html", "address": {"city": "Marietta", "state": "GA", "street": "1269 Barclay Cir SE", "postal_code": "30060"}, "capProviderId": null, "distance": null, "has_offers": false, "name": "Campus Cafe", "longitude": -84.514539, "has_menu": false, "awards": null, "user_review_count": 0}], "histograms": [], "tag_ids": [1722], "uri": "http://api.citygridmedia.com:8080/search/places/v2/search/where?has_offers=false&type=restaurant&format=json&page=24&where=30066&rpp=50&histograms=false&publisher=10000009598&region_type=circle", "did_you_mean": "", "regions": [{"latitude": 34.034132, "default_radius": 5.28, "type": "postal_code", "name": "30066", "longitude": -84.508332}], "call_id": "000b0000008583dee22ceb4b099c09a6ef01d14f22", "first_hit": 1151, "total_hits": 2075, "geo_ids": [26294], "page": 24, "last_hit": 1200}}