{"results": {"rpp": 50, "locations": [{"business_operation_status": 1, "rating": null, "neighborhood": null, "image": null, "scorecard": null, "featured": false, "sample_categories": "Restaurants, Delis And Delicatessens", "public_id": "shortys-subs-such-kennesaw", "id": 744805970, "votes": null, "tagline": null, "has_video": false, "website": null, "offers": null, "latitude": 33.999345, "politanName": "Atlanta, GA Metro ", "phone_number": "6789492867", "tags": [{"primary": false, "id": 1727, "name": "Delis And Delicatessens"}, {"primary": true, "id": 1722, "name": "Restaurants"}], "fax_number": null, "expansion": {"count": null, "uri": null}, "impression_id": "000b000000b615ad8915ad4576828b5e733fdc39d9", "profile": "http://www.citysearch.com/profile/744805970/kennesaw_ga/shorty_s_subs_such.html", "address": {"city": "Kennesaw", "state": "GA", "street": "1200 Barrett Pkwy NW Ste 14", "postal_code": "30144"}, "capProviderId": null, "distance": null, "has_offers": false, "name": "Shorty's Subs & Such", "longitude": -84.586888, "has_menu": false, "awards": null, "user_review_count": 0}, {"business_operation_status": 1, "rating": null, "neighborhood": null, "image": null, "scorecard": null, "featured": false, "sample_categories": "Restaurants, Bars & Clubs", "public_id": "hollands-grill-kennesaw", "id": 766753250, "votes": null, "tagline": null, "has_video": false, "website": null, "offers": null, "latitude": 34.014045, "politanName": "Atlanta, GA Metro ", "phone_number": "7704261515", "tags": [{"primary": false, "id": 164, "name": "Bars & Clubs"}, {"primary": true, "id": 1722, "name": "Restaurants"}], "fax_number": null, "expansion": {"count": null, "uri": null}, "impression_id": "000b00000066d70059e7bd47a883b3376df11ef7fe", "profile": "http://www.citysearch.com/profile/766753250/kennesaw_ga/holland_s_grill.html", "address": {"city": "Kennesaw", "state": "GA", "street": "2615 Busbee Pkwy NW # 28", "postal_code": "30144"}, "capProviderId": null, "distance": null, "has_offers": false, "name": "Holland's Grill", "longitude": -84.56696, "has_menu": true, "awards": null, "user_review_count": 0}, {"business_operation_status": 1, "rating": null, "neighborhood": null, "image": null, "scorecard": null, "featured": false, "sample_categories": "Seafood Markets, Restaurants, Seafood", "public_id": "pieer-213-seafood-marietta", "id": 772962240, "votes": null, "tagline": null, "has_video": false, "website": null, "offers": null, "latitude": 33.951025, "politanName": "Atlanta, GA Metro ", "phone_number": "6782908170", "tags": [{"primary": false, "id": 1722, "name": "Restaurants"}, {"primary": false, "id": 11228, "name": "Seafood"}, {"primary": true, "id": 1719, "name": "Seafood Markets"}], "fax_number": null, "expansion": {"count": null, "uri": null}, "impression_id": "000b000000978cced8ecd84b13a73b175f80c5f947", "profile": "http://www.citysearch.com/profile/772962240/marietta_ga/pieer_213_seafood.html", "address": {"city": "Marietta", "state": "GA", "street": "35 S Marietta Pkwy Sw", "postal_code": "30064"}, "capProviderId": null, "distance": null, "has_offers": false, "name": "Pieer 213 Seafood", "longitude": -84.551785, "has_menu": false, "awards": null, "user_review_count": 0}, {"business_operation_status": 1, "rating": null, "neighborhood": null, "image": null, "scorecard": null, "featured": false, "sample_categories": "Restaurants, Barbecue Restaurants", "public_id": "bar-be-que-heavern-marietta", "id": 787133740, "votes": null, "tagline": null, "has_video": false, "website": null, "offers": null, "latitude": 33.894508, "politanName": "Atlanta, GA Metro ", "phone_number": "7706530935", "tags": [{"primary": false, "id": 1724, "name": "Barbecue Restaurants"}, {"primary": true, "id": 1722, "name": "Restaurants"}], "fax_number": null, "expansion": {"count": null, "uri": null}, "impression_id": "000b0000006d378e8b77ae4f95837f21a585ad10ab", "profile": "http://www.citysearch.com/profile/787133740/marietta_ga/bar_be_que_heavern.html", "address": {"city": "Marietta", "state": "GA", "street": "186 Windy Hill Rd Sw", "postal_code": "30060"}, "capProviderId": null, "distance": null, "has_offers": false, "name": "Bar Be Que Heavern", "longitude": -84.555734, "has_menu": false, "awards": null, "user_review_count": 0}, {"business_operation_status": 1, "rating": null, "neighborhood": null, "image": null, "scorecard": null, "featured": false, "sample_categories": "Restaurants, Seafood", "public_id": "hugos-oyster-bar-roswell", "id": 787137160, "votes": null, "tagline": null, "has_video": false, "website": null, "offers": null, "latitude": 34.03464, "politanName": "Atlanta, GA Metro ", "phone_number": "7709935922", "tags": [{"primary": false, "id": 11228, "name": "Seafood"}, {"primary": true, "id": 1722, "name": "Restaurants"}], "fax_number": null, "expansion": {"count": null, "uri": null}, "impression_id": "000b0000002e3336640cc9420ab1d79f08ac92e7ff", "profile": "http://www.citysearch.com/profile/787137160/roswell_ga/hugo_s_oyster_bar.html", "address": {"city": "Roswell", "state": "GA", "street": "10360 Alpharetta St", "postal_code": "30075"}, "capProviderId": null, "distance": null, "has_offers": false, "name": "Hugo's Oyster Bar", "longitude": -84.34789, "has_menu": true, "awards": null, "user_review_count": 0}, {"business_operation_status": 1, "rating": null, "neighborhood": null, "image": null, "scorecard": null, "featured": false, "sample_categories": "Restaurants, Mexican, Carry Out", "public_id": "marietta-marietta", "id": 2907255, "votes": null, "tagline": null, "has_video": false, "website": "http://www.citysearch.com/profile/external/2907255/marietta_ga/marietta.html", "offers": null, "latitude": 34.036665, "politanName": "Atlanta, GA Metro ", "phone_number": "7705789432", "tags": [{"primary": false, "id": 11208, "name": "Mexican"}, {"primary": false, "id": 11247, "name": "Carry Out"}, {"primary": true, "id": 1722, "name": "Restaurants"}], "fax_number": null, "expansion": {"count": null, "uri": null}, "impression_id": "000b0000006cb90098d23148c2b3a78e84b6edbe8d", "profile": "http://www.citysearch.com/profile/2907255/marietta_ga/marietta.html", "address": {"city": "Marietta", "state": "GA", "street": "2971 Shallowford Rd", "postal_code": "30066"}, "capProviderId": null, "distance": null, "has_offers": false, "name": "Marietta", "longitude": -84.464103, "has_menu": true, "awards": null, "user_review_count": 0}, {"business_operation_status": 0, "rating": null, "neighborhood": null, "image": null, "scorecard": null, "featured": false, "sample_categories": "Coffeehouses, Restaurants", "public_id": "expresso-expresso-marietta", "id": 2908344, "votes": null, "tagline": null, "has_video": false, "website": null, "offers": null, "latitude": 34.018009, "politanName": "Atlanta, GA Metro ", "phone_number": "7066375366", "tags": [{"primary": false, "id": 1722, "name": "Restaurants"}, {"primary": true, "id": 1726, "name": "Coffeehouses"}], "fax_number": null, "expansion": {"count": null, "uri": null}, "impression_id": "000b000000610a4ce6641a47d2bc6b4311031912fe", "profile": "http://www.citysearch.com/profile/2908344/marietta_ga/expresso_expresso.html", "address": {"city": "Marietta", "state": "GA", "street": "1251 Morgan Chase Dr NE", "postal_code": "30066"}, "capProviderId": null, "distance": null, "has_offers": false, "name": "Expresso Expresso", "longitude": -84.515255, "has_menu": false, "awards": null, "user_review_count": 0}, {"business_operation_status": 1, "rating": null, "neighborhood": null, "image": null, "scorecard": null, "featured": false, "sample_categories": "Restaurants, American Express, MasterCard, Visa", "public_id": "buddhas-delight-marietta", "id": 2908307, "votes": null, "tagline": null, "has_video": false, "website": "http://www.citysearch.com/profile/external/2908307/marietta_ga/buddhas_delight.html", "offers": null, "latitude": 34.017093, "politanName": "Atlanta, GA Metro ", "phone_number": "7705651995", "tags": [{"primary": false, "id": 11333, "name": "American Express"}, {"primary": false, "id": 11361, "name": "MasterCard"}, {"primary": false, "id": 11382, "name": "Visa"}, {"primary": true, "id": 1722, "name": "Restaurants"}], "fax_number": null, "expansion": {"count": null, "uri": null}, "impression_id": "000b0000004a6a43310a1842a496d9aaf3ed375e99", "profile": "http://www.citysearch.com/profile/2908307/marietta_ga/buddhas_delight.html", "address": {"city": "Marietta", "state": "GA", "street": "2731 Sandy Plains Rd", "postal_code": "30066"}, "capProviderId": null, "distance": null, "has_offers": false, "name": "Buddhas Delight", "longitude": -84.492328, "has_menu": true, "awards": null, "user_review_count": 3}, {"business_operation_status": 1, "rating": null, "neighborhood": null, "image": null, "scorecard": null, "featured": false, "sample_categories": "Restaurants, Utility Contractors", "public_id": "optelian-marietta", "id": 2910548, "votes": null, "tagline": null, "has_video": false, "website": "http://www.citysearch.com/profile/external/2910548/marietta_ga/optelian.html", "offers": null, "latitude": 33.919788, "politanName": "Atlanta, GA Metro ", "phone_number": "7706909575", "tags": [{"primary": false, "id": 1722, "name": "Restaurants"}, {"primary": true, "id": 788, "name": "Utility Contractors"}], "fax_number": null, "expansion": {"count": null, "uri": null}, "impression_id": "000b00000016a638bd9217480f9dec4a3bf065efba", "profile": "http://www.citysearch.com/profile/2910548/marietta_ga/optelian.html", "address": {"city": "Marietta", "state": "GA", "street": "2121 New Market Pkwy SE", "postal_code": "30067"}, "capProviderId": null, "distance": null, "has_offers": false, "name": "Optelian", "longitude": -84.49377, "has_menu": false, "awards": null, "user_review_count": 0}, {"business_operation_status": 1, "rating": null, "neighborhood": null, "image": null, "scorecard": null, "featured": false, "sample_categories": "Restaurants", "public_id": "cafe-135-atlanta", "id": 3045188, "votes": null, "tagline": null, "has_video": false, "website": null, "offers": null, "latitude": 33.968847, "politanName": "Atlanta, GA Metro ", "phone_number": "7705220096", "tags": [{"primary": true, "id": 1722, "name": "Restaurants"}], "fax_number": null, "expansion": {"count": null, "uri": null}, "impression_id": "000b0000003ab39d2a563f40a89e470749f4fb9cac", "profile": "http://www.citysearch.com/profile/3045188/atlanta_ga/cafe_135.html", "address": {"city": "Atlanta", "state": "GA", "street": "600 Morgan Falls Rd Ste 135", "postal_code": "30350"}, "capProviderId": null, "distance": null, "has_offers": false, "name": "Cafe 135", "longitude": -84.36573, "has_menu": false, "awards": null, "user_review_count": 0}, {"business_operation_status": 1, "rating": null, "neighborhood": null, "image": null, "scorecard": null, "featured": false, "sample_categories": "Delis And Delicatessens", "public_id": "kroger-deli-roswell-3", "id": 698576870, "votes": null, "tagline": null, "has_video": false, "website": null, "offers": null, "latitude": 34.004136, "politanName": "Atlanta, GA Metro ", "phone_number": "7706409199", "tags": [{"primary": true, "id": 1727, "name": "Delis And Delicatessens"}], "fax_number": null, "expansion": {"count": null, "uri": null}, "impression_id": "000b00000070ddd51048494f2ab7f295fc4d802ee9", "profile": "http://www.citysearch.com/profile/698576870/roswell_ga/kroger_deli.html", "address": {"city": "Roswell", "state": "GA", "street": "900 Marietta Hwy", "postal_code": "30075"}, "capProviderId": null, "distance": null, "has_offers": false, "name": "Kroger Deli", "longitude": -84.389686, "has_menu": false, "awards": null, "user_review_count": 0}, {"business_operation_status": 1, "rating": null, "neighborhood": null, "image": null, "scorecard": null, "featured": false, "sample_categories": "Restaurants, Hamburgers", "public_id": "ils-wayportmc-donalds-marietta", "id": 793313560, "votes": null, "tagline": null, "has_video": false, "website": null, "offers": null, "latitude": 33.924211, "politanName": "Atlanta, GA Metro ", "phone_number": "7708509549", "tags": [{"primary": false, "id": 11270, "name": "Hamburgers"}, {"primary": true, "id": 1722, "name": "Restaurants"}], "fax_number": null, "expansion": {"count": null, "uri": null}, "impression_id": "000b0000007d363d8081154e1b9eb0547bd2008629", "profile": "http://www.citysearch.com/profile/793313560/marietta_ga/ils_wayport_mc_donald_s.html", "address": {"city": "Marietta", "state": "GA", "street": "2375 Delk Rd Se", "postal_code": "30067"}, "capProviderId": null, "distance": null, "has_offers": false, "name": "Ils Wayport-Mc Donald's", "longitude": -84.483793, "has_menu": false, "awards": null, "user_review_count": 0}, {"business_operation_status": 1, "rating": null, "neighborhood": null, "image": null, "scorecard": null, "featured": false, "sample_categories": "Restaurants", "public_id": "sonnys-home-cooking-roswell", "id": 807070170, "votes": null, "tagline": null, "has_video": false, "website": null, "offers": null, "latitude": 34.03464, "politanName": "Atlanta, GA Metro ", "phone_number": "7709929995", "tags": [{"primary": true, "id": 1722, "name": "Restaurants"}], "fax_number": null, "expansion": {"count": null, "uri": null}, "impression_id": "000b000000b85399656bb047afa203eb7eae06d209", "profile": "http://www.citysearch.com/profile/807070170/roswell_ga/sonny_s_home_cooking.html", "address": {"city": "Roswell", "state": "GA", "street": "10360 Alpharetta St", "postal_code": "30075"}, "capProviderId": null, "distance": null, "has_offers": false, "name": "Sonny's Home Cooking", "longitude": -84.34789, "has_menu": false, "awards": null, "user_review_count": 0}, {"business_operation_status": 1, "rating": null, "neighborhood": null, "image": null, "scorecard": null, "featured": false, "sample_categories": "Restaurants, American Express, Discover, MasterCard, Shop Online", "public_id": "metro-kitchen-marietta", "id": 728110290, "votes": null, "tagline": null, "has_video": false, "website": "http://www.citysearch.com/profile/external/728110290/marietta_ga/metro_kitchen.html", "offers": null, "latitude": 33.926059, "politanName": "Atlanta, GA Metro ", "phone_number": "7709160102", "tags": [{"primary": false, "id": 11333, "name": "American Express"}, {"primary": false, "id": 11349, "name": "Discover"}, {"primary": false, "id": 11361, "name": "MasterCard"}, {"primary": false, "id": 11375, "name": "Shop Online"}, {"primary": false, "id": 11382, "name": "Visa"}, {"primary": true, "id": 1722, "name": "Restaurants"}], "fax_number": null, "expansion": {"count": null, "uri": null}, "impression_id": "000b0000005ba271a8338c4639b41e8629cd5f93cd", "profile": "http://www.citysearch.com/profile/728110290/marietta_ga/metro_kitchen.html", "address": {"city": "Marietta", "state": "GA", "street": "4041 Kingston Ct Se # A", "postal_code": "30067"}, "capProviderId": null, "distance": null, "has_offers": false, "name": "Metro Kitchen", "longitude": -84.491207, "has_menu": false, "awards": null, "user_review_count": 0}, {"business_operation_status": 1, "rating": null, "neighborhood": null, "image": null, "scorecard": null, "featured": false, "sample_categories": "Restaurants", "public_id": "peking-express-sandy", "id": 812996590, "votes": null, "tagline": null, "has_video": false, "website": null, "offers": null, "latitude": 33.972659, "politanName": "Atlanta, GA Metro ", "phone_number": "7703960026", "tags": [{"primary": true, "id": 1722, "name": "Restaurants"}], "fax_number": null, "expansion": {"count": null, "uri": null}, "impression_id": "000b0000003b327c373e53454db6a68a0fd2a27af5", "profile": "http://www.citysearch.com/profile/812996590/sandy_springs_ga/peking_express.html", "address": {"city": "Sandy Springs", "state": "GA", "street": "7878 Roswell Rd", "postal_code": "30350"}, "capProviderId": null, "distance": null, "has_offers": false, "name": "Peking Express", "longitude": -84.35877, "has_menu": true, "awards": null, "user_review_count": 0}, {"business_operation_status": 1, "rating": null, "neighborhood": null, "image": null, "scorecard": null, "featured": false, "sample_categories": "Restaurants, Bars & Clubs, Carry Out", "public_id": "tgi-fridays-marietta-2", "id": 819157490, "votes": null, "tagline": null, "has_video": false, "website": null, "offers": null, "latitude": 33.931556, "politanName": "Atlanta, GA Metro ", "phone_number": "7709510821", "tags": [{"primary": false, "id": 164, "name": "Bars & Clubs"}, {"primary": false, "id": 11247, "name": "Carry Out"}, {"primary": true, "id": 1722, "name": "Restaurants"}], "fax_number": null, "expansion": {"count": null, "uri": null}, "impression_id": "000b000000572fc398e68e40eeaba8610cacd878a5", "profile": "http://www.citysearch.com/profile/819157490/marietta_ga/tgi_friday_s.html", "address": {"city": "Marietta", "state": "GA", "street": "1945 Powers Ferry Trce SE", "postal_code": "30067"}, "capProviderId": null, "distance": null, "has_offers": false, "name": "TGI Friday's", "longitude": -84.47837, "has_menu": false, "awards": null, "user_review_count": 0}, {"business_operation_status": 1, "rating": null, "neighborhood": null, "image": null, "scorecard": null, "featured": false, "sample_categories": "Restaurants", "public_id": "take-a-break-deli-atlanta", "id": 815627600, "votes": null, "tagline": null, "has_video": false, "website": null, "offers": null, "latitude": 33.98333, "politanName": "Atlanta, GA Metro ", "phone_number": "7705879744", "tags": [{"primary": true, "id": 1722, "name": "Restaurants"}], "fax_number": null, "expansion": {"count": null, "uri": null}, "impression_id": "000b000000f4a90a410bce4ebeabb57cdaaacc0156", "profile": "http://www.citysearch.com/profile/815627600/atlanta_ga/take_a_break_deli.html", "address": {"city": "Atlanta", "state": "GA", "street": "500 Northridge Rd", "postal_code": "30350"}, "capProviderId": null, "distance": null, "has_offers": false, "name": "Take A Break Deli", "longitude": -84.34377, "has_menu": false, "awards": null, "user_review_count": 0}, {"business_operation_status": 1, "rating": null, "neighborhood": null, "image": null, "scorecard": null, "featured": false, "sample_categories": "Restaurants", "public_id": "va-t-i-c-atlanta", "id": 610450354, "votes": null, "tagline": null, "has_video": false, "website": null, "offers": null, "latitude": 33.908517, "politanName": "Atlanta, GA Metro ", "phone_number": "7706934742", "tags": [{"primary": true, "id": 1722, "name": "Restaurants"}], "fax_number": null, "expansion": {"count": null, "uri": null}, "impression_id": "000b0000001fd43113cfbf4b799691a6a93c5a922b", "profile": "http://www.citysearch.com/profile/610450354/atlanta_ga/va_t_i_c.html", "address": {"city": "Atlanta", "state": "GA", "street": "1827 Powers Ferry Rd SE Ste 3-200 # 3-200", "postal_code": "30339"}, "capProviderId": null, "distance": null, "has_offers": false, "name": "VA T I C", "longitude": -84.463637, "has_menu": false, "awards": null, "user_review_count": 0}, {"business_operation_status": 1, "rating": null, "neighborhood": null, "image": null, "scorecard": null, "featured": false, "sample_categories": "Restaurants", "public_id": "lickskillet-farm-restaurant-roswell", "id": 828711140, "votes": null, "tagline": null, "has_video": false, "website": null, "offers": null, "latitude": 34.02, "politanName": "Atlanta, GA Metro ", "phone_number": "7704756484", "tags": [{"primary": true, "id": 1722, "name": "Restaurants"}], "fax_number": null, "expansion": {"count": null, "uri": null}, "impression_id": "000b0000006f39e12ec9c6480fadb989521b22640b", "profile": "http://www.citysearch.com/profile/828711140/roswell_ga/lickskillet_farm_restaurant.html", "address": {"city": "Roswell", "state": "GA", "street": "PO Box 665", "postal_code": "30077"}, "capProviderId": null, "distance": null, "has_offers": false, "name": "Lickskillet Farm Restaurant", "longitude": -84.36, "has_menu": false, "awards": null, "user_review_count": 0}, {"business_operation_status": 1, "rating": null, "neighborhood": null, "image": null, "scorecard": null, "featured": false, "sample_categories": "Restaurants, Catering", "public_id": "a-little-bit-of-heaven-marietta", "id": 837084260, "votes": null, "tagline": null, "has_video": false, "website": null, "offers": null, "latitude": 33.965305, "politanName": "Atlanta, GA Metro ", "phone_number": "6782246780", "tags": [{"primary": false, "id": 1705, "name": "Catering"}, {"primary": true, "id": 1722, "name": "Restaurants"}], "fax_number": null, "expansion": {"count": null, "uri": null}, "impression_id": "000b000000e15d2646fa5e4c9899c32f45fc17d2f0", "profile": "http://www.citysearch.com/profile/837084260/marietta_ga/a_little_bit_of_heaven.html", "address": {"city": "Marietta", "state": "GA", "street": "4665 Lower Roswell Rd 101", "postal_code": "30068"}, "capProviderId": null, "distance": null, "has_offers": false, "name": "A Little Bit of Heaven", "longitude": -84.415723, "has_menu": false, "awards": null, "user_review_count": 0}, {"business_operation_status": 1, "rating": null, "neighborhood": null, "image": null, "scorecard": null, "featured": false, "sample_categories": "Restaurants", "public_id": "healthy-smoothies-marietta", "id": 839059750, "votes": null, "tagline": null, "has_video": false, "website": null, "offers": null, "latitude": 33.901077, "politanName": "Atlanta, GA Metro ", "phone_number": "4046044604", "tags": [{"primary": true, "id": 1722, "name": "Restaurants"}], "fax_number": null, "expansion": {"count": null, "uri": null}, "impression_id": "000b0000009d37f38294444a9489511789483f01e8", "profile": "http://www.citysearch.com/profile/839059750/marietta_ga/healthy_smoothies.html", "address": {"city": "Marietta", "state": "GA", "street": "1812 Powder Springs Rd SW", "postal_code": "30064"}, "capProviderId": null, "distance": null, "has_offers": false, "name": "Healthy Smoothies", "longitude": -84.606768, "has_menu": false, "awards": null, "user_review_count": 0}, {"business_operation_status": 1, "rating": null, "neighborhood": null, "image": null, "scorecard": null, "featured": false, "sample_categories": "Cafes", "public_id": "reveille-cafe-marietta-2", "id": 619600404, "votes": null, "tagline": null, "has_video": false, "website": null, "offers": null, "latitude": 34.023215, "politanName": "Atlanta, GA Metro ", "phone_number": "7709716800", "tags": [{"primary": true, "id": 6190, "name": "Cafes"}], "fax_number": null, "expansion": {"count": null, "uri": null}, "impression_id": "000b000000db82545cbac44a959e563b8d9ab444b5", "profile": "http://www.citysearch.com/profile/619600404/marietta_ga/reveille_cafe.html", "address": {"city": "Marietta", "state": "GA", "street": "2960 Sandy Plains Rd # 130", "postal_code": "30066"}, "capProviderId": null, "distance": null, "has_offers": false, "name": "Reveille Cafe", "longitude": -84.485512, "has_menu": false, "awards": null, "user_review_count": 0}, {"business_operation_status": 1, "rating": null, "neighborhood": null, "image": null, "scorecard": null, "featured": false, "sample_categories": "Butcher Shops, Delis And Delicatessens", "public_id": "butchers-deli-bakery-alpharetta", "id": 655925710, "votes": null, "tagline": null, "has_video": false, "website": null, "offers": null, "latitude": 34.077695, "politanName": "Atlanta, GA Metro ", "phone_number": "7704753100", "tags": [{"primary": false, "id": 1727, "name": "Delis And Delicatessens"}, {"primary": true, "id": 1707, "name": "Butcher Shops"}], "fax_number": null, "expansion": {"count": null, "uri": null}, "impression_id": "000b000000dd9a9cfc67a640bcb10a96685553d52f", "profile": "http://www.citysearch.com/profile/655925710/alpharetta_ga/butchers_deli_bakery.html", "address": {"city": "Alpharetta", "state": "GA", "street": "295 Rucker Rd", "postal_code": "30004"}, "capProviderId": null, "distance": null, "has_offers": false, "name": "Butchers Deli & Bakery", "longitude": -84.352541, "has_menu": false, "awards": null, "user_review_count": 0}, {"business_operation_status": 0, "rating": null, "neighborhood": null, "image": null, "scorecard": null, "featured": false, "sample_categories": "Restaurants", "public_id": "little-azio-kennesaw", "id": 672589690, "votes": null, "tagline": null, "has_video": false, "website": null, "offers": null, "latitude": 34.037182, "politanName": "Atlanta, GA Metro ", "phone_number": "6782131200", "tags": [{"primary": true, "id": 1722, "name": "Restaurants"}], "fax_number": null, "expansion": {"count": null, "uri": null}, "impression_id": "000b0000003b8bd57ce2c741b59b498124ab625a61", "profile": "http://www.citysearch.com/profile/672589690/kennesaw_ga/little_azio.html", "address": {"city": "Kennesaw", "state": "GA", "street": "600 Chastain Rd NW", "postal_code": "30144"}, "capProviderId": null, "distance": null, "has_offers": false, "name": "Little Azio", "longitude": -84.567518, "has_menu": false, "awards": null, "user_review_count": 0}, {"business_operation_status": 1, "rating": null, "neighborhood": null, "image": null, "scorecard": null, "featured": false, "sample_categories": "Restaurants, Barbecue Restaurants, Cajun & Creole", "public_id": "wow-cafe-wingery-kennesaw", "id": 732246340, "votes": null, "tagline": null, "has_video": false, "website": null, "offers": null, "latitude": 33.99449, "politanName": "Atlanta, GA Metro ", "phone_number": "7707958590", "tags": [{"primary": false, "id": 1724, "name": "Barbecue Restaurants"}, {"primary": false, "id": 11245, "name": "Cajun & Creole"}, {"primary": true, "id": 1722, "name": "Restaurants"}], "fax_number": null, "expansion": {"count": null, "uri": null}, "impression_id": "000b000000859bc7627287470b96c33cb126183dfe", "profile": "http://www.citysearch.com/profile/732246340/kennesaw_ga/wow_cafe_wingery.html", "address": {"city": "Kennesaw", "state": "GA", "street": "1615 Ridenour Blvd NW # 207", "postal_code": "30152"}, "capProviderId": null, "distance": null, "has_offers": false, "name": "WOW Cafe & Wingery", "longitude": -84.592515, "has_menu": false, "awards": null, "user_review_count": 0}, {"business_operation_status": 1, "rating": null, "neighborhood": null, "image": null, "scorecard": null, "featured": false, "sample_categories": "Ice Cream Parlors", "public_id": "tropicanna-billiards-grill-smyrna", "id": 614553874, "votes": null, "tagline": null, "has_video": false, "website": null, "offers": null, "latitude": 33.890202, "politanName": "Atlanta, GA Metro ", "phone_number": "7704320051", "tags": [{"primary": true, "id": 1730, "name": "Ice Cream Parlors"}], "fax_number": null, "expansion": {"count": null, "uri": null}, "impression_id": "000b000000b7b5f6acf87d442f9c5383aa6750d280", "profile": "http://www.citysearch.com/profile/614553874/smyrna_ga/tropicanna_billiards_grill.html", "address": {"city": "Smyrna", "state": "GA", "street": "2570 Atlanta Rd SE", "postal_code": "30080"}, "capProviderId": null, "distance": null, "has_offers": false, "name": "Tropicanna Billiards & Grill", "longitude": -84.517036, "has_menu": false, "awards": null, "user_review_count": 0}, {"business_operation_status": 1, "rating": null, "neighborhood": null, "image": null, "scorecard": null, "featured": false, "sample_categories": "Restaurants, Carry Out, Hamburgers", "public_id": "mc-donalds-marietta-20", "id": 713574940, "votes": null, "tagline": null, "has_video": false, "website": "http://www.citysearch.com/profile/external/713574940/marietta_ga/mc_donald_s.html", "offers": null, "latitude": 33.924211, "politanName": "Atlanta, GA Metro ", "phone_number": "7708509549", "tags": [{"primary": false, "id": 11247, "name": "Carry Out"}, {"primary": false, "id": 11270, "name": "Hamburgers"}, {"primary": true, "id": 1722, "name": "Restaurants"}], "fax_number": null, "expansion": {"count": null, "uri": null}, "impression_id": "000b0000008f0a343452d749e6bd81e9716c595358", "profile": "http://www.citysearch.com/profile/713574940/marietta_ga/mc_donald_s.html", "address": {"city": "Marietta", "state": "GA", "street": "2375 Delk Rd Se", "postal_code": "30067"}, "capProviderId": null, "distance": null, "has_offers": false, "name": "Mc Donald's", "longitude": -84.483793, "has_menu": false, "awards": null, "user_review_count": 0}, {"business_operation_status": 1, "rating": null, "neighborhood": null, "image": null, "scorecard": null, "featured": false, "sample_categories": "Restaurants", "public_id": "eggs-up-grill-alpharetta", "id": 627805534, "votes": null, "tagline": null, "has_video": false, "website": null, "offers": null, "latitude": 34.079363, "politanName": "Atlanta, GA Metro ", "phone_number": "6788782251", "tags": [{"primary": true, "id": 1722, "name": "Restaurants"}], "fax_number": null, "expansion": {"count": null, "uri": null}, "impression_id": "000b00000092f9f83109f44fcfa5b472edfb617baa", "profile": "http://www.citysearch.com/profile/627805534/alpharetta_ga/egg_s_up_grill.html", "address": {"city": "Alpharetta", "state": "GA", "street": "270 Rucker Rd 130", "postal_code": "30004"}, "capProviderId": null, "distance": null, "has_offers": false, "name": "Egg's Up Grill", "longitude": -84.357482, "has_menu": false, "awards": null, "user_review_count": 0}, {"business_operation_status": 1, "rating": null, "neighborhood": null, "image": null, "scorecard": null, "featured": false, "sample_categories": "Restaurants, Pizza", "public_id": "manhattan-pizza-marietta", "id": 624064324, "votes": null, "tagline": null, "has_video": false, "website": null, "offers": null, "latitude": 33.944967, "politanName": "Atlanta, GA Metro ", "phone_number": "6789092097", "tags": [{"primary": false, "id": 11299, "name": "Pizza"}, {"primary": true, "id": 1722, "name": "Restaurants"}], "fax_number": null, "expansion": {"count": null, "uri": null}, "impression_id": "000b00000085789cf62d8849bf8bb8f655d27783ae", "profile": "http://www.citysearch.com/profile/624064324/marietta_ga/manhattan_pizza.html", "address": {"city": "Marietta", "state": "GA", "street": "279 Powers Ferry Rd SE", "postal_code": "30067"}, "capProviderId": null, "distance": null, "has_offers": false, "name": "Manhattan Pizza", "longitude": -84.497588, "has_menu": false, "awards": null, "user_review_count": 0}, {"business_operation_status": 1, "rating": null, "neighborhood": null, "image": null, "scorecard": null, "featured": false, "sample_categories": "Restaurants, Barbecue Restaurants", "public_id": "shanes-rib-shack-canton-3", "id": 627658140, "votes": null, "tagline": null, "has_video": false, "website": "http://www.citysearch.com/profile/external/627658140/canton_ga/shane_s_rib_shack.html", "offers": null, "latitude": 34.152288, "politanName": "Atlanta, GA Metro ", "phone_number": "7705178655", "tags": [{"primary": false, "id": 1724, "name": "Barbecue Restaurants"}, {"primary": true, "id": 1722, "name": "Restaurants"}], "fax_number": null, "expansion": {"count": null, "uri": null}, "impression_id": "000b0000001619f9017a73478896e07b3ae3c1f05e", "profile": "http://www.citysearch.com/profile/627658140/canton_ga/shane_s_rib_shack.html", "address": {"city": "Canton", "state": "GA", "street": "4504 Holly Springs Pkwy # 101", "postal_code": "30115"}, "capProviderId": null, "distance": null, "has_offers": false, "name": "Shane's Rib Shack", "longitude": -84.510107, "has_menu": false, "awards": null, "user_review_count": 0}, {"business_operation_status": 1, "rating": null, "neighborhood": null, "image": null, "scorecard": null, "featured": false, "sample_categories": "Frozen Yogurt Shops, Restaurants, Ice Cream Parlors, Discover, MasterCard", "public_id": "freshens-kennesaw", "id": 2955857, "votes": null, "tagline": null, "has_video": false, "website": "http://www.citysearch.com/profile/external/2955857/kennesaw_ga/freshens.html", "offers": null, "latitude": 34.019128, "politanName": "Atlanta, GA Metro ", "phone_number": "7704241171", "tags": [{"primary": false, "id": 1722, "name": "Restaurants"}, {"primary": false, "id": 1730, "name": "Ice Cream Parlors"}, {"primary": false, "id": 11349, "name": "Discover"}, {"primary": false, "id": 11361, "name": "MasterCard"}, {"primary": false, "id": 11382, "name": "Visa"}, {"primary": true, "id": 1729, "name": "Frozen Yogurt Shops"}], "fax_number": null, "expansion": {"count": null, "uri": null}, "impression_id": "000b000000d99069d2518c4ca186db2c1536a1bbaa", "profile": "http://www.citysearch.com/profile/2955857/kennesaw_ga/freshens.html", "address": {"city": "Kennesaw", "state": "GA", "street": "400 Ernest W Barrett Pkwy NW", "postal_code": "30144"}, "capProviderId": null, "distance": null, "has_offers": false, "name": "Freshens", "longitude": -84.563608, "has_menu": true, "awards": null, "user_review_count": 0}, {"business_operation_status": 1, "rating": null, "neighborhood": null, "image": null, "scorecard": null, "featured": false, "sample_categories": "Restaurants", "public_id": "belles-a-southern-eatery-roswell", "id": 632939500, "votes": null, "tagline": null, "has_video": false, "website": null, "offers": null, "latitude": 34.023814, "politanName": "Atlanta, GA Metro ", "phone_number": "7709929600", "tags": [{"primary": true, "id": 1722, "name": "Restaurants"}], "fax_number": null, "expansion": {"count": null, "uri": null}, "impression_id": "000b00000028ea8d96547849f69e774bdaf9d12fcc", "profile": "http://www.citysearch.com/profile/632939500/roswell_ga/belle_s_a_southern_eatery.html", "address": {"city": "Roswell", "state": "GA", "street": "1075 Holcomb Bridge Rd", "postal_code": "30076"}, "capProviderId": null, "distance": null, "has_offers": false, "name": "Belle's A Southern Eatery", "longitude": -84.329852, "has_menu": false, "awards": null, "user_review_count": 0}, {"business_operation_status": 1, "rating": null, "neighborhood": null, "image": null, "scorecard": null, "featured": false, "sample_categories": "Bakeries, Restaurants", "public_id": "mountain-biscuits-llc-marietta", "id": 638789660, "votes": null, "tagline": null, "has_video": false, "website": null, "offers": null, "latitude": 33.983382, "politanName": "Atlanta, GA Metro ", "phone_number": "7704193311", "tags": [{"primary": false, "id": 1685, "name": "Bakeries"}, {"primary": true, "id": 1722, "name": "Restaurants"}], "fax_number": null, "expansion": {"count": null, "uri": null}, "impression_id": "000b000000a7aa4144dc7f4c74a6cd17c329a2f54e", "profile": "http://www.citysearch.com/profile/638789660/marietta_ga/mountain_biscuits_llc.html", "address": {"city": "Marietta", "state": "GA", "street": "1718 Old 41 Hwy Nw", "postal_code": "30060"}, "capProviderId": null, "distance": null, "has_offers": false, "name": "Mountain Biscuits Llc", "longitude": -84.570123, "has_menu": false, "awards": null, "user_review_count": 0}, {"business_operation_status": 1, "rating": null, "neighborhood": null, "image": null, "scorecard": null, "featured": false, "sample_categories": "Restaurants", "public_id": "cafe-alice-smyrna", "id": 672226100, "votes": null, "tagline": null, "has_video": false, "website": null, "offers": null, "latitude": 33.901234, "politanName": "Atlanta, GA Metro ", "phone_number": "7709550300", "tags": [{"primary": true, "id": 1722, "name": "Restaurants"}], "fax_number": null, "expansion": {"count": null, "uri": null}, "impression_id": "000b00000030703600365c42ebbc596281fe8b7c3f", "profile": "http://www.citysearch.com/profile/672226100/smyrna_ga/cafe_alice.html", "address": {"city": "Smyrna", "state": "GA", "street": "2092 Cobb Pkwy", "postal_code": "30080"}, "capProviderId": null, "distance": null, "has_offers": false, "name": "Cafe Alice", "longitude": -84.488366, "has_menu": false, "awards": null, "user_review_count": 0}, {"business_operation_status": 1, "rating": null, "neighborhood": null, "image": null, "scorecard": null, "featured": false, "sample_categories": "Restaurants", "public_id": "exceptional-restaurant-co-canton", "id": 45994106, "votes": null, "tagline": null, "has_video": false, "website": "http://www.citysearch.com/profile/external/45994106/canton_ga/exceptional_restaurant_co.html", "offers": null, "latitude": 34.177586, "politanName": "Atlanta, GA Metro ", "phone_number": "7707045141", "tags": [{"primary": true, "id": 1722, "name": "Restaurants"}], "fax_number": null, "expansion": {"count": null, "uri": null}, "impression_id": "000b000000753565ec6fc04027b4c95cf011808f8b", "profile": "http://www.citysearch.com/profile/45994106/canton_ga/exceptional_restaurant_co.html", "address": {"city": "Canton", "state": "GA", "street": "6113 Hickory Flat Hwy", "postal_code": "30115"}, "capProviderId": null, "distance": null, "has_offers": false, "name": "Exceptional Restaurant Co", "longitude": -84.421714, "has_menu": false, "awards": null, "user_review_count": 0}, {"business_operation_status": 1, "rating": null, "neighborhood": null, "image": null, "scorecard": null, "featured": false, "sample_categories": "Restaurants, Carry Out, Hamburgers, American Express, Discover", "public_id": "mc-donalds-woodstock-6", "id": 682298040, "votes": null, "tagline": null, "has_video": false, "website": "http://www.citysearch.com/profile/external/682298040/woodstock_ga/mc_donald_s.html", "offers": null, "latitude": 34.087462, "politanName": "Atlanta, GA Metro ", "phone_number": "7709246912", "tags": [{"primary": false, "id": 11247, "name": "Carry Out"}, {"primary": false, "id": 11270, "name": "Hamburgers"}, {"primary": false, "id": 11333, "name": "American Express"}, {"primary": false, "id": 11349, "name": "Discover"}, {"primary": false, "id": 11361, "name": "MasterCard"}, {"primary": false, "id": 11382, "name": "Visa"}, {"primary": true, "id": 1722, "name": "Restaurants"}], "fax_number": null, "expansion": {"count": null, "uri": null}, "impression_id": "000b00000078047d5e12ce4652a89a92599da8f67a", "profile": "http://www.citysearch.com/profile/682298040/woodstock_ga/mc_donald_s.html", "address": {"city": "Woodstock", "state": "GA", "street": "12154 Highway 92", "postal_code": "30188"}, "capProviderId": null, "distance": null, "has_offers": false, "name": "Mc Donald's", "longitude": -84.483195, "has_menu": true, "awards": null, "user_review_count": 1}, {"business_operation_status": 1, "rating": null, "neighborhood": null, "image": null, "scorecard": null, "featured": false, "sample_categories": "Restaurants, Italian", "public_id": "mirko-pasta-roswell", "id": 699321270, "votes": null, "tagline": null, "has_video": false, "website": null, "offers": null, "latitude": 34.062507, "politanName": "Atlanta, GA Metro ", "phone_number": "7705525572", "tags": [{"primary": false, "id": 11279, "name": "Italian"}, {"primary": true, "id": 1722, "name": "Restaurants"}], "fax_number": null, "expansion": {"count": null, "uri": null}, "impression_id": "000b000000abcb46b8df0d4c3e88723ae4a7e58eb7", "profile": "http://www.citysearch.com/profile/699321270/roswell_ga/mirko_pasta.html", "address": {"city": "Roswell", "state": "GA", "street": "1105 Woodstock Rd Suite 110", "postal_code": "30075"}, "capProviderId": null, "distance": null, "has_offers": false, "name": "Mirko Pasta", "longitude": -84.396311, "has_menu": false, "awards": null, "user_review_count": 0}, {"business_operation_status": 1, "rating": null, "neighborhood": null, "image": null, "scorecard": null, "featured": false, "sample_categories": "Restaurants", "public_id": "masse-grill-bar-kennesaw", "id": 839969040, "votes": null, "tagline": null, "has_video": false, "website": null, "offers": null, "latitude": 34.020439, "politanName": "Atlanta, GA Metro ", "phone_number": "7704263095", "tags": [{"primary": true, "id": 1722, "name": "Restaurants"}], "fax_number": null, "expansion": {"count": null, "uri": null}, "impression_id": "000b0000002aa8d614ef0049eab60284ec3a1f8271", "profile": "http://www.citysearch.com/profile/839969040/kennesaw_ga/masse_grill_bar.html", "address": {"city": "Kennesaw", "state": "GA", "street": "2975 Ring Rd NW", "postal_code": "30144"}, "capProviderId": null, "distance": null, "has_offers": false, "name": "Masse Grill & Bar", "longitude": -84.566579, "has_menu": false, "awards": null, "user_review_count": 0}, {"business_operation_status": 1, "rating": null, "neighborhood": null, "image": null, "scorecard": null, "featured": false, "sample_categories": "Restaurants, Bars & Clubs", "public_id": "dr-munchies-sports-bar-grill-atlanta", "id": 821847360, "votes": null, "tagline": null, "has_video": false, "website": null, "offers": null, "latitude": 33.961512, "politanName": "Atlanta, GA Metro ", "phone_number": "7703944446", "tags": [{"primary": false, "id": 164, "name": "Bars & Clubs"}, {"primary": true, "id": 1722, "name": "Restaurants"}], "fax_number": null, "expansion": {"count": null, "uri": null}, "impression_id": "000b000000869e11d5be0a4472904cef3bf58d4ed1", "profile": "http://www.citysearch.com/profile/821847360/atlanta_ga/dr_munchies_sports_bar_grill.html", "address": {"city": "Atlanta", "state": "GA", "street": "7537 Roswell Rd", "postal_code": "30350"}, "capProviderId": null, "distance": null, "has_offers": false, "name": "Dr Munchies Sports Bar & Grill", "longitude": -84.365719, "has_menu": false, "awards": null, "user_review_count": 0}, {"business_operation_status": 1, "rating": null, "neighborhood": null, "image": null, "scorecard": null, "featured": false, "sample_categories": "Restaurants", "public_id": "cafe-803-marietta", "id": 838064280, "votes": null, "tagline": null, "has_video": false, "website": null, "offers": null, "latitude": 33.933132, "politanName": "Atlanta, GA Metro ", "phone_number": "7707925579", "tags": [{"primary": true, "id": 1722, "name": "Restaurants"}], "fax_number": null, "expansion": {"count": null, "uri": null}, "impression_id": "000b00000051487e6f0e8543dea0ab0e6a169d8f70", "profile": "http://www.citysearch.com/profile/838064280/marietta_ga/cafe_803.html", "address": {"city": "Marietta", "state": "GA", "street": "803 Powder Springs St", "postal_code": "30064"}, "capProviderId": null, "distance": null, "has_offers": false, "name": "Cafe 803", "longitude": -84.559871, "has_menu": false, "awards": null, "user_review_count": 0}, {"business_operation_status": 1, "rating": null, "neighborhood": null, "image": null, "scorecard": null, "featured": false, "sample_categories": "Restaurants, Bakeries, Discover, MasterCard, Visa", "public_id": "modern-bagel-roswell-2", "id": 2918167, "votes": null, "tagline": null, "has_video": false, "website": null, "offers": null, "latitude": 34.044357, "politanName": "Atlanta, GA Metro ", "phone_number": "7708170812", "tags": [{"primary": false, "id": 1685, "name": "Bakeries"}, {"primary": false, "id": 11349, "name": "Discover"}, {"primary": false, "id": 11361, "name": "MasterCard"}, {"primary": false, "id": 11382, "name": "Visa"}, {"primary": true, "id": 1722, "name": "Restaurants"}], "fax_number": null, "expansion": {"count": null, "uri": null}, "impression_id": "000b00000063fea3a6876b4e13918c449d55091417", "profile": "http://www.citysearch.com/profile/2918167/roswell_ga/modern_bagel.html", "address": {"city": "Roswell", "state": "GA", "street": "10800 Alpharetta Hwy Ste 232", "postal_code": "30076"}, "capProviderId": null, "distance": null, "has_offers": false, "name": "Modern Bagel", "longitude": -84.342383, "has_menu": false, "awards": null, "user_review_count": 1}, {"business_operation_status": 1, "rating": null, "neighborhood": null, "image": null, "scorecard": null, "featured": false, "sample_categories": "Restaurants, Fast Food, Carry Out, American Express, MasterCard", "public_id": "popeyes-chicken-biscuits-marietta-2", "id": 45112943, "votes": null, "tagline": null, "has_video": false, "website": "http://www.citysearch.com/profile/external/45112943/marietta_ga/popeye_s_chicken_biscuits.html", "offers": null, "latitude": 33.9485, "politanName": "Atlanta, GA Metro ", "phone_number": "7704208800", "tags": [{"primary": false, "id": 11199, "name": "Fast Food"}, {"primary": false, "id": 11247, "name": "Carry Out"}, {"primary": false, "id": 11333, "name": "American Express"}, {"primary": false, "id": 11361, "name": "MasterCard"}, {"primary": false, "id": 11382, "name": "Visa"}, {"primary": false, "id": 12839, "name": "Chicken"}, {"primary": true, "id": 1722, "name": "Restaurants"}], "fax_number": null, "expansion": {"count": null, "uri": null}, "impression_id": "000b0000001f372b85127d4c79966cd67fcd384dc4", "profile": "http://www.citysearch.com/profile/45112943/marietta_ga/popeye_s_chicken_biscuits.html", "address": {"city": "Marietta", "state": "GA", "street": "155 Cobb Pkwy S", "postal_code": "30060"}, "capProviderId": null, "distance": null, "has_offers": false, "name": "Popeye's Chicken & Biscuits", "longitude": -84.518323, "has_menu": true, "awards": null, "user_review_count": 0}, {"business_operation_status": 1, "rating": null, "neighborhood": null, "image": null, "scorecard": null, "featured": false, "sample_categories": "Pasta Manufacturers, Restaurants, Wholesale Foods, Italian Food Products, $", "public_id": "costas-pasta-kennesaw", "id": 2957371, "votes": null, "tagline": null, "has_video": false, "website": "http://www.citysearch.com/profile/external/2957371/kennesaw_ga/costas_pasta.html", "offers": null, "latitude": 34.002327, "politanName": "Atlanta, GA Metro ", "phone_number": "7705148814", "tags": [{"primary": false, "id": 2373, "name": "Pasta Manufacturers"}, {"primary": false, "id": 1722, "name": "Restaurants"}, {"primary": false, "id": 5693, "name": "Wholesale Foods"}, {"primary": false, "id": 11154, "name": "Italian Food Products"}, {"primary": false, "id": 11231, "name": "$"}, {"primary": false, "id": 11279, "name": "Italian"}], "fax_number": null, "expansion": {"count": null, "uri": null}, "impression_id": "000b000000106093a626a34019ba8929025ffdad5e", "profile": "http://www.citysearch.com/profile/2957371/kennesaw_ga/costas_pasta.html", "address": {"city": "Kennesaw", "state": "GA", "street": "2045 Attic Pkwy NW", "postal_code": "30152"}, "capProviderId": null, "distance": null, "has_offers": false, "name": "Costas Pasta", "longitude": -84.604376, "has_menu": false, "awards": null, "user_review_count": 0}, {"business_operation_status": 0, "rating": null, "neighborhood": null, "image": null, "scorecard": null, "featured": false, "sample_categories": "Restaurants, Carry Out, Italian", "public_id": "carrabbas-italian-grill-canton-2", "id": 45994105, "votes": null, "tagline": null, "has_video": false, "website": "http://www.citysearch.com/profile/external/45994105/canton_ga/carrabba_s_italian_grill.html", "offers": null, "latitude": 34.158172, "politanName": "Atlanta, GA Metro ", "phone_number": "6784938444", "tags": [{"primary": false, "id": 11247, "name": "Carry Out"}, {"primary": false, "id": 11279, "name": "Italian"}, {"primary": true, "id": 1722, "name": "Restaurants"}], "fax_number": null, "expansion": {"count": null, "uri": null}, "impression_id": "000b000000e6d379ecc5584dc3b9691770f4060201", "profile": "http://www.citysearch.com/profile/45994105/canton_ga/carrabba_s_italian_grill.html", "address": {"city": "Canton", "state": "GA", "street": "313 Fawn Dr", "postal_code": "30115"}, "capProviderId": null, "distance": null, "has_offers": false, "name": "Carrabba's Italian Grill", "longitude": -84.486025, "has_menu": true, "awards": null, "user_review_count": 0}, {"business_operation_status": 1, "rating": null, "neighborhood": null, "image": null, "scorecard": null, "featured": false, "sample_categories": "Restaurants", "public_id": "tme-enterprises-i-ltd-marietta-3", "id": 793319820, "votes": null, "tagline": null, "has_video": false, "website": null, "offers": null, "latitude": 33.924583, "politanName": "Atlanta, GA Metro ", "phone_number": "7704198081", "tags": [{"primary": true, "id": 1722, "name": "Restaurants"}], "fax_number": null, "expansion": {"count": null, "uri": null}, "impression_id": "000b000000068e9178fa8e4bbc8d77f8170561d175", "profile": "http://www.citysearch.com/profile/793319820/marietta_ga/tme_enterprises_i_ltd.html", "address": {"city": "Marietta", "state": "GA", "street": "1180 Powder Springs St", "postal_code": "30064"}, "capProviderId": null, "distance": null, "has_offers": false, "name": "Tme Enterprises I LTD", "longitude": -84.575231, "has_menu": false, "awards": null, "user_review_count": 0}, {"business_operation_status": 1, "rating": null, "neighborhood": null, "image": null, "scorecard": null, "featured": false, "sample_categories": "Ice Cream Parlors", "public_id": "carvel-express-roswell", "id": 793257090, "votes": null, "tagline": null, "has_video": false, "website": "http://www.citysearch.com/profile/external/793257090/roswell_ga/carvel_express.html", "offers": null, "latitude": 34.056728, "politanName": "Atlanta, GA Metro ", "phone_number": "6782051655", "tags": [{"primary": true, "id": 1730, "name": "Ice Cream Parlors"}], "fax_number": null, "expansion": {"count": null, "uri": null}, "impression_id": "000b000000205a9c8c35964e6ab68109bce1bab72d", "profile": "http://www.citysearch.com/profile/793257090/roswell_ga/carvel_express.html", "address": {"city": "Roswell", "state": "GA", "street": "660 W Crossville Rd # 130", "postal_code": "30075"}, "capProviderId": null, "distance": null, "has_offers": false, "name": "Carvel Express", "longitude": -84.379083, "has_menu": false, "awards": null, "user_review_count": 0}, {"business_operation_status": 1, "rating": null, "neighborhood": null, "image": null, "scorecard": null, "featured": false, "sample_categories": "Restaurants, Carry Out", "public_id": "atlanta-bread-co-smyrna-2", "id": 805222070, "votes": null, "tagline": null, "has_video": false, "website": null, "offers": null, "latitude": 33.923686, "politanName": "Atlanta, GA Metro ", "phone_number": "6785030710", "tags": [{"primary": false, "id": 11247, "name": "Carry Out"}, {"primary": true, "id": 1722, "name": "Restaurants"}], "fax_number": null, "expansion": {"count": null, "uri": null}, "impression_id": "000b000000d24ee7ccf83f4a43b5182758a0f18445", "profile": "http://www.citysearch.com/profile/805222070/smyrna_ga/atlanta_bread_co.html", "address": {"city": "Smyrna", "state": "GA", "street": "2160 Kingston CT SE", "postal_code": "30080"}, "capProviderId": null, "distance": null, "has_offers": false, "name": "Atlanta Bread Co", "longitude": -84.488921, "has_menu": false, "awards": null, "user_review_count": 0}, {"business_operation_status": 1, "rating": null, "neighborhood": null, "image": null, "scorecard": null, "featured": false, "sample_categories": "Luaus", "public_id": "osaka-restaurant-marietta", "id": 811134240, "votes": null, "tagline": null, "has_video": false, "website": null, "offers": null, "latitude": 34.03695, "politanName": "Atlanta, GA Metro ", "phone_number": "7705161416", "tags": [{"primary": true, "id": 11285, "name": "Luaus"}], "fax_number": null, "expansion": {"count": null, "uri": null}, "impression_id": "000b000000e55a1196a85040229d101737b2494bba", "profile": "http://www.citysearch.com/profile/811134240/marietta_ga/osaka_restaurant.html", "address": {"city": "Marietta", "state": "GA", "street": "2652 Thornberry Pl", "postal_code": "30066"}, "capProviderId": null, "distance": null, "has_offers": false, "name": "Osaka Restaurant", "longitude": -84.476707, "has_menu": false, "awards": null, "user_review_count": 0}, {"business_operation_status": 1, "rating": null, "neighborhood": null, "image": null, "scorecard": null, "featured": false, "sample_categories": "Restaurants", "public_id": "planet-smoothie-marietta-7", "id": 812605020, "votes": null, "tagline": null, "has_video": false, "website": null, "offers": null, "latitude": 33.947326, "politanName": "Atlanta, GA Metro ", "phone_number": "7704272700", "tags": [{"primary": true, "id": 1722, "name": "Restaurants"}], "fax_number": null, "expansion": {"count": null, "uri": null}, "impression_id": "000b000000c1adabc6996e476b8c2e342512dc155e", "profile": "http://www.citysearch.com/profile/812605020/marietta_ga/planet_smoothie.html", "address": {"city": "Marietta", "state": "GA", "street": "3451 Ernest W Barrett NW # 145", "postal_code": "30064"}, "capProviderId": null, "distance": null, "has_offers": false, "name": "Planet Smoothie", "longitude": -84.622965, "has_menu": true, "awards": null, "user_review_count": 0}, {"business_operation_status": 1, "rating": null, "neighborhood": null, "image": null, "scorecard": null, "featured": false, "sample_categories": "Restaurants", "public_id": "julien-holding-sandy", "id": 815516860, "votes": null, "tagline": null, "has_video": false, "website": null, "offers": null, "latitude": 33.995409, "politanName": "Atlanta, GA Metro ", "phone_number": "6782402220", "tags": [{"primary": true, "id": 1722, "name": "Restaurants"}], "fax_number": null, "expansion": {"count": null, "uri": null}, "impression_id": "000b000000ea9b9ef8b94c479da1fb20e1764e0a6c", "profile": "http://www.citysearch.com/profile/815516860/sandy_springs_ga/julien_holding.html", "address": {"city": "Sandy Springs", "state": "GA", "street": "8725 Roswell Rd", "postal_code": "30350"}, "capProviderId": null, "distance": null, "has_offers": false, "name": "Julien Holding", "longitude": -84.349807, "has_menu": false, "awards": null, "user_review_count": 0}], "histograms": [], "tag_ids": [1722], "uri": "http://api.citygridmedia.com:8080/search/places/v2/search/where?has_offers=false&type=restaurant&format=json&page=37&where=30062&rpp=50&histograms=false&publisher=10000009598&region_type=circle", "did_you_mean": "", "regions": [{"latitude": 34.001368, "default_radius": 5.22, "type": "postal_code", "name": "30062", "longitude": -84.466397}], "call_id": "000b000000bddb16e6ca094391ab532889c36b08ae", "first_hit": 1801, "total_hits": 2160, "geo_ids": [26292], "page": 37, "last_hit": 1850}}