{"results": {"rpp": 50, "locations": [{"business_operation_status": 1, "rating": null, "neighborhood": null, "image": null, "scorecard": null, "featured": false, "sample_categories": "Bakeries, Restaurants", "public_id": "piece-of-cake-roswell", "id": 43848542, "votes": null, "tagline": null, "has_video": false, "website": "http://www.citysearch.com/profile/external/43848542/roswell_ga/piece_of_cake.html", "offers": null, "latitude": 34.054622, "politanName": "Atlanta, GA Metro ", "phone_number": "4043512253", "tags": [{"primary": false, "id": 1722, "name": "Restaurants"}, {"primary": true, "id": 1685, "name": "Bakeries"}], "fax_number": null, "expansion": {"count": null, "uri": null}, "impression_id": "000b0000002d55d3ca95a94a009ec01fe4aaa79ca2", "profile": "http://www.citysearch.com/profile/43848542/roswell_ga/piece_of_cake.html", "address": {"city": "Roswell", "state": "GA", "street": "540 W Crossville Rd 203", "postal_code": "30075"}, "capProviderId": null, "distance": null, "has_offers": false, "name": "Piece Of Cake", "longitude": -84.376724, "has_menu": false, "awards": null, "user_review_count": 0}, {"business_operation_status": 1, "rating": null, "neighborhood": null, "image": null, "scorecard": null, "featured": false, "sample_categories": "Restaurants, Delis And Delicatessens", "public_id": "philly-connection-woodstock", "id": 43862564, "votes": null, "tagline": null, "has_video": false, "website": "http://www.citysearch.com/profile/external/43862564/woodstock_ga/philly_connection.html", "offers": null, "latitude": 34.12992, "politanName": "Atlanta, GA Metro ", "phone_number": "7705163447", "tags": [{"primary": false, "id": 1727, "name": "Delis And Delicatessens"}, {"primary": true, "id": 1722, "name": "Restaurants"}], "fax_number": null, "expansion": {"count": null, "uri": null}, "impression_id": "000b000000c966b7e0b578495d94741c33b5ea68eb", "profile": "http://www.citysearch.com/profile/43862564/woodstock_ga/philly_connection.html", "address": {"city": "Woodstock", "state": "GA", "street": "6240 Old Highway 5", "postal_code": "30188"}, "capProviderId": null, "distance": null, "has_offers": false, "name": "Philly Connection", "longitude": -84.497797, "has_menu": true, "awards": null, "user_review_count": 0}, {"business_operation_status": 1, "rating": null, "neighborhood": null, "image": null, "scorecard": null, "featured": false, "sample_categories": "Restaurants, Seafood Markets, Seafood", "public_id": "rickys-fish-camp-roswell", "id": 802514250, "votes": null, "tagline": null, "has_video": false, "website": null, "offers": null, "latitude": 34.016917, "politanName": "Atlanta, GA Metro ", "phone_number": "6784641534", "tags": [{"primary": false, "id": 1719, "name": "Seafood Markets"}, {"primary": false, "id": 11228, "name": "Seafood"}, {"primary": true, "id": 1722, "name": "Restaurants"}], "fax_number": null, "expansion": {"count": null, "uri": null}, "impression_id": "000b000000bb6929df6bbc474ca8a8858fae5b83df", "profile": "http://www.citysearch.com/profile/802514250/roswell_ga/ricky_s_fish_camp.html", "address": {"city": "Roswell", "state": "GA", "street": "659 Atlanta St", "postal_code": "30075"}, "capProviderId": null, "distance": null, "has_offers": false, "name": "Ricky's Fish Camp", "longitude": -84.362319, "has_menu": false, "awards": null, "user_review_count": 0}, {"business_operation_status": 1, "rating": null, "neighborhood": null, "image": null, "scorecard": null, "featured": false, "sample_categories": "Restaurants", "public_id": "commercial-restaurant-constr-woodstock", "id": 37649510, "votes": null, "tagline": null, "has_video": false, "website": null, "offers": null, "latitude": 34.084075, "politanName": "Atlanta, GA Metro ", "phone_number": "7709245477", "tags": [{"primary": true, "id": 1722, "name": "Restaurants"}], "fax_number": null, "expansion": {"count": null, "uri": null}, "impression_id": "000b000000551813238c7642a399ffa01392301072", "profile": "http://www.citysearch.com/profile/37649510/woodstock_ga/commercial_restaurant_constr.html", "address": {"city": "Woodstock", "state": "GA", "street": "301 Heritage Walk", "postal_code": "30188"}, "capProviderId": null, "distance": null, "has_offers": false, "name": "Commercial Restaurant Constr", "longitude": -84.524218, "has_menu": false, "awards": null, "user_review_count": 0}, {"business_operation_status": 0, "rating": null, "neighborhood": null, "image": null, "scorecard": null, "featured": false, "sample_categories": "Restaurants, Indian", "public_id": "guru-indian-cuisine-roswell", "id": 45989425, "votes": null, "tagline": null, "has_video": false, "website": null, "offers": null, "latitude": 34.0134, "politanName": "Atlanta, GA Metro ", "phone_number": "6784619565", "tags": [{"primary": false, "id": 11277, "name": "Indian"}, {"primary": true, "id": 1722, "name": "Restaurants"}], "fax_number": null, "expansion": {"count": null, "uri": null}, "impression_id": "000b000000a3b7900d644442858c6c40c4ad349029", "profile": "http://www.citysearch.com/profile/45989425/roswell_ga/guru_indian_cuisine.html", "address": {"city": "Roswell", "state": "GA", "street": "555 S Atlanta St", "postal_code": "30075"}, "capProviderId": null, "distance": null, "has_offers": false, "name": "Guru Indian Cuisine", "longitude": -84.362872, "has_menu": false, "awards": null, "user_review_count": 0}, {"business_operation_status": 1, "rating": null, "neighborhood": null, "image": null, "scorecard": null, "featured": false, "sample_categories": "Restaurants", "public_id": "paos-restaurant-group-inc-roswell", "id": 817477870, "votes": null, "tagline": null, "has_video": false, "website": null, "offers": null, "latitude": 34.053819, "politanName": "Atlanta, GA Metro ", "phone_number": "6784618765", "tags": [{"primary": true, "id": 1722, "name": "Restaurants"}], "fax_number": null, "expansion": {"count": null, "uri": null}, "impression_id": "000b0000004eb6f58fb8524c459171a51092dbfb96", "profile": "http://www.citysearch.com/profile/817477870/roswell_ga/paos_restaurant_group_inc.html", "address": {"city": "Roswell", "state": "GA", "street": "1005 Grace Hill Dr", "postal_code": "30075"}, "capProviderId": null, "distance": null, "has_offers": false, "name": "Paos Restaurant Group Inc", "longitude": -84.373112, "has_menu": false, "awards": null, "user_review_count": 0}, {"business_operation_status": 1, "rating": null, "neighborhood": null, "image": null, "scorecard": null, "featured": false, "sample_categories": "Restaurants, Food Service Management", "public_id": "la-cosecha-food-svc-marietta", "id": 44771149, "votes": null, "tagline": null, "has_video": false, "website": null, "offers": null, "latitude": 33.986297, "politanName": "Atlanta, GA Metro ", "phone_number": "7702189859", "tags": [{"primary": false, "id": 1722, "name": "Restaurants"}, {"primary": true, "id": 11120, "name": "Food Service Management"}], "fax_number": null, "expansion": {"count": null, "uri": null}, "impression_id": "000b000000a24e720be7914027acd45dea2409af45", "profile": "http://www.citysearch.com/profile/44771149/marietta_ga/la_cosecha_food_service.html", "address": {"city": "Marietta", "state": "GA", "street": "1123 Cobb Pkwy S", "postal_code": "30060"}, "capProviderId": null, "distance": null, "has_offers": false, "name": "La Cosecha Food Service", "longitude": -84.569936, "has_menu": false, "awards": null, "user_review_count": 0}, {"business_operation_status": 1, "rating": null, "neighborhood": null, "image": null, "scorecard": null, "featured": false, "sample_categories": "Restaurants, Pizza, Carry Out, American Express, Discover", "public_id": "mellow-mushroom-roswell", "id": 601300877, "votes": null, "tagline": null, "has_video": false, "website": "http://www.citysearch.com/profile/external/601300877/roswell_ga/mellow_mushroom.html", "offers": null, "latitude": 34.061715, "politanName": "Atlanta, GA Metro ", "phone_number": "7706458383", "tags": [{"primary": false, "id": 1722, "name": "Restaurants"}, {"primary": false, "id": 11247, "name": "Carry Out"}, {"primary": false, "id": 11333, "name": "American Express"}, {"primary": false, "id": 11349, "name": "Discover"}, {"primary": false, "id": 11361, "name": "MasterCard"}, {"primary": false, "id": 11382, "name": "Visa"}, {"primary": true, "id": 11299, "name": "Pizza"}], "fax_number": null, "expansion": {"count": null, "uri": null}, "impression_id": "000b00000025d57a116a5f456ead35cce5881e6b70", "profile": "http://www.citysearch.com/profile/601300877/roswell_ga/mellow_mushroom.html", "address": {"city": "Roswell", "state": "GA", "street": "935 Woodstock Rd", "postal_code": "30075"}, "capProviderId": null, "distance": null, "has_offers": false, "name": "Mellow Mushroom", "longitude": -84.389193, "has_menu": true, "awards": null, "user_review_count": 1}, {"business_operation_status": 1, "rating": null, "neighborhood": null, "image": null, "scorecard": null, "featured": false, "sample_categories": "Restaurants", "public_id": "super-taco-acworth", "id": 823313050, "votes": null, "tagline": null, "has_video": false, "website": null, "offers": null, "latitude": 34.087401, "politanName": "Atlanta, GA Metro ", "phone_number": "7705178844", "tags": [{"primary": true, "id": 1722, "name": "Restaurants"}], "fax_number": null, "expansion": {"count": null, "uri": null}, "impression_id": "000b0000002d7ad13991fc4e1bbfc69bf67f534146", "profile": "http://www.citysearch.com/profile/823313050/acworth_ga/super_taco.html", "address": {"city": "Acworth", "state": "GA", "street": "6822 Highway 92", "postal_code": "30102"}, "capProviderId": null, "distance": null, "has_offers": false, "name": "Super Taco", "longitude": -84.574301, "has_menu": false, "awards": null, "user_review_count": 0}, {"business_operation_status": 1, "rating": null, "neighborhood": null, "image": null, "scorecard": null, "featured": false, "sample_categories": "Restaurants", "public_id": "china-express-kennesaw-2", "id": 826551330, "votes": null, "tagline": null, "has_video": false, "website": null, "offers": null, "latitude": 34.048688, "politanName": "Atlanta, GA Metro ", "phone_number": "7704282339", "tags": [{"primary": true, "id": 1722, "name": "Restaurants"}], "fax_number": null, "expansion": {"count": null, "uri": null}, "impression_id": "000b0000006217a7fb9e5b4ae39dba8254c86b27f8", "profile": "http://www.citysearch.com/profile/826551330/kennesaw_ga/china_express.html", "address": {"city": "Kennesaw", "state": "GA", "street": "3895 Cherokee St NW", "postal_code": "30144"}, "capProviderId": null, "distance": null, "has_offers": false, "name": "China Express", "longitude": -84.598574, "has_menu": false, "awards": null, "user_review_count": 0}, {"business_operation_status": 1, "rating": null, "neighborhood": null, "image": null, "scorecard": null, "featured": false, "sample_categories": "Restaurants", "public_id": "taxi-roswell", "id": 828349070, "votes": null, "tagline": null, "has_video": false, "website": null, "offers": null, "latitude": 34.034118, "politanName": "Atlanta, GA Metro ", "phone_number": "7706439190", "tags": [{"primary": true, "id": 1722, "name": "Restaurants"}], "fax_number": null, "expansion": {"count": null, "uri": null}, "impression_id": "000b00000091c2b7679e6c4b3ba6d3e9d43180b395", "profile": "http://www.citysearch.com/profile/828349070/roswell_ga/taxi.html", "address": {"city": "Roswell", "state": "GA", "street": "10479 Alpharetta St", "postal_code": "30075"}, "capProviderId": null, "distance": null, "has_offers": false, "name": "Taxi", "longitude": -84.345528, "has_menu": false, "awards": null, "user_review_count": 0}, {"business_operation_status": 1, "rating": null, "neighborhood": null, "image": null, "scorecard": null, "featured": false, "sample_categories": "Restaurants", "public_id": "restaurant-lucias-italian-roswell", "id": 836842970, "votes": null, "tagline": null, "has_video": false, "website": null, "offers": null, "latitude": 34.058626, "politanName": "Atlanta, GA Metro ", "phone_number": "6782053353", "tags": [{"primary": true, "id": 1722, "name": "Restaurants"}], "fax_number": null, "expansion": {"count": null, "uri": null}, "impression_id": "000b0000006eb239d585b7461d8e98510c588713d3", "profile": "http://www.citysearch.com/profile/836842970/roswell_ga/restaurant_lucias_italian.html", "address": {"city": "Roswell", "state": "GA", "street": "[empty]", "postal_code": "30075"}, "capProviderId": null, "distance": null, "has_offers": false, "name": "Restaurant Lucias Italian", "longitude": -84.385744, "has_menu": false, "awards": null, "user_review_count": 0}, {"business_operation_status": 1, "rating": null, "neighborhood": null, "image": null, "scorecard": null, "featured": false, "sample_categories": "Restaurants, Chinese, American Express, Discover, MasterCard", "public_id": "hong-kong-star-chinese-rstrnt-marietta", "id": 601297114, "votes": null, "tagline": null, "has_video": false, "website": null, "offers": null, "latitude": 33.943454, "politanName": "Atlanta, GA Metro ", "phone_number": "7704280988", "tags": [{"primary": false, "id": 11252, "name": "Chinese"}, {"primary": false, "id": 11333, "name": "American Express"}, {"primary": false, "id": 11349, "name": "Discover"}, {"primary": false, "id": 11361, "name": "MasterCard"}, {"primary": false, "id": 11382, "name": "Visa"}, {"primary": true, "id": 1722, "name": "Restaurants"}], "fax_number": null, "expansion": {"count": null, "uri": null}, "impression_id": "000b000000dce44e1ad05f44aba8cd8b1c0ce51c5e", "profile": "http://www.citysearch.com/profile/601297114/marietta_ga/hong_kong_star_chinese_rstrnt.html", "address": {"city": "Marietta", "state": "GA", "street": "557 S Marietta Pkwy Se", "postal_code": "30060"}, "capProviderId": null, "distance": null, "has_offers": false, "name": "Hong Kong Star Chinese Rstrnt", "longitude": -84.536796, "has_menu": true, "awards": null, "user_review_count": 1}, {"business_operation_status": 1, "rating": null, "neighborhood": null, "image": null, "scorecard": null, "featured": false, "sample_categories": "Restaurants", "public_id": "mcdonalds-restaurants-woodstock", "id": 611864144, "votes": null, "tagline": null, "has_video": false, "website": null, "offers": null, "latitude": 34.109466, "politanName": "Atlanta, GA Metro ", "phone_number": "7709288516", "tags": [{"primary": true, "id": 1722, "name": "Restaurants"}], "fax_number": null, "expansion": {"count": null, "uri": null}, "impression_id": "000b000000cf71cecc02904c0781c7545e8f012c13", "profile": "http://www.citysearch.com/profile/611864144/woodstock_ga/mcdonald_s_restaurants.html", "address": {"city": "Woodstock", "state": "GA", "street": "2105 Towne Lake Pkwy", "postal_code": "30189"}, "capProviderId": null, "distance": null, "has_offers": false, "name": "Mcdonald's Restaurants", "longitude": -84.553078, "has_menu": false, "awards": null, "user_review_count": 0}, {"business_operation_status": 1, "rating": null, "neighborhood": null, "image": null, "scorecard": null, "featured": false, "sample_categories": "Restaurants", "public_id": "car-checkers-powder-spgs", "id": 2950697, "votes": null, "tagline": null, "has_video": false, "website": null, "offers": null, "latitude": 33.935913, "politanName": "Atlanta, GA Metro ", "phone_number": "7705148100", "tags": [{"primary": true, "id": 1722, "name": "Restaurants"}], "fax_number": null, "expansion": {"count": null, "uri": null}, "impression_id": "000b0000002f4b7da6152e4e7ba7a30d289dadf313", "profile": "http://www.citysearch.com/profile/2950697/powder_springs_ga/car_checkers.html", "address": {"city": "Powder Springs", "state": "GA", "street": "591 Leah Dr", "postal_code": "30127"}, "capProviderId": null, "distance": null, "has_offers": false, "name": "Car Checkers", "longitude": -84.663484, "has_menu": false, "awards": null, "user_review_count": 0}, {"business_operation_status": 1, "rating": 9.0, "neighborhood": null, "image": null, "scorecard": null, "featured": false, "sample_categories": "Restaurants, American Express, Discover, MasterCard, Visa", "public_id": "country-cottage-family-rstrnt-woodstock", "id": 2964179, "votes": null, "tagline": null, "has_video": false, "website": null, "offers": null, "latitude": 34.084441, "politanName": "Atlanta, GA Metro ", "phone_number": "7705160904", "tags": [{"primary": false, "id": 11333, "name": "American Express"}, {"primary": false, "id": 11349, "name": "Discover"}, {"primary": false, "id": 11361, "name": "MasterCard"}, {"primary": false, "id": 11382, "name": "Visa"}, {"primary": true, "id": 1722, "name": "Restaurants"}], "fax_number": null, "expansion": {"count": null, "uri": null}, "impression_id": "000b000000e1573dc26aab44879f596f9c1e58bb95", "profile": "http://www.citysearch.com/profile/2964179/woodstock_ga/country_cottage_family_rstrnt.html", "address": {"city": "Woodstock", "state": "GA", "street": "9740 Main St", "postal_code": "30188"}, "capProviderId": null, "distance": null, "has_offers": false, "name": "Country Cottage Family Rstrnt", "longitude": -84.519818, "has_menu": false, "awards": null, "user_review_count": 2}, {"business_operation_status": 1, "rating": null, "neighborhood": null, "image": null, "scorecard": null, "featured": false, "sample_categories": "Restaurants", "public_id": "mexican-taqueria-smyrna", "id": 623985844, "votes": null, "tagline": null, "has_video": false, "website": null, "offers": null, "latitude": 33.889788, "politanName": "Atlanta, GA Metro ", "phone_number": "7709891248", "tags": [{"primary": true, "id": 1722, "name": "Restaurants"}], "fax_number": null, "expansion": {"count": null, "uri": null}, "impression_id": "000b000000893236a213804c3691c0f8dceba16dd3", "profile": "http://www.citysearch.com/profile/623985844/smyrna_ga/mexican_taqueria.html", "address": {"city": "Smyrna", "state": "GA", "street": "2599 S Cobb Dr SE", "postal_code": "30080"}, "capProviderId": null, "distance": null, "has_offers": false, "name": "Mexican Taqueria", "longitude": -84.536114, "has_menu": false, "awards": null, "user_review_count": 0}, {"business_operation_status": 1, "rating": null, "neighborhood": null, "image": null, "scorecard": null, "featured": false, "sample_categories": "Delis And Delicatessens, Restaurants", "public_id": "deli-dellghts-marietta", "id": 764838340, "votes": null, "tagline": null, "has_video": false, "website": null, "offers": null, "latitude": 33.952594, "politanName": "Atlanta, GA Metro ", "phone_number": "6784016001", "tags": [{"primary": false, "id": 1722, "name": "Restaurants"}, {"primary": true, "id": 1727, "name": "Delis And Delicatessens"}], "fax_number": null, "expansion": {"count": null, "uri": null}, "impression_id": "000b0000005a025baec44e4538955030855becdad8", "profile": "http://www.citysearch.com/profile/764838340/marietta_ga/deli_dellghts.html", "address": {"city": "Marietta", "state": "GA", "street": "800 Whitlock Ave NW", "postal_code": "30064"}, "capProviderId": null, "distance": null, "has_offers": false, "name": "Deli Dellghts", "longitude": -84.575881, "has_menu": false, "awards": null, "user_review_count": 0}, {"business_operation_status": 1, "rating": null, "neighborhood": null, "image": null, "scorecard": null, "featured": false, "sample_categories": "Restaurants", "public_id": "yupk-llc-acworth", "id": 764935540, "votes": null, "tagline": null, "has_video": false, "website": null, "offers": null, "latitude": 34.06489, "politanName": "Atlanta, GA Metro ", "phone_number": "7706936770", "tags": [{"primary": true, "id": 1722, "name": "Restaurants"}], "fax_number": null, "expansion": {"count": null, "uri": null}, "impression_id": "000b00000003cb88a16dc443e2b0664d5cac3b63b2", "profile": "http://www.citysearch.com/profile/764935540/acworth_ga/yupk_llc.html", "address": {"city": "Acworth", "state": "GA", "street": "2535 Hickory Grove Rd NW", "postal_code": "30101"}, "capProviderId": null, "distance": null, "has_offers": false, "name": "YUPK Llc", "longitude": -84.624038, "has_menu": false, "awards": null, "user_review_count": 0}, {"business_operation_status": 1, "rating": null, "neighborhood": null, "image": null, "scorecard": null, "featured": false, "sample_categories": "Restaurants, Pizza", "public_id": "anthonys-pizza-pasta-acworth", "id": 764842840, "votes": null, "tagline": null, "has_video": false, "website": null, "offers": null, "latitude": 34.081615, "politanName": "Atlanta, GA Metro ", "phone_number": "7709248199", "tags": [{"primary": false, "id": 11299, "name": "Pizza"}, {"primary": true, "id": 1722, "name": "Restaurants"}], "fax_number": null, "expansion": {"count": null, "uri": null}, "impression_id": "000b0000003b0fb45e475c44b795081698b1a1b42f", "profile": "http://www.citysearch.com/profile/764842840/acworth_ga/anthonys_pizza_pasta.html", "address": {"city": "Acworth", "state": "GA", "street": "5399 Bells Ferry Rd", "postal_code": "30102"}, "capProviderId": null, "distance": null, "has_offers": false, "name": "Anthonys Pizza & Pasta", "longitude": -84.575225, "has_menu": false, "awards": null, "user_review_count": 0}, {"business_operation_status": 1, "rating": null, "neighborhood": null, "image": null, "scorecard": null, "featured": false, "sample_categories": "Restaurants", "public_id": "vineyard-cafe-marietta", "id": 766766850, "votes": null, "tagline": null, "has_video": false, "website": null, "offers": null, "latitude": 33.950297, "politanName": "Atlanta, GA Metro ", "phone_number": "6785813771", "tags": [{"primary": true, "id": 1722, "name": "Restaurants"}], "fax_number": null, "expansion": {"count": null, "uri": null}, "impression_id": "000b000000c2d5102f76ba456d8f36ac8f6b1f1c8d", "profile": "http://www.citysearch.com/profile/766766850/marietta_ga/vineyard_cafe.html", "address": {"city": "Marietta", "state": "GA", "street": "21 Park St SE", "postal_code": "30060"}, "capProviderId": null, "distance": null, "has_offers": false, "name": "Vineyard Cafe", "longitude": -84.533173, "has_menu": true, "awards": null, "user_review_count": 0}, {"business_operation_status": 1, "rating": null, "neighborhood": null, "image": null, "scorecard": null, "featured": false, "sample_categories": "Restaurants, Carry Out, Chicken", "public_id": "popeyes-marietta", "id": 775201320, "votes": null, "tagline": null, "has_video": false, "website": null, "offers": null, "latitude": 33.9485, "politanName": "Atlanta, GA Metro ", "phone_number": "7704208800", "tags": [{"primary": false, "id": 11247, "name": "Carry Out"}, {"primary": false, "id": 12839, "name": "Chicken"}, {"primary": true, "id": 1722, "name": "Restaurants"}], "fax_number": null, "expansion": {"count": null, "uri": null}, "impression_id": "000b000000bccb27daab0b43b281a3ab73ca93eccd", "profile": "http://www.citysearch.com/profile/775201320/marietta_ga/popeyes.html", "address": {"city": "Marietta", "state": "GA", "street": "155 Cobb Pkwy S", "postal_code": "30060"}, "capProviderId": null, "distance": null, "has_offers": false, "name": "Popeyes", "longitude": -84.518323, "has_menu": false, "awards": null, "user_review_count": 0}, {"business_operation_status": 1, "rating": null, "neighborhood": null, "image": null, "scorecard": null, "featured": false, "sample_categories": "Restaurants, Pizza, Carry Out", "public_id": "sorrentnos-ristorante-pizzeria-kennesaw", "id": 790617540, "votes": null, "tagline": null, "has_video": false, "website": null, "offers": null, "latitude": 34.023434, "politanName": "Atlanta, GA Metro ", "phone_number": "7707950096", "tags": [{"primary": false, "id": 1722, "name": "Restaurants"}, {"primary": false, "id": 11247, "name": "Carry Out"}, {"primary": true, "id": 11299, "name": "Pizza"}], "fax_number": null, "expansion": {"count": null, "uri": null}, "impression_id": "000b00000006fc168702c243e882e9a2464552773e", "profile": "http://www.citysearch.com/profile/790617540/kennesaw_ga/sorrentnos_ristorante_pizzeria.html", "address": {"city": "Kennesaw", "state": "GA", "street": "800 Ern W Brt Pkwy NW 3", "postal_code": "30144"}, "capProviderId": null, "distance": null, "has_offers": false, "name": "Sorrentnos Ristorante Pizzeria", "longitude": -84.61549, "has_menu": false, "awards": null, "user_review_count": 0}, {"business_operation_status": 0, "rating": null, "neighborhood": null, "image": null, "scorecard": null, "featured": false, "sample_categories": "Restaurants", "public_id": "sweet-pea-cafe-deli-marietta", "id": 655825170, "votes": null, "tagline": null, "has_video": false, "website": null, "offers": null, "latitude": 33.951248, "politanName": "Atlanta, GA Metro ", "phone_number": "7709777167", "tags": [{"primary": true, "id": 1722, "name": "Restaurants"}], "fax_number": null, "expansion": {"count": null, "uri": null}, "impression_id": "000b00000055ff5d6bb8e844c4a6be242488c05831", "profile": "http://www.citysearch.com/profile/655825170/marietta_ga/sweet_pea_cafe_deli.html", "address": {"city": "Marietta", "state": "GA", "street": "1516 Roswell Rd", "postal_code": "30062"}, "capProviderId": null, "distance": null, "has_offers": false, "name": "Sweet Pea Cafe & Deli", "longitude": -84.508172, "has_menu": true, "awards": null, "user_review_count": 0}, {"business_operation_status": 1, "rating": null, "neighborhood": null, "image": null, "scorecard": null, "featured": false, "sample_categories": "Restaurants, Caribbean", "public_id": "tassa-authentic-caribbean-marietta", "id": 655828500, "votes": null, "tagline": null, "has_video": false, "website": null, "offers": null, "latitude": 33.947468, "politanName": "Atlanta, GA Metro ", "phone_number": "7705781480", "tags": [{"primary": false, "id": 11195, "name": "Caribbean"}, {"primary": true, "id": 1722, "name": "Restaurants"}], "fax_number": null, "expansion": {"count": null, "uri": null}, "impression_id": "000b0000006c2f982187b94aad94f49c556d920de6", "profile": "http://www.citysearch.com/profile/655828500/marietta_ga/tassa_authentic_caribbean.html", "address": {"city": "Marietta", "state": "GA", "street": "224 Powers Ferry Rd Se", "postal_code": "30067"}, "capProviderId": null, "distance": null, "has_offers": false, "name": "Tassa Authentic Caribbean", "longitude": -84.500926, "has_menu": false, "awards": null, "user_review_count": 0}, {"business_operation_status": 1, "rating": null, "neighborhood": null, "image": null, "scorecard": null, "featured": false, "sample_categories": "Restaurants, Traditional American", "public_id": "charlies-philly-steaks-woodstock", "id": 802507100, "votes": null, "tagline": null, "has_video": false, "website": null, "offers": null, "latitude": 34.120722, "politanName": "Atlanta, GA Metro ", "phone_number": "7705929201", "tags": [{"primary": false, "id": 11190, "name": "Traditional American"}, {"primary": true, "id": 1722, "name": "Restaurants"}], "fax_number": null, "expansion": {"count": null, "uri": null}, "impression_id": "000b000000dabf6b3a16354691bf94a625c6a5d181", "profile": "http://www.citysearch.com/profile/802507100/woodstock_ga/charlie_s_philly_steaks.html", "address": {"city": "Woodstock", "state": "GA", "street": "915 Ridgewalk Pkwy", "postal_code": "30188"}, "capProviderId": null, "distance": null, "has_offers": false, "name": "Charlie's Philly Steaks", "longitude": -84.525028, "has_menu": false, "awards": null, "user_review_count": 0}, {"business_operation_status": 1, "rating": null, "neighborhood": null, "image": null, "scorecard": null, "featured": false, "sample_categories": "Restaurants", "public_id": "clay-oven-restaurant-marietta", "id": 754822000, "votes": null, "tagline": null, "has_video": false, "website": null, "offers": null, "latitude": 33.937014, "politanName": "Atlanta, GA Metro ", "phone_number": "6785811533", "tags": [{"primary": true, "id": 1722, "name": "Restaurants"}], "fax_number": null, "expansion": {"count": null, "uri": null}, "impression_id": "000b000000d71a71cda99b425c86bc94de6bd5e818", "profile": "http://www.citysearch.com/profile/754822000/marietta_ga/clay_oven_restaurant.html", "address": {"city": "Marietta", "state": "GA", "street": "1115 Powder Springs St", "postal_code": "30064"}, "capProviderId": null, "distance": null, "has_offers": false, "name": "Clay Oven Restaurant", "longitude": -84.554706, "has_menu": false, "awards": null, "user_review_count": 0}, {"business_operation_status": 1, "rating": null, "neighborhood": null, "image": null, "scorecard": null, "featured": false, "sample_categories": "Restaurants, Pizza, Carry Out", "public_id": "pizza-hut-kennesaw-4", "id": 808398210, "votes": null, "tagline": null, "has_video": false, "website": null, "offers": null, "latitude": 34.014009, "politanName": "Atlanta, GA Metro ", "phone_number": "7704210752", "tags": [{"primary": false, "id": 1722, "name": "Restaurants"}, {"primary": false, "id": 11247, "name": "Carry Out"}, {"primary": true, "id": 11299, "name": "Pizza"}], "fax_number": null, "expansion": {"count": null, "uri": null}, "impression_id": "000b0000007797341a449e4d10ae375417d5e83886", "profile": "http://www.citysearch.com/profile/808398210/kennesaw_ga/pizza_hut.html", "address": {"city": "Kennesaw", "state": "GA", "street": "400 Ernest W Barrett Pkwy NW", "postal_code": "30144"}, "capProviderId": null, "distance": null, "has_offers": false, "name": "Pizza Hut", "longitude": -84.561425, "has_menu": false, "awards": null, "user_review_count": 0}, {"business_operation_status": 1, "rating": null, "neighborhood": null, "image": null, "scorecard": null, "featured": false, "sample_categories": "Restaurants, Pizza", "public_id": "marcos-pizza-canton-2", "id": 682454510, "votes": null, "tagline": null, "has_video": false, "website": "http://www.citysearch.com/profile/external/682454510/canton_ga/marco_s_pizza.html", "offers": null, "latitude": 34.17855, "politanName": "Atlanta, GA Metro ", "phone_number": "7707201234", "tags": [{"primary": false, "id": 11299, "name": "Pizza"}, {"primary": true, "id": 1722, "name": "Restaurants"}], "fax_number": null, "expansion": {"count": null, "uri": null}, "impression_id": "000b00000090caac0a994d45bcb472e5b7f591dfb9", "profile": "http://www.citysearch.com/profile/682454510/canton_ga/marco_s_pizza.html", "address": {"city": "Canton", "state": "GA", "street": "3725 Sixes Rd", "postal_code": "30114"}, "capProviderId": null, "distance": null, "has_offers": false, "name": "Marco's Pizza", "longitude": -84.550377, "has_menu": true, "awards": null, "user_review_count": 0}, {"business_operation_status": 1, "rating": null, "neighborhood": null, "image": null, "scorecard": null, "featured": false, "sample_categories": "Restaurants", "public_id": "los-dorados-grill-marietta", "id": 810451910, "votes": null, "tagline": null, "has_video": false, "website": null, "offers": null, "latitude": 33.980787, "politanName": "Atlanta, GA Metro ", "phone_number": "7705788013", "tags": [{"primary": true, "id": 1722, "name": "Restaurants"}], "fax_number": null, "expansion": {"count": null, "uri": null}, "impression_id": "000b00000016e7215573984ff7a6962af7b88107b4", "profile": "http://www.citysearch.com/profile/810451910/marietta_ga/los_dorados_grill.html", "address": {"city": "Marietta", "state": "GA", "street": "3101 Roswell Rd", "postal_code": "30062"}, "capProviderId": null, "distance": null, "has_offers": false, "name": "Los Dorados Grill", "longitude": -84.464028, "has_menu": false, "awards": null, "user_review_count": 0}, {"business_operation_status": 1, "rating": null, "neighborhood": null, "image": null, "scorecard": null, "featured": false, "sample_categories": "Restaurants, Carry Out", "public_id": "arbys-marietta-15", "id": 764873610, "votes": null, "tagline": null, "has_video": false, "website": null, "offers": null, "latitude": 33.967279, "politanName": "Atlanta, GA Metro ", "phone_number": "7704240784", "tags": [{"primary": false, "id": 11247, "name": "Carry Out"}, {"primary": true, "id": 1722, "name": "Restaurants"}], "fax_number": null, "expansion": {"count": null, "uri": null}, "impression_id": "000b000000bff0a91fb97f433d96819a39cfe31018", "profile": "http://www.citysearch.com/profile/764873610/marietta_ga/arby_s.html", "address": {"city": "Marietta", "state": "GA", "street": "643 Cobb Pkwy N", "postal_code": "30062"}, "capProviderId": null, "distance": null, "has_offers": false, "name": "Arby's", "longitude": -84.535738, "has_menu": false, "awards": null, "user_review_count": 0}, {"business_operation_status": 1, "rating": null, "neighborhood": null, "image": null, "scorecard": null, "featured": false, "sample_categories": "Restaurants, Traditional American, Carry Out", "public_id": "mr-philly-marietta", "id": 764893230, "votes": null, "tagline": null, "has_video": false, "website": null, "offers": null, "latitude": 33.953033, "politanName": "Atlanta, GA Metro ", "phone_number": "7705750615", "tags": [{"primary": false, "id": 11190, "name": "Traditional American"}, {"primary": false, "id": 11247, "name": "Carry Out"}, {"primary": true, "id": 1722, "name": "Restaurants"}], "fax_number": null, "expansion": {"count": null, "uri": null}, "impression_id": "000b0000005daa92f8550345348aba1c572b147c32", "profile": "http://www.citysearch.com/profile/764893230/marietta_ga/mr_philly.html", "address": {"city": "Marietta", "state": "GA", "street": "1000 Whitlock Ave NW # 110", "postal_code": "30064"}, "capProviderId": null, "distance": null, "has_offers": false, "name": "Mr Philly", "longitude": -84.581202, "has_menu": false, "awards": null, "user_review_count": 0}, {"business_operation_status": 1, "rating": null, "neighborhood": null, "image": null, "scorecard": null, "featured": false, "sample_categories": "Restaurants, Carry Out, Chicken", "public_id": "popeyes-chicken-biscuits-marietta-3", "id": 764903940, "votes": null, "tagline": null, "has_video": false, "website": null, "offers": null, "latitude": 33.922747, "politanName": "Atlanta, GA Metro ", "phone_number": "7707947031", "tags": [{"primary": false, "id": 11247, "name": "Carry Out"}, {"primary": false, "id": 12839, "name": "Chicken"}, {"primary": true, "id": 1722, "name": "Restaurants"}], "fax_number": null, "expansion": {"count": null, "uri": null}, "impression_id": "000b0000001f91b21af3384e2b8562f822b9a39524", "profile": "http://www.citysearch.com/profile/764903940/marietta_ga/popeye_s_chicken_biscuits.html", "address": {"city": "Marietta", "state": "GA", "street": "1444 Livingston Dr SW", "postal_code": "30064"}, "capProviderId": null, "distance": null, "has_offers": false, "name": "Popeye's Chicken & Biscuits", "longitude": -84.596038, "has_menu": false, "awards": null, "user_review_count": 0}, {"business_operation_status": 1, "rating": null, "neighborhood": null, "image": null, "scorecard": null, "featured": false, "sample_categories": "Restaurants", "public_id": "beale-street-pub-marietta", "id": 811604540, "votes": null, "tagline": null, "has_video": false, "website": null, "offers": null, "latitude": 33.938176, "politanName": "Atlanta, GA Metro ", "phone_number": "7704266307", "tags": [{"primary": true, "id": 1722, "name": "Restaurants"}], "fax_number": null, "expansion": {"count": null, "uri": null}, "impression_id": "000b000000ff2c037162bd4fe981840ac4c44e54e5", "profile": "http://www.citysearch.com/profile/811604540/marietta_ga/beale_street_pub.html", "address": {"city": "Marietta", "state": "GA", "street": "11 Garrison Rd SE", "postal_code": "30008"}, "capProviderId": null, "distance": null, "has_offers": false, "name": "Beale Street Pub", "longitude": -84.553301, "has_menu": false, "awards": null, "user_review_count": 0}, {"business_operation_status": 1, "rating": null, "neighborhood": null, "image": null, "scorecard": null, "featured": false, "sample_categories": "Restaurants", "public_id": "taqueria-marietta", "id": 812914130, "votes": null, "tagline": null, "has_video": false, "website": null, "offers": null, "latitude": 33.942474, "politanName": "Atlanta, GA Metro ", "phone_number": "7704289797", "tags": [{"primary": true, "id": 1722, "name": "Restaurants"}], "fax_number": null, "expansion": {"count": null, "uri": null}, "impression_id": "000b000000ddf61abfb12a4415b176b51b66a22d5b", "profile": "http://www.citysearch.com/profile/812914130/marietta_ga/taqueria.html", "address": {"city": "Marietta", "state": "GA", "street": "641 S Marietta Pkwy SE", "postal_code": "30060"}, "capProviderId": null, "distance": null, "has_offers": false, "name": "Taqueria", "longitude": -84.518447, "has_menu": false, "awards": null, "user_review_count": 0}, {"business_operation_status": 1, "rating": null, "neighborhood": null, "image": null, "scorecard": null, "featured": false, "sample_categories": "Restaurants, Carry Out, Pizza", "public_id": "pizza-hut-roswell-10", "id": 777622210, "votes": null, "tagline": null, "has_video": false, "website": "http://www.citysearch.com/profile/external/777622210/roswell_ga/pizza_hut.html", "offers": null, "latitude": 34.04192, "politanName": "Atlanta, GA Metro ", "phone_number": "7709902000", "tags": [{"primary": false, "id": 11247, "name": "Carry Out"}, {"primary": false, "id": 11299, "name": "Pizza"}, {"primary": true, "id": 1722, "name": "Restaurants"}], "fax_number": null, "expansion": {"count": null, "uri": null}, "impression_id": "000b00000094d6e7b906384af492610d8c8166b252", "profile": "http://www.citysearch.com/profile/777622210/roswell_ga/pizza_hut.html", "address": {"city": "Roswell", "state": "GA", "street": "675 Mansell Rd # 200", "postal_code": "30076"}, "capProviderId": null, "distance": null, "has_offers": false, "name": "Pizza Hut", "longitude": -84.344642, "has_menu": true, "awards": null, "user_review_count": 0}, {"business_operation_status": 1, "rating": null, "neighborhood": null, "image": null, "scorecard": null, "featured": false, "sample_categories": "Restaurants", "public_id": "tecali-grille-mexican-restaurant-woodstock", "id": 826302800, "votes": null, "tagline": null, "has_video": false, "website": null, "offers": null, "latitude": 34.107712, "politanName": "Atlanta, GA Metro ", "phone_number": "7709261031", "tags": [{"primary": true, "id": 1722, "name": "Restaurants"}], "fax_number": null, "expansion": {"count": null, "uri": null}, "impression_id": "000b0000002683a0a231ee4c598d5f09ee67cd1169", "profile": "http://www.citysearch.com/profile/826302800/woodstock_ga/tecali_grille_mexican_restaurant.html", "address": {"city": "Woodstock", "state": "GA", "street": "1105 Parkside Ln # 1330", "postal_code": "30189"}, "capProviderId": null, "distance": null, "has_offers": false, "name": "Tecali Grille Mexican Restaurant", "longitude": -84.553184, "has_menu": true, "awards": null, "user_review_count": 0}, {"business_operation_status": 1, "rating": null, "neighborhood": null, "image": null, "scorecard": null, "featured": false, "sample_categories": "Restaurants, Pizza", "public_id": "salerno-pizza-kennesaw", "id": 790725350, "votes": null, "tagline": null, "has_video": false, "website": null, "offers": null, "latitude": 34.009664, "politanName": "Atlanta, GA Metro ", "phone_number": "7704997600", "tags": [{"primary": false, "id": 1722, "name": "Restaurants"}, {"primary": true, "id": 11299, "name": "Pizza"}], "fax_number": null, "expansion": {"count": null, "uri": null}, "impression_id": "000b000000c3b49c3965334762a2ed9cfaad4595d4", "profile": "http://www.citysearch.com/profile/790725350/kennesaw_ga/salerno_pizza.html", "address": {"city": "Kennesaw", "state": "GA", "street": "950 Cobb Place Blvd NW", "postal_code": "30144"}, "capProviderId": null, "distance": null, "has_offers": false, "name": "Salerno Pizza", "longitude": -84.582459, "has_menu": false, "awards": null, "user_review_count": 0}, {"business_operation_status": 1, "rating": null, "neighborhood": null, "image": null, "scorecard": null, "featured": false, "sample_categories": "Restaurants, Carry Out", "public_id": "johnny-rockets-marietta-2", "id": 828721630, "votes": null, "tagline": null, "has_video": false, "website": "http://www.citysearch.com/profile/external/828721630/marietta_ga/johnny_rockets.html", "offers": null, "latitude": 33.98752, "politanName": "Atlanta, GA Metro ", "phone_number": "7705090377", "tags": [{"primary": false, "id": 11247, "name": "Carry Out"}, {"primary": true, "id": 1722, "name": "Restaurants"}], "fax_number": null, "expansion": {"count": null, "uri": null}, "impression_id": "000b000000975144d8b84d44a7b1a5d6ff709b214c", "profile": "http://www.citysearch.com/profile/828721630/marietta_ga/johnny_rockets.html", "address": {"city": "Marietta", "state": "GA", "street": "4475 Roswell Rd # 1700", "postal_code": "30062"}, "capProviderId": null, "distance": null, "has_offers": false, "name": "Johnny Rockets", "longitude": -84.42189, "has_menu": true, "awards": null, "user_review_count": 1}, {"business_operation_status": 1, "rating": null, "neighborhood": null, "image": null, "scorecard": null, "featured": false, "sample_categories": "Restaurants, Carry Out, Chicken", "public_id": "zaxbys-marietta-7", "id": 790860350, "votes": null, "tagline": null, "has_video": false, "website": "http://www.citysearch.com/profile/external/790860350/marietta_ga/zaxby_s.html", "offers": null, "latitude": 33.97374, "politanName": "Atlanta, GA Metro ", "phone_number": "6787339300", "tags": [{"primary": false, "id": 11247, "name": "Carry Out"}, {"primary": false, "id": 12839, "name": "Chicken"}, {"primary": true, "id": 1722, "name": "Restaurants"}], "fax_number": null, "expansion": {"count": null, "uri": null}, "impression_id": "000b0000007b2822dce9b14ffaae3fa44bc5934282", "profile": "http://www.citysearch.com/profile/790860350/marietta_ga/zaxby_s.html", "address": {"city": "Marietta", "state": "GA", "street": "1347 Church Street Ext Ne", "postal_code": "30060"}, "capProviderId": null, "distance": null, "has_offers": false, "name": "Zaxby's", "longitude": -84.552385, "has_menu": true, "awards": null, "user_review_count": 0}, {"business_operation_status": 1, "rating": null, "neighborhood": null, "image": null, "scorecard": null, "featured": false, "sample_categories": "Restaurants, Barbecue Restaurants", "public_id": "boyds-bar-be-que-smyrna", "id": 793283860, "votes": null, "tagline": null, "has_video": false, "website": null, "offers": null, "latitude": 33.890044, "politanName": "Atlanta, GA Metro ", "phone_number": "6783099726", "tags": [{"primary": false, "id": 1724, "name": "Barbecue Restaurants"}, {"primary": true, "id": 1722, "name": "Restaurants"}], "fax_number": null, "expansion": {"count": null, "uri": null}, "impression_id": "000b00000002f80997fc924d1c97c3a92cad197917", "profile": "http://www.citysearch.com/profile/793283860/smyrna_ga/boyd_s_bar_be_que.html", "address": {"city": "Smyrna", "state": "GA", "street": "2599 S Cobb Dr Se", "postal_code": "30080"}, "capProviderId": null, "distance": null, "has_offers": false, "name": "Boyd's Bar Be Que", "longitude": -84.536832, "has_menu": false, "awards": null, "user_review_count": 0}, {"business_operation_status": 1, "rating": null, "neighborhood": null, "image": null, "scorecard": null, "featured": false, "sample_categories": "Ice Cream Parlors", "public_id": "yougil-woodstock-woodstock", "id": 793385830, "votes": null, "tagline": null, "has_video": false, "website": null, "offers": null, "latitude": 34.10008, "politanName": "Atlanta, GA Metro ", "phone_number": "6784450644", "tags": [{"primary": true, "id": 1730, "name": "Ice Cream Parlors"}], "fax_number": null, "expansion": {"count": null, "uri": null}, "impression_id": "000b00000070b13587bfdf46059bb0ff902041c8ab", "profile": "http://www.citysearch.com/profile/793385830/woodstock_ga/yougil_woodstock.html", "address": {"city": "Woodstock", "state": "GA", "street": "440 Chambers St", "postal_code": "30188"}, "capProviderId": null, "distance": null, "has_offers": false, "name": "Yougil Woodstock", "longitude": -84.519046, "has_menu": false, "awards": null, "user_review_count": 0}, {"business_operation_status": 1, "rating": null, "neighborhood": null, "image": null, "scorecard": null, "featured": false, "sample_categories": "Restaurants, Pizza", "public_id": "k-d-southpoint-woodstock", "id": 713491590, "votes": null, "tagline": null, "has_video": false, "website": null, "offers": null, "latitude": 34.111794, "politanName": "Atlanta, GA Metro ", "phone_number": "7709241150", "tags": [{"primary": false, "id": 11299, "name": "Pizza"}, {"primary": true, "id": 1722, "name": "Restaurants"}], "fax_number": null, "expansion": {"count": null, "uri": null}, "impression_id": "000b000000ea2350e22387469cb0d7a0514738bedd", "profile": "http://www.citysearch.com/profile/713491590/woodstock_ga/k_d_southpoint.html", "address": {"city": "Woodstock", "state": "GA", "street": "200 Parkbrooke Dr", "postal_code": "30189"}, "capProviderId": null, "distance": null, "has_offers": false, "name": "K D Southpoint", "longitude": -84.558668, "has_menu": false, "awards": null, "user_review_count": 0}, {"business_operation_status": 1, "rating": null, "neighborhood": null, "image": null, "scorecard": null, "featured": false, "sample_categories": "Restaurants, Pizza, Tapas / Small Plates", "public_id": "sophias-roswell", "id": 713552970, "votes": null, "tagline": null, "has_video": false, "website": null, "offers": null, "latitude": 34.060259, "politanName": "Atlanta, GA Metro ", "phone_number": "7708174230", "tags": [{"primary": false, "id": 11299, "name": "Pizza"}, {"primary": false, "id": 11317, "name": "Tapas / Small Plates"}, {"primary": true, "id": 1722, "name": "Restaurants"}], "fax_number": null, "expansion": {"count": null, "uri": null}, "impression_id": "000b0000001bc4802300d44983a3ebb906d2e5119d", "profile": "http://www.citysearch.com/profile/713552970/roswell_ga/sophia_s.html", "address": {"city": "Roswell", "state": "GA", "street": "625 W Crossville Rd", "postal_code": "30075"}, "capProviderId": null, "distance": null, "has_offers": false, "name": "Sophia's", "longitude": -84.381351, "has_menu": true, "awards": null, "user_review_count": 0}, {"business_operation_status": 1, "rating": null, "neighborhood": null, "image": null, "scorecard": null, "featured": false, "sample_categories": "Restaurants", "public_id": "cafe-ventures-inc-marietta", "id": 766783500, "votes": null, "tagline": null, "has_video": false, "website": null, "offers": null, "latitude": 33.939834, "politanName": "Atlanta, GA Metro ", "phone_number": "7704230045", "tags": [{"primary": true, "id": 1722, "name": "Restaurants"}], "fax_number": null, "expansion": {"count": null, "uri": null}, "impression_id": "000b000000ee7870a096b046d8b15249fb8fa71d6d", "profile": "http://www.citysearch.com/profile/766783500/marietta_ga/cafe_ventures_inc.html", "address": {"city": "Marietta", "state": "GA", "street": "490 Franklin Rd SE", "postal_code": "30067"}, "capProviderId": null, "distance": null, "has_offers": false, "name": "Cafe Ventures Inc", "longitude": -84.50842, "has_menu": false, "awards": null, "user_review_count": 0}, {"business_operation_status": 1, "rating": null, "neighborhood": null, "image": null, "scorecard": null, "featured": false, "sample_categories": "Restaurants, Mexican, Carry Out", "public_id": "del-taco-kennesaw", "id": 754767850, "votes": null, "tagline": null, "has_video": false, "website": "http://www.citysearch.com/profile/external/754767850/kennesaw_ga/del_taco.html", "offers": null, "latitude": 34.035364, "politanName": "Atlanta, GA Metro ", "phone_number": "7707925980", "tags": [{"primary": false, "id": 11208, "name": "Mexican"}, {"primary": false, "id": 11247, "name": "Carry Out"}, {"primary": true, "id": 1722, "name": "Restaurants"}], "fax_number": null, "expansion": {"count": null, "uri": null}, "impression_id": "000b000000761b5c3b49d84e0aad53d3f864f104f7", "profile": "http://www.citysearch.com/profile/754767850/kennesaw_ga/del_taco.html", "address": {"city": "Kennesaw", "state": "GA", "street": "745 Chastain Rd NW", "postal_code": "30144"}, "capProviderId": null, "distance": null, "has_offers": false, "name": "Del Taco", "longitude": -84.570141, "has_menu": false, "awards": null, "user_review_count": 0}, {"business_operation_status": 1, "rating": null, "neighborhood": null, "image": null, "scorecard": null, "featured": false, "sample_categories": "Restaurants", "public_id": "derby-sports-grill-roswell", "id": 713371440, "votes": null, "tagline": null, "has_video": false, "website": null, "offers": null, "latitude": 34.060624, "politanName": "Atlanta, GA Metro ", "phone_number": "6788225533", "tags": [{"primary": true, "id": 1722, "name": "Restaurants"}], "fax_number": null, "expansion": {"count": null, "uri": null}, "impression_id": "000b0000006af5d9d7b7c34653a2447b312b6009f9", "profile": "http://www.citysearch.com/profile/713371440/roswell_ga/derby_sports_grill.html", "address": {"city": "Roswell", "state": "GA", "street": "885 Woodstock Rd", "postal_code": "30075"}, "capProviderId": null, "distance": null, "has_offers": false, "name": "Derby Sports Grill", "longitude": -84.385879, "has_menu": true, "awards": null, "user_review_count": 0}, {"business_operation_status": 1, "rating": null, "neighborhood": null, "image": null, "scorecard": null, "featured": false, "sample_categories": "Restaurants", "public_id": "j-b-restaurant-roswell", "id": 777689390, "votes": null, "tagline": null, "has_video": false, "website": null, "offers": null, "latitude": 34.025741, "politanName": "Atlanta, GA Metro ", "phone_number": "7706431090", "tags": [{"primary": true, "id": 1722, "name": "Restaurants"}], "fax_number": null, "expansion": {"count": null, "uri": null}, "impression_id": "000b000000c51a39fcef2349d2a04532da60eaab30", "profile": "http://www.citysearch.com/profile/777689390/roswell_ga/j_b_restaurant.html", "address": {"city": "Roswell", "state": "GA", "street": "66 Norcross St", "postal_code": "30075"}, "capProviderId": null, "distance": null, "has_offers": false, "name": "J B Restaurant", "longitude": -84.359094, "has_menu": false, "awards": null, "user_review_count": 0}, {"business_operation_status": 1, "rating": null, "neighborhood": null, "image": null, "scorecard": null, "featured": false, "sample_categories": "Restaurants, Bakeries", "public_id": "party-chic-roswell", "id": 777696680, "votes": null, "tagline": null, "has_video": false, "website": null, "offers": null, "latitude": 34.024664, "politanName": "Atlanta, GA Metro ", "phone_number": "7706430020", "tags": [{"primary": false, "id": 1685, "name": "Bakeries"}, {"primary": true, "id": 1722, "name": "Restaurants"}], "fax_number": null, "expansion": {"count": null, "uri": null}, "impression_id": "000b0000002bbbe054c23140e9ae055e28dde8c432", "profile": "http://www.citysearch.com/profile/777696680/roswell_ga/party_chic.html", "address": {"city": "Roswell", "state": "GA", "street": "953 Canton St", "postal_code": "30075"}, "capProviderId": null, "distance": null, "has_offers": false, "name": "Party Chic", "longitude": -84.361416, "has_menu": false, "awards": null, "user_review_count": 0}, {"business_operation_status": 0, "rating": null, "neighborhood": null, "image": null, "scorecard": null, "featured": false, "sample_categories": "Restaurants, Delis And Delicatessens", "public_id": "cajuns-cookin-po-boys-marietta", "id": 787117810, "votes": null, "tagline": null, "has_video": false, "website": null, "offers": null, "latitude": 33.991982, "politanName": "Atlanta, GA Metro ", "phone_number": "6783326262", "tags": [{"primary": false, "id": 1727, "name": "Delis And Delicatessens"}, {"primary": true, "id": 1722, "name": "Restaurants"}], "fax_number": null, "expansion": {"count": null, "uri": null}, "impression_id": "000b00000089715268b911423b89a4fd894c95236d", "profile": "http://www.citysearch.com/profile/787117810/marietta_ga/cajun_s_cookin_po_boys.html", "address": {"city": "Marietta", "state": "GA", "street": "1199 Sandra Dr", "postal_code": "30062"}, "capProviderId": null, "distance": null, "has_offers": false, "name": "Cajun's Cookin' Po Boys", "longitude": -84.516441, "has_menu": false, "awards": null, "user_review_count": 0}], "histograms": [], "tag_ids": [1722], "uri": "http://api.citygridmedia.com:8080/search/places/v2/search/where?has_offers=false&type=restaurant&format=json&page=27&where=30066&rpp=50&histograms=false&publisher=10000009598&region_type=circle", "did_you_mean": "", "regions": [{"latitude": 34.034132, "default_radius": 5.28, "type": "postal_code", "name": "30066", "longitude": -84.508332}], "call_id": "000b000000cac172ba0c294b829efd07c7b3f07609", "first_hit": 1301, "total_hits": 2075, "geo_ids": [26294], "page": 27, "last_hit": 1350}}