{"results": {"rpp": 50, "locations": [{"business_operation_status": 1, "rating": null, "neighborhood": null, "image": null, "scorecard": null, "featured": false, "sample_categories": "Restaurants", "public_id": "concunis-restaurant-marietta", "id": 781241730, "votes": null, "tagline": null, "has_video": false, "website": null, "offers": null, "latitude": 33.907327, "politanName": "Atlanta, GA Metro ", "phone_number": "7704858225", "tags": [{"primary": true, "id": 1722, "name": "Restaurants"}], "fax_number": null, "expansion": {"count": null, "uri": null}, "impression_id": "000b00000091905a2c47594d9cacc717c82b20f304", "profile": "http://www.citysearch.com/profile/781241730/marietta_ga/concunis_restaurant.html", "address": {"city": "Marietta", "state": "GA", "street": "1651 Powder Springs Rd Sw", "postal_code": "30064"}, "capProviderId": null, "distance": null, "has_offers": false, "name": "Concunis Restaurant", "longitude": -84.601215, "has_menu": false, "awards": null, "user_review_count": 0}, {"business_operation_status": 1, "rating": null, "neighborhood": null, "image": null, "scorecard": null, "featured": false, "sample_categories": "Restaurants, Traditional American", "public_id": "all-american-coney-island-dallas", "id": 781204740, "votes": null, "tagline": null, "has_video": false, "website": null, "offers": null, "latitude": 34.012752, "politanName": "Atlanta, GA Metro ", "phone_number": "6785058920", "tags": [{"primary": false, "id": 11190, "name": "Traditional American"}, {"primary": true, "id": 1722, "name": "Restaurants"}], "fax_number": null, "expansion": {"count": null, "uri": null}, "impression_id": "000b0000002044e84c4a9845f2bbe1aff60b75746d", "profile": "http://www.citysearch.com/profile/781204740/dallas_ga/all_american_coney_island.html", "address": {"city": "Dallas", "state": "GA", "street": "8879 Dallas Acworth Hwy", "postal_code": "30132"}, "capProviderId": null, "distance": null, "has_offers": false, "name": "All American Coney Island", "longitude": -84.754548, "has_menu": false, "awards": null, "user_review_count": 0}, {"business_operation_status": 1, "rating": null, "neighborhood": null, "image": null, "scorecard": null, "featured": false, "sample_categories": "Restaurants, Mexican", "public_id": "el-taco-azteco-bar-grill-marietta", "id": 779707060, "votes": null, "tagline": null, "has_video": false, "website": null, "offers": null, "latitude": 33.976739, "politanName": "Atlanta, GA Metro ", "phone_number": "6782752349", "tags": [{"primary": false, "id": 11208, "name": "Mexican"}, {"primary": true, "id": 1722, "name": "Restaurants"}], "fax_number": null, "expansion": {"count": null, "uri": null}, "impression_id": "000b0000009a4c3f6348fc4593af0d90f28b0f008a", "profile": "http://www.citysearch.com/profile/779707060/marietta_ga/el_taco_azteco_bar_grill.html", "address": {"city": "Marietta", "state": "GA", "street": "1050 E Piedmont Rd", "postal_code": "30062"}, "capProviderId": null, "distance": null, "has_offers": false, "name": "El Taco Azteco Bar & Grill", "longitude": -84.479676, "has_menu": false, "awards": null, "user_review_count": 0}, {"business_operation_status": 1, "rating": null, "neighborhood": null, "image": null, "scorecard": null, "featured": false, "sample_categories": "Restaurants, Seafood", "public_id": "catfish-jims-seafood-chicken-kennesaw", "id": 779708410, "votes": null, "tagline": null, "has_video": false, "website": null, "offers": null, "latitude": 34.00159, "politanName": "Atlanta, GA Metro ", "phone_number": "6782908808", "tags": [{"primary": false, "id": 11228, "name": "Seafood"}, {"primary": true, "id": 1722, "name": "Restaurants"}], "fax_number": null, "expansion": {"count": null, "uri": null}, "impression_id": "000b000000fd34a3d364e044fcb22c7beaf5683409", "profile": "http://www.citysearch.com/profile/779708410/kennesaw_ga/catfish_jim_s_seafood_chicken.html", "address": {"city": "Kennesaw", "state": "GA", "street": "1997 Cobb Pkwy NW", "postal_code": "30152"}, "capProviderId": null, "distance": null, "has_offers": false, "name": "Catfish Jim's Seafood Chicken", "longitude": -84.597118, "has_menu": false, "awards": null, "user_review_count": 3}, {"business_operation_status": 1, "rating": null, "neighborhood": null, "image": null, "scorecard": null, "featured": false, "sample_categories": "Restaurants, Pizza", "public_id": "luckys-new-york-style-pizza-dallas", "id": 790692420, "votes": null, "tagline": null, "has_video": false, "website": null, "offers": null, "latitude": 34.027382, "politanName": "Atlanta, GA Metro ", "phone_number": "6785747499", "tags": [{"primary": false, "id": 11299, "name": "Pizza"}, {"primary": true, "id": 1722, "name": "Restaurants"}], "fax_number": null, "expansion": {"count": null, "uri": null}, "impression_id": "000b00000066b4e602c47949dc9b129c8ecda8f274", "profile": "http://www.citysearch.com/profile/790692420/dallas_ga/lucky_s_new_york_style_pizza.html", "address": {"city": "Dallas", "state": "GA", "street": "51 Seven Hills Blvd", "postal_code": "30132"}, "capProviderId": null, "distance": null, "has_offers": false, "name": "Lucky's New York Style Pizza", "longitude": -84.776854, "has_menu": false, "awards": null, "user_review_count": 0}, {"business_operation_status": 1, "rating": null, "neighborhood": null, "image": null, "scorecard": null, "featured": false, "sample_categories": "Restaurants, Mexican", "public_id": "hacienda-vieja-woodstock", "id": 779682120, "votes": null, "tagline": null, "has_video": false, "website": null, "offers": null, "latitude": 34.084509, "politanName": "Atlanta, GA Metro ", "phone_number": "7705177958", "tags": [{"primary": false, "id": 11208, "name": "Mexican"}, {"primary": true, "id": 1722, "name": "Restaurants"}], "fax_number": null, "expansion": {"count": null, "uri": null}, "impression_id": "000b00000091914ee5331c4f6c8fe0ae654dd16833", "profile": "http://www.citysearch.com/profile/779682120/woodstock_ga/hacienda_vieja.html", "address": {"city": "Woodstock", "state": "GA", "street": "290 Molly Ln", "postal_code": "30189"}, "capProviderId": null, "distance": null, "has_offers": false, "name": "Hacienda Vieja", "longitude": -84.540278, "has_menu": false, "awards": null, "user_review_count": 0}, {"business_operation_status": 1, "rating": null, "neighborhood": null, "image": null, "scorecard": null, "featured": false, "sample_categories": "Restaurants, Diners", "public_id": "cobb-diner-marietta", "id": 781263410, "votes": null, "tagline": null, "has_video": false, "website": null, "offers": null, "latitude": 33.950808, "politanName": "Atlanta, GA Metro ", "phone_number": "7705149700", "tags": [{"primary": false, "id": 1732, "name": "Diners"}, {"primary": true, "id": 1722, "name": "Restaurants"}], "fax_number": null, "expansion": {"count": null, "uri": null}, "impression_id": "000b000000cab249f1d7a7440a80ce81778ed10004", "profile": "http://www.citysearch.com/profile/781263410/marietta_ga/cobb_diner.html", "address": {"city": "Marietta", "state": "GA", "street": "749 Roswell St Ne", "postal_code": "30060"}, "capProviderId": null, "distance": null, "has_offers": false, "name": "Cobb Diner", "longitude": -84.53017, "has_menu": false, "awards": null, "user_review_count": 1}, {"business_operation_status": 1, "rating": null, "neighborhood": null, "image": null, "scorecard": null, "featured": false, "sample_categories": "Restaurants, Hamburgers, Shop Online", "public_id": "burgerfi-kennesaw-kennesaw", "id": 790773140, "votes": null, "tagline": null, "has_video": false, "website": "http://www.citysearch.com/profile/external/790773140/kennesaw_ga/burgerfi.html", "offers": null, "latitude": 34.023114, "politanName": "Atlanta, GA Metro ", "phone_number": "7706352800", "tags": [{"primary": false, "id": 11270, "name": "Hamburgers"}, {"primary": false, "id": 11375, "name": "Shop Online"}, {"primary": true, "id": 1722, "name": "Restaurants"}], "fax_number": null, "expansion": {"count": null, "uri": null}, "impression_id": "000b000000b7e9e2bf2e7141ddb03121d37c2c25a9", "profile": "http://www.citysearch.com/profile/790773140/kennesaw_ga/burgerfi.html", "address": {"city": "Kennesaw", "state": "GA", "street": "2844 S Main St NW", "postal_code": "30144"}, "capProviderId": null, "distance": null, "has_offers": false, "name": "BurgerFi", "longitude": -84.615261, "has_menu": false, "awards": null, "user_review_count": 0}, {"business_operation_status": 1, "rating": null, "neighborhood": null, "image": null, "scorecard": null, "featured": false, "sample_categories": "Barbecue Restaurants", "public_id": "kennesaw-bar-b-que-smyrna", "id": 813263860, "votes": null, "tagline": null, "has_video": false, "website": null, "offers": null, "latitude": 33.871707, "politanName": "Atlanta, GA Metro ", "phone_number": "7704226193", "tags": [{"primary": true, "id": 1724, "name": "Barbecue Restaurants"}], "fax_number": null, "expansion": {"count": null, "uri": null}, "impression_id": "000b000000da9664b045e14bc2a1cec7c6309107f7", "profile": "http://www.citysearch.com/profile/813263860/smyrna_ga/kennesaw_bar_b_que.html", "address": {"city": "Smyrna", "state": "GA", "street": "3363 Landrum Dr SE", "postal_code": "30082"}, "capProviderId": null, "distance": null, "has_offers": false, "name": "Kennesaw Bar B Que", "longitude": -84.55291, "has_menu": false, "awards": null, "user_review_count": 0}, {"business_operation_status": 1, "rating": null, "neighborhood": null, "image": null, "scorecard": null, "featured": false, "sample_categories": "Restaurants", "public_id": "international-restaurant-management-kennesaw", "id": 806008710, "votes": null, "tagline": null, "has_video": false, "website": null, "offers": null, "latitude": 33.984991, "politanName": "Atlanta, GA Metro ", "phone_number": "7702180369", "tags": [{"primary": true, "id": 1722, "name": "Restaurants"}], "fax_number": null, "expansion": {"count": null, "uri": null}, "impression_id": "000b0000007fb382239b2f41dfbf9441f59fb3256d", "profile": "http://www.citysearch.com/profile/806008710/kennesaw_ga/international_restaurant_management.html", "address": {"city": "Kennesaw", "state": "GA", "street": "3409 Paisley Trce NW", "postal_code": "30152"}, "capProviderId": null, "distance": null, "has_offers": false, "name": "International Restaurant Management", "longitude": -84.648405, "has_menu": false, "awards": null, "user_review_count": 0}, {"business_operation_status": 1, "rating": null, "neighborhood": null, "image": null, "scorecard": null, "featured": false, "sample_categories": "Restaurants", "public_id": "georgia-cuisine-bakery-dallas", "id": 806701170, "votes": null, "tagline": null, "has_video": false, "website": null, "offers": null, "latitude": 34.008729, "politanName": "Atlanta, GA Metro ", "phone_number": "7709665204", "tags": [{"primary": true, "id": 1722, "name": "Restaurants"}], "fax_number": null, "expansion": {"count": null, "uri": null}, "impression_id": "000b00000076c981d18f374c76888a7078e69a2127", "profile": "http://www.citysearch.com/profile/806701170/dallas_ga/georgia_cuisine_bakery.html", "address": {"city": "Dallas", "state": "GA", "street": "8492 Hiram Acworth Hwy", "postal_code": "30157"}, "capProviderId": null, "distance": null, "has_offers": false, "name": "Georgia Cuisine & Bakery", "longitude": -84.752437, "has_menu": false, "awards": null, "user_review_count": 0}, {"business_operation_status": 1, "rating": null, "neighborhood": null, "image": null, "scorecard": null, "featured": false, "sample_categories": "Restaurants, Pizza, Carry Out", "public_id": "little-caesars-pizza-roswell-2", "id": 713472690, "votes": null, "tagline": null, "has_video": false, "website": "http://www.citysearch.com/profile/external/713472690/roswell_ga/little_caesars_pizza.html", "offers": null, "latitude": 34.047642, "politanName": "Atlanta, GA Metro ", "phone_number": "7705940964", "tags": [{"primary": false, "id": 1722, "name": "Restaurants"}, {"primary": false, "id": 11247, "name": "Carry Out"}, {"primary": true, "id": 11299, "name": "Pizza"}], "fax_number": null, "expansion": {"count": null, "uri": null}, "impression_id": "000b000000b65eac2596164ab298ef2542ca79c6c8", "profile": "http://www.citysearch.com/profile/713472690/roswell_ga/little_caesars_pizza.html", "address": {"city": "Roswell", "state": "GA", "street": "24 E Crossville Rd", "postal_code": "30075"}, "capProviderId": null, "distance": null, "has_offers": false, "name": "Little Caesars Pizza", "longitude": -84.360712, "has_menu": false, "awards": null, "user_review_count": 0}, {"business_operation_status": 1, "rating": null, "neighborhood": null, "image": null, "scorecard": null, "featured": false, "sample_categories": "Restaurants, Asian, Chinese", "public_id": "hibachi-buffet-marietta", "id": 713488530, "votes": null, "tagline": null, "has_video": false, "website": "http://www.citysearch.com/profile/external/713488530/marietta_ga/hibachi_buffet.html", "offers": null, "latitude": 33.968527, "politanName": "Atlanta, GA Metro ", "phone_number": "7703218202", "tags": [{"primary": false, "id": 11235, "name": "Asian"}, {"primary": false, "id": 11252, "name": "Chinese"}, {"primary": true, "id": 1722, "name": "Restaurants"}], "fax_number": null, "expansion": {"count": null, "uri": null}, "impression_id": "000b000000ac35856ce7ca42989a9be008f1052bf5", "profile": "http://www.citysearch.com/profile/713488530/marietta_ga/hibachi_buffet.html", "address": {"city": "Marietta", "state": "GA", "street": "2145 Roswell Rd # 260", "postal_code": "30062"}, "capProviderId": null, "distance": null, "has_offers": false, "name": "Hibachi Buffet", "longitude": -84.491622, "has_menu": false, "awards": null, "user_review_count": 0}, {"business_operation_status": 1, "rating": 6.0, "neighborhood": null, "image": null, "scorecard": null, "featured": false, "sample_categories": "Restaurants, Diners", "public_id": "ogas-diners-marietta", "id": 2906488, "votes": null, "tagline": null, "has_video": false, "website": null, "offers": null, "latitude": 33.936031, "politanName": "Atlanta, GA Metro ", "phone_number": "7704230098", "tags": [{"primary": false, "id": 1732, "name": "Diners"}, {"primary": true, "id": 1722, "name": "Restaurants"}], "fax_number": null, "expansion": {"count": null, "uri": null}, "impression_id": "000b00000020c48030c028416dad2ef1ce54e19aaf", "profile": "http://www.citysearch.com/profile/2906488/marietta_ga/oga_s_diners.html", "address": {"city": "Marietta", "state": "GA", "street": "690 Powder Springs St SW", "postal_code": "30064"}, "capProviderId": null, "distance": null, "has_offers": false, "name": "Oga's Diners", "longitude": -84.556041, "has_menu": false, "awards": null, "user_review_count": 1}, {"business_operation_status": 1, "rating": null, "neighborhood": null, "image": null, "scorecard": null, "featured": false, "sample_categories": "Restaurants", "public_id": "jocks-jill-canton", "id": 810518500, "votes": null, "tagline": null, "has_video": false, "website": null, "offers": null, "latitude": 34.195494, "politanName": "Atlanta, GA Metro ", "phone_number": "7707045455", "tags": [{"primary": true, "id": 1722, "name": "Restaurants"}], "fax_number": null, "expansion": {"count": null, "uri": null}, "impression_id": "000b000000aeea6cc76c1947aea5362bab276ca0eb", "profile": "http://www.citysearch.com/profile/810518500/canton_ga/jocks_jill.html", "address": {"city": "Canton", "state": "GA", "street": "303 Lakebridge Xing", "postal_code": "30114"}, "capProviderId": null, "distance": null, "has_offers": false, "name": "Jocks & Jill", "longitude": -84.545654, "has_menu": false, "awards": null, "user_review_count": 0}, {"business_operation_status": 1, "rating": null, "neighborhood": null, "image": null, "scorecard": null, "featured": false, "sample_categories": "Restaurants", "public_id": "mrs-winners-chicken-bscts-roswell", "id": 811201960, "votes": null, "tagline": null, "has_video": false, "website": null, "offers": null, "latitude": 34.03397, "politanName": "Atlanta, GA Metro ", "phone_number": "7709924900", "tags": [{"primary": true, "id": 1722, "name": "Restaurants"}], "fax_number": null, "expansion": {"count": null, "uri": null}, "impression_id": "000b000000fa0f179a836c4629a6e27be75c2f5446", "profile": "http://www.citysearch.com/profile/811201960/roswell_ga/mrs_winner_s_chicken_bscts.html", "address": {"city": "Roswell", "state": "GA", "street": "10471 Alpharetta St", "postal_code": "30075"}, "capProviderId": null, "distance": null, "has_offers": false, "name": "Mrs Winner's Chicken & Bscts", "longitude": -84.347496, "has_menu": false, "awards": null, "user_review_count": 0}, {"business_operation_status": 1, "rating": null, "neighborhood": null, "image": null, "scorecard": null, "featured": false, "sample_categories": "Restaurants", "public_id": "buffalos-american-grill-kennesaw", "id": 826501520, "votes": null, "tagline": null, "has_video": false, "website": null, "offers": null, "latitude": 34.048688, "politanName": "Atlanta, GA Metro ", "phone_number": "7707958433", "tags": [{"primary": true, "id": 1722, "name": "Restaurants"}], "fax_number": null, "expansion": {"count": null, "uri": null}, "impression_id": "000b0000001c22a768d3ff43a4be33b055294dc65c", "profile": "http://www.citysearch.com/profile/826501520/kennesaw_ga/buffalos_american_grill.html", "address": {"city": "Kennesaw", "state": "GA", "street": "3895 Cherokee St NW # 310", "postal_code": "30144"}, "capProviderId": null, "distance": null, "has_offers": false, "name": "Buffalos American Grill", "longitude": -84.598574, "has_menu": false, "awards": null, "user_review_count": 0}, {"business_operation_status": 1, "rating": 2.0, "neighborhood": null, "image": null, "scorecard": null, "featured": false, "sample_categories": "Restaurants", "public_id": "jiffy-freeze-canton", "id": 2942767, "votes": null, "tagline": null, "has_video": false, "website": null, "offers": null, "latitude": 34.213746, "politanName": "Atlanta, GA Metro ", "phone_number": "7704791124", "tags": [{"primary": true, "id": 1722, "name": "Restaurants"}], "fax_number": null, "expansion": {"count": null, "uri": null}, "impression_id": "000b00000006ba5eb6c49847b5ab7387737c00ba6e", "profile": "http://www.citysearch.com/profile/2942767/canton_ga/jiffy_freeze.html", "address": {"city": "Canton", "state": "GA", "street": "8046 Knox Bridge Hwy", "postal_code": "30114"}, "capProviderId": null, "distance": null, "has_offers": false, "name": "Jiffy Freeze", "longitude": -84.531929, "has_menu": false, "awards": null, "user_review_count": 2}, {"business_operation_status": 1, "rating": null, "neighborhood": null, "image": null, "scorecard": null, "featured": false, "sample_categories": "Restaurants", "public_id": "woodstock-family-restaurant-woodstock", "id": 812007640, "votes": null, "tagline": null, "has_video": false, "website": null, "offers": null, "latitude": 34.087003, "politanName": "Atlanta, GA Metro ", "phone_number": "7705166180", "tags": [{"primary": true, "id": 1722, "name": "Restaurants"}], "fax_number": null, "expansion": {"count": null, "uri": null}, "impression_id": "000b000000dd42e01c3bce40c59b48055ba1c7a031", "profile": "http://www.citysearch.com/profile/812007640/woodstock_ga/woodstock_family_restaurant.html", "address": {"city": "Woodstock", "state": "GA", "street": "9425 Highway 92 # 104", "postal_code": "30188"}, "capProviderId": null, "distance": null, "has_offers": false, "name": "Woodstock Family Restaurant", "longitude": -84.532577, "has_menu": true, "awards": null, "user_review_count": 0}, {"business_operation_status": 1, "rating": null, "neighborhood": null, "image": null, "scorecard": null, "featured": false, "sample_categories": "Restaurants", "public_id": "new-china-express-inc-marietta", "id": 812363050, "votes": null, "tagline": null, "has_video": false, "website": null, "offers": null, "latitude": 33.890207, "politanName": "Atlanta, GA Metro ", "phone_number": "7704352211", "tags": [{"primary": true, "id": 1722, "name": "Restaurants"}], "fax_number": null, "expansion": {"count": null, "uri": null}, "impression_id": "000b000000fccb4b17eb994145ad42b0d6639477ac", "profile": "http://www.citysearch.com/profile/812363050/marietta_ga/new_china_express_inc.html", "address": {"city": "Marietta", "state": "GA", "street": "2561 Austell Rd SW", "postal_code": "30008"}, "capProviderId": null, "distance": null, "has_offers": false, "name": "New China Express Inc", "longitude": -84.579023, "has_menu": true, "awards": null, "user_review_count": 0}, {"business_operation_status": 1, "rating": null, "neighborhood": null, "image": null, "scorecard": null, "featured": false, "sample_categories": "Restaurants", "public_id": "fancy-pantry-roswell", "id": 829333540, "votes": null, "tagline": null, "has_video": false, "website": null, "offers": null, "latitude": 34.058626, "politanName": "Atlanta, GA Metro ", "phone_number": "7706506546", "tags": [{"primary": true, "id": 1722, "name": "Restaurants"}], "fax_number": null, "expansion": {"count": null, "uri": null}, "impression_id": "000b000000930c8a7d5ddd4c558f5cdc082210bbe0", "profile": "http://www.citysearch.com/profile/829333540/roswell_ga/fancy_pantry.html", "address": {"city": "Roswell", "state": "GA", "street": "[empty]", "postal_code": "30075"}, "capProviderId": null, "distance": null, "has_offers": false, "name": "Fancy Pantry", "longitude": -84.385744, "has_menu": false, "awards": null, "user_review_count": 0}, {"business_operation_status": 0, "rating": null, "neighborhood": null, "image": null, "scorecard": null, "featured": false, "sample_categories": "Ice Cream Parlors", "public_id": "clearview-ventures-kennesaw", "id": 732172070, "votes": null, "tagline": null, "has_video": false, "website": null, "offers": null, "latitude": 33.976849, "politanName": "Atlanta, GA Metro ", "phone_number": "7706178112", "tags": [{"primary": true, "id": 1730, "name": "Ice Cream Parlors"}], "fax_number": null, "expansion": {"count": null, "uri": null}, "impression_id": "000b00000094355b356279468eb22e69ba2eece189", "profile": "http://www.citysearch.com/profile/732172070/kennesaw_ga/clearview_ventures.html", "address": {"city": "Kennesaw", "state": "GA", "street": "985 Frog Leap Trl NW", "postal_code": "30152"}, "capProviderId": null, "distance": null, "has_offers": false, "name": "Clearview Ventures", "longitude": -84.607323, "has_menu": false, "awards": null, "user_review_count": 0}, {"business_operation_status": 1, "rating": null, "neighborhood": null, "image": null, "scorecard": null, "featured": false, "sample_categories": "Restaurants", "public_id": "g-a-mex-marietta", "id": 837455650, "votes": null, "tagline": null, "has_video": false, "website": null, "offers": null, "latitude": 33.954748, "politanName": "Atlanta, GA Metro ", "phone_number": "6783540331", "tags": [{"primary": true, "id": 1722, "name": "Restaurants"}], "fax_number": null, "expansion": {"count": null, "uri": null}, "impression_id": "000b000000c50f263f6f4e4b52bfe92daec8925ecb", "profile": "http://www.citysearch.com/profile/837455650/marietta_ga/g_a_mex.html", "address": {"city": "Marietta", "state": "GA", "street": "3636 Dallas Hwy SW", "postal_code": "30064"}, "capProviderId": null, "distance": null, "has_offers": false, "name": "G A Mex", "longitude": -84.657951, "has_menu": false, "awards": null, "user_review_count": 0}, {"business_operation_status": 1, "rating": null, "neighborhood": null, "image": null, "scorecard": null, "featured": false, "sample_categories": "Restaurants, Pizza, Carry Out", "public_id": "hungry-howies-pizza-smyrna", "id": 838599720, "votes": null, "tagline": null, "has_video": false, "website": "http://www.citysearch.com/profile/external/838599720/smyrna_ga/hungry_howie_s_pizza.html", "offers": null, "latitude": 33.884889, "politanName": "Atlanta, GA Metro ", "phone_number": "6783091112", "tags": [{"primary": false, "id": 1722, "name": "Restaurants"}, {"primary": false, "id": 11247, "name": "Carry Out"}, {"primary": true, "id": 11299, "name": "Pizza"}], "fax_number": null, "expansion": {"count": null, "uri": null}, "impression_id": "000b000000d770c8ed364b4b7ba0f6a54f8e64d9b0", "profile": "http://www.citysearch.com/profile/838599720/smyrna_ga/hungry_howie_s_pizza.html", "address": {"city": "Smyrna", "state": "GA", "street": "400 Village Green Cir SE", "postal_code": "30080"}, "capProviderId": null, "distance": null, "has_offers": false, "name": "Hungry Howie's Pizza", "longitude": -84.516415, "has_menu": false, "awards": null, "user_review_count": 0}, {"business_operation_status": 1, "rating": null, "neighborhood": null, "image": null, "scorecard": null, "featured": false, "sample_categories": "Restaurants", "public_id": "chilitos-woodstock", "id": 820086190, "votes": null, "tagline": null, "has_video": false, "website": null, "offers": null, "latitude": 34.087967, "politanName": "Atlanta, GA Metro ", "phone_number": "7709285948", "tags": [{"primary": true, "id": 1722, "name": "Restaurants"}], "fax_number": null, "expansion": {"count": null, "uri": null}, "impression_id": "000b000000ee38d26cfb7b44319a674424885a1a01", "profile": "http://www.citysearch.com/profile/820086190/woodstock_ga/chilitos.html", "address": {"city": "Woodstock", "state": "GA", "street": "12035 Highway 92", "postal_code": "30188"}, "capProviderId": null, "distance": null, "has_offers": false, "name": "Chilitos", "longitude": -84.486231, "has_menu": true, "awards": null, "user_review_count": 0}, {"business_operation_status": 0, "rating": null, "neighborhood": null, "image": null, "scorecard": null, "featured": false, "sample_categories": "Restaurants", "public_id": "by-the-tracks-cafe-llc-woodstock", "id": 751304040, "votes": null, "tagline": null, "has_video": false, "website": null, "offers": null, "latitude": 34.085958, "politanName": "Atlanta, GA Metro ", "phone_number": "7705169993", "tags": [{"primary": true, "id": 1722, "name": "Restaurants"}], "fax_number": null, "expansion": {"count": null, "uri": null}, "impression_id": "000b00000033dca786119e4e038937dccc14a3e481", "profile": "http://www.citysearch.com/profile/751304040/woodstock_ga/by_the_tracks_cafe_llc.html", "address": {"city": "Woodstock", "state": "GA", "street": "9595 Main St", "postal_code": "30188"}, "capProviderId": null, "distance": null, "has_offers": false, "name": "By the Tracks Cafe LLC", "longitude": -84.519417, "has_menu": false, "awards": null, "user_review_count": 0}, {"business_operation_status": 1, "rating": null, "neighborhood": null, "image": null, "scorecard": null, "featured": false, "sample_categories": "Restaurants, Pizza", "public_id": "uncle-maddios-pizza-woodstock", "id": 732245370, "votes": null, "tagline": null, "has_video": false, "website": "http://www.citysearch.com/profile/external/732245370/woodstock_ga/uncle_maddio_s_pizza.html", "offers": null, "latitude": 34.086912, "politanName": "Atlanta, GA Metro ", "phone_number": "7705912685", "tags": [{"primary": false, "id": 11299, "name": "Pizza"}, {"primary": true, "id": 1722, "name": "Restaurants"}], "fax_number": null, "expansion": {"count": null, "uri": null}, "impression_id": "000b0000004ffcc93a83c942e4b2b1d00f304d1e90", "profile": "http://www.citysearch.com/profile/732245370/woodstock_ga/uncle_maddio_s_pizza.html", "address": {"city": "Woodstock", "state": "GA", "street": "9745 Highway 92", "postal_code": "30188"}, "capProviderId": null, "distance": null, "has_offers": false, "name": "Uncle Maddio's Pizza", "longitude": -84.528611, "has_menu": false, "awards": null, "user_review_count": 0}, {"business_operation_status": 1, "rating": null, "neighborhood": null, "image": null, "scorecard": null, "featured": false, "sample_categories": "Restaurants", "public_id": "farmers-basket-kennesaw", "id": 753236330, "votes": null, "tagline": null, "has_video": false, "website": null, "offers": null, "latitude": 34.019128, "politanName": "Atlanta, GA Metro ", "phone_number": "7707947442", "tags": [{"primary": true, "id": 1722, "name": "Restaurants"}], "fax_number": null, "expansion": {"count": null, "uri": null}, "impression_id": "000b000000692109767b4543f99e7957ce147e7897", "profile": "http://www.citysearch.com/profile/753236330/kennesaw_ga/farmers_basket.html", "address": {"city": "Kennesaw", "state": "GA", "street": "400 Ernest W Barrett Pkwy NW", "postal_code": "30144"}, "capProviderId": null, "distance": null, "has_offers": false, "name": "Farmers Basket", "longitude": -84.563608, "has_menu": false, "awards": null, "user_review_count": 0}, {"business_operation_status": 1, "rating": null, "neighborhood": null, "image": null, "scorecard": null, "featured": false, "sample_categories": "Coffee & Tea Shops, Tea Room", "public_id": "teavana-kennesaw", "id": 762806630, "votes": null, "tagline": null, "has_video": false, "website": "http://www.citysearch.com/profile/external/762806630/kennesaw_ga/teavana.html", "offers": null, "latitude": 34.019128, "politanName": "Atlanta, GA Metro ", "phone_number": "7704208676", "tags": [{"primary": false, "id": 11318, "name": "Tea Room"}, {"primary": true, "id": 1711, "name": "Coffee & Tea Shops"}], "fax_number": null, "expansion": {"count": null, "uri": null}, "impression_id": "000b000000122b5ee7f7df46168f0796e927376b5a", "profile": "http://www.citysearch.com/profile/762806630/kennesaw_ga/teavana.html", "address": {"city": "Kennesaw", "state": "GA", "street": "400 Ernest W Barrett Pkwy NW", "postal_code": "30144"}, "capProviderId": null, "distance": null, "has_offers": false, "name": "Teavana", "longitude": -84.563608, "has_menu": false, "awards": null, "user_review_count": 1}, {"business_operation_status": 1, "rating": null, "neighborhood": null, "image": null, "scorecard": null, "featured": false, "sample_categories": "Restaurants, Pizza", "public_id": "johnnys-pizza-woodstock-2", "id": 773442120, "votes": null, "tagline": null, "has_video": false, "website": null, "offers": null, "latitude": 34.107712, "politanName": "Atlanta, GA Metro ", "phone_number": "6784012340", "tags": [{"primary": false, "id": 1722, "name": "Restaurants"}, {"primary": true, "id": 11299, "name": "Pizza"}], "fax_number": null, "expansion": {"count": null, "uri": null}, "impression_id": "000b000000eca16e7fc4ca446884e5c52c49a0e881", "profile": "http://www.citysearch.com/profile/773442120/woodstock_ga/johnny_s_pizza.html", "address": {"city": "Woodstock", "state": "GA", "street": "1105 Parkside Ln # 1330", "postal_code": "30189"}, "capProviderId": null, "distance": null, "has_offers": false, "name": "Johnny's Pizza", "longitude": -84.553184, "has_menu": true, "awards": null, "user_review_count": 0}, {"business_operation_status": 1, "rating": null, "neighborhood": null, "image": null, "scorecard": null, "featured": false, "sample_categories": "Restaurants, Barbecue Restaurants", "public_id": "reds-backwoods-barbecue-kennesaw", "id": 775234200, "votes": null, "tagline": null, "has_video": false, "website": null, "offers": null, "latitude": 33.999345, "politanName": "Atlanta, GA Metro ", "phone_number": "6782909055", "tags": [{"primary": false, "id": 1724, "name": "Barbecue Restaurants"}, {"primary": true, "id": 1722, "name": "Restaurants"}], "fax_number": null, "expansion": {"count": null, "uri": null}, "impression_id": "000b0000008eccc2ebdd5448c7b42f217a8a1ab6f4", "profile": "http://www.citysearch.com/profile/775234200/kennesaw_ga/reds_backwoods_barbecue.html", "address": {"city": "Kennesaw", "state": "GA", "street": "1200 Ernest W Barrett Pkwy NW", "postal_code": "30144"}, "capProviderId": null, "distance": null, "has_offers": false, "name": "Reds Backwoods Barbecue", "longitude": -84.586888, "has_menu": false, "awards": null, "user_review_count": 0}, {"business_operation_status": 1, "rating": null, "neighborhood": null, "image": null, "scorecard": null, "featured": false, "sample_categories": "Restaurants", "public_id": "southern-flavor-kennesaw", "id": 777652400, "votes": null, "tagline": null, "has_video": false, "website": null, "offers": null, "latitude": 34.014009, "politanName": "Atlanta, GA Metro ", "phone_number": "7704228400", "tags": [{"primary": true, "id": 1722, "name": "Restaurants"}], "fax_number": null, "expansion": {"count": null, "uri": null}, "impression_id": "000b00000014204d5c499d4908b99cc0041dd35df7", "profile": "http://www.citysearch.com/profile/777652400/kennesaw_ga/southern_flavor.html", "address": {"city": "Kennesaw", "state": "GA", "street": "400 Ernest W Barrett NW # 119", "postal_code": "30144"}, "capProviderId": null, "distance": null, "has_offers": false, "name": "Southern Flavor", "longitude": -84.561425, "has_menu": false, "awards": null, "user_review_count": 0}, {"business_operation_status": 1, "rating": null, "neighborhood": null, "image": null, "scorecard": null, "featured": false, "sample_categories": "Restaurants, Bars & Pubs", "public_id": "850-restaurant-lounge-roswell", "id": 764860590, "votes": null, "tagline": null, "has_video": false, "website": null, "offers": null, "latitude": 34.02, "politanName": "Atlanta, GA Metro ", "phone_number": "7706406261", "tags": [{"primary": false, "id": 1686, "name": "Bars & Pubs"}, {"primary": true, "id": 1722, "name": "Restaurants"}], "fax_number": null, "expansion": {"count": null, "uri": null}, "impression_id": "000b00000044eedff32af942b19f329df8afc312cb", "profile": "http://www.citysearch.com/profile/764860590/roswell_ga/850_restaurant_lounge.html", "address": {"city": "Roswell", "state": "GA", "street": "PO Box 961", "postal_code": "30077"}, "capProviderId": null, "distance": null, "has_offers": false, "name": "850 Restaurant & Lounge", "longitude": -84.36, "has_menu": false, "awards": null, "user_review_count": 0}, {"business_operation_status": 0, "rating": null, "neighborhood": null, "image": null, "scorecard": null, "featured": false, "sample_categories": "Restaurants, Delis And Delicatessens, Sandwich Shops, Carry Out", "public_id": "blimpie-subs-salads-acworth", "id": 764875800, "votes": null, "tagline": null, "has_video": false, "website": null, "offers": null, "latitude": 34.088626, "politanName": "Atlanta, GA Metro ", "phone_number": "7709241725", "tags": [{"primary": false, "id": 1727, "name": "Delis And Delicatessens"}, {"primary": false, "id": 1736, "name": "Sandwich Shops"}, {"primary": false, "id": 11247, "name": "Carry Out"}, {"primary": true, "id": 1722, "name": "Restaurants"}], "fax_number": null, "expansion": {"count": null, "uri": null}, "impression_id": "000b000000dd6bd330b98e43bab5e603d18ccfd2fe", "profile": "http://www.citysearch.com/profile/764875800/acworth_ga/blimpie_subs_salads.html", "address": {"city": "Acworth", "state": "GA", "street": "6161 Highway 92", "postal_code": "30102"}, "capProviderId": null, "distance": null, "has_offers": false, "name": "Blimpie Subs & Salads", "longitude": -84.586852, "has_menu": false, "awards": null, "user_review_count": 0}, {"business_operation_status": 1, "rating": null, "neighborhood": null, "image": null, "scorecard": null, "featured": false, "sample_categories": "Restaurants, Pizza", "public_id": "romeos-new-york-pizza-alpharetta", "id": 764905950, "votes": null, "tagline": null, "has_video": false, "website": null, "offers": null, "latitude": 34.081775, "politanName": "Atlanta, GA Metro ", "phone_number": "6788229222", "tags": [{"primary": false, "id": 11299, "name": "Pizza"}, {"primary": true, "id": 1722, "name": "Restaurants"}], "fax_number": null, "expansion": {"count": null, "uri": null}, "impression_id": "000b0000005ff4b7952974482b8c588c801fb2ee5e", "profile": "http://www.citysearch.com/profile/764905950/alpharetta_ga/romeo_s_new_york_pizza.html", "address": {"city": "Alpharetta", "state": "GA", "street": "12330 Crabapple Rd", "postal_code": "30004"}, "capProviderId": null, "distance": null, "has_offers": false, "name": "Romeo's New York Pizza", "longitude": -84.358005, "has_menu": false, "awards": null, "user_review_count": 0}, {"business_operation_status": 1, "rating": null, "neighborhood": null, "image": null, "scorecard": null, "featured": false, "sample_categories": "Coffeehouses", "public_id": "starbucks-marietta-14", "id": 781239330, "votes": null, "tagline": null, "has_video": false, "website": "http://www.citysearch.com/profile/external/781239330/marietta_ga/starbucks.html", "offers": null, "latitude": 33.952517, "politanName": "Atlanta, GA Metro ", "phone_number": "6782901695", "tags": [{"primary": true, "id": 1726, "name": "Coffeehouses"}], "fax_number": null, "expansion": {"count": null, "uri": null}, "impression_id": "000b000000a12ef05c2b32419e87a6a66b4802616c", "profile": "http://www.citysearch.com/profile/781239330/marietta_ga/starbucks.html", "address": {"city": "Marietta", "state": "GA", "street": "30 Whitlock Ave NW", "postal_code": "30064"}, "capProviderId": null, "distance": null, "has_offers": false, "name": "Starbucks", "longitude": -84.551632, "has_menu": false, "awards": null, "user_review_count": 0}, {"business_operation_status": 1, "rating": null, "neighborhood": null, "image": null, "scorecard": null, "featured": false, "sample_categories": "Restaurants, Traditional American", "public_id": "come-get-it-marietta", "id": 655806390, "votes": null, "tagline": null, "has_video": false, "website": "http://www.citysearch.com/profile/external/655806390/marietta_ga/come_get_it.html", "offers": null, "latitude": 33.97734, "politanName": "Atlanta, GA Metro ", "phone_number": "7704230010", "tags": [{"primary": false, "id": 11190, "name": "Traditional American"}, {"primary": true, "id": 1722, "name": "Restaurants"}], "fax_number": null, "expansion": {"count": null, "uri": null}, "impression_id": "000b000000213c89332ed341869d6920d03e235c3f", "profile": "http://www.citysearch.com/profile/655806390/marietta_ga/come_get_it.html", "address": {"city": "Marietta", "state": "GA", "street": "1409 Church Street Ext Ne # E", "postal_code": "30060"}, "capProviderId": null, "distance": null, "has_offers": false, "name": "Come & Get It", "longitude": -84.555829, "has_menu": false, "awards": null, "user_review_count": 0}, {"business_operation_status": 1, "rating": null, "neighborhood": null, "image": null, "scorecard": null, "featured": false, "sample_categories": "Restaurants, Pizza, Carry Out", "public_id": "jets-pizza-marietta", "id": 655911690, "votes": null, "tagline": null, "has_video": false, "website": "http://www.citysearch.com/profile/external/655911690/marietta_ga/jet_s_pizza.html", "offers": null, "latitude": 33.954848, "politanName": "Atlanta, GA Metro ", "phone_number": "7707925700", "tags": [{"primary": false, "id": 1722, "name": "Restaurants"}, {"primary": false, "id": 11247, "name": "Carry Out"}, {"primary": true, "id": 11299, "name": "Pizza"}], "fax_number": null, "expansion": {"count": null, "uri": null}, "impression_id": "000b0000006415187479e648b7bab724b29477bdbb", "profile": "http://www.citysearch.com/profile/655911690/marietta_ga/jet_s_pizza.html", "address": {"city": "Marietta", "state": "GA", "street": "3600 Dallas Hwy Sw", "postal_code": "30064"}, "capProviderId": null, "distance": null, "has_offers": false, "name": "Jet's Pizza", "longitude": -84.655682, "has_menu": false, "awards": null, "user_review_count": 0}, {"business_operation_status": 1, "rating": null, "neighborhood": null, "image": null, "scorecard": null, "featured": false, "sample_categories": "Restaurants, Mexican", "public_id": "mr-burrito-kennesaw", "id": 682318370, "votes": null, "tagline": null, "has_video": false, "website": null, "offers": null, "latitude": 34.028401, "politanName": "Atlanta, GA Metro ", "phone_number": "7709176061", "tags": [{"primary": false, "id": 11208, "name": "Mexican"}, {"primary": true, "id": 1722, "name": "Restaurants"}], "fax_number": null, "expansion": {"count": null, "uri": null}, "impression_id": "000b000000e4956ccdb9ce4b629bcc18f7d3d225af", "profile": "http://www.citysearch.com/profile/682318370/kennesaw_ga/mr_burrito.html", "address": {"city": "Kennesaw", "state": "GA", "street": "3061 Jim Owens Rd NW", "postal_code": "30152"}, "capProviderId": null, "distance": null, "has_offers": false, "name": "Mr Burrito", "longitude": -84.65049, "has_menu": false, "awards": null, "user_review_count": 0}, {"business_operation_status": 1, "rating": null, "neighborhood": null, "image": null, "scorecard": null, "featured": false, "sample_categories": "Restaurants, Carry Out, Hamburgers, American Express, Discover", "public_id": "burger-king-marietta-11", "id": 682637510, "votes": null, "tagline": null, "has_video": false, "website": "http://www.citysearch.com/profile/external/682637510/marietta_ga/burger_king.html", "offers": null, "latitude": 33.945546, "politanName": "Atlanta, GA Metro ", "phone_number": "6783541084", "tags": [{"primary": false, "id": 1722, "name": "Restaurants"}, {"primary": false, "id": 11270, "name": "Hamburgers"}, {"primary": false, "id": 11333, "name": "American Express"}, {"primary": false, "id": 11349, "name": "Discover"}, {"primary": false, "id": 11361, "name": "MasterCard"}, {"primary": false, "id": 11382, "name": "Visa"}, {"primary": true, "id": 11247, "name": "Carry Out"}], "fax_number": null, "expansion": {"count": null, "uri": null}, "impression_id": "000b000000dcb561019f7f4d05b6ebf275a90db3b4", "profile": "http://www.citysearch.com/profile/682637510/marietta_ga/burger_king.html", "address": {"city": "Marietta", "state": "GA", "street": "2495 Dallas Hwy SW", "postal_code": "30064"}, "capProviderId": null, "distance": null, "has_offers": false, "name": "Burger King", "longitude": -84.624745, "has_menu": true, "awards": null, "user_review_count": 0}, {"business_operation_status": 1, "rating": null, "neighborhood": null, "image": null, "scorecard": null, "featured": false, "sample_categories": "Restaurants, Delis And Delicatessens, Sandwich Shops, Carry Out", "public_id": "subway-roswell-16", "id": 781231490, "votes": null, "tagline": null, "has_video": false, "website": "http://www.citysearch.com/profile/external/781231490/roswell_ga/subway.html", "offers": null, "latitude": 34.026199, "politanName": "Atlanta, GA Metro ", "phone_number": "7705181060", "tags": [{"primary": false, "id": 1727, "name": "Delis And Delicatessens"}, {"primary": false, "id": 1736, "name": "Sandwich Shops"}, {"primary": false, "id": 11247, "name": "Carry Out"}, {"primary": true, "id": 1722, "name": "Restaurants"}], "fax_number": null, "expansion": {"count": null, "uri": null}, "impression_id": "000b0000008b60e8929ad24f5aba5359b92d98ef6c", "profile": "http://www.citysearch.com/profile/781231490/roswell_ga/subway.html", "address": {"city": "Roswell", "state": "GA", "street": "1007 Alpharetta St # 112", "postal_code": "30075"}, "capProviderId": null, "distance": null, "has_offers": false, "name": "SUBWAY", "longitude": -84.359351, "has_menu": false, "awards": null, "user_review_count": 0}, {"business_operation_status": 1, "rating": null, "neighborhood": null, "image": null, "scorecard": null, "featured": false, "sample_categories": "Ice Cream Parlors", "public_id": "high-road-craft-ice-cream-inc-marietta", "id": 803512700, "votes": null, "tagline": null, "has_video": false, "website": null, "offers": null, "latitude": 33.982909, "politanName": "Atlanta, GA Metro ", "phone_number": "7705651652", "tags": [{"primary": true, "id": 1730, "name": "Ice Cream Parlors"}], "fax_number": null, "expansion": {"count": null, "uri": null}, "impression_id": "000b00000060eef1a8b3c34636a531598ab5151e24", "profile": "http://www.citysearch.com/profile/803512700/marietta_ga/high_road_craft_ice_cream_inc.html", "address": {"city": "Marietta", "state": "GA", "street": "1730 W Oak Commons Ct", "postal_code": "30062"}, "capProviderId": null, "distance": null, "has_offers": false, "name": "High Road Craft Ice Cream INC", "longitude": -84.523354, "has_menu": false, "awards": null, "user_review_count": 0}, {"business_operation_status": 1, "rating": null, "neighborhood": null, "image": null, "scorecard": null, "featured": false, "sample_categories": "Restaurants", "public_id": "ken-mar-cafe-grill-marietta", "id": 808387530, "votes": null, "tagline": null, "has_video": false, "website": null, "offers": null, "latitude": 33.971179, "politanName": "Atlanta, GA Metro ", "phone_number": "7707950081", "tags": [{"primary": true, "id": 1722, "name": "Restaurants"}], "fax_number": null, "expansion": {"count": null, "uri": null}, "impression_id": "000b00000035ac488da1584b10afdbc08b7c582726", "profile": "http://www.citysearch.com/profile/808387530/marietta_ga/ken_mar_cafe_grill.html", "address": {"city": "Marietta", "state": "GA", "street": "833 Campbell Hill St NW # 105", "postal_code": "30060"}, "capProviderId": null, "distance": null, "has_offers": false, "name": "Ken Mar Cafe & Grill", "longitude": -84.552313, "has_menu": false, "awards": null, "user_review_count": 0}, {"business_operation_status": 1, "rating": null, "neighborhood": null, "image": null, "scorecard": null, "featured": false, "sample_categories": "Restaurants", "public_id": "el-fuereno-acworth", "id": 805170480, "votes": null, "tagline": null, "has_video": false, "website": null, "offers": null, "latitude": 34.088334, "politanName": "Atlanta, GA Metro ", "phone_number": "7705162270", "tags": [{"primary": true, "id": 1722, "name": "Restaurants"}], "fax_number": null, "expansion": {"count": null, "uri": null}, "impression_id": "000b0000001baf1810c00c41de8a581b0ec5f57c5f", "profile": "http://www.citysearch.com/profile/805170480/acworth_ga/el_fuereno.html", "address": {"city": "Acworth", "state": "GA", "street": "6548 Highway 92 # 150", "postal_code": "30102"}, "capProviderId": null, "distance": null, "has_offers": false, "name": "El Fuereno", "longitude": -84.579739, "has_menu": false, "awards": null, "user_review_count": 0}, {"business_operation_status": 0, "rating": 4.0, "neighborhood": null, "image": null, "scorecard": null, "featured": false, "sample_categories": "Restaurants, Carry Out", "public_id": "zaxbys-woodstock-2", "id": 37306042, "votes": null, "tagline": null, "has_video": false, "website": "http://www.citysearch.com/profile/external/37306042/woodstock_ga/zaxby_s.html", "offers": null, "latitude": 34.087178, "politanName": "Atlanta, GA Metro ", "phone_number": "6784949231", "tags": [{"primary": false, "id": 11247, "name": "Carry Out"}, {"primary": true, "id": 1722, "name": "Restaurants"}], "fax_number": null, "expansion": {"count": null, "uri": null}, "impression_id": "000b00000025611442526641d6b282c8a3c64d7531", "profile": "http://www.citysearch.com/profile/37306042/woodstock_ga/zaxby_s.html", "address": {"city": "Woodstock", "state": "GA", "street": "12900 Highway 92", "postal_code": "30188"}, "capProviderId": null, "distance": null, "has_offers": false, "name": "Zaxby's", "longitude": -84.473662, "has_menu": true, "awards": null, "user_review_count": 0}, {"business_operation_status": 0, "rating": null, "neighborhood": null, "image": null, "scorecard": null, "featured": false, "sample_categories": "Restaurants, Pizza", "public_id": "macs-pizza-pasta-marietta", "id": 807737810, "votes": null, "tagline": null, "has_video": false, "website": null, "offers": null, "latitude": 33.929154, "politanName": "Atlanta, GA Metro ", "phone_number": "7704997600", "tags": [{"primary": false, "id": 1722, "name": "Restaurants"}, {"primary": true, "id": 11299, "name": "Pizza"}], "fax_number": null, "expansion": {"count": null, "uri": null}, "impression_id": "000b0000007bc830f481794078a4e72c75577fae78", "profile": "http://www.citysearch.com/profile/807737810/marietta_ga/mac_s_pizza_pasta.html", "address": {"city": "Marietta", "state": "GA", "street": "950 Cobb Pkwy S # 230", "postal_code": "30060"}, "capProviderId": null, "distance": null, "has_offers": false, "name": "Mac's Pizza & Pasta", "longitude": -84.510376, "has_menu": true, "awards": null, "user_review_count": 0}, {"business_operation_status": 1, "rating": null, "neighborhood": null, "image": null, "scorecard": null, "featured": false, "sample_categories": "Restaurants, Luaus", "public_id": "summers-street-restaurant-kennesaw", "id": 833025270, "votes": null, "tagline": null, "has_video": false, "website": null, "offers": null, "latitude": 34.019119, "politanName": "Atlanta, GA Metro ", "phone_number": "7707922281", "tags": [{"primary": false, "id": 11285, "name": "Luaus"}, {"primary": true, "id": 1722, "name": "Restaurants"}], "fax_number": null, "expansion": {"count": null, "uri": null}, "impression_id": "000b00000014d327e19adc462494065e7485257959", "profile": "http://www.citysearch.com/profile/833025270/kennesaw_ga/summers_street_restaurant.html", "address": {"city": "Kennesaw", "state": "GA", "street": "2689 Summers St NW", "postal_code": "30144"}, "capProviderId": null, "distance": null, "has_offers": false, "name": "Summers Street Restaurant", "longitude": -84.61395, "has_menu": true, "awards": null, "user_review_count": 0}, {"business_operation_status": 1, "rating": null, "neighborhood": null, "image": null, "scorecard": null, "featured": false, "sample_categories": "Restaurants, Pizza, Carry Out", "public_id": "pizza-hut-marietta-14", "id": 814485380, "votes": null, "tagline": null, "has_video": false, "website": null, "offers": null, "latitude": 33.935534, "politanName": "Atlanta, GA Metro ", "phone_number": "7704291689", "tags": [{"primary": false, "id": 1722, "name": "Restaurants"}, {"primary": false, "id": 11247, "name": "Carry Out"}, {"primary": true, "id": 11299, "name": "Pizza"}], "fax_number": null, "expansion": {"count": null, "uri": null}, "impression_id": "000b000000f0e294d292b8490c94df22210dcf5871", "profile": "http://www.citysearch.com/profile/814485380/marietta_ga/pizza_hut.html", "address": {"city": "Marietta", "state": "GA", "street": "690 Sandtown Rd SW", "postal_code": "30008"}, "capProviderId": null, "distance": null, "has_offers": false, "name": "Pizza Hut", "longitude": -84.556228, "has_menu": false, "awards": null, "user_review_count": 0}, {"business_operation_status": 1, "rating": null, "neighborhood": null, "image": null, "scorecard": null, "featured": false, "sample_categories": "Restaurants", "public_id": "soba-bistro-bar-roswell", "id": 823305040, "votes": null, "tagline": null, "has_video": false, "website": null, "offers": null, "latitude": 34.053819, "politanName": "Atlanta, GA Metro ", "phone_number": "7709711888", "tags": [{"primary": true, "id": 1722, "name": "Restaurants"}], "fax_number": null, "expansion": {"count": null, "uri": null}, "impression_id": "000b0000005b0fd33dbc894cb7a8245802bfbb08aa", "profile": "http://www.citysearch.com/profile/823305040/roswell_ga/soba_bistro_bar.html", "address": {"city": "Roswell", "state": "GA", "street": "1005 Grace Hill Dr", "postal_code": "30075"}, "capProviderId": null, "distance": null, "has_offers": false, "name": "Soba Bistro & Bar", "longitude": -84.373112, "has_menu": false, "awards": null, "user_review_count": 0}, {"business_operation_status": 1, "rating": null, "neighborhood": null, "image": null, "scorecard": null, "featured": false, "sample_categories": "Ice Cream Parlors", "public_id": "baskinrobbins-marietta-8", "id": 833503720, "votes": null, "tagline": null, "has_video": false, "website": null, "offers": null, "latitude": 33.949812, "politanName": "Atlanta, GA Metro ", "phone_number": "7709713251", "tags": [{"primary": true, "id": 1730, "name": "Ice Cream Parlors"}], "fax_number": null, "expansion": {"count": null, "uri": null}, "impression_id": "000b000000e10bfef4c8c2432bacebfff0514eee70", "profile": "http://www.citysearch.com/profile/833503720/marietta_ga/baskin_robbins.html", "address": {"city": "Marietta", "state": "GA", "street": "80 Powers Ferry Rd SE", "postal_code": "30067"}, "capProviderId": null, "distance": null, "has_offers": false, "name": "Baskin-Robbins", "longitude": -84.511129, "has_menu": true, "awards": null, "user_review_count": 0}], "histograms": [], "tag_ids": [1722], "uri": "http://api.citygridmedia.com:8080/search/places/v2/search/where?has_offers=false&type=restaurant&format=json&page=38&where=30066&rpp=50&histograms=false&publisher=10000009598&region_type=circle", "did_you_mean": "", "regions": [{"latitude": 34.034132, "default_radius": 5.28, "type": "postal_code", "name": "30066", "longitude": -84.508332}], "call_id": "000b00000083f242914d0f4dd58391f310b06415cb", "first_hit": 1851, "total_hits": 2075, "geo_ids": [26294], "page": 38, "last_hit": 1900}}