{"results": {"rpp": 50, "locations": [{"business_operation_status": 1, "rating": null, "neighborhood": null, "image": null, "scorecard": null, "featured": false, "sample_categories": "Restaurants, Carry Out, Pizza", "public_id": "little-caesars-pizza-smyrna-3", "id": 787125170, "votes": null, "tagline": null, "has_video": false, "website": "http://www.citysearch.com/profile/external/787125170/smyrna_ga/little_caesars_pizza.html", "offers": null, "latitude": 33.882426, "politanName": "Atlanta, GA Metro ", "phone_number": "7709891088", "tags": [{"primary": false, "id": 11247, "name": "Carry Out"}, {"primary": false, "id": 11299, "name": "Pizza"}, {"primary": true, "id": 1722, "name": "Restaurants"}], "fax_number": null, "expansion": {"count": null, "uri": null}, "impression_id": "000b000000ef0d0508e09c4669b12eabf83d05f609", "profile": "http://www.citysearch.com/profile/787125170/smyrna_ga/little_caesars_pizza.html", "address": {"city": "Smyrna", "state": "GA", "street": "2350 Spring Rd Se", "postal_code": "30080"}, "capProviderId": null, "distance": null, "has_offers": false, "name": "Little Caesars Pizza", "longitude": -84.487375, "has_menu": false, "awards": null, "user_review_count": 0}, {"business_operation_status": 1, "rating": null, "neighborhood": null, "image": null, "scorecard": null, "featured": false, "sample_categories": "Restaurants, Chicken", "public_id": "mrs-winners-chicken-biscuit-atlanta", "id": 787141370, "votes": null, "tagline": null, "has_video": false, "website": null, "offers": null, "latitude": 33.920561, "politanName": "Atlanta, GA Metro ", "phone_number": "4044595805", "tags": [{"primary": false, "id": 12839, "name": "Chicken"}, {"primary": true, "id": 1722, "name": "Restaurants"}], "fax_number": null, "expansion": {"count": null, "uri": null}, "impression_id": "000b000000591f2236e54f4686b87fcd2fa0e6f03f", "profile": "http://www.citysearch.com/profile/787141370/atlanta_ga/mrs_winner_s_chicken_biscuit.html", "address": {"city": "Atlanta", "state": "GA", "street": "6055 Barfield Rd", "postal_code": "30328"}, "capProviderId": null, "distance": null, "has_offers": false, "name": "Mrs Winner's Chicken & Biscuit", "longitude": -84.359951, "has_menu": false, "awards": null, "user_review_count": 0}, {"business_operation_status": 1, "rating": null, "neighborhood": null, "image": null, "scorecard": null, "featured": false, "sample_categories": "Restaurants, Carry Out", "public_id": "golden-corral-buffet-grill-atlanta", "id": 823318790, "votes": null, "tagline": null, "has_video": false, "website": null, "offers": null, "latitude": 33.910136, "politanName": "Atlanta, GA Metro ", "phone_number": "7709551779", "tags": [{"primary": false, "id": 11247, "name": "Carry Out"}, {"primary": true, "id": 1722, "name": "Restaurants"}], "fax_number": null, "expansion": {"count": null, "uri": null}, "impression_id": "000b0000006b3d65db85b74f7eb1c25c21f3ea6004", "profile": "http://www.citysearch.com/profile/823318790/atlanta_ga/golden_corral_buffet_grill.html", "address": {"city": "Atlanta", "state": "GA", "street": "6120 Powers Ferry Rd", "postal_code": "30339"}, "capProviderId": null, "distance": null, "has_offers": false, "name": "Golden Corral Buffet & Grill", "longitude": -84.424438, "has_menu": false, "awards": null, "user_review_count": 0}, {"business_operation_status": 1, "rating": null, "neighborhood": null, "image": null, "scorecard": null, "featured": false, "sample_categories": "Restaurants", "public_id": "zeal-modern-eatery-marietta", "id": 796135850, "votes": null, "tagline": null, "has_video": false, "website": null, "offers": null, "latitude": 33.979324, "politanName": "Atlanta, GA Metro ", "phone_number": "7705790095", "tags": [{"primary": true, "id": 1722, "name": "Restaurants"}], "fax_number": null, "expansion": {"count": null, "uri": null}, "impression_id": "000b000000cfaf64655ff442fcbf79fe1527c732d6", "profile": "http://www.citysearch.com/profile/796135850/marietta_ga/zeal_modern_eatery.html", "address": {"city": "Marietta", "state": "GA", "street": "1255 Johnson Ferry Rd", "postal_code": "30068"}, "capProviderId": null, "distance": null, "has_offers": false, "name": "Zeal Modern Eatery", "longitude": -84.421557, "has_menu": true, "awards": null, "user_review_count": 0}, {"business_operation_status": 1, "rating": null, "neighborhood": null, "image": null, "scorecard": null, "featured": false, "sample_categories": "Restaurants, Barbecue Restaurants", "public_id": "bbq-1-marietta", "id": 801059740, "votes": null, "tagline": null, "has_video": false, "website": null, "offers": null, "latitude": 33.968458, "politanName": "Atlanta, GA Metro ", "phone_number": "7709773005", "tags": [{"primary": false, "id": 1724, "name": "Barbecue Restaurants"}, {"primary": true, "id": 1722, "name": "Restaurants"}], "fax_number": null, "expansion": {"count": null, "uri": null}, "impression_id": "000b000000c8cffd63d9e54380b1bfc12d8f4fcc31", "profile": "http://www.citysearch.com/profile/801059740/marietta_ga/bbq_1.html", "address": {"city": "Marietta", "state": "GA", "street": "814 Thackston Dr", "postal_code": "30068"}, "capProviderId": null, "distance": null, "has_offers": false, "name": "BBQ 1", "longitude": -84.403873, "has_menu": false, "awards": null, "user_review_count": 0}, {"business_operation_status": 1, "rating": null, "neighborhood": null, "image": null, "scorecard": null, "featured": false, "sample_categories": "Doughnut Shops, Coffeehouses", "public_id": "dunkin-donuts-marietta-6", "id": 627683600, "votes": null, "tagline": null, "has_video": false, "website": "http://www.citysearch.com/profile/external/627683600/marietta_ga/dunkin_donuts.html", "offers": null, "latitude": 34.016918, "politanName": "Atlanta, GA Metro ", "phone_number": "7709772722", "tags": [{"primary": false, "id": 1726, "name": "Coffeehouses"}, {"primary": true, "id": 1734, "name": "Doughnut Shops"}], "fax_number": null, "expansion": {"count": null, "uri": null}, "impression_id": "000b0000006d328dfb6084481faaf2df99c449bf47", "profile": "http://www.citysearch.com/profile/627683600/marietta_ga/dunkin_donuts.html", "address": {"city": "Marietta", "state": "GA", "street": "2765 Sandy Plains Rd", "postal_code": "30066"}, "capProviderId": null, "distance": null, "has_offers": false, "name": "Dunkin' Donuts", "longitude": -84.492855, "has_menu": true, "awards": null, "user_review_count": 0}, {"business_operation_status": 0, "rating": null, "neighborhood": null, "image": null, "scorecard": null, "featured": false, "sample_categories": "Restaurants, Bars & Clubs, Bars & Pubs, Carry Out", "public_id": "tgi-fridays-atlanta-17", "id": 764862940, "votes": null, "tagline": null, "has_video": false, "website": "http://www.citysearch.com/profile/external/764862940/atlanta_ga/tgi_friday_s.html", "offers": null, "latitude": 33.904204, "politanName": "Atlanta, GA Metro ", "phone_number": "7709510821", "tags": [{"primary": false, "id": 164, "name": "Bars & Clubs"}, {"primary": false, "id": 1686, "name": "Bars & Pubs"}, {"primary": false, "id": 11247, "name": "Carry Out"}, {"primary": true, "id": 1722, "name": "Restaurants"}], "fax_number": null, "expansion": {"count": null, "uri": null}, "impression_id": "000b000000b2586a3b65c942419a369854f1e5ad2b", "profile": "http://www.citysearch.com/profile/764862940/atlanta_ga/tgi_friday_s.html", "address": {"city": "Atlanta", "state": "GA", "street": "1945 Powers Ferry Rd SE", "postal_code": "30339"}, "capProviderId": null, "distance": null, "has_offers": false, "name": "TGI Friday's", "longitude": -84.45989, "has_menu": false, "awards": null, "user_review_count": 0}, {"business_operation_status": 1, "rating": null, "neighborhood": null, "image": null, "scorecard": null, "featured": false, "sample_categories": "Barbecue Restaurants, Restaurants", "public_id": "als-barbeque-marietta", "id": 764865730, "votes": null, "tagline": null, "has_video": false, "website": null, "offers": null, "latitude": 33.951118, "politanName": "Atlanta, GA Metro ", "phone_number": "7704999774", "tags": [{"primary": false, "id": 1722, "name": "Restaurants"}, {"primary": true, "id": 1724, "name": "Barbecue Restaurants"}], "fax_number": null, "expansion": {"count": null, "uri": null}, "impression_id": "000b000000bac1d711eea84b128d2878081d61753a", "profile": "http://www.citysearch.com/profile/764865730/marietta_ga/al_s_barbeque.html", "address": {"city": "Marietta", "state": "GA", "street": "34 Powder Springs St", "postal_code": "30064"}, "capProviderId": null, "distance": null, "has_offers": false, "name": "Al's Barbeque", "longitude": -84.550542, "has_menu": true, "awards": null, "user_review_count": 0}, {"business_operation_status": 1, "rating": null, "neighborhood": null, "image": null, "scorecard": null, "featured": false, "sample_categories": "Restaurants", "public_id": "chaplin-restaurant-roswell", "id": 764878060, "votes": null, "tagline": null, "has_video": false, "website": "http://www.citysearch.com/profile/external/764878060/roswell_ga/chaplin_restaurant.html", "offers": null, "latitude": 34.0134, "politanName": "Atlanta, GA Metro ", "phone_number": "7706426981", "tags": [{"primary": true, "id": 1722, "name": "Restaurants"}], "fax_number": null, "expansion": {"count": null, "uri": null}, "impression_id": "000b000000c16aeb0398a44bd0a1d2018accdb335f", "profile": "http://www.citysearch.com/profile/764878060/roswell_ga/chaplin_restaurant.html", "address": {"city": "Roswell", "state": "GA", "street": "555 S Atlanta St", "postal_code": "30075"}, "capProviderId": null, "distance": null, "has_offers": false, "name": "Chaplin Restaurant", "longitude": -84.362872, "has_menu": false, "awards": null, "user_review_count": 0}, {"business_operation_status": 0, "rating": null, "neighborhood": null, "image": null, "scorecard": null, "featured": false, "sample_categories": "Restaurants, Bars & Pubs, Barbecue Restaurants, Traditional American", "public_id": "tilted-kilt-pub-eatery-atlanta-2", "id": 653570530, "votes": null, "tagline": null, "has_video": false, "website": "http://www.citysearch.com/profile/external/653570530/atlanta_ga/tilted_kilt_pub_eatery.html", "offers": null, "latitude": 33.880351, "politanName": "Atlanta, GA Metro ", "phone_number": "6787415292", "tags": [{"primary": false, "id": 1686, "name": "Bars & Pubs"}, {"primary": false, "id": 1724, "name": "Barbecue Restaurants"}, {"primary": false, "id": 11190, "name": "Traditional American"}, {"primary": true, "id": 1722, "name": "Restaurants"}], "fax_number": null, "expansion": {"count": null, "uri": null}, "impression_id": "000b00000032f352d9612d4c3b8a968494530adb67", "profile": "http://www.citysearch.com/profile/653570530/atlanta_ga/tilted_kilt_pub_eatery.html", "address": {"city": "Atlanta", "state": "GA", "street": "2960 Cobb Pkwy", "postal_code": "30339"}, "capProviderId": null, "distance": null, "has_offers": false, "name": "Tilted Kilt Pub & Eatery", "longitude": -84.462963, "has_menu": false, "awards": null, "user_review_count": 0}, {"business_operation_status": 1, "rating": null, "neighborhood": null, "image": null, "scorecard": null, "featured": false, "sample_categories": "Restaurants, Pizza", "public_id": "johnnys-new-york-style-pizza-smyrna-2", "id": 653590150, "votes": null, "tagline": null, "has_video": false, "website": null, "offers": null, "latitude": 33.887146, "politanName": "Atlanta, GA Metro ", "phone_number": "7704380300", "tags": [{"primary": false, "id": 1722, "name": "Restaurants"}, {"primary": true, "id": 11299, "name": "Pizza"}], "fax_number": null, "expansion": {"count": null, "uri": null}, "impression_id": "000b000000558910f7cc234b6a89f4564de4162ac3", "profile": "http://www.citysearch.com/profile/653590150/smyrna_ga/johnny_s_new_york_style_pizza.html", "address": {"city": "Smyrna", "state": "GA", "street": "2700 Cobb Pkwy Se", "postal_code": "30080"}, "capProviderId": null, "distance": null, "has_offers": false, "name": "Johnny's New York Style Pizza", "longitude": -84.47315, "has_menu": false, "awards": null, "user_review_count": 0}, {"business_operation_status": 1, "rating": null, "neighborhood": null, "image": null, "scorecard": null, "featured": false, "sample_categories": "Restaurants, Bars & Clubs, Bars & Pubs", "public_id": "kastaways-food-spirits-marietta", "id": 655851930, "votes": null, "tagline": null, "has_video": false, "website": null, "offers": null, "latitude": 33.934059, "politanName": "Atlanta, GA Metro ", "phone_number": "7704294922", "tags": [{"primary": false, "id": 164, "name": "Bars & Clubs"}, {"primary": false, "id": 1686, "name": "Bars & Pubs"}, {"primary": true, "id": 1722, "name": "Restaurants"}], "fax_number": null, "expansion": {"count": null, "uri": null}, "impression_id": "000b0000009bfff1aebf554fc79b9b2c4856abfcec", "profile": "http://www.citysearch.com/profile/655851930/marietta_ga/kastaways_food_spirits.html", "address": {"city": "Marietta", "state": "GA", "street": "795 Powder Springs St", "postal_code": "30064"}, "capProviderId": null, "distance": null, "has_offers": false, "name": "Kastaways Food & Spirits", "longitude": -84.559181, "has_menu": false, "awards": null, "user_review_count": 0}, {"business_operation_status": 1, "rating": null, "neighborhood": null, "image": null, "scorecard": null, "featured": false, "sample_categories": "Restaurants, Bars & Clubs, Bars & Pubs, Carry Out, Steakhouse", "public_id": "applebees-neighborhood-grill-atlanta-5", "id": 682623920, "votes": null, "tagline": null, "has_video": false, "website": "http://www.citysearch.com/profile/external/682623920/atlanta_ga/applebee_s.html", "offers": null, "latitude": 33.884889, "politanName": "Atlanta, GA Metro ", "phone_number": "7704321974", "tags": [{"primary": false, "id": 164, "name": "Bars & Clubs"}, {"primary": false, "id": 1686, "name": "Bars & Pubs"}, {"primary": false, "id": 11247, "name": "Carry Out"}, {"primary": false, "id": 11316, "name": "Steakhouse"}, {"primary": false, "id": 11333, "name": "American Express"}, {"primary": false, "id": 11349, "name": "Discover"}, {"primary": false, "id": 11361, "name": "MasterCard"}, {"primary": false, "id": 11382, "name": "Visa"}, {"primary": true, "id": 1722, "name": "Restaurants"}], "fax_number": null, "expansion": {"count": null, "uri": null}, "impression_id": "000b0000002d0aa510749b406a88c4d87853cef48c", "profile": "http://www.citysearch.com/profile/682623920/atlanta_ga/applebee_s.html", "address": {"city": "Atlanta", "state": "GA", "street": "2728 New Spring Road S.E.", "postal_code": "30339"}, "capProviderId": null, "distance": null, "has_offers": false, "name": "Applebee's", "longitude": -84.473777, "has_menu": false, "awards": null, "user_review_count": 0}, {"business_operation_status": 1, "rating": null, "neighborhood": null, "image": null, "scorecard": null, "featured": false, "sample_categories": "Restaurants", "public_id": "mobile-pit-stop-of-atlanta-smyrna", "id": 754713040, "votes": null, "tagline": null, "has_video": false, "website": null, "offers": null, "latitude": 33.884704, "politanName": "Atlanta, GA Metro ", "phone_number": "7707786349", "tags": [{"primary": true, "id": 1722, "name": "Restaurants"}], "fax_number": null, "expansion": {"count": null, "uri": null}, "impression_id": "000b0000001b8ca8f95edb4f32b083afecb5dc9e73", "profile": "http://www.citysearch.com/profile/754713040/smyrna_ga/mobile_pit_stop_of_atlanta.html", "address": {"city": "Smyrna", "state": "GA", "street": "2051 Glenroy Dr SE", "postal_code": "30080"}, "capProviderId": null, "distance": null, "has_offers": false, "name": "Mobile Pit Stop of Atlanta", "longitude": -84.4941, "has_menu": false, "awards": null, "user_review_count": 0}, {"business_operation_status": 1, "rating": null, "neighborhood": null, "image": null, "scorecard": null, "featured": false, "sample_categories": "Restaurants, Asian, Chinese", "public_id": "chinese-restaurant-marietta", "id": 682576220, "votes": null, "tagline": null, "has_video": false, "website": "http://www.citysearch.com/profile/external/682576220/marietta_ga/chinese_restaurant.html", "offers": null, "latitude": 33.968527, "politanName": "Atlanta, GA Metro ", "phone_number": "7703218202", "tags": [{"primary": false, "id": 11235, "name": "Asian"}, {"primary": false, "id": 11252, "name": "Chinese"}, {"primary": true, "id": 1722, "name": "Restaurants"}], "fax_number": null, "expansion": {"count": null, "uri": null}, "impression_id": "000b000000e43b114c1e08446189ab047880674608", "profile": "http://www.citysearch.com/profile/682576220/marietta_ga/chinese_restaurant.html", "address": {"city": "Marietta", "state": "GA", "street": "2145 Roswell Rd", "postal_code": "30062"}, "capProviderId": null, "distance": null, "has_offers": false, "name": "Chinese Restaurant", "longitude": -84.491622, "has_menu": false, "awards": null, "user_review_count": 0}, {"business_operation_status": 1, "rating": null, "neighborhood": null, "image": null, "scorecard": null, "featured": false, "sample_categories": "Restaurants", "public_id": "kelley-restaurants-inc-atlanta", "id": 805545520, "votes": null, "tagline": null, "has_video": false, "website": null, "offers": null, "latitude": 33.907557, "politanName": "Atlanta, GA Metro ", "phone_number": "4042571706", "tags": [{"primary": true, "id": 1722, "name": "Restaurants"}], "fax_number": null, "expansion": {"count": null, "uri": null}, "impression_id": "000b000000492337e616b84dea928b962c4972e4dd", "profile": "http://www.citysearch.com/profile/805545520/atlanta_ga/kelley_restaurants_inc.html", "address": {"city": "Atlanta", "state": "GA", "street": "5600 Roswell Rd # 100", "postal_code": "30342"}, "capProviderId": null, "distance": null, "has_offers": false, "name": "Kelley Restaurants Inc", "longitude": -84.378776, "has_menu": false, "awards": null, "user_review_count": 0}, {"business_operation_status": 1, "rating": null, "neighborhood": null, "image": null, "scorecard": null, "featured": false, "sample_categories": "Restaurants", "public_id": "philly-connection-marietta-4", "id": 805419070, "votes": null, "tagline": null, "has_video": false, "website": null, "offers": null, "latitude": 34.011742, "politanName": "Atlanta, GA Metro ", "phone_number": "7705799288", "tags": [{"primary": true, "id": 1722, "name": "Restaurants"}], "fax_number": null, "expansion": {"count": null, "uri": null}, "impression_id": "000b000000a96c4027f79e469a96300c790fe3ecac", "profile": "http://www.citysearch.com/profile/805419070/marietta_ga/philly_connection.html", "address": {"city": "Marietta", "state": "GA", "street": "2550 Sandy Plains Rd # 215", "postal_code": "30066"}, "capProviderId": null, "distance": null, "has_offers": false, "name": "Philly Connection", "longitude": -84.495056, "has_menu": true, "awards": null, "user_review_count": 0}, {"business_operation_status": 1, "rating": null, "neighborhood": null, "image": null, "scorecard": null, "featured": false, "sample_categories": "Restaurants, Cafes", "public_id": "dsc-solutions-llc-marietta", "id": 764892180, "votes": null, "tagline": null, "has_video": false, "website": null, "offers": null, "latitude": 34.014183, "politanName": "Atlanta, GA Metro ", "phone_number": "7709776915", "tags": [{"primary": false, "id": 6190, "name": "Cafes"}, {"primary": true, "id": 1722, "name": "Restaurants"}], "fax_number": null, "expansion": {"count": null, "uri": null}, "impression_id": "000b000000231abe5321d04265a45bc7378a1680b6", "profile": "http://www.citysearch.com/profile/764892180/marietta_ga/dsc_solutions_llc.html", "address": {"city": "Marietta", "state": "GA", "street": "2595 Sandy Plains Rd # 1", "postal_code": "30066"}, "capProviderId": null, "distance": null, "has_offers": false, "name": "DSC Solutions Llc", "longitude": -84.495373, "has_menu": false, "awards": null, "user_review_count": 0}, {"business_operation_status": 1, "rating": null, "neighborhood": null, "image": null, "scorecard": null, "featured": false, "sample_categories": "Restaurants, Carry Out", "public_id": "ryans-grill-buffet-bakery-marietta", "id": 764837190, "votes": null, "tagline": null, "has_video": false, "website": null, "offers": null, "latitude": 34.010977, "politanName": "Atlanta, GA Metro ", "phone_number": "7704250277", "tags": [{"primary": false, "id": 11247, "name": "Carry Out"}, {"primary": true, "id": 1722, "name": "Restaurants"}], "fax_number": null, "expansion": {"count": null, "uri": null}, "impression_id": "000b000000686a7c0656f64ee685a7da4c8214f2b4", "profile": "http://www.citysearch.com/profile/764837190/marietta_ga/ryan_s_grill_buffet_bakery.html", "address": {"city": "Marietta", "state": "GA", "street": "2418 Canton Rd", "postal_code": "30066"}, "capProviderId": null, "distance": null, "has_offers": false, "name": "Ryan's Grill Buffet & Bakery", "longitude": -84.526734, "has_menu": false, "awards": null, "user_review_count": 0}, {"business_operation_status": 1, "rating": null, "neighborhood": null, "image": null, "scorecard": null, "featured": false, "sample_categories": "Restaurants, Japanese", "public_id": "access-japan-inc-marietta", "id": 775202150, "votes": null, "tagline": null, "has_video": false, "website": null, "offers": null, "latitude": 33.959931, "politanName": "Atlanta, GA Metro ", "phone_number": "7709714847", "tags": [{"primary": false, "id": 11202, "name": "Japanese"}, {"primary": true, "id": 1722, "name": "Restaurants"}], "fax_number": null, "expansion": {"count": null, "uri": null}, "impression_id": "000b000000fbe1dbb729244eeaa7a85020fdcdcb7e", "profile": "http://www.citysearch.com/profile/775202150/marietta_ga/access_japan_inc.html", "address": {"city": "Marietta", "state": "GA", "street": "360 Willow Glen Dr", "postal_code": "30068"}, "capProviderId": null, "distance": null, "has_offers": false, "name": "Access Japan Inc", "longitude": -84.485385, "has_menu": false, "awards": null, "user_review_count": 0}, {"business_operation_status": 1, "rating": null, "neighborhood": null, "image": null, "scorecard": null, "featured": false, "sample_categories": "Barbecue Restaurants, Restaurants, Hot Dogs", "public_id": "bbq-1-roswell", "id": 713485770, "votes": null, "tagline": null, "has_video": false, "website": "http://www.citysearch.com/profile/external/713485770/roswell_ga/bbq_1.html", "offers": null, "latitude": 34.027716, "politanName": "Atlanta, GA Metro ", "phone_number": "7705872271", "tags": [{"primary": false, "id": 1722, "name": "Restaurants"}, {"primary": false, "id": 11274, "name": "Hot Dogs"}, {"primary": true, "id": 1724, "name": "Barbecue Restaurants"}], "fax_number": null, "expansion": {"count": null, "uri": null}, "impression_id": "000b000000a9e1b93524d3418094c3915cc6ee75d5", "profile": "http://www.citysearch.com/profile/713485770/roswell_ga/bbq_1.html", "address": {"city": "Roswell", "state": "GA", "street": "4401 Shallowford Rd", "postal_code": "30075"}, "capProviderId": null, "distance": null, "has_offers": false, "name": "BBQ 1", "longitude": -84.420333, "has_menu": false, "awards": null, "user_review_count": 0}, {"business_operation_status": 1, "rating": null, "neighborhood": null, "image": null, "scorecard": null, "featured": false, "sample_categories": "Bakeries, Restaurants, Cafes, Cookies", "public_id": "nestle-toll-house-cafe-by-chip-atlanta", "id": 713629950, "votes": null, "tagline": null, "has_video": false, "website": null, "offers": null, "latitude": 33.881746, "politanName": "Atlanta, GA Metro ", "phone_number": "7704356648", "tags": [{"primary": false, "id": 1722, "name": "Restaurants"}, {"primary": false, "id": 6190, "name": "Cafes"}, {"primary": false, "id": 11050, "name": "Cookies"}, {"primary": true, "id": 1685, "name": "Bakeries"}], "fax_number": null, "expansion": {"count": null, "uri": null}, "impression_id": "000b000000167164b155bf4dd7adce2aa014c72c1f", "profile": "http://www.citysearch.com/profile/713629950/atlanta_ga/nestle_toll_house_cafe_by_chip.html", "address": {"city": "Atlanta", "state": "GA", "street": "1000 Cumberland Mall Se", "postal_code": "30339"}, "capProviderId": null, "distance": null, "has_offers": false, "name": "Nestle Toll House Cafe By Chip", "longitude": -84.470079, "has_menu": false, "awards": null, "user_review_count": 0}, {"business_operation_status": 1, "rating": null, "neighborhood": null, "image": null, "scorecard": null, "featured": false, "sample_categories": "Restaurants, Bars & Clubs, Bars & Pubs", "public_id": "abbey-road-bar-grill-marietta", "id": 728039580, "votes": null, "tagline": null, "has_video": false, "website": "http://www.citysearch.com/profile/external/728039580/marietta_ga/abbey_road_bar_grill.html", "offers": null, "latitude": 34.020856, "politanName": "Atlanta, GA Metro ", "phone_number": "7706430138", "tags": [{"primary": false, "id": 164, "name": "Bars & Clubs"}, {"primary": false, "id": 1686, "name": "Bars & Pubs"}, {"primary": true, "id": 1722, "name": "Restaurants"}], "fax_number": null, "expansion": {"count": null, "uri": null}, "impression_id": "000b0000001edb06e56be94245abb9f4b9ac7d7088", "profile": "http://www.citysearch.com/profile/728039580/marietta_ga/abbey_road_bar_grill.html", "address": {"city": "Marietta", "state": "GA", "street": "2940 Johnson Ferry Rd", "postal_code": "30062"}, "capProviderId": null, "distance": null, "has_offers": false, "name": "Abbey Road Bar & Grill", "longitude": -84.426832, "has_menu": false, "awards": null, "user_review_count": 0}, {"business_operation_status": 1, "rating": null, "neighborhood": null, "image": null, "scorecard": null, "featured": false, "sample_categories": "Ice Cream Parlors", "public_id": "smyrna-old-fashioned-ice-cream-smyrna", "id": 829274170, "votes": null, "tagline": null, "has_video": false, "website": null, "offers": null, "latitude": 33.8824, "politanName": "Atlanta, GA Metro ", "phone_number": "7704345560", "tags": [{"primary": true, "id": 1730, "name": "Ice Cream Parlors"}], "fax_number": null, "expansion": {"count": null, "uri": null}, "impression_id": "000b000000e3acb12366dc4726a22dd87fb4b4cc73", "profile": "http://www.citysearch.com/profile/829274170/smyrna_ga/smyrna_old_fashioned_ice_cream.html", "address": {"city": "Smyrna", "state": "GA", "street": "885 Flagler Cir SE", "postal_code": "30080"}, "capProviderId": null, "distance": null, "has_offers": false, "name": "Smyrna Old Fashioned Ice Cream", "longitude": -84.527884, "has_menu": false, "awards": null, "user_review_count": 0}, {"business_operation_status": 1, "rating": null, "neighborhood": null, "image": null, "scorecard": null, "featured": false, "sample_categories": "Restaurants, Greek, Middle Eastern, Family Style Dining, Mediterranean", "public_id": "milos-greek-taverna-marietta", "id": 798213230, "votes": null, "tagline": null, "has_video": false, "website": null, "offers": null, "latitude": 33.953276, "politanName": "Atlanta, GA Metro ", "phone_number": "6789033148", "tags": [{"primary": false, "id": 1722, "name": "Restaurants"}, {"primary": false, "id": 11215, "name": "Middle Eastern"}, {"primary": false, "id": 11262, "name": "Family Style Dining"}, {"primary": false, "id": 11289, "name": "Mediterranean"}, {"primary": true, "id": 11268, "name": "Greek"}], "fax_number": "6789033149", "expansion": {"count": null, "uri": null}, "impression_id": "000b000000ca662f20fdb44d48b0472efa66a0a2f2", "profile": "http://www.citysearch.com/profile/798213230/marietta_ga/milos_greek_taverna.html", "address": {"city": "Marietta", "state": "GA", "street": "26 Mill St NE", "postal_code": "30060"}, "capProviderId": null, "distance": null, "has_offers": false, "name": "Milos Greek Taverna", "longitude": -84.551885, "has_menu": false, "awards": null, "user_review_count": 0}, {"business_operation_status": 1, "rating": null, "neighborhood": null, "image": null, "scorecard": null, "featured": false, "sample_categories": "Restaurants, Pizza", "public_id": "brixx-wood-fired-pizza-marietta", "id": 836778520, "votes": null, "tagline": null, "has_video": false, "website": null, "offers": null, "latitude": 33.98752, "politanName": "Atlanta, GA Metro ", "phone_number": "6789034410", "tags": [{"primary": false, "id": 1722, "name": "Restaurants"}, {"primary": true, "id": 11299, "name": "Pizza"}], "fax_number": null, "expansion": {"count": null, "uri": null}, "impression_id": "000b00000098354919671c4de8a8022498a57a4bc4", "profile": "http://www.citysearch.com/profile/836778520/marietta_ga/brixx_wood_fired_pizza.html", "address": {"city": "Marietta", "state": "GA", "street": "4475 Roswell Rd # 1700", "postal_code": "30062"}, "capProviderId": null, "distance": null, "has_offers": false, "name": "Brixx Wood Fired Pizza", "longitude": -84.42189, "has_menu": false, "awards": null, "user_review_count": 0}, {"business_operation_status": 1, "rating": null, "neighborhood": null, "image": null, "scorecard": null, "featured": false, "sample_categories": "Restaurants", "public_id": "tappan-street-restaurant-group-roswell-2", "id": 808718630, "votes": null, "tagline": null, "has_video": false, "website": null, "offers": null, "latitude": 34.025741, "politanName": "Atlanta, GA Metro ", "phone_number": "7706431090", "tags": [{"primary": true, "id": 1722, "name": "Restaurants"}], "fax_number": null, "expansion": {"count": null, "uri": null}, "impression_id": "000b0000007ee4e4552c7a4166a5ea62f90c6e3858", "profile": "http://www.citysearch.com/profile/808718630/roswell_ga/tappan_street_restaurant_group.html", "address": {"city": "Roswell", "state": "GA", "street": "66 Norcross St", "postal_code": "30075"}, "capProviderId": null, "distance": null, "has_offers": false, "name": "Tappan Street Restaurant Group", "longitude": -84.359094, "has_menu": false, "awards": null, "user_review_count": 0}, {"business_operation_status": 1, "rating": null, "neighborhood": null, "image": null, "scorecard": null, "featured": false, "sample_categories": "Delis And Delicatessens", "public_id": "deli-management-sandy", "id": 754744130, "votes": null, "tagline": null, "has_video": false, "website": null, "offers": null, "latitude": 33.917883, "politanName": "Atlanta, GA Metro ", "phone_number": "4048438212", "tags": [{"primary": true, "id": 1727, "name": "Delis And Delicatessens"}], "fax_number": null, "expansion": {"count": null, "uri": null}, "impression_id": "000b000000b3b33cd2f54f42b186ef91b025afdb77", "profile": "http://www.citysearch.com/profile/754744130/sandy_springs_ga/deli_management.html", "address": {"city": "Sandy Springs", "state": "GA", "street": "5975 Roswell Rd NE # B201", "postal_code": "30328"}, "capProviderId": null, "distance": null, "has_offers": false, "name": "Deli Management", "longitude": -84.377671, "has_menu": false, "awards": null, "user_review_count": 0}, {"business_operation_status": 1, "rating": null, "neighborhood": null, "image": null, "scorecard": null, "featured": false, "sample_categories": "Coffeehouses", "public_id": "volcanica-coffee-inc-coral", "id": 732048930, "votes": null, "tagline": null, "has_video": false, "website": null, "offers": "Free Shipping", "latitude": 33.988892, "politanName": "Atlanta, GA Metro ", "phone_number": "8774547031", "tags": [{"primary": true, "id": 1726, "name": "Coffeehouses"}], "fax_number": null, "expansion": {"count": null, "uri": null}, "impression_id": "000b00000097f1dda064f04808992d291db18d9df8", "profile": "http://www.citysearch.com/profile/732048930/atlanta_ga/volcanica_coffee_inc.html", "address": {"city": "Atlanta", "state": "GA", "street": "1831-C West Oak Parkway", "postal_code": "30062"}, "capProviderId": null, "distance": null, "has_offers": true, "name": "Volcanica Coffee Inc", "longitude": -84.525273, "has_menu": false, "awards": null, "user_review_count": 0}, {"business_operation_status": 1, "rating": null, "neighborhood": null, "image": null, "scorecard": null, "featured": false, "sample_categories": "Restaurants, Mexican, Carry Out", "public_id": "del-taco-smyrna", "id": 762762470, "votes": null, "tagline": null, "has_video": false, "website": "http://www.citysearch.com/profile/external/762762470/smyrna_ga/del_taco.html", "offers": null, "latitude": 33.891305, "politanName": "Atlanta, GA Metro ", "phone_number": "7709559115", "tags": [{"primary": false, "id": 11208, "name": "Mexican"}, {"primary": false, "id": 11247, "name": "Carry Out"}, {"primary": true, "id": 1722, "name": "Restaurants"}], "fax_number": null, "expansion": {"count": null, "uri": null}, "impression_id": "000b00000098c7f77a62d04f3a935d00348b4a22fb", "profile": "http://www.citysearch.com/profile/762762470/smyrna_ga/del_taco.html", "address": {"city": "Smyrna", "state": "GA", "street": "2521 Cobb Pkwy SE", "postal_code": "30080"}, "capProviderId": null, "distance": null, "has_offers": false, "name": "Del Taco", "longitude": -84.47582, "has_menu": false, "awards": null, "user_review_count": 0}, {"business_operation_status": 1, "rating": null, "neighborhood": null, "image": null, "scorecard": null, "featured": false, "sample_categories": "Health Food Stores, Restaurants", "public_id": "planet-smoothie-marietta", "id": 36642521, "votes": null, "tagline": null, "has_video": false, "website": "http://www.citysearch.com/profile/external/36642521/marietta_ga/planet_smoothie.html", "offers": null, "latitude": 33.969856, "politanName": "Atlanta, GA Metro ", "phone_number": "6785604001", "tags": [{"primary": false, "id": 1722, "name": "Restaurants"}, {"primary": true, "id": 1716, "name": "Health Food Stores"}], "fax_number": null, "expansion": {"count": null, "uri": null}, "impression_id": "000b000000089100b7a8324e60b41767a378b95559", "profile": "http://www.citysearch.com/profile/36642521/marietta_ga/planet_smoothie.html", "address": {"city": "Marietta", "state": "GA", "street": "2200 Roswell Rd", "postal_code": "30062"}, "capProviderId": null, "distance": null, "has_offers": false, "name": "Planet Smoothie", "longitude": -84.488427, "has_menu": true, "awards": null, "user_review_count": 0}, {"business_operation_status": 1, "rating": null, "neighborhood": null, "image": null, "scorecard": null, "featured": false, "sample_categories": "Restaurants", "public_id": "taska-inc-marietta", "id": 748331640, "votes": null, "tagline": null, "has_video": false, "website": null, "offers": null, "latitude": 33.972043, "politanName": "Atlanta, GA Metro ", "phone_number": "7705788488", "tags": [{"primary": true, "id": 1722, "name": "Restaurants"}], "fax_number": null, "expansion": {"count": null, "uri": null}, "impression_id": "000b00000003f6175567bf4567949002b5c532f9e3", "profile": "http://www.citysearch.com/profile/748331640/marietta_ga/taska_inc.html", "address": {"city": "Marietta", "state": "GA", "street": "3602 Robinson Rd NE", "postal_code": "30068"}, "capProviderId": null, "distance": null, "has_offers": false, "name": "Taska Inc", "longitude": -84.446589, "has_menu": false, "awards": null, "user_review_count": 0}, {"business_operation_status": 1, "rating": null, "neighborhood": null, "image": null, "scorecard": null, "featured": false, "sample_categories": "Restaurants", "public_id": "royal-waffle-king-marietta", "id": 775234230, "votes": null, "tagline": null, "has_video": false, "website": "http://www.citysearch.com/profile/external/775234230/marietta_ga/royal_waffle_king.html", "offers": null, "latitude": 33.987292, "politanName": "Atlanta, GA Metro ", "phone_number": "7704423800", "tags": [{"primary": true, "id": 1722, "name": "Restaurants"}], "fax_number": null, "expansion": {"count": null, "uri": null}, "impression_id": "000b000000edc377117a054878abaaa699cf292135", "profile": "http://www.citysearch.com/profile/775234230/marietta_ga/royal_waffle_king.html", "address": {"city": "Marietta", "state": "GA", "street": "1459 Field Park Cir", "postal_code": "30066"}, "capProviderId": null, "distance": null, "has_offers": false, "name": "Royal Waffle King", "longitude": -84.563324, "has_menu": true, "awards": null, "user_review_count": 0}, {"business_operation_status": 1, "rating": null, "neighborhood": null, "image": null, "scorecard": null, "featured": false, "sample_categories": "Restaurants, New American, Carry Out, Cooking, Soul", "public_id": "chads-place-marietta", "id": 753259210, "votes": null, "tagline": null, "has_video": false, "website": null, "offers": null, "latitude": 33.964105, "politanName": "Atlanta, GA Metro ", "phone_number": "7704278226", "tags": [{"primary": false, "id": 11189, "name": "New American"}, {"primary": false, "id": 11247, "name": "Carry Out"}, {"primary": false, "id": 11254, "name": "Cooking"}, {"primary": false, "id": 15140, "name": "Soul"}, {"primary": true, "id": 1722, "name": "Restaurants"}], "fax_number": null, "expansion": {"count": null, "uri": null}, "impression_id": "000b0000007bf9f72f268d40bf8685406a853fee2c", "profile": "http://www.citysearch.com/profile/753259210/marietta_ga/chad_s_place.html", "address": {"city": "Marietta", "state": "GA", "street": "531 Roselane St NW Suite 520 NW", "postal_code": "30060"}, "capProviderId": null, "distance": null, "has_offers": false, "name": "Chad's Place", "longitude": -84.557337, "has_menu": false, "awards": null, "user_review_count": 0}, {"business_operation_status": 1, "rating": null, "neighborhood": null, "image": null, "scorecard": null, "featured": false, "sample_categories": "Restaurants, French", "public_id": "snob-sandy", "id": 777651620, "votes": null, "tagline": null, "has_video": false, "website": null, "offers": null, "latitude": 33.9202, "politanName": "Atlanta, GA Metro ", "phone_number": "4042528170", "tags": [{"primary": false, "id": 11219, "name": "French"}, {"primary": true, "id": 1722, "name": "Restaurants"}], "fax_number": null, "expansion": {"count": null, "uri": null}, "impression_id": "000b000000679108ccedda44098b36f526fe0443c2", "profile": "http://www.citysearch.com/profile/777651620/sandy_springs_ga/snob.html", "address": {"city": "Sandy Springs", "state": "GA", "street": "6010 Sandy Springs Cir Ne # B", "postal_code": "30328"}, "capProviderId": null, "distance": null, "has_offers": false, "name": "Snob", "longitude": -84.384878, "has_menu": false, "awards": null, "user_review_count": 0}, {"business_operation_status": 1, "rating": null, "neighborhood": null, "image": null, "scorecard": null, "featured": false, "sample_categories": "Restaurants, Mexican, Carry Out, MasterCard, Visa", "public_id": "taco-bell-atlanta-15", "id": 682671380, "votes": null, "tagline": null, "has_video": false, "website": "http://www.citysearch.com/profile/external/682671380/atlanta_ga/taco_bell.html", "offers": null, "latitude": 33.93454, "politanName": "Atlanta, GA Metro ", "phone_number": "4042553495", "tags": [{"primary": false, "id": 11208, "name": "Mexican"}, {"primary": false, "id": 11247, "name": "Carry Out"}, {"primary": false, "id": 11361, "name": "MasterCard"}, {"primary": false, "id": 11382, "name": "Visa"}, {"primary": true, "id": 1722, "name": "Restaurants"}], "fax_number": null, "expansion": {"count": null, "uri": null}, "impression_id": "000b000000d592132bd5f74ef4a2933a9a24c48b78", "profile": "http://www.citysearch.com/profile/682671380/atlanta_ga/taco_bell.html", "address": {"city": "Atlanta", "state": "GA", "street": "6560 Roswell Rd Ne", "postal_code": "30328"}, "capProviderId": null, "distance": null, "has_offers": false, "name": "Taco Bell", "longitude": -84.380292, "has_menu": true, "awards": null, "user_review_count": 0}, {"business_operation_status": 1, "rating": null, "neighborhood": null, "image": null, "scorecard": null, "featured": false, "sample_categories": "Seafood Markets, Restaurants, Cajun & Creole", "public_id": "cajun-crawfish-seafood-marietta", "id": 764847750, "votes": null, "tagline": null, "has_video": false, "website": null, "offers": null, "latitude": 33.894433, "politanName": "Atlanta, GA Metro ", "phone_number": "7703190345", "tags": [{"primary": false, "id": 1722, "name": "Restaurants"}, {"primary": false, "id": 11245, "name": "Cajun & Creole"}, {"primary": true, "id": 1719, "name": "Seafood Markets"}], "fax_number": null, "expansion": {"count": null, "uri": null}, "impression_id": "000b000000bde3b448f0dc4e9aac46ea10e8db5b4b", "profile": "http://www.citysearch.com/profile/764847750/marietta_ga/cajun_crawfish_seafood.html", "address": {"city": "Marietta", "state": "GA", "street": "234 Windy Hill Rd SE", "postal_code": "30060"}, "capProviderId": null, "distance": null, "has_offers": false, "name": "Cajun Crawfish & Seafood", "longitude": -84.552798, "has_menu": false, "awards": null, "user_review_count": 0}, {"business_operation_status": 1, "rating": null, "neighborhood": null, "image": null, "scorecard": null, "featured": false, "sample_categories": "Restaurants, Carry Out", "public_id": "johnny-rockets-marietta", "id": 764929560, "votes": null, "tagline": null, "has_video": false, "website": null, "offers": null, "latitude": 33.971396, "politanName": "Atlanta, GA Metro ", "phone_number": "7709556068", "tags": [{"primary": false, "id": 11247, "name": "Carry Out"}, {"primary": true, "id": 1722, "name": "Restaurants"}], "fax_number": null, "expansion": {"count": null, "uri": null}, "impression_id": "000b00000032d732bb87544f16954aed920e7674b3", "profile": "http://www.citysearch.com/profile/764929560/marietta_ga/johnny_rockets.html", "address": {"city": "Marietta", "state": "GA", "street": "2970 Cobb St", "postal_code": "30068"}, "capProviderId": null, "distance": null, "has_offers": false, "name": "Johnny Rockets", "longitude": -84.466057, "has_menu": false, "awards": null, "user_review_count": 0}, {"business_operation_status": 1, "rating": null, "neighborhood": null, "image": null, "scorecard": null, "featured": false, "sample_categories": "Restaurants, Mexican", "public_id": "casa-de-oro-mexican-restaurant-smyrna", "id": 777623800, "votes": null, "tagline": null, "has_video": false, "website": null, "offers": null, "latitude": 33.87498, "politanName": "Atlanta, GA Metro ", "phone_number": "7704360333", "tags": [{"primary": false, "id": 11208, "name": "Mexican"}, {"primary": true, "id": 1722, "name": "Restaurants"}], "fax_number": null, "expansion": {"count": null, "uri": null}, "impression_id": "000b000000b07abd7bc9864b6f9f076aa4b02e17e5", "profile": "http://www.citysearch.com/profile/777623800/smyrna_ga/casa_de_oro_mexican_restaurant.html", "address": {"city": "Smyrna", "state": "GA", "street": "821 Concord Rd Se", "postal_code": "30080"}, "capProviderId": null, "distance": null, "has_offers": false, "name": "Casa De Oro Mexican Restaurant", "longitude": -84.529694, "has_menu": false, "awards": null, "user_review_count": 0}, {"business_operation_status": 1, "rating": null, "neighborhood": null, "image": null, "scorecard": null, "featured": false, "sample_categories": "Restaurants, Chicken", "public_id": "chicken-salad-chick-marietta", "id": 803535140, "votes": null, "tagline": null, "has_video": false, "website": null, "offers": null, "latitude": 33.980574, "politanName": "Atlanta, GA Metro ", "phone_number": "7705653985", "tags": [{"primary": false, "id": 12839, "name": "Chicken"}, {"primary": true, "id": 1722, "name": "Restaurants"}], "fax_number": null, "expansion": {"count": null, "uri": null}, "impression_id": "000b0000003d5d88e7152e45f3bf2b66037e1d8bfe", "profile": "http://www.citysearch.com/profile/803535140/marietta_ga/chicken_salad_chick.html", "address": {"city": "Marietta", "state": "GA", "street": "4101 Roswell Rd", "postal_code": "30062"}, "capProviderId": null, "distance": null, "has_offers": false, "name": "Chicken Salad Chick", "longitude": -84.433488, "has_menu": false, "awards": null, "user_review_count": 0}, {"business_operation_status": 1, "rating": null, "neighborhood": null, "image": null, "scorecard": null, "featured": false, "sample_categories": "Restaurants", "public_id": "tailfeathers-restaurant-sandy", "id": 781184100, "votes": null, "tagline": null, "has_video": false, "website": null, "offers": null, "latitude": 33.918433, "politanName": "Atlanta, GA Metro ", "phone_number": "4045001680", "tags": [{"primary": true, "id": 1722, "name": "Restaurants"}], "fax_number": null, "expansion": {"count": null, "uri": null}, "impression_id": "000b000000f109bbbe5858454bbad61a2d5b4f8ad5", "profile": "http://www.citysearch.com/profile/781184100/sandy_springs_ga/tailfeathers_restaurant.html", "address": {"city": "Sandy Springs", "state": "GA", "street": "5975 Roswell Rd", "postal_code": "30328"}, "capProviderId": null, "distance": null, "has_offers": false, "name": "Tailfeathers Restaurant", "longitude": -84.378541, "has_menu": false, "awards": null, "user_review_count": 0}, {"business_operation_status": 1, "rating": null, "neighborhood": null, "image": null, "scorecard": null, "featured": false, "sample_categories": "Restaurants, Carry Out", "public_id": "atlanta-bread-company-atlanta-3", "id": 813694480, "votes": null, "tagline": null, "has_video": false, "website": null, "offers": null, "latitude": 33.865485, "politanName": "Atlanta, GA Metro ", "phone_number": "7704366004", "tags": [{"primary": false, "id": 11247, "name": "Carry Out"}, {"primary": true, "id": 1722, "name": "Restaurants"}], "fax_number": null, "expansion": {"count": null, "uri": null}, "impression_id": "000b000000738d2cdfa80c44aaa19f73689f87f923", "profile": "http://www.citysearch.com/profile/813694480/atlanta_ga/atlanta_bread_company.html", "address": {"city": "Atlanta", "state": "GA", "street": "4300 Paces Ferry Rd Se", "postal_code": "30339"}, "capProviderId": null, "distance": null, "has_offers": false, "name": "Atlanta Bread Company", "longitude": -84.466223, "has_menu": true, "awards": null, "user_review_count": 0}, {"business_operation_status": 1, "rating": null, "neighborhood": null, "image": null, "scorecard": null, "featured": false, "sample_categories": "Restaurants", "public_id": "dunkn-dine-restaurant-atlanta", "id": 817310100, "votes": null, "tagline": null, "has_video": false, "website": null, "offers": null, "latitude": 33.916242, "politanName": "Atlanta, GA Metro ", "phone_number": "4042555179", "tags": [{"primary": true, "id": 1722, "name": "Restaurants"}], "fax_number": null, "expansion": {"count": null, "uri": null}, "impression_id": "000b0000009e966af9ed094689903c51ccfd6a7faf", "profile": "http://www.citysearch.com/profile/817310100/atlanta_ga/dunk_n_dine_restaurant.html", "address": {"city": "Atlanta", "state": "GA", "street": "4520 Roswell Rd", "postal_code": "30342"}, "capProviderId": null, "distance": null, "has_offers": false, "name": "Dunk'n Dine Restaurant", "longitude": -84.379244, "has_menu": false, "awards": null, "user_review_count": 0}, {"business_operation_status": 1, "rating": null, "neighborhood": null, "image": null, "scorecard": null, "featured": false, "sample_categories": "Restaurants, Barbecue Restaurants", "public_id": "wing-factory-atlanta-3", "id": 802521640, "votes": null, "tagline": null, "has_video": false, "website": null, "offers": null, "latitude": 33.882005, "politanName": "Atlanta, GA Metro ", "phone_number": "7704856950", "tags": [{"primary": false, "id": 1724, "name": "Barbecue Restaurants"}, {"primary": true, "id": 1722, "name": "Restaurants"}], "fax_number": null, "expansion": {"count": null, "uri": null}, "impression_id": "000b0000008cc5a36f932a47af8dd5f72058bca212", "profile": "http://www.citysearch.com/profile/802521640/atlanta_ga/wing_factory.html", "address": {"city": "Atlanta", "state": "GA", "street": "2997 Cumberland Blvd Se", "postal_code": "30339"}, "capProviderId": null, "distance": null, "has_offers": false, "name": "Wing Factory", "longitude": -84.474455, "has_menu": true, "awards": null, "user_review_count": 0}, {"business_operation_status": 1, "rating": null, "neighborhood": null, "image": null, "scorecard": null, "featured": false, "sample_categories": "Restaurants", "public_id": "mrs-winners-chicken-biscuits-marietta-2", "id": 806356350, "votes": null, "tagline": null, "has_video": false, "website": null, "offers": null, "latitude": 33.982266, "politanName": "Atlanta, GA Metro ", "phone_number": "7709710888", "tags": [{"primary": true, "id": 1722, "name": "Restaurants"}], "fax_number": null, "expansion": {"count": null, "uri": null}, "impression_id": "000b0000006b9dee5c07d941e799501aa2503905ee", "profile": "http://www.citysearch.com/profile/806356350/marietta_ga/mrs_winners_chicken_biscuits.html", "address": {"city": "Marietta", "state": "GA", "street": "1333 Johnson Ferry Rd", "postal_code": "30068"}, "capProviderId": null, "distance": null, "has_offers": false, "name": "Mrs Winners Chicken & Biscuits", "longitude": -84.427409, "has_menu": true, "awards": null, "user_review_count": 0}, {"business_operation_status": 1, "rating": null, "neighborhood": null, "image": null, "scorecard": null, "featured": false, "sample_categories": "Restaurants", "public_id": "gorins-homemade-cafe-atlanta-3", "id": 810267910, "votes": null, "tagline": null, "has_video": false, "website": null, "offers": null, "latitude": 33.901479, "politanName": "Atlanta, GA Metro ", "phone_number": "7707300904", "tags": [{"primary": true, "id": 1722, "name": "Restaurants"}], "fax_number": null, "expansion": {"count": null, "uri": null}, "impression_id": "000b000000473bf9b494ee45bc84c00866b407879b", "profile": "http://www.citysearch.com/profile/810267910/atlanta_ga/gorin_s_homemade_cafe.html", "address": {"city": "Atlanta", "state": "GA", "street": "1040 Mount Vernon Hwy NW", "postal_code": "30327"}, "capProviderId": null, "distance": null, "has_offers": false, "name": "Gorin's Homemade Cafe", "longitude": -84.421112, "has_menu": false, "awards": null, "user_review_count": 0}, {"business_operation_status": 1, "rating": null, "neighborhood": null, "image": null, "scorecard": null, "featured": false, "sample_categories": "Grocery Stores, Restaurants", "public_id": "global-food-nuts-marietta", "id": 748312370, "votes": null, "tagline": null, "has_video": false, "website": null, "offers": null, "latitude": 33.929154, "politanName": "Atlanta, GA Metro ", "phone_number": "7704282222", "tags": [{"primary": false, "id": 1722, "name": "Restaurants"}, {"primary": true, "id": 1713, "name": "Grocery Stores"}], "fax_number": null, "expansion": {"count": null, "uri": null}, "impression_id": "000b0000008a00339be2794c079d84bdeb471cb72c", "profile": "http://www.citysearch.com/profile/748312370/marietta_ga/global_food_nuts.html", "address": {"city": "Marietta", "state": "GA", "street": "950 Cobb Pkwy S", "postal_code": "30060"}, "capProviderId": null, "distance": null, "has_offers": false, "name": "Global Food & Nuts", "longitude": -84.510376, "has_menu": false, "awards": null, "user_review_count": 0}, {"business_operation_status": 1, "rating": null, "neighborhood": null, "image": null, "scorecard": null, "featured": false, "sample_categories": "Restaurants, Delis And Delicatessens, Sandwich Shops, Carry Out", "public_id": "subway-atlanta-125", "id": 614001804, "votes": null, "tagline": null, "has_video": false, "website": null, "offers": null, "latitude": 33.936115, "politanName": "Atlanta, GA Metro ", "phone_number": "7706894927", "tags": [{"primary": false, "id": 1727, "name": "Delis And Delicatessens"}, {"primary": false, "id": 1736, "name": "Sandwich Shops"}, {"primary": false, "id": 11247, "name": "Carry Out"}, {"primary": true, "id": 1722, "name": "Restaurants"}], "fax_number": null, "expansion": {"count": null, "uri": null}, "impression_id": "000b0000009314cdde6806498295383d15f17317b0", "profile": "http://www.citysearch.com/profile/614001804/atlanta_ga/subway.html", "address": {"city": "Atlanta", "state": "GA", "street": "6600 Peachtree Dunwoody Rd # 100", "postal_code": "30328"}, "capProviderId": null, "distance": null, "has_offers": false, "name": "Subway", "longitude": -84.355345, "has_menu": false, "awards": null, "user_review_count": 0}, {"business_operation_status": 1, "rating": 8.0, "neighborhood": null, "image": null, "scorecard": null, "featured": false, "sample_categories": "Restaurants, Bars & Clubs, Bars & Pubs, American Express, Discover", "public_id": "jocks-n-jills-sports-bar-atlanta", "id": 3030533, "votes": null, "tagline": null, "has_video": false, "website": "http://www.citysearch.com/profile/external/3030533/atlanta_ga/jocks_n_jills_sports_bar.html", "offers": null, "latitude": 33.884135, "politanName": "Atlanta, GA Metro ", "phone_number": "7709525609", "tags": [{"primary": false, "id": 164, "name": "Bars & Clubs"}, {"primary": false, "id": 1686, "name": "Bars & Pubs"}, {"primary": false, "id": 11333, "name": "American Express"}, {"primary": false, "id": 11349, "name": "Discover"}, {"primary": false, "id": 11361, "name": "MasterCard"}, {"primary": false, "id": 11382, "name": "Visa"}, {"primary": true, "id": 1722, "name": "Restaurants"}], "fax_number": null, "expansion": {"count": null, "uri": null}, "impression_id": "000b00000052ea0ee7b7f24740922b29fc587cd407", "profile": "http://www.citysearch.com/profile/3030533/atlanta_ga/jocks_n_jills_sports_bar.html", "address": {"city": "Atlanta", "state": "GA", "street": "1 Galleria Pkwy SE", "postal_code": "30339"}, "capProviderId": null, "distance": null, "has_offers": false, "name": "Jocks N Jills Sports Bar", "longitude": -84.46371, "has_menu": false, "awards": null, "user_review_count": 4}, {"business_operation_status": 1, "rating": null, "neighborhood": null, "image": null, "scorecard": null, "featured": false, "sample_categories": "Restaurants", "public_id": "willys-mexicana-grill-inc-atlanta-2", "id": 619673124, "votes": null, "tagline": null, "has_video": false, "website": null, "offers": null, "latitude": 33.927214, "politanName": "Atlanta, GA Metro ", "phone_number": "4042526366", "tags": [{"primary": true, "id": 1722, "name": "Restaurants"}], "fax_number": null, "expansion": {"count": null, "uri": null}, "impression_id": "000b000000ba5dcf20c4b94726b9735a7d95fd99e7", "profile": "http://www.citysearch.com/profile/619673124/atlanta_ga/willy_s_mexicana_grill_inc.html", "address": {"city": "Atlanta", "state": "GA", "street": "6309 Roswell Rd Ste 1A", "postal_code": "30328"}, "capProviderId": null, "distance": null, "has_offers": false, "name": "Willy's Mexicana Grill Inc", "longitude": -84.378643, "has_menu": false, "awards": null, "user_review_count": 0}], "histograms": [], "tag_ids": [1722], "uri": "http://api.citygridmedia.com:8080/search/places/v2/search/where?has_offers=false&type=restaurant&format=json&page=28&where=30067&rpp=50&histograms=false&publisher=10000009598&region_type=circle", "did_you_mean": "", "regions": [{"latitude": 33.930575, "default_radius": 3.78, "type": "postal_code", "name": "30067", "longitude": -84.463162}], "call_id": "000b0000005c027292d08f4d66a8e917ca37c2e0e1", "first_hit": 1351, "total_hits": 1972, "geo_ids": [26295], "page": 28, "last_hit": 1400}}