{"results": {"rpp": 50, "locations": [{"business_operation_status": 1, "rating": null, "neighborhood": null, "image": null, "scorecard": null, "featured": false, "sample_categories": "Restaurants", "public_id": "fancy-pantry-roswell", "id": 829333540, "votes": null, "tagline": null, "has_video": false, "website": null, "offers": null, "latitude": 34.058626, "politanName": "Atlanta, GA Metro ", "phone_number": "7706506546", "tags": [{"primary": true, "id": 1722, "name": "Restaurants"}], "fax_number": null, "expansion": {"count": null, "uri": null}, "impression_id": "000b00000097e099c1fa70464dafc7d3b85b163d31", "profile": "http://www.citysearch.com/profile/829333540/roswell_ga/fancy_pantry.html", "address": {"city": "Roswell", "state": "GA", "street": "[empty]", "postal_code": "30075"}, "capProviderId": null, "distance": null, "has_offers": false, "name": "Fancy Pantry", "longitude": -84.385744, "has_menu": false, "awards": null, "user_review_count": 0}, {"business_operation_status": 0, "rating": null, "neighborhood": null, "image": null, "scorecard": null, "featured": false, "sample_categories": "Ice Cream Parlors", "public_id": "clearview-ventures-kennesaw", "id": 732172070, "votes": null, "tagline": null, "has_video": false, "website": null, "offers": null, "latitude": 33.976849, "politanName": "Atlanta, GA Metro ", "phone_number": "7706178112", "tags": [{"primary": true, "id": 1730, "name": "Ice Cream Parlors"}], "fax_number": null, "expansion": {"count": null, "uri": null}, "impression_id": "000b0000004d7b9f59fb1b46a49264aae579ed02e8", "profile": "http://www.citysearch.com/profile/732172070/kennesaw_ga/clearview_ventures.html", "address": {"city": "Kennesaw", "state": "GA", "street": "985 Frog Leap Trl NW", "postal_code": "30152"}, "capProviderId": null, "distance": null, "has_offers": false, "name": "Clearview Ventures", "longitude": -84.607323, "has_menu": false, "awards": null, "user_review_count": 0}, {"business_operation_status": 1, "rating": null, "neighborhood": null, "image": null, "scorecard": null, "featured": false, "sample_categories": "Luaus", "public_id": "po-folks-restaurant-smyrna", "id": 817948960, "votes": null, "tagline": null, "has_video": false, "website": null, "offers": null, "latitude": 33.882766, "politanName": "Atlanta, GA Metro ", "phone_number": "7703197166", "tags": [{"primary": true, "id": 11285, "name": "Luaus"}], "fax_number": null, "expansion": {"count": null, "uri": null}, "impression_id": "000b000000359a29291b904365938016c020126d63", "profile": "http://www.citysearch.com/profile/817948960/smyrna_ga/po_folks_restaurant.html", "address": {"city": "Smyrna", "state": "GA", "street": "2590 Spring Rd SE", "postal_code": "30080"}, "capProviderId": null, "distance": null, "has_offers": false, "name": "PO Folks Restaurant", "longitude": -84.478149, "has_menu": false, "awards": null, "user_review_count": 0}, {"business_operation_status": 1, "rating": null, "neighborhood": null, "image": null, "scorecard": null, "featured": false, "sample_categories": "Restaurants, Pizza, Carry Out", "public_id": "hungry-howies-pizza-smyrna", "id": 838599720, "votes": null, "tagline": null, "has_video": false, "website": "http://www.citysearch.com/profile/external/838599720/smyrna_ga/hungry_howie_s_pizza.html", "offers": null, "latitude": 33.884889, "politanName": "Atlanta, GA Metro ", "phone_number": "6783091112", "tags": [{"primary": false, "id": 1722, "name": "Restaurants"}, {"primary": false, "id": 11247, "name": "Carry Out"}, {"primary": true, "id": 11299, "name": "Pizza"}], "fax_number": null, "expansion": {"count": null, "uri": null}, "impression_id": "000b00000017c84d3d3d3a47439b9e602cceb940ac", "profile": "http://www.citysearch.com/profile/838599720/smyrna_ga/hungry_howie_s_pizza.html", "address": {"city": "Smyrna", "state": "GA", "street": "400 Village Green Cir SE", "postal_code": "30080"}, "capProviderId": null, "distance": null, "has_offers": false, "name": "Hungry Howie's Pizza", "longitude": -84.516415, "has_menu": false, "awards": null, "user_review_count": 0}, {"business_operation_status": 1, "rating": null, "neighborhood": null, "image": null, "scorecard": null, "featured": false, "sample_categories": "Restaurants", "public_id": "chilitos-woodstock", "id": 820086190, "votes": null, "tagline": null, "has_video": false, "website": null, "offers": null, "latitude": 34.087967, "politanName": "Atlanta, GA Metro ", "phone_number": "7709285948", "tags": [{"primary": true, "id": 1722, "name": "Restaurants"}], "fax_number": null, "expansion": {"count": null, "uri": null}, "impression_id": "000b00000010b5bdfee3e6471aa87f65969d400ade", "profile": "http://www.citysearch.com/profile/820086190/woodstock_ga/chilitos.html", "address": {"city": "Woodstock", "state": "GA", "street": "12035 Highway 92", "postal_code": "30188"}, "capProviderId": null, "distance": null, "has_offers": false, "name": "Chilitos", "longitude": -84.486231, "has_menu": true, "awards": null, "user_review_count": 0}, {"business_operation_status": 1, "rating": null, "neighborhood": null, "image": null, "scorecard": null, "featured": false, "sample_categories": "Restaurants, Carry Out", "public_id": "zaxbys-smyrna-4", "id": 625332414, "votes": null, "tagline": null, "has_video": false, "website": null, "offers": null, "latitude": 33.879925, "politanName": "Atlanta, GA Metro ", "phone_number": "6788704000", "tags": [{"primary": false, "id": 11247, "name": "Carry Out"}, {"primary": true, "id": 1722, "name": "Restaurants"}], "fax_number": null, "expansion": {"count": null, "uri": null}, "impression_id": "000b000000d8ba82ad8a824fedb3c7f29505bc143a", "profile": "http://www.citysearch.com/profile/625332414/smyrna_ga/zaxby_s.html", "address": {"city": "Smyrna", "state": "GA", "street": "1420 Spring Rd SE", "postal_code": "30080"}, "capProviderId": null, "distance": null, "has_offers": false, "name": "Zaxby's", "longitude": -84.51175, "has_menu": false, "awards": null, "user_review_count": 0}, {"business_operation_status": 1, "rating": null, "neighborhood": null, "image": null, "scorecard": null, "featured": false, "sample_categories": "Restaurants", "public_id": "pit-marietta", "id": 751310700, "votes": null, "tagline": null, "has_video": false, "website": null, "offers": null, "latitude": 33.908297, "politanName": "Atlanta, GA Metro ", "phone_number": "7706272634", "tags": [{"primary": true, "id": 1722, "name": "Restaurants"}], "fax_number": null, "expansion": {"count": null, "uri": null}, "impression_id": "000b000000ef2a174e998d47de9c9d6f99bf3c8388", "profile": "http://www.citysearch.com/profile/751310700/marietta_ga/pit.html", "address": {"city": "Marietta", "state": "GA", "street": "1854 Terrell Mill Rd SE # 105", "postal_code": "30067"}, "capProviderId": null, "distance": null, "has_offers": false, "name": "Pit", "longitude": -84.487916, "has_menu": false, "awards": null, "user_review_count": 0}, {"business_operation_status": 1, "rating": null, "neighborhood": null, "image": null, "scorecard": null, "featured": false, "sample_categories": "Restaurants", "public_id": "farmers-basket-kennesaw", "id": 753236330, "votes": null, "tagline": null, "has_video": false, "website": null, "offers": null, "latitude": 34.019128, "politanName": "Atlanta, GA Metro ", "phone_number": "7707947442", "tags": [{"primary": true, "id": 1722, "name": "Restaurants"}], "fax_number": null, "expansion": {"count": null, "uri": null}, "impression_id": "000b0000005130a0c5d6f2496fa7fc85b5233a7df0", "profile": "http://www.citysearch.com/profile/753236330/kennesaw_ga/farmers_basket.html", "address": {"city": "Kennesaw", "state": "GA", "street": "400 Ernest W Barrett Pkwy NW", "postal_code": "30144"}, "capProviderId": null, "distance": null, "has_offers": false, "name": "Farmers Basket", "longitude": -84.563608, "has_menu": false, "awards": null, "user_review_count": 0}, {"business_operation_status": 1, "rating": null, "neighborhood": null, "image": null, "scorecard": null, "featured": false, "sample_categories": "Coffeehouses", "public_id": "ellianos-coffee-co-marietta", "id": 732158430, "votes": null, "tagline": null, "has_video": false, "website": null, "offers": null, "latitude": 33.920792, "politanName": "Atlanta, GA Metro ", "phone_number": "7709567770", "tags": [{"primary": true, "id": 1726, "name": "Coffeehouses"}], "fax_number": null, "expansion": {"count": null, "uri": null}, "impression_id": "000b000000f618219dd34e4bc59661377a436b934d", "profile": "http://www.citysearch.com/profile/732158430/marietta_ga/elliano_s_coffee_co.html", "address": {"city": "Marietta", "state": "GA", "street": "1270 Powers Ferry Rd SE", "postal_code": "30067"}, "capProviderId": null, "distance": null, "has_offers": false, "name": "Elliano's Coffee Co", "longitude": -84.467912, "has_menu": false, "awards": null, "user_review_count": 0}, {"business_operation_status": 1, "rating": null, "neighborhood": null, "image": null, "scorecard": null, "featured": false, "sample_categories": "Restaurants, Cafes", "public_id": "cancun-cafe-roswell", "id": 757973190, "votes": null, "tagline": null, "has_video": false, "website": null, "offers": null, "latitude": 34.034238, "politanName": "Atlanta, GA Metro ", "phone_number": "6786828301", "tags": [{"primary": false, "id": 6190, "name": "Cafes"}, {"primary": true, "id": 1722, "name": "Restaurants"}], "fax_number": null, "expansion": {"count": null, "uri": null}, "impression_id": "000b000000a07b587628694b78a4ffebc89dd876c4", "profile": "http://www.citysearch.com/profile/757973190/roswell_ga/cancun_cafe.html", "address": {"city": "Roswell", "state": "GA", "street": "10479 Alpharetta St", "postal_code": "30075"}, "capProviderId": null, "distance": null, "has_offers": false, "name": "Cancun Cafe", "longitude": -84.345527, "has_menu": false, "awards": null, "user_review_count": 0}, {"business_operation_status": 1, "rating": null, "neighborhood": null, "image": null, "scorecard": null, "featured": false, "sample_categories": "Coffee & Tea Shops, Tea Room", "public_id": "teavana-kennesaw", "id": 762806630, "votes": null, "tagline": null, "has_video": false, "website": "http://www.citysearch.com/profile/external/762806630/kennesaw_ga/teavana.html", "offers": null, "latitude": 34.019128, "politanName": "Atlanta, GA Metro ", "phone_number": "7704208676", "tags": [{"primary": false, "id": 11318, "name": "Tea Room"}, {"primary": true, "id": 1711, "name": "Coffee & Tea Shops"}], "fax_number": null, "expansion": {"count": null, "uri": null}, "impression_id": "000b0000007d548dfae44c426f9b8c0312521e2d9e", "profile": "http://www.citysearch.com/profile/762806630/kennesaw_ga/teavana.html", "address": {"city": "Kennesaw", "state": "GA", "street": "400 Ernest W Barrett Pkwy NW", "postal_code": "30144"}, "capProviderId": null, "distance": null, "has_offers": false, "name": "Teavana", "longitude": -84.563608, "has_menu": false, "awards": null, "user_review_count": 1}, {"business_operation_status": 1, "rating": null, "neighborhood": null, "image": null, "scorecard": null, "featured": false, "sample_categories": "Restaurants, Indian", "public_id": "banjara-indian-restaurant-roswell", "id": 764845660, "votes": null, "tagline": null, "has_video": false, "website": "http://www.citysearch.com/profile/external/764845660/roswell_ga/banjara_indian_restaurant.html", "offers": null, "latitude": 34.041371, "politanName": "Atlanta, GA Metro ", "phone_number": "6786916521", "tags": [{"primary": false, "id": 11277, "name": "Indian"}, {"primary": true, "id": 1722, "name": "Restaurants"}], "fax_number": null, "expansion": {"count": null, "uri": null}, "impression_id": "000b000000aab47de2577341ccacd6bcdd9e5b0c24", "profile": "http://www.citysearch.com/profile/764845660/roswell_ga/banjara_indian_restaurant.html", "address": {"city": "Roswell", "state": "GA", "street": "10745 Alpharetta Hwy", "postal_code": "30076"}, "capProviderId": null, "distance": null, "has_offers": false, "name": "Banjara Indian Restaurant", "longitude": -84.341901, "has_menu": false, "awards": null, "user_review_count": 0}, {"business_operation_status": 1, "rating": null, "neighborhood": null, "image": null, "scorecard": null, "featured": false, "sample_categories": "Restaurants, Grocery Stores", "public_id": "global-food-concepts-inc-marietta", "id": 775200900, "votes": null, "tagline": null, "has_video": false, "website": null, "offers": null, "latitude": 34.040146, "politanName": "Atlanta, GA Metro ", "phone_number": "7705798452", "tags": [{"primary": false, "id": 1713, "name": "Grocery Stores"}, {"primary": true, "id": 1722, "name": "Restaurants"}], "fax_number": null, "expansion": {"count": null, "uri": null}, "impression_id": "000b0000000479a41fbe0b4850b265464e9aa9c7cc", "profile": "http://www.citysearch.com/profile/775200900/marietta_ga/global_food_concepts_inc.html", "address": {"city": "Marietta", "state": "GA", "street": "2985 Gordy Pkwy", "postal_code": "30066"}, "capProviderId": null, "distance": null, "has_offers": false, "name": "Global Food Concepts Inc", "longitude": -84.46186, "has_menu": false, "awards": null, "user_review_count": 0}, {"business_operation_status": 1, "rating": null, "neighborhood": null, "image": null, "scorecard": null, "featured": false, "sample_categories": "Restaurants, Barbecue Restaurants", "public_id": "reds-backwoods-barbecue-kennesaw", "id": 775234200, "votes": null, "tagline": null, "has_video": false, "website": null, "offers": null, "latitude": 33.999345, "politanName": "Atlanta, GA Metro ", "phone_number": "6782909055", "tags": [{"primary": false, "id": 1724, "name": "Barbecue Restaurants"}, {"primary": true, "id": 1722, "name": "Restaurants"}], "fax_number": null, "expansion": {"count": null, "uri": null}, "impression_id": "000b00000009855dd077ea4eeba5a7a59428ba8153", "profile": "http://www.citysearch.com/profile/775234200/kennesaw_ga/reds_backwoods_barbecue.html", "address": {"city": "Kennesaw", "state": "GA", "street": "1200 Ernest W Barrett Pkwy NW", "postal_code": "30144"}, "capProviderId": null, "distance": null, "has_offers": false, "name": "Reds Backwoods Barbecue", "longitude": -84.586888, "has_menu": false, "awards": null, "user_review_count": 0}, {"business_operation_status": 1, "rating": null, "neighborhood": null, "image": null, "scorecard": null, "featured": false, "sample_categories": "Restaurants", "public_id": "southern-flavor-kennesaw", "id": 777652400, "votes": null, "tagline": null, "has_video": false, "website": null, "offers": null, "latitude": 34.014009, "politanName": "Atlanta, GA Metro ", "phone_number": "7704228400", "tags": [{"primary": true, "id": 1722, "name": "Restaurants"}], "fax_number": null, "expansion": {"count": null, "uri": null}, "impression_id": "000b00000066ac2d0e47344b418551baff9ef4288f", "profile": "http://www.citysearch.com/profile/777652400/kennesaw_ga/southern_flavor.html", "address": {"city": "Kennesaw", "state": "GA", "street": "400 Ernest W Barrett NW # 119", "postal_code": "30144"}, "capProviderId": null, "distance": null, "has_offers": false, "name": "Southern Flavor", "longitude": -84.561425, "has_menu": false, "awards": null, "user_review_count": 0}, {"business_operation_status": 1, "rating": null, "neighborhood": null, "image": null, "scorecard": null, "featured": false, "sample_categories": "Restaurants, Barbecue Restaurants", "public_id": "shanes-rib-shack-marietta-2", "id": 777741320, "votes": null, "tagline": null, "has_video": false, "website": null, "offers": null, "latitude": 33.917966, "politanName": "Atlanta, GA Metro ", "phone_number": "7709552246", "tags": [{"primary": false, "id": 1724, "name": "Barbecue Restaurants"}, {"primary": true, "id": 1722, "name": "Restaurants"}], "fax_number": null, "expansion": {"count": null, "uri": null}, "impression_id": "000b00000079ef21227e33456e958fe7c3d92728a7", "profile": "http://www.citysearch.com/profile/777741320/marietta_ga/shane_s_rib_shack.html", "address": {"city": "Marietta", "state": "GA", "street": "1410 Terrell Mill Rd Se", "postal_code": "30067"}, "capProviderId": null, "distance": null, "has_offers": false, "name": "Shane's Rib Shack", "longitude": -84.467707, "has_menu": true, "awards": null, "user_review_count": 1}, {"business_operation_status": 1, "rating": null, "neighborhood": null, "image": null, "scorecard": null, "featured": false, "sample_categories": "Restaurants, Bars & Pubs", "public_id": "850-restaurant-lounge-roswell", "id": 764860590, "votes": null, "tagline": null, "has_video": false, "website": null, "offers": null, "latitude": 34.02, "politanName": "Atlanta, GA Metro ", "phone_number": "7706406261", "tags": [{"primary": false, "id": 1686, "name": "Bars & Pubs"}, {"primary": true, "id": 1722, "name": "Restaurants"}], "fax_number": null, "expansion": {"count": null, "uri": null}, "impression_id": "000b0000009d6b14f6694a4e4fb1842f9b5ed14ac3", "profile": "http://www.citysearch.com/profile/764860590/roswell_ga/850_restaurant_lounge.html", "address": {"city": "Roswell", "state": "GA", "street": "PO Box 961", "postal_code": "30077"}, "capProviderId": null, "distance": null, "has_offers": false, "name": "850 Restaurant & Lounge", "longitude": -84.36, "has_menu": false, "awards": null, "user_review_count": 0}, {"business_operation_status": 1, "rating": null, "neighborhood": null, "image": null, "scorecard": null, "featured": false, "sample_categories": "Bars & Clubs, Restaurants", "public_id": "tikis-tikis-roswell", "id": 764865180, "votes": null, "tagline": null, "has_video": false, "website": null, "offers": null, "latitude": 34.023341, "politanName": "Atlanta, GA Metro ", "phone_number": "7706450075", "tags": [{"primary": false, "id": 164, "name": "Bars & Clubs"}, {"primary": true, "id": 1722, "name": "Restaurants"}], "fax_number": null, "expansion": {"count": null, "uri": null}, "impression_id": "000b00000024941117127641a39c6263c348972329", "profile": "http://www.citysearch.com/profile/764865180/roswell_ga/tiki_s_tiki_s.html", "address": {"city": "Roswell", "state": "GA", "street": "1085 Holcomb Bridge Rd", "postal_code": "30076"}, "capProviderId": null, "distance": null, "has_offers": false, "name": "Tiki's Tiki's", "longitude": -84.330031, "has_menu": false, "awards": null, "user_review_count": 0}, {"business_operation_status": 1, "rating": null, "neighborhood": null, "image": null, "scorecard": null, "featured": false, "sample_categories": "Restaurants, Pizza", "public_id": "romeos-new-york-pizza-alpharetta", "id": 764905950, "votes": null, "tagline": null, "has_video": false, "website": null, "offers": null, "latitude": 34.081775, "politanName": "Atlanta, GA Metro ", "phone_number": "6788229222", "tags": [{"primary": false, "id": 11299, "name": "Pizza"}, {"primary": true, "id": 1722, "name": "Restaurants"}], "fax_number": null, "expansion": {"count": null, "uri": null}, "impression_id": "000b000000d395a3c3f71b4592b92bb529d371c81f", "profile": "http://www.citysearch.com/profile/764905950/alpharetta_ga/romeo_s_new_york_pizza.html", "address": {"city": "Alpharetta", "state": "GA", "street": "12330 Crabapple Rd", "postal_code": "30004"}, "capProviderId": null, "distance": null, "has_offers": false, "name": "Romeo's New York Pizza", "longitude": -84.358005, "has_menu": false, "awards": null, "user_review_count": 0}, {"business_operation_status": 1, "rating": null, "neighborhood": null, "image": null, "scorecard": null, "featured": false, "sample_categories": "Coffeehouses", "public_id": "starbucks-marietta-14", "id": 781239330, "votes": null, "tagline": null, "has_video": false, "website": "http://www.citysearch.com/profile/external/781239330/marietta_ga/starbucks.html", "offers": null, "latitude": 33.952517, "politanName": "Atlanta, GA Metro ", "phone_number": "6782901695", "tags": [{"primary": true, "id": 1726, "name": "Coffeehouses"}], "fax_number": null, "expansion": {"count": null, "uri": null}, "impression_id": "000b00000011687243d3ff4230be8d852a18d4227f", "profile": "http://www.citysearch.com/profile/781239330/marietta_ga/starbucks.html", "address": {"city": "Marietta", "state": "GA", "street": "30 Whitlock Ave NW", "postal_code": "30064"}, "capProviderId": null, "distance": null, "has_offers": false, "name": "Starbucks", "longitude": -84.551632, "has_menu": false, "awards": null, "user_review_count": 0}, {"business_operation_status": 1, "rating": null, "neighborhood": null, "image": null, "scorecard": null, "featured": false, "sample_categories": "Restaurants, Traditional American", "public_id": "come-get-it-marietta", "id": 655806390, "votes": null, "tagline": null, "has_video": false, "website": "http://www.citysearch.com/profile/external/655806390/marietta_ga/come_get_it.html", "offers": null, "latitude": 33.97734, "politanName": "Atlanta, GA Metro ", "phone_number": "7704230010", "tags": [{"primary": false, "id": 11190, "name": "Traditional American"}, {"primary": true, "id": 1722, "name": "Restaurants"}], "fax_number": null, "expansion": {"count": null, "uri": null}, "impression_id": "000b000000db762ab718d84ef994f36aaf0392a6fa", "profile": "http://www.citysearch.com/profile/655806390/marietta_ga/come_get_it.html", "address": {"city": "Marietta", "state": "GA", "street": "1409 Church Street Ext Ne # E", "postal_code": "30060"}, "capProviderId": null, "distance": null, "has_offers": false, "name": "Come & Get It", "longitude": -84.555829, "has_menu": false, "awards": null, "user_review_count": 0}, {"business_operation_status": 1, "rating": null, "neighborhood": null, "image": null, "scorecard": null, "featured": false, "sample_categories": "Restaurants, Pizza, Carry Out", "public_id": "jets-pizza-marietta", "id": 655911690, "votes": null, "tagline": null, "has_video": false, "website": "http://www.citysearch.com/profile/external/655911690/marietta_ga/jet_s_pizza.html", "offers": null, "latitude": 33.954848, "politanName": "Atlanta, GA Metro ", "phone_number": "7707925700", "tags": [{"primary": false, "id": 1722, "name": "Restaurants"}, {"primary": false, "id": 11247, "name": "Carry Out"}, {"primary": true, "id": 11299, "name": "Pizza"}], "fax_number": null, "expansion": {"count": null, "uri": null}, "impression_id": "000b0000000828a3923e2548ca9e5b6268d5ceff31", "profile": "http://www.citysearch.com/profile/655911690/marietta_ga/jet_s_pizza.html", "address": {"city": "Marietta", "state": "GA", "street": "3600 Dallas Hwy Sw", "postal_code": "30064"}, "capProviderId": null, "distance": null, "has_offers": false, "name": "Jet's Pizza", "longitude": -84.655682, "has_menu": false, "awards": null, "user_review_count": 0}, {"business_operation_status": 1, "rating": null, "neighborhood": null, "image": null, "scorecard": null, "featured": false, "sample_categories": "Restaurants, Carry Out, Hamburgers, American Express, Discover", "public_id": "burger-king-marietta-11", "id": 682637510, "votes": null, "tagline": null, "has_video": false, "website": "http://www.citysearch.com/profile/external/682637510/marietta_ga/burger_king.html", "offers": null, "latitude": 33.945546, "politanName": "Atlanta, GA Metro ", "phone_number": "6783541084", "tags": [{"primary": false, "id": 1722, "name": "Restaurants"}, {"primary": false, "id": 11270, "name": "Hamburgers"}, {"primary": false, "id": 11333, "name": "American Express"}, {"primary": false, "id": 11349, "name": "Discover"}, {"primary": false, "id": 11361, "name": "MasterCard"}, {"primary": false, "id": 11382, "name": "Visa"}, {"primary": true, "id": 11247, "name": "Carry Out"}], "fax_number": null, "expansion": {"count": null, "uri": null}, "impression_id": "000b000000480e08e1dd9d432085f9c9ab793903b5", "profile": "http://www.citysearch.com/profile/682637510/marietta_ga/burger_king.html", "address": {"city": "Marietta", "state": "GA", "street": "2495 Dallas Hwy SW", "postal_code": "30064"}, "capProviderId": null, "distance": null, "has_offers": false, "name": "Burger King", "longitude": -84.624745, "has_menu": true, "awards": null, "user_review_count": 0}, {"business_operation_status": 1, "rating": null, "neighborhood": null, "image": null, "scorecard": null, "featured": false, "sample_categories": "Restaurants", "public_id": "metropolis-wing-station-marietta", "id": 682470740, "votes": null, "tagline": null, "has_video": false, "website": null, "offers": null, "latitude": 33.927554, "politanName": "Atlanta, GA Metro ", "phone_number": "6783545450", "tags": [{"primary": true, "id": 1722, "name": "Restaurants"}], "fax_number": null, "expansion": {"count": null, "uri": null}, "impression_id": "000b0000009f0956fb5c174e9588945ea5132c279c", "profile": "http://www.citysearch.com/profile/682470740/marietta_ga/metropolis_wing_station.html", "address": {"city": "Marietta", "state": "GA", "street": "1038 Franklin Rd Se", "postal_code": "30067"}, "capProviderId": null, "distance": null, "has_offers": false, "name": "Metropolis Wing Station", "longitude": -84.493666, "has_menu": false, "awards": null, "user_review_count": 0}, {"business_operation_status": 1, "rating": null, "neighborhood": null, "image": null, "scorecard": null, "featured": false, "sample_categories": "Restaurants, Delis And Delicatessens, Sandwich Shops, Carry Out", "public_id": "subway-roswell-16", "id": 781231490, "votes": null, "tagline": null, "has_video": false, "website": "http://www.citysearch.com/profile/external/781231490/roswell_ga/subway.html", "offers": null, "latitude": 34.026199, "politanName": "Atlanta, GA Metro ", "phone_number": "7705181060", "tags": [{"primary": false, "id": 1727, "name": "Delis And Delicatessens"}, {"primary": false, "id": 1736, "name": "Sandwich Shops"}, {"primary": false, "id": 11247, "name": "Carry Out"}, {"primary": true, "id": 1722, "name": "Restaurants"}], "fax_number": null, "expansion": {"count": null, "uri": null}, "impression_id": "000b000000e3f90dc644de48f2b5bdf785d9094eba", "profile": "http://www.citysearch.com/profile/781231490/roswell_ga/subway.html", "address": {"city": "Roswell", "state": "GA", "street": "1007 Alpharetta St # 112", "postal_code": "30075"}, "capProviderId": null, "distance": null, "has_offers": false, "name": "SUBWAY", "longitude": -84.359351, "has_menu": false, "awards": null, "user_review_count": 0}, {"business_operation_status": 1, "rating": null, "neighborhood": null, "image": null, "scorecard": null, "featured": false, "sample_categories": "Restaurants, Pizza, Carry Out", "public_id": "pizzano-roswell", "id": 807890550, "votes": null, "tagline": null, "has_video": false, "website": null, "offers": null, "latitude": 34.034423, "politanName": "Atlanta, GA Metro ", "phone_number": "7706401611", "tags": [{"primary": false, "id": 1722, "name": "Restaurants"}, {"primary": false, "id": 11247, "name": "Carry Out"}, {"primary": true, "id": 11299, "name": "Pizza"}], "fax_number": null, "expansion": {"count": null, "uri": null}, "impression_id": "000b0000007589a50f49904d74a67a07a835978a7e", "profile": "http://www.citysearch.com/profile/807890550/roswell_ga/pizzano.html", "address": {"city": "Roswell", "state": "GA", "street": "880 Roswell Rd", "postal_code": "30075"}, "capProviderId": null, "distance": null, "has_offers": false, "name": "Pizzano", "longitude": -84.33947, "has_menu": false, "awards": null, "user_review_count": 0}, {"business_operation_status": 1, "rating": null, "neighborhood": null, "image": null, "scorecard": null, "featured": false, "sample_categories": "Restaurants", "public_id": "ken-mar-cafe-grill-marietta", "id": 808387530, "votes": null, "tagline": null, "has_video": false, "website": null, "offers": null, "latitude": 33.971179, "politanName": "Atlanta, GA Metro ", "phone_number": "7707950081", "tags": [{"primary": true, "id": 1722, "name": "Restaurants"}], "fax_number": null, "expansion": {"count": null, "uri": null}, "impression_id": "000b0000007a4d5d7c82814c3c85acc26f1ffad13f", "profile": "http://www.citysearch.com/profile/808387530/marietta_ga/ken_mar_cafe_grill.html", "address": {"city": "Marietta", "state": "GA", "street": "833 Campbell Hill St NW # 105", "postal_code": "30060"}, "capProviderId": null, "distance": null, "has_offers": false, "name": "Ken Mar Cafe & Grill", "longitude": -84.552313, "has_menu": false, "awards": null, "user_review_count": 0}, {"business_operation_status": 0, "rating": 4.0, "neighborhood": null, "image": null, "scorecard": null, "featured": false, "sample_categories": "Restaurants, Carry Out", "public_id": "zaxbys-woodstock-2", "id": 37306042, "votes": null, "tagline": null, "has_video": false, "website": "http://www.citysearch.com/profile/external/37306042/woodstock_ga/zaxby_s.html", "offers": null, "latitude": 34.087178, "politanName": "Atlanta, GA Metro ", "phone_number": "6784949231", "tags": [{"primary": false, "id": 11247, "name": "Carry Out"}, {"primary": true, "id": 1722, "name": "Restaurants"}], "fax_number": null, "expansion": {"count": null, "uri": null}, "impression_id": "000b000000b2e9d50fec6e482ba9961b8529c5b292", "profile": "http://www.citysearch.com/profile/37306042/woodstock_ga/zaxby_s.html", "address": {"city": "Woodstock", "state": "GA", "street": "12900 Highway 92", "postal_code": "30188"}, "capProviderId": null, "distance": null, "has_offers": false, "name": "Zaxby's", "longitude": -84.473662, "has_menu": true, "awards": null, "user_review_count": 0}, {"business_operation_status": 0, "rating": null, "neighborhood": null, "image": null, "scorecard": null, "featured": false, "sample_categories": "Restaurants, Pizza", "public_id": "macs-pizza-pasta-marietta", "id": 807737810, "votes": null, "tagline": null, "has_video": false, "website": null, "offers": null, "latitude": 33.929154, "politanName": "Atlanta, GA Metro ", "phone_number": "7704997600", "tags": [{"primary": false, "id": 1722, "name": "Restaurants"}, {"primary": true, "id": 11299, "name": "Pizza"}], "fax_number": null, "expansion": {"count": null, "uri": null}, "impression_id": "000b000000f2e949a85f8b448c9e2e61468f028f2f", "profile": "http://www.citysearch.com/profile/807737810/marietta_ga/mac_s_pizza_pasta.html", "address": {"city": "Marietta", "state": "GA", "street": "950 Cobb Pkwy S # 230", "postal_code": "30060"}, "capProviderId": null, "distance": null, "has_offers": false, "name": "Mac's Pizza & Pasta", "longitude": -84.510376, "has_menu": true, "awards": null, "user_review_count": 0}, {"business_operation_status": 1, "rating": null, "neighborhood": null, "image": null, "scorecard": null, "featured": false, "sample_categories": "Restaurants", "public_id": "philly-conn-050-roswll-rd-sandy", "id": 813297900, "votes": null, "tagline": null, "has_video": false, "website": null, "offers": null, "latitude": 33.995409, "politanName": "Atlanta, GA Metro ", "phone_number": "7706429440", "tags": [{"primary": true, "id": 1722, "name": "Restaurants"}], "fax_number": null, "expansion": {"count": null, "uri": null}, "impression_id": "000b000000c3c9d0c329ef445798ca875f4d525d70", "profile": "http://www.citysearch.com/profile/813297900/sandy_springs_ga/philly_conn_050_roswll_rd.html", "address": {"city": "Sandy Springs", "state": "GA", "street": "8725 Roswell Rd # 12", "postal_code": "30350"}, "capProviderId": null, "distance": null, "has_offers": false, "name": "Philly Conn 050 Roswll Rd", "longitude": -84.349807, "has_menu": false, "awards": null, "user_review_count": 0}, {"business_operation_status": 1, "rating": null, "neighborhood": null, "image": null, "scorecard": null, "featured": false, "sample_categories": "Restaurants, Pizza, Carry Out", "public_id": "pizza-hut-marietta-14", "id": 814485380, "votes": null, "tagline": null, "has_video": false, "website": null, "offers": null, "latitude": 33.935534, "politanName": "Atlanta, GA Metro ", "phone_number": "7704291689", "tags": [{"primary": false, "id": 1722, "name": "Restaurants"}, {"primary": false, "id": 11247, "name": "Carry Out"}, {"primary": true, "id": 11299, "name": "Pizza"}], "fax_number": null, "expansion": {"count": null, "uri": null}, "impression_id": "000b0000001976fa02863a429f8b9ad935829bf198", "profile": "http://www.citysearch.com/profile/814485380/marietta_ga/pizza_hut.html", "address": {"city": "Marietta", "state": "GA", "street": "690 Sandtown Rd SW", "postal_code": "30008"}, "capProviderId": null, "distance": null, "has_offers": false, "name": "Pizza Hut", "longitude": -84.556228, "has_menu": false, "awards": null, "user_review_count": 0}, {"business_operation_status": 1, "rating": null, "neighborhood": null, "image": null, "scorecard": null, "featured": false, "sample_categories": "Restaurants", "public_id": "soba-bistro-bar-roswell", "id": 823305040, "votes": null, "tagline": null, "has_video": false, "website": null, "offers": null, "latitude": 34.053819, "politanName": "Atlanta, GA Metro ", "phone_number": "7709711888", "tags": [{"primary": true, "id": 1722, "name": "Restaurants"}], "fax_number": null, "expansion": {"count": null, "uri": null}, "impression_id": "000b0000002da91468585c44cbb48318b97c20e4eb", "profile": "http://www.citysearch.com/profile/823305040/roswell_ga/soba_bistro_bar.html", "address": {"city": "Roswell", "state": "GA", "street": "1005 Grace Hill Dr", "postal_code": "30075"}, "capProviderId": null, "distance": null, "has_offers": false, "name": "Soba Bistro & Bar", "longitude": -84.373112, "has_menu": false, "awards": null, "user_review_count": 0}, {"business_operation_status": 1, "rating": null, "neighborhood": null, "image": null, "scorecard": null, "featured": false, "sample_categories": "Ice Cream Parlors", "public_id": "baskinrobbins-marietta-8", "id": 833503720, "votes": null, "tagline": null, "has_video": false, "website": null, "offers": null, "latitude": 33.949812, "politanName": "Atlanta, GA Metro ", "phone_number": "7709713251", "tags": [{"primary": true, "id": 1730, "name": "Ice Cream Parlors"}], "fax_number": null, "expansion": {"count": null, "uri": null}, "impression_id": "000b0000006d3d968e7ab344a090bd782617b213cb", "profile": "http://www.citysearch.com/profile/833503720/marietta_ga/baskin_robbins.html", "address": {"city": "Marietta", "state": "GA", "street": "80 Powers Ferry Rd SE", "postal_code": "30067"}, "capProviderId": null, "distance": null, "has_offers": false, "name": "Baskin-Robbins", "longitude": -84.511129, "has_menu": true, "awards": null, "user_review_count": 0}, {"business_operation_status": 1, "rating": null, "neighborhood": null, "image": null, "scorecard": null, "featured": false, "sample_categories": "Restaurants, Delis And Delicatessens", "public_id": "great-wraps-marietta", "id": 621905160, "votes": null, "tagline": null, "has_video": false, "website": "http://www.citysearch.com/profile/external/621905160/marietta_ga/great_wraps.html", "offers": null, "latitude": 34.013539, "politanName": "Atlanta, GA Metro ", "phone_number": "6783540001", "tags": [{"primary": false, "id": 1727, "name": "Delis And Delicatessens"}, {"primary": true, "id": 1722, "name": "Restaurants"}], "fax_number": null, "expansion": {"count": null, "uri": null}, "impression_id": "000b00000087531fb30e8b4eeb980ad6bac87c0028", "profile": "http://www.citysearch.com/profile/621905160/marietta_ga/great_wraps.html", "address": {"city": "Marietta", "state": "GA", "street": "125 Barrett Pkwy", "postal_code": "30066"}, "capProviderId": null, "distance": null, "has_offers": false, "name": "Great Wraps", "longitude": -84.552923, "has_menu": true, "awards": null, "user_review_count": 1}, {"business_operation_status": 1, "rating": null, "neighborhood": null, "image": null, "scorecard": null, "featured": false, "sample_categories": "Restaurants, Carry Out, Hamburgers", "public_id": "mc-donalds-canton-18", "id": 622245630, "votes": null, "tagline": null, "has_video": false, "website": "http://www.citysearch.com/profile/external/622245630/canton_ga/mc_donald_s.html", "offers": null, "latitude": 34.173495, "politanName": "Atlanta, GA Metro ", "phone_number": "7707044885", "tags": [{"primary": false, "id": 11247, "name": "Carry Out"}, {"primary": false, "id": 11270, "name": "Hamburgers"}, {"primary": true, "id": 1722, "name": "Restaurants"}], "fax_number": null, "expansion": {"count": null, "uri": null}, "impression_id": "000b0000004abbffb89fa14f25abc732140610bc08", "profile": "http://www.citysearch.com/profile/622245630/canton_ga/mc_donald_s.html", "address": {"city": "Canton", "state": "GA", "street": "3335 Sixes Rd", "postal_code": "30114"}, "capProviderId": null, "distance": null, "has_offers": false, "name": "Mc Donald's", "longitude": -84.54906, "has_menu": true, "awards": null, "user_review_count": 0}, {"business_operation_status": 1, "rating": null, "neighborhood": null, "image": null, "scorecard": null, "featured": false, "sample_categories": "Restaurants, Seafood", "public_id": "seafood-restaurant-marietta", "id": 627596910, "votes": null, "tagline": null, "has_video": false, "website": null, "offers": null, "latitude": 34.046421, "politanName": "Atlanta, GA Metro ", "phone_number": "6784028205", "tags": [{"primary": false, "id": 11228, "name": "Seafood"}, {"primary": true, "id": 1722, "name": "Restaurants"}], "fax_number": null, "expansion": {"count": null, "uri": null}, "impression_id": "000b0000009b726a0f3c3b4d6c9563a8e62ee1d311", "profile": "http://www.citysearch.com/profile/627596910/marietta_ga/seafood_restaurant.html", "address": {"city": "Marietta", "state": "GA", "street": "3920 Canton Rd", "postal_code": "30066"}, "capProviderId": null, "distance": null, "has_offers": false, "name": "Seafood Restaurant", "longitude": -84.52845, "has_menu": false, "awards": null, "user_review_count": 0}, {"business_operation_status": 1, "rating": null, "neighborhood": null, "image": null, "scorecard": null, "featured": false, "sample_categories": "Restaurants", "public_id": "kabanas-bar-grille-marietta", "id": 628071894, "votes": null, "tagline": null, "has_video": false, "website": null, "offers": null, "latitude": 33.915701, "politanName": "Atlanta, GA Metro ", "phone_number": "7706932382", "tags": [{"primary": true, "id": 1722, "name": "Restaurants"}], "fax_number": null, "expansion": {"count": null, "uri": null}, "impression_id": "000b000000ff4a179037b94c1bb5dfbc1a6a8def75", "profile": "http://www.citysearch.com/profile/628071894/marietta_ga/kabanas_bar_grille.html", "address": {"city": "Marietta", "state": "GA", "street": "1475 Terrell Mill Rd SE", "postal_code": "30067"}, "capProviderId": null, "distance": null, "has_offers": false, "name": "Kabanas Bar & Grille", "longitude": -84.4689, "has_menu": false, "awards": null, "user_review_count": 0}, {"business_operation_status": 1, "rating": null, "neighborhood": null, "image": null, "scorecard": null, "featured": false, "sample_categories": "Grocery Stores, Health Food Stores, Restaurants", "public_id": "bambinos-nutritional-ctr-marietta", "id": 631964510, "votes": null, "tagline": null, "has_video": false, "website": null, "offers": null, "latitude": 33.906963, "politanName": "Atlanta, GA Metro ", "phone_number": "7709512267", "tags": [{"primary": false, "id": 1716, "name": "Health Food Stores"}, {"primary": false, "id": 1722, "name": "Restaurants"}, {"primary": true, "id": 1713, "name": "Grocery Stores"}], "fax_number": null, "expansion": {"count": null, "uri": null}, "impression_id": "000b000000ccfc49c26623491e8eb66eec2a27a32c", "profile": "http://www.citysearch.com/profile/631964510/marietta_ga/bambinos_nutritional_ctr.html", "address": {"city": "Marietta", "state": "GA", "street": "1869 Cobb Pkwy S 700", "postal_code": "30060"}, "capProviderId": null, "distance": null, "has_offers": false, "name": "Bambinos Nutritional Ctr", "longitude": -84.488987, "has_menu": false, "awards": null, "user_review_count": 0}, {"business_operation_status": 1, "rating": null, "neighborhood": null, "image": null, "scorecard": null, "featured": false, "sample_categories": "Restaurants, Delis And Delicatessens, Sandwich Shops, Carry Out", "public_id": "subway-kennesaw-12", "id": 627566914, "votes": null, "tagline": null, "has_video": false, "website": "http://www.citysearch.com/profile/external/627566914/kennesaw_ga/subway.html", "offers": null, "latitude": 34.014011, "politanName": "Atlanta, GA Metro ", "phone_number": null, "tags": [{"primary": false, "id": 1727, "name": "Delis And Delicatessens"}, {"primary": false, "id": 1736, "name": "Sandwich Shops"}, {"primary": false, "id": 11247, "name": "Carry Out"}, {"primary": true, "id": 1722, "name": "Restaurants"}], "fax_number": null, "expansion": {"count": null, "uri": null}, "impression_id": "000b00000062b7654274094692b7e44d35679ecc7c", "profile": "http://www.citysearch.com/profile/627566914/kennesaw_ga/subway.html", "address": {"city": "Kennesaw", "state": "GA", "street": "575 Ernest W Barrett Pkwy NW", "postal_code": "30144"}, "capProviderId": null, "distance": null, "has_offers": false, "name": "Subway", "longitude": -84.559013, "has_menu": false, "awards": null, "user_review_count": 0}, {"business_operation_status": 1, "rating": null, "neighborhood": null, "image": null, "scorecard": null, "featured": false, "sample_categories": "Restaurants, Barbecue Restaurants", "public_id": "uncle-buds-bbq-atlanta", "id": 790849630, "votes": null, "tagline": null, "has_video": false, "website": null, "offers": null, "latitude": 33.94048, "politanName": "Atlanta, GA Metro ", "phone_number": "4042255283", "tags": [{"primary": false, "id": 1724, "name": "Barbecue Restaurants"}, {"primary": true, "id": 1722, "name": "Restaurants"}], "fax_number": null, "expansion": {"count": null, "uri": null}, "impression_id": "000b000000220c43d0920844d7bd63b407282c847c", "profile": "http://www.citysearch.com/profile/790849630/atlanta_ga/uncle_buds_bbq.html", "address": {"city": "Atlanta", "state": "GA", "street": "4641 Breakwater Trl", "postal_code": "30303"}, "capProviderId": null, "distance": null, "has_offers": false, "name": "Uncle Buds BBQ", "longitude": -84.397897, "has_menu": false, "awards": null, "user_review_count": 0}, {"business_operation_status": 1, "rating": null, "neighborhood": null, "image": null, "scorecard": null, "featured": false, "sample_categories": "Restaurants, Greek", "public_id": "milos-restaurant-greek-tavern-marietta", "id": 793388790, "votes": null, "tagline": null, "has_video": false, "website": null, "offers": null, "latitude": 33.953276, "politanName": "Atlanta, GA Metro ", "phone_number": "6789033148", "tags": [{"primary": false, "id": 11268, "name": "Greek"}, {"primary": true, "id": 1722, "name": "Restaurants"}], "fax_number": null, "expansion": {"count": null, "uri": null}, "impression_id": "000b0000004e0cf0cdcf7a47acbb530b018de79b82", "profile": "http://www.citysearch.com/profile/793388790/marietta_ga/milos_restaurant_greek_tavern.html", "address": {"city": "Marietta", "state": "GA", "street": "26 Mill St Ne", "postal_code": "30060"}, "capProviderId": null, "distance": null, "has_offers": false, "name": "Milos Restaurant Greek Tavern", "longitude": -84.551885, "has_menu": false, "awards": null, "user_review_count": 0}, {"business_operation_status": 1, "rating": null, "neighborhood": null, "image": null, "scorecard": null, "featured": false, "sample_categories": "Restaurants", "public_id": "its-greek-to-us-marietta", "id": 804307170, "votes": null, "tagline": null, "has_video": false, "website": null, "offers": null, "latitude": 33.974019, "politanName": "Atlanta, GA Metro ", "phone_number": "7705753077", "tags": [{"primary": true, "id": 1722, "name": "Restaurants"}], "fax_number": null, "expansion": {"count": null, "uri": null}, "impression_id": "000b0000000b18ec48b2fd4ed8a7560f217aa8dd9b", "profile": "http://www.citysearch.com/profile/804307170/marietta_ga/it_s_greek_to_us.html", "address": {"city": "Marietta", "state": "GA", "street": "1355 Church Street Ext Ne", "postal_code": "30060"}, "capProviderId": null, "distance": null, "has_offers": false, "name": "It's Greek To US", "longitude": -84.552835, "has_menu": true, "awards": null, "user_review_count": 0}, {"business_operation_status": 1, "rating": null, "neighborhood": null, "image": null, "scorecard": null, "featured": false, "sample_categories": "Restaurants, Fast Food, Carry Out, American Express, Discover", "public_id": "popeyes-chicken-biscuits-roswell", "id": 43855186, "votes": null, "tagline": null, "has_video": false, "website": "http://www.citysearch.com/profile/external/43855186/roswell_ga/popeye_s_chicken_biscuits.html", "offers": null, "latitude": 34.041833, "politanName": "Atlanta, GA Metro ", "phone_number": "7705524817", "tags": [{"primary": false, "id": 11199, "name": "Fast Food"}, {"primary": false, "id": 11247, "name": "Carry Out"}, {"primary": false, "id": 11333, "name": "American Express"}, {"primary": false, "id": 11349, "name": "Discover"}, {"primary": false, "id": 11361, "name": "MasterCard"}, {"primary": false, "id": 11382, "name": "Visa"}, {"primary": false, "id": 12839, "name": "Chicken"}, {"primary": true, "id": 1722, "name": "Restaurants"}], "fax_number": null, "expansion": {"count": null, "uri": null}, "impression_id": "000b000000e74e930630b4433a92fd1514ff5f1a73", "profile": "http://www.citysearch.com/profile/43855186/roswell_ga/popeye_s_chicken_biscuits.html", "address": {"city": "Roswell", "state": "GA", "street": "10777 Alpharetta Hwy", "postal_code": "30076"}, "capProviderId": null, "distance": null, "has_offers": false, "name": "Popeye's Chicken & Biscuits", "longitude": -84.341421, "has_menu": true, "awards": null, "user_review_count": 0}, {"business_operation_status": 1, "rating": null, "neighborhood": null, "image": null, "scorecard": null, "featured": false, "sample_categories": "Restaurants, Carry Out, Hamburgers", "public_id": "back-yard-burgers-roswell", "id": 43856239, "votes": null, "tagline": null, "has_video": false, "website": null, "offers": null, "latitude": 34.064318, "politanName": "Atlanta, GA Metro ", "phone_number": "7705948145", "tags": [{"primary": false, "id": 11247, "name": "Carry Out"}, {"primary": false, "id": 11270, "name": "Hamburgers"}, {"primary": true, "id": 1722, "name": "Restaurants"}], "fax_number": null, "expansion": {"count": null, "uri": null}, "impression_id": "000b00000043720ea565d042408e041ae3f0daff83", "profile": "http://www.citysearch.com/profile/43856239/roswell_ga/back_yard_burgers.html", "address": {"city": "Roswell", "state": "GA", "street": "4751 Sandy Plains Rd", "postal_code": "30075"}, "capProviderId": null, "distance": null, "has_offers": false, "name": "Back Yard Burgers", "longitude": -84.424276, "has_menu": true, "awards": null, "user_review_count": 0}, {"business_operation_status": 1, "rating": 6.0, "neighborhood": null, "image": null, "scorecard": null, "featured": false, "sample_categories": "Restaurants, Family-Friendly Dining", "public_id": "our-place-restaurant-marietta", "id": 43842559, "votes": null, "tagline": null, "has_video": false, "website": null, "offers": null, "latitude": 33.941343, "politanName": "Atlanta, GA Metro ", "phone_number": "7704223796", "tags": [{"primary": false, "id": 1722, "name": "Restaurants"}, {"primary": true, "id": 11263, "name": "Family-Friendly Dining"}], "fax_number": null, "expansion": {"count": null, "uri": null}, "impression_id": "000b000000a3b9dd560fae488e93c42cc6d7bb0baa", "profile": "http://www.citysearch.com/profile/43842559/marietta_ga/our_place_restaurant.html", "address": {"city": "Marietta", "state": "GA", "street": "940 S Marietta Pkwy SE", "postal_code": "30060"}, "capProviderId": null, "distance": null, "has_offers": false, "name": "Our Place Restaurant", "longitude": -84.523114, "has_menu": false, "awards": null, "user_review_count": 2}, {"business_operation_status": 0, "rating": 8.0, "neighborhood": null, "image": null, "scorecard": null, "featured": false, "sample_categories": "Restaurants, Mexican", "public_id": "la-hacienda-marietta", "id": 43844935, "votes": null, "tagline": null, "has_video": false, "website": null, "offers": null, "latitude": 34.029387, "politanName": "Atlanta, GA Metro ", "phone_number": "7704241554", "tags": [{"primary": false, "id": 1722, "name": "Restaurants"}, {"primary": true, "id": 11208, "name": "Mexican"}], "fax_number": null, "expansion": {"count": null, "uri": null}, "impression_id": "000b00000018e63575bbc7454f94588fcef1def857", "profile": "http://www.citysearch.com/profile/43844935/marietta_ga/la_hacienda.html", "address": {"city": "Marietta", "state": "GA", "street": "3185 Canton Rd", "postal_code": "30066"}, "capProviderId": null, "distance": null, "has_offers": false, "name": "La Hacienda", "longitude": -84.528034, "has_menu": true, "awards": null, "user_review_count": 0}, {"business_operation_status": 1, "rating": null, "neighborhood": null, "image": null, "scorecard": null, "featured": false, "sample_categories": "Restaurants, Carry Out", "public_id": "golden-corral-buffet-grill-marietta-2", "id": 811738440, "votes": null, "tagline": null, "has_video": false, "website": null, "offers": null, "latitude": 33.93149, "politanName": "Atlanta, GA Metro ", "phone_number": "7709551779", "tags": [{"primary": false, "id": 11247, "name": "Carry Out"}, {"primary": true, "id": 1722, "name": "Restaurants"}], "fax_number": null, "expansion": {"count": null, "uri": null}, "impression_id": "000b000000a1eabfcdeae14e7091e7facbf808fe70", "profile": "http://www.citysearch.com/profile/811738440/marietta_ga/golden_corral_buffet_grill.html", "address": {"city": "Marietta", "state": "GA", "street": "2024 Powers Ferry Trce SE", "postal_code": "30067"}, "capProviderId": null, "distance": null, "has_offers": false, "name": "Golden Corral Buffet & Grill", "longitude": -84.478299, "has_menu": false, "awards": null, "user_review_count": 0}, {"business_operation_status": 1, "rating": null, "neighborhood": null, "image": null, "scorecard": null, "featured": false, "sample_categories": "Restaurants, Fast Food, Carry Out, Hamburgers, American Express", "public_id": "mc-donalds-canton-13", "id": 45558463, "votes": null, "tagline": null, "has_video": false, "website": "http://www.citysearch.com/profile/external/45558463/canton_ga/mc_donald_s.html", "offers": null, "latitude": 34.175804, "politanName": "Atlanta, GA Metro ", "phone_number": "7707203133", "tags": [{"primary": false, "id": 11199, "name": "Fast Food"}, {"primary": false, "id": 11247, "name": "Carry Out"}, {"primary": false, "id": 11270, "name": "Hamburgers"}, {"primary": false, "id": 11333, "name": "American Express"}, {"primary": false, "id": 11361, "name": "MasterCard"}, {"primary": false, "id": 11382, "name": "Visa"}, {"primary": true, "id": 1722, "name": "Restaurants"}], "fax_number": null, "expansion": {"count": null, "uri": null}, "impression_id": "000b000000a944c16461e04e56a9b5dcaaf09ebfec", "profile": "http://www.citysearch.com/profile/45558463/canton_ga/mc_donald_s.html", "address": {"city": "Canton", "state": "GA", "street": "6126 Hickory Flat Hwy", "postal_code": "30115"}, "capProviderId": null, "distance": null, "has_offers": false, "name": "Mc Donald's", "longitude": -84.418476, "has_menu": true, "awards": null, "user_review_count": 0}, {"business_operation_status": 1, "rating": null, "neighborhood": null, "image": null, "scorecard": null, "featured": false, "sample_categories": "Restaurants, Grocery Stores, Mexican", "public_id": "carniceria-i-taqueria-la-vllt-kennesaw", "id": 45993198, "votes": null, "tagline": null, "has_video": false, "website": null, "offers": null, "latitude": 34.020168, "politanName": "Atlanta, GA Metro ", "phone_number": "6782132841", "tags": [{"primary": false, "id": 1713, "name": "Grocery Stores"}, {"primary": false, "id": 11208, "name": "Mexican"}, {"primary": true, "id": 1722, "name": "Restaurants"}], "fax_number": null, "expansion": {"count": null, "uri": null}, "impression_id": "000b0000005e2033d7f85948fb9ff71e75fa5cd9b2", "profile": "http://www.citysearch.com/profile/45993198/kennesaw_ga/carniceria_i_taqueria_la_vllt.html", "address": {"city": "Kennesaw", "state": "GA", "street": "2730 Summers St NW", "postal_code": "30144"}, "capProviderId": null, "distance": null, "has_offers": false, "name": "Carniceria I Taqueria La Vllt", "longitude": -84.614116, "has_menu": false, "awards": null, "user_review_count": 0}, {"business_operation_status": 0, "rating": null, "neighborhood": null, "image": null, "scorecard": null, "featured": false, "sample_categories": "Restaurants, Food & Dining, Mexican, American Express, Diners Club", "public_id": "pico-autentico-roswell-2", "id": 604668552, "votes": null, "tagline": null, "has_video": false, "website": "http://www.citysearch.com/profile/external/604668552/roswell_ga/pico_autentico.html", "offers": null, "latitude": 34.014641, "politanName": "Atlanta, GA Metro ", "phone_number": "7706507877", "tags": [{"primary": false, "id": 1684, "name": "Food & Dining"}, {"primary": false, "id": 11208, "name": "Mexican"}, {"primary": false, "id": 11333, "name": "American Express"}, {"primary": false, "id": 11348, "name": "Diners Club"}, {"primary": false, "id": 11349, "name": "Discover"}, {"primary": false, "id": 11361, "name": "MasterCard"}, {"primary": false, "id": 11382, "name": "Visa"}, {"primary": true, "id": 1722, "name": "Restaurants"}], "fax_number": null, "expansion": {"count": null, "uri": null}, "impression_id": "000b000000144886f0caa541628f0169ab4c611db9", "profile": "http://www.citysearch.com/profile/604668552/roswell_ga/pico_autentico.html", "address": {"city": "Roswell", "state": "GA", "street": "590 Mimosa Blvd", "postal_code": "30075"}, "capProviderId": null, "distance": null, "has_offers": false, "name": "Pico Autentico", "longitude": -84.363971, "has_menu": true, "awards": null, "user_review_count": 0}], "histograms": [], "tag_ids": [1722], "uri": "http://api.citygridmedia.com:8080/search/places/v2/search/where?has_offers=false&type=restaurant&format=json&page=40&where=30062&rpp=50&histograms=false&publisher=10000009598&region_type=circle", "did_you_mean": "", "regions": [{"latitude": 34.001368, "default_radius": 5.22, "type": "postal_code", "name": "30062", "longitude": -84.466397}], "call_id": "000b0000009363f156a10a41639c2cac3b616120ab", "first_hit": 1951, "total_hits": 2160, "geo_ids": [26292], "page": 40, "last_hit": 2000}}