{"results": {"rpp": 50, "locations": [{"business_operation_status": 1, "rating": null, "neighborhood": null, "image": null, "scorecard": null, "featured": false, "sample_categories": "Restaurants, Caribbean", "public_id": "caribbean-cafe-dallas", "id": 732148300, "votes": null, "tagline": null, "has_video": false, "website": null, "offers": null, "latitude": 33.909628, "politanName": "Atlanta, GA Metro ", "phone_number": "7702228844", "tags": [{"primary": false, "id": 11195, "name": "Caribbean"}, {"primary": true, "id": 1722, "name": "Restaurants"}], "fax_number": null, "expansion": {"count": null, "uri": null}, "impression_id": "000b0000005f4c8e1cc7604cf28e41c7b9f06c2e19", "profile": "http://www.citysearch.com/profile/732148300/dallas_ga/caribbean_cafe.html", "address": {"city": "Dallas", "state": "GA", "street": "1336 Hiram Acworth Hwy", "postal_code": "30157"}, "capProviderId": null, "distance": null, "has_offers": false, "name": "Caribbean Cafe", "longitude": -84.746817, "has_menu": false, "awards": null, "user_review_count": 0}, {"business_operation_status": 1, "rating": null, "neighborhood": null, "image": null, "scorecard": null, "featured": false, "sample_categories": "Restaurants", "public_id": "d-e-restaurant-equipment-acworth", "id": 732160900, "votes": null, "tagline": null, "has_video": false, "website": null, "offers": null, "latitude": 34.028974, "politanName": "Atlanta, GA Metro ", "phone_number": "4049759264", "tags": [{"primary": true, "id": 1722, "name": "Restaurants"}], "fax_number": null, "expansion": {"count": null, "uri": null}, "impression_id": "000b0000008b2fc591446946d3a41814a5a9a03177", "profile": "http://www.citysearch.com/profile/732160900/acworth_ga/d_e_restaurant_equipment.html", "address": {"city": "Acworth", "state": "GA", "street": "3112 Maplewood Dr", "postal_code": "30101"}, "capProviderId": null, "distance": null, "has_offers": false, "name": "D & E Restaurant Equipment", "longitude": -84.740837, "has_menu": false, "awards": null, "user_review_count": 0}, {"business_operation_status": 1, "rating": null, "neighborhood": null, "image": null, "scorecard": null, "featured": false, "sample_categories": "Restaurants", "public_id": "tin-drum-asiacafe-marietta", "id": 614029774, "votes": null, "tagline": null, "has_video": false, "website": null, "offers": null, "latitude": 34.013358, "politanName": "Atlanta, GA Metro ", "phone_number": "6785403471", "tags": [{"primary": true, "id": 1722, "name": "Restaurants"}], "fax_number": null, "expansion": {"count": null, "uri": null}, "impression_id": "000b0000009221b989728345b1afef8c4fb7b30592", "profile": "http://www.citysearch.com/profile/614029774/marietta_ga/tin_drum_asiacafe.html", "address": {"city": "Marietta", "state": "GA", "street": "125 Ernest Barrett Pkwy NW", "postal_code": "30066"}, "capProviderId": null, "distance": null, "has_offers": false, "name": "Tin Drum Asiacafe", "longitude": -84.553529, "has_menu": false, "awards": null, "user_review_count": 0}, {"business_operation_status": 1, "rating": null, "neighborhood": null, "image": null, "scorecard": null, "featured": false, "sample_categories": "Bakeries, Restaurants", "public_id": "flowers-baking-co-marietta-2", "id": 2909781, "votes": null, "tagline": null, "has_video": false, "website": "http://www.citysearch.com/profile/external/2909781/marietta_ga/flowers_baking_co.html", "offers": null, "latitude": 33.948214, "politanName": "Atlanta, GA Metro ", "phone_number": "7709735200", "tags": [{"primary": false, "id": 1722, "name": "Restaurants"}, {"primary": true, "id": 1685, "name": "Bakeries"}], "fax_number": null, "expansion": {"count": null, "uri": null}, "impression_id": "000b000000850da127fb47462d8ec5a8e7bf40788a", "profile": "http://www.citysearch.com/profile/2909781/marietta_ga/flowers_baking_co.html", "address": {"city": "Marietta", "state": "GA", "street": "146 Powers Ferry Rd SE", "postal_code": "30067"}, "capProviderId": null, "distance": null, "has_offers": false, "name": "Flowers Baking Co", "longitude": -84.505792, "has_menu": false, "awards": null, "user_review_count": 0}, {"business_operation_status": 1, "rating": null, "neighborhood": null, "image": null, "scorecard": null, "featured": false, "sample_categories": "Restaurants, Bakeries, Delis And Delicatessens, MasterCard, Visa", "public_id": "sunnys-bagel-deli-kennesaw", "id": 2954916, "votes": null, "tagline": null, "has_video": false, "website": "http://www.citysearch.com/profile/external/2954916/kennesaw_ga/sunny_s_bagel_deli.html", "offers": null, "latitude": 34.012738, "politanName": "Atlanta, GA Metro ", "phone_number": "7707950099", "tags": [{"primary": false, "id": 1685, "name": "Bakeries"}, {"primary": false, "id": 1727, "name": "Delis And Delicatessens"}, {"primary": false, "id": 11361, "name": "MasterCard"}, {"primary": false, "id": 11382, "name": "Visa"}, {"primary": true, "id": 1722, "name": "Restaurants"}], "fax_number": null, "expansion": {"count": null, "uri": null}, "impression_id": "000b0000004cb6ab36785344e4a197fa4064f4a895", "profile": "http://www.citysearch.com/profile/2954916/kennesaw_ga/sunny_s_bagel_deli.html", "address": {"city": "Kennesaw", "state": "GA", "street": "440 Ernest W Barrett Pkwy NW # 8", "postal_code": "30144"}, "capProviderId": null, "distance": null, "has_offers": false, "name": "Sunny's Bagel & Deli", "longitude": -84.5643, "has_menu": false, "awards": null, "user_review_count": 0}, {"business_operation_status": 1, "rating": null, "neighborhood": null, "image": null, "scorecard": null, "featured": false, "sample_categories": "Bars & Pubs, Bars & Clubs, Restaurants", "public_id": "milos-bar-grill-marietta-2", "id": 684764240, "votes": null, "tagline": null, "has_video": false, "website": null, "offers": null, "latitude": 33.938164, "politanName": "Atlanta, GA Metro ", "phone_number": "7704281544", "tags": [{"primary": false, "id": 164, "name": "Bars & Clubs"}, {"primary": false, "id": 1722, "name": "Restaurants"}, {"primary": true, "id": 1686, "name": "Bars & Pubs"}], "fax_number": null, "expansion": {"count": null, "uri": null}, "impression_id": "000b0000005362c1c92bec446bb05849959e37fb4e", "profile": "http://www.citysearch.com/profile/684764240/marietta_ga/milo_s_bar_grill.html", "address": {"city": "Marietta", "state": "GA", "street": "11 Garrison Rd Se", "postal_code": "30008"}, "capProviderId": null, "distance": null, "has_offers": false, "name": "Milo's Bar & Grill", "longitude": -84.553286, "has_menu": false, "awards": null, "user_review_count": 0}, {"business_operation_status": 1, "rating": null, "neighborhood": null, "image": null, "scorecard": null, "featured": false, "sample_categories": "Restaurants", "public_id": "sarb-services-inc-kennesaw", "id": 764871430, "votes": null, "tagline": null, "has_video": false, "website": "http://www.citysearch.com/profile/external/764871430/kennesaw_ga/sarb_services_inc.html", "offers": null, "latitude": 34.011992, "politanName": "Atlanta, GA Metro ", "phone_number": "7704237375", "tags": [{"primary": true, "id": 1722, "name": "Restaurants"}], "fax_number": null, "expansion": {"count": null, "uri": null}, "impression_id": "000b000000bfb93d77c11b4deeb81704c802e04eed", "profile": "http://www.citysearch.com/profile/764871430/kennesaw_ga/sarb_services_inc.html", "address": {"city": "Kennesaw", "state": "GA", "street": "2420 Cobb Pkwy NW", "postal_code": "30152"}, "capProviderId": null, "distance": null, "has_offers": false, "name": "Sarb Services Inc", "longitude": -84.610653, "has_menu": false, "awards": null, "user_review_count": 0}, {"business_operation_status": 1, "rating": null, "neighborhood": null, "image": null, "scorecard": null, "featured": false, "sample_categories": "Restaurants", "public_id": "totopos-dallas", "id": 764911840, "votes": null, "tagline": null, "has_video": false, "website": null, "offers": null, "latitude": 33.957866, "politanName": "Atlanta, GA Metro ", "phone_number": "7704433070", "tags": [{"primary": true, "id": 1722, "name": "Restaurants"}], "fax_number": null, "expansion": {"count": null, "uri": null}, "impression_id": "000b0000002a34a396c2db4cabbd515016248d9825", "profile": "http://www.citysearch.com/profile/764911840/dallas_ga/totopos.html", "address": {"city": "Dallas", "state": "GA", "street": "55 E Paulding Dr", "postal_code": "30157"}, "capProviderId": null, "distance": null, "has_offers": false, "name": "Totopos", "longitude": -84.787071, "has_menu": false, "awards": null, "user_review_count": 0}, {"business_operation_status": 1, "rating": null, "neighborhood": null, "image": null, "scorecard": null, "featured": false, "sample_categories": "Restaurants, Mexican", "public_id": "big-burrito-on-the-square-marietta", "id": 766771680, "votes": null, "tagline": null, "has_video": false, "website": null, "offers": null, "latitude": 33.952302, "politanName": "Atlanta, GA Metro ", "phone_number": "7704223408", "tags": [{"primary": false, "id": 11208, "name": "Mexican"}, {"primary": true, "id": 1722, "name": "Restaurants"}], "fax_number": null, "expansion": {"count": null, "uri": null}, "impression_id": "000b0000003b3be2040ce74459abd2450877323f8b", "profile": "http://www.citysearch.com/profile/766771680/marietta_ga/big_burrito_on_the_square.html", "address": {"city": "Marietta", "state": "GA", "street": "154 Roswell St SE", "postal_code": "30060"}, "capProviderId": null, "distance": null, "has_offers": false, "name": "Big Burrito On the Square", "longitude": -84.548739, "has_menu": false, "awards": null, "user_review_count": 0}, {"business_operation_status": 1, "rating": null, "neighborhood": null, "image": null, "scorecard": null, "featured": false, "sample_categories": "Restaurants, Delis And Delicatessens, Pizza", "public_id": "harrys-pizza-subs-marietta", "id": 713629810, "votes": null, "tagline": null, "has_video": false, "website": null, "offers": null, "latitude": 33.933494, "politanName": "Atlanta, GA Metro ", "phone_number": "7709550991", "tags": [{"primary": false, "id": 1722, "name": "Restaurants"}, {"primary": false, "id": 1727, "name": "Delis And Delicatessens"}, {"primary": true, "id": 11299, "name": "Pizza"}], "fax_number": null, "expansion": {"count": null, "uri": null}, "impression_id": "000b0000001a3d6d8c24ef4496a068389fd9362930", "profile": "http://www.citysearch.com/profile/713629810/marietta_ga/harry_s_pizza_subs.html", "address": {"city": "Marietta", "state": "GA", "street": "2150 Powers Ferry Dr Se", "postal_code": "30067"}, "capProviderId": null, "distance": null, "has_offers": false, "name": "Harry's Pizza & Subs", "longitude": -84.489988, "has_menu": false, "awards": null, "user_review_count": 0}, {"business_operation_status": 1, "rating": null, "neighborhood": null, "image": null, "scorecard": null, "featured": false, "sample_categories": "Restaurants", "public_id": "stricks-southern-flavor-grill-marietta", "id": 728066170, "votes": null, "tagline": null, "has_video": false, "website": null, "offers": null, "latitude": 33.955558, "politanName": "Atlanta, GA Metro ", "phone_number": "6783555538", "tags": [{"primary": true, "id": 1722, "name": "Restaurants"}], "fax_number": null, "expansion": {"count": null, "uri": null}, "impression_id": "000b000000f2a7ae94a12e46d3b16dfeb074ac30cc", "profile": "http://www.citysearch.com/profile/728066170/marietta_ga/strick_s_southern_flavor_grill.html", "address": {"city": "Marietta", "state": "GA", "street": "168 Hunt St Ne", "postal_code": "30060"}, "capProviderId": null, "distance": null, "has_offers": false, "name": "Strick's Southern Flavor Grill", "longitude": -84.544275, "has_menu": false, "awards": null, "user_review_count": 0}, {"business_operation_status": 1, "rating": null, "neighborhood": null, "image": null, "scorecard": null, "featured": false, "sample_categories": "Restaurants", "public_id": "mandarin-express-chinese-marietta", "id": 807555420, "votes": null, "tagline": null, "has_video": false, "website": null, "offers": null, "latitude": 33.928543, "politanName": "Atlanta, GA Metro ", "phone_number": "7709842233", "tags": [{"primary": true, "id": 1722, "name": "Restaurants"}], "fax_number": null, "expansion": {"count": null, "uri": null}, "impression_id": "000b0000000e6b7b21e29841fd8a91437b96ea4f2e", "profile": "http://www.citysearch.com/profile/807555420/marietta_ga/mandarin_express_chinese.html", "address": {"city": "Marietta", "state": "GA", "street": "1033 Franklin Rd SE", "postal_code": "30067"}, "capProviderId": null, "distance": null, "has_offers": false, "name": "Mandarin Express Chinese", "longitude": -84.492609, "has_menu": false, "awards": null, "user_review_count": 0}, {"business_operation_status": 1, "rating": null, "neighborhood": null, "image": null, "scorecard": null, "featured": false, "sample_categories": "Restaurants", "public_id": "long-horn-steakhouse-marietta", "id": 2909609, "votes": null, "tagline": null, "has_video": false, "website": null, "offers": null, "latitude": 33.937797, "politanName": "Atlanta, GA Metro ", "phone_number": "7704244353", "tags": [{"primary": true, "id": 1722, "name": "Restaurants"}], "fax_number": null, "expansion": {"count": null, "uri": null}, "impression_id": "000b0000001751993ad67b49d8ac3fc0376d54dbcf", "profile": "http://www.citysearch.com/profile/2909609/marietta_ga/long_horn_steakhouse.html", "address": {"city": "Marietta", "state": "GA", "street": "585 Franklin Rd SE Ste 585", "postal_code": "30067"}, "capProviderId": null, "distance": null, "has_offers": false, "name": "Long Horn Steakhouse", "longitude": -84.506993, "has_menu": true, "awards": null, "user_review_count": 0}, {"business_operation_status": 1, "rating": null, "neighborhood": null, "image": null, "scorecard": null, "featured": false, "sample_categories": "Restaurants", "public_id": "i-repair-i-austell", "id": 764872320, "votes": null, "tagline": null, "has_video": false, "website": null, "offers": null, "latitude": 33.831904, "politanName": "Atlanta, GA Metro ", "phone_number": "6784021158", "tags": [{"primary": true, "id": 1722, "name": "Restaurants"}], "fax_number": null, "expansion": {"count": null, "uri": null}, "impression_id": "000b000000ef7eb524e408410f86b17a1845d074b2", "profile": "http://www.citysearch.com/profile/764872320/austell_ga/i_repair_i.html", "address": {"city": "Austell", "state": "GA", "street": "2401 Clay Rd", "postal_code": "30106"}, "capProviderId": null, "distance": null, "has_offers": false, "name": "I Repair I", "longitude": -84.622801, "has_menu": false, "awards": null, "user_review_count": 0}, {"business_operation_status": 1, "rating": null, "neighborhood": null, "image": null, "scorecard": null, "featured": false, "sample_categories": "Restaurants, Ice Cream Parlors, Carry Out", "public_id": "mc-donalds-marietta-21", "id": 764880600, "votes": null, "tagline": null, "has_video": false, "website": null, "offers": null, "latitude": 33.952602, "politanName": "Atlanta, GA Metro ", "phone_number": "4047846909", "tags": [{"primary": false, "id": 1730, "name": "Ice Cream Parlors"}, {"primary": false, "id": 11247, "name": "Carry Out"}, {"primary": true, "id": 1722, "name": "Restaurants"}], "fax_number": null, "expansion": {"count": null, "uri": null}, "impression_id": "000b000000637ce0776b76470fa589878c8814c889", "profile": "http://www.citysearch.com/profile/764880600/marietta_ga/mc_donald_s.html", "address": {"city": "Marietta", "state": "GA", "street": "PO Box 965370", "postal_code": "30066"}, "capProviderId": null, "distance": null, "has_offers": false, "name": "Mc Donald's", "longitude": -84.549933, "has_menu": false, "awards": null, "user_review_count": 0}, {"business_operation_status": 1, "rating": null, "neighborhood": null, "image": null, "scorecard": null, "featured": false, "sample_categories": "Restaurants, Italian", "public_id": "martinos-italian-restaurant-dallas", "id": 766757000, "votes": null, "tagline": null, "has_video": false, "website": null, "offers": null, "latitude": 33.98438, "politanName": "Atlanta, GA Metro ", "phone_number": "6787385561", "tags": [{"primary": false, "id": 11279, "name": "Italian"}, {"primary": true, "id": 1722, "name": "Restaurants"}], "fax_number": null, "expansion": {"count": null, "uri": null}, "impression_id": "000b000000f0c9375e6f8942308a41cd513f60724b", "profile": "http://www.citysearch.com/profile/766757000/dallas_ga/martino_s_italian_restaurant.html", "address": {"city": "Dallas", "state": "GA", "street": "8877 Acwoth Dallas Hwy", "postal_code": "30132"}, "capProviderId": null, "distance": null, "has_offers": false, "name": "Martino's Italian Restaurant", "longitude": -84.772457, "has_menu": false, "awards": null, "user_review_count": 0}, {"business_operation_status": 1, "rating": null, "neighborhood": null, "image": null, "scorecard": null, "featured": false, "sample_categories": "Restaurants", "public_id": "la-tagliatellakennesaw-kennesaw", "id": 768794230, "votes": null, "tagline": null, "has_video": false, "website": null, "offers": null, "latitude": 34.002327, "politanName": "Atlanta, GA Metro ", "phone_number": "6789053611", "tags": [{"primary": true, "id": 1722, "name": "Restaurants"}], "fax_number": null, "expansion": {"count": null, "uri": null}, "impression_id": "000b000000ff92f7009cab488399eb52858f23bfa9", "profile": "http://www.citysearch.com/profile/768794230/kennesaw_ga/la_tagliatella_kennesaw.html", "address": {"city": "Kennesaw", "state": "GA", "street": "2045 Attic Pkwy NW", "postal_code": "30152"}, "capProviderId": null, "distance": null, "has_offers": false, "name": "La Tagliatella-Kennesaw", "longitude": -84.604376, "has_menu": false, "awards": null, "user_review_count": 0}, {"business_operation_status": 1, "rating": null, "neighborhood": null, "image": null, "scorecard": null, "featured": false, "sample_categories": "Restaurants, Chinese", "public_id": "manchu-wok-kennesaw", "id": 2955024, "votes": null, "tagline": null, "has_video": false, "website": null, "offers": null, "latitude": 34.019128, "politanName": "Atlanta, GA Metro ", "phone_number": "7704239488", "tags": [{"primary": false, "id": 11252, "name": "Chinese"}, {"primary": true, "id": 1722, "name": "Restaurants"}], "fax_number": null, "expansion": {"count": null, "uri": null}, "impression_id": "000b0000001876e9acf1ec4f4591a987f199cc3c1f", "profile": "http://www.citysearch.com/profile/2955024/kennesaw_ga/manchu_wok.html", "address": {"city": "Kennesaw", "state": "GA", "street": "400 Ernest W Barrett Pkwy NW", "postal_code": "30144"}, "capProviderId": null, "distance": null, "has_offers": false, "name": "Manchu Wok", "longitude": -84.563608, "has_menu": true, "awards": null, "user_review_count": 0}, {"business_operation_status": 1, "rating": null, "neighborhood": null, "image": null, "scorecard": null, "featured": false, "sample_categories": "Restaurants", "public_id": "pyramid-restaurant-hookah-marietta", "id": 777743980, "votes": null, "tagline": null, "has_video": false, "website": null, "offers": null, "latitude": 33.942926, "politanName": "Atlanta, GA Metro ", "phone_number": "6782131030", "tags": [{"primary": true, "id": 1722, "name": "Restaurants"}], "fax_number": null, "expansion": {"count": null, "uri": null}, "impression_id": "000b0000002da6deba1cbc4aa99a540469736b1399", "profile": "http://www.citysearch.com/profile/777743980/marietta_ga/pyramid_restaurant_hookah.html", "address": {"city": "Marietta", "state": "GA", "street": "600 S Marietta Pkwy Se", "postal_code": "30060"}, "capProviderId": null, "distance": null, "has_offers": false, "name": "Pyramid Restaurant & Hookah", "longitude": -84.534635, "has_menu": false, "awards": null, "user_review_count": 0}, {"business_operation_status": 0, "rating": null, "neighborhood": null, "image": null, "scorecard": null, "featured": false, "sample_categories": "Restaurants, Chinese", "public_id": "shanghai-chinese-restaurant-powder", "id": 777776470, "votes": null, "tagline": null, "has_video": false, "website": null, "offers": null, "latitude": 33.874992, "politanName": "Atlanta, GA Metro ", "phone_number": "7704395868", "tags": [{"primary": false, "id": 11252, "name": "Chinese"}, {"primary": true, "id": 1722, "name": "Restaurants"}], "fax_number": null, "expansion": {"count": null, "uri": null}, "impression_id": "000b0000004a40893c6a0848b188687fc8b765c2b0", "profile": "http://www.citysearch.com/profile/777776470/powder_springs_ga/shanghai_chinese_restaurant.html", "address": {"city": "Powder Springs", "state": "GA", "street": "3219 New Macland Rd", "postal_code": "30127"}, "capProviderId": null, "distance": null, "has_offers": false, "name": "Shanghai Chinese Restaurant", "longitude": -84.676289, "has_menu": true, "awards": null, "user_review_count": 2}, {"business_operation_status": 1, "rating": null, "neighborhood": null, "image": null, "scorecard": null, "featured": false, "sample_categories": "Restaurants, Bistros, Bars & Clubs", "public_id": "north-park-bistro-marietta", "id": 777790950, "votes": null, "tagline": null, "has_video": false, "website": "http://www.citysearch.com/profile/external/777790950/marietta_ga/kish_restaurant_bar.html", "offers": null, "latitude": 33.953606, "politanName": "Atlanta, GA Metro ", "phone_number": "7706726803", "tags": [{"primary": false, "id": 13690, "name": "Bistros"}, {"primary": false, "id": 164, "name": "Bars & Clubs"}, {"primary": true, "id": 1722, "name": "Restaurants"}], "fax_number": null, "expansion": {"count": null, "uri": null}, "impression_id": "000b00000056ca1ca605094f468d828b6ee1ac40d4", "profile": "http://www.citysearch.com/profile/777790950/marietta_ga/kish_restaurant_bar.html", "address": {"city": "Marietta", "state": "GA", "street": "105 N Park Sq NE", "postal_code": "30060"}, "capProviderId": null, "distance": null, "has_offers": false, "name": "Kish Restaurant & Bar", "longitude": -84.549403, "has_menu": false, "awards": null, "user_review_count": 0}, {"business_operation_status": 1, "rating": null, "neighborhood": null, "image": null, "scorecard": null, "featured": false, "sample_categories": "Restaurants", "public_id": "julias-cafe-marietta", "id": 787109210, "votes": null, "tagline": null, "has_video": false, "website": null, "offers": null, "latitude": 33.938568, "politanName": "Atlanta, GA Metro ", "phone_number": "7704284400", "tags": [{"primary": true, "id": 1722, "name": "Restaurants"}], "fax_number": null, "expansion": {"count": null, "uri": null}, "impression_id": "000b000000e7e38e7720574738b7fe4a56b7535d49", "profile": "http://www.citysearch.com/profile/787109210/marietta_ga/julia_s_cafe.html", "address": {"city": "Marietta", "state": "GA", "street": "1775 Pkwy Pl NW", "postal_code": "30067"}, "capProviderId": null, "distance": null, "has_offers": false, "name": "Julia's Cafe", "longitude": -84.505213, "has_menu": false, "awards": null, "user_review_count": 0}, {"business_operation_status": 1, "rating": null, "neighborhood": null, "image": null, "scorecard": null, "featured": false, "sample_categories": "Restaurants, Thai", "public_id": "f-j-thai-pepper-llc-kennesaw", "id": 793231080, "votes": null, "tagline": null, "has_video": false, "website": null, "offers": null, "latitude": 34.01386, "politanName": "Atlanta, GA Metro ", "phone_number": "7704199500", "tags": [{"primary": false, "id": 11319, "name": "Thai"}, {"primary": true, "id": 1722, "name": "Restaurants"}], "fax_number": null, "expansion": {"count": null, "uri": null}, "impression_id": "000b0000006fdcd093f3484c948dbf21a1ae968e19", "profile": "http://www.citysearch.com/profile/793231080/kennesaw_ga/f_j_thai_pepper_llc.html", "address": {"city": "Kennesaw", "state": "GA", "street": "2606 George Busbee Pkwy NW", "postal_code": "30144"}, "capProviderId": null, "distance": null, "has_offers": false, "name": "F J Thai Pepper LLC", "longitude": -84.565725, "has_menu": false, "awards": null, "user_review_count": 0}, {"business_operation_status": 1, "rating": null, "neighborhood": null, "image": null, "scorecard": null, "featured": false, "sample_categories": "Restaurants", "public_id": "el-sarape-marietta", "id": 815403830, "votes": null, "tagline": null, "has_video": false, "website": null, "offers": null, "latitude": 33.969085, "politanName": "Atlanta, GA Metro ", "phone_number": "7705908887", "tags": [{"primary": true, "id": 1722, "name": "Restaurants"}], "fax_number": null, "expansion": {"count": null, "uri": null}, "impression_id": "000b00000012424efd33804dfd9b6d78d25f9801f6", "profile": "http://www.citysearch.com/profile/815403830/marietta_ga/el_sarape.html", "address": {"city": "Marietta", "state": "GA", "street": "745 Cobb Pkwy N", "postal_code": "30062"}, "capProviderId": null, "distance": null, "has_offers": false, "name": "El Sarape", "longitude": -84.538349, "has_menu": false, "awards": null, "user_review_count": 0}, {"business_operation_status": 1, "rating": null, "neighborhood": null, "image": null, "scorecard": null, "featured": false, "sample_categories": "Restaurants", "public_id": "cobb-kennesaw", "id": 812569790, "votes": null, "tagline": null, "has_video": false, "website": null, "offers": null, "latitude": 34.007674, "politanName": "Atlanta, GA Metro ", "phone_number": "7704256895", "tags": [{"primary": true, "id": 1722, "name": "Restaurants"}], "fax_number": null, "expansion": {"count": null, "uri": null}, "impression_id": "000b00000044ae7c9587a14e04ae345941b6003acb", "profile": "http://www.citysearch.com/profile/812569790/kennesaw_ga/cobb.html", "address": {"city": "Kennesaw", "state": "GA", "street": "740 Ernest W Barrett Pkwy NW", "postal_code": "30144"}, "capProviderId": null, "distance": null, "has_offers": false, "name": "Cobb", "longitude": -84.571702, "has_menu": false, "awards": null, "user_review_count": 0}, {"business_operation_status": 1, "rating": null, "neighborhood": null, "image": null, "scorecard": null, "featured": false, "sample_categories": "Doughnut Shops", "public_id": "dunkin-donuts-shirinathji-marietta", "id": 815095050, "votes": null, "tagline": null, "has_video": false, "website": null, "offers": null, "latitude": 34.046062, "politanName": "Atlanta, GA Metro ", "phone_number": "6783550473", "tags": [{"primary": true, "id": 1734, "name": "Doughnut Shops"}], "fax_number": null, "expansion": {"count": null, "uri": null}, "impression_id": "000b0000002ee305f2cb2e46cba19ac8db268528cb", "profile": "http://www.citysearch.com/profile/815095050/marietta_ga/dunkin_donuts_shirinathji.html", "address": {"city": "Marietta", "state": "GA", "street": "3926 Straton Hall Way", "postal_code": "30066"}, "capProviderId": null, "distance": null, "has_offers": false, "name": "Dunkin Donuts Shirinathji", "longitude": -84.477282, "has_menu": false, "awards": null, "user_review_count": 0}, {"business_operation_status": 1, "rating": null, "neighborhood": null, "image": null, "scorecard": null, "featured": false, "sample_categories": "Restaurants", "public_id": "miramcho-marietta", "id": 815118630, "votes": null, "tagline": null, "has_video": false, "website": null, "offers": null, "latitude": 33.933881, "politanName": "Atlanta, GA Metro ", "phone_number": "7707940330", "tags": [{"primary": true, "id": 1722, "name": "Restaurants"}], "fax_number": null, "expansion": {"count": null, "uri": null}, "impression_id": "000b000000e1e8272f641d47e28ea46b4467a88099", "profile": "http://www.citysearch.com/profile/815118630/marietta_ga/miramcho.html", "address": {"city": "Marietta", "state": "GA", "street": "760 Sandtown Rd SW", "postal_code": "30008"}, "capProviderId": null, "distance": null, "has_offers": false, "name": "Miramcho", "longitude": -84.555669, "has_menu": false, "awards": null, "user_review_count": 1}, {"business_operation_status": 1, "rating": null, "neighborhood": null, "image": null, "scorecard": null, "featured": false, "sample_categories": "Restaurants", "public_id": "b-a-b-smokehouse-marietta", "id": 818380670, "votes": null, "tagline": null, "has_video": false, "website": null, "offers": null, "latitude": 34.02684, "politanName": "Atlanta, GA Metro ", "phone_number": "7704220604", "tags": [{"primary": true, "id": 1722, "name": "Restaurants"}], "fax_number": null, "expansion": {"count": null, "uri": null}, "impression_id": "000b00000002baa9e5a2da4063ab964114c2d7228e", "profile": "http://www.citysearch.com/profile/818380670/marietta_ga/b_a_b_smokehouse.html", "address": {"city": "Marietta", "state": "GA", "street": "3050 Canton Rd", "postal_code": "30066"}, "capProviderId": null, "distance": null, "has_offers": false, "name": "B A B Smokehouse", "longitude": -84.527483, "has_menu": false, "awards": null, "user_review_count": 0}, {"business_operation_status": 1, "rating": null, "neighborhood": null, "image": null, "scorecard": null, "featured": false, "sample_categories": "Restaurants", "public_id": "playing-field-powder", "id": 821625510, "votes": null, "tagline": null, "has_video": false, "website": null, "offers": null, "latitude": 33.85832, "politanName": "Atlanta, GA Metro ", "phone_number": "7702226478", "tags": [{"primary": true, "id": 1722, "name": "Restaurants"}], "fax_number": null, "expansion": {"count": null, "uri": null}, "impression_id": "000b0000000eafd66d601044d9852fee19128f93d8", "profile": "http://www.citysearch.com/profile/821625510/powder_springs_ga/playing_field.html", "address": {"city": "Powder Springs", "state": "GA", "street": "4093 Marietta St # C", "postal_code": "30127"}, "capProviderId": null, "distance": null, "has_offers": false, "name": "Playing Field", "longitude": -84.67366, "has_menu": false, "awards": null, "user_review_count": 0}, {"business_operation_status": 1, "rating": null, "neighborhood": null, "image": null, "scorecard": null, "featured": false, "sample_categories": "Restaurants, Pizza", "public_id": "jimmys-pizza-marietta", "id": 822422560, "votes": null, "tagline": null, "has_video": false, "website": null, "offers": null, "latitude": 33.901926, "politanName": "Atlanta, GA Metro ", "phone_number": "7704357664", "tags": [{"primary": false, "id": 1722, "name": "Restaurants"}, {"primary": true, "id": 11299, "name": "Pizza"}], "fax_number": null, "expansion": {"count": null, "uri": null}, "impression_id": "000b0000002cc33114d94540879800f2b0de564118", "profile": "http://www.citysearch.com/profile/822422560/marietta_ga/jimmy_s_pizza.html", "address": {"city": "Marietta", "state": "GA", "street": "495 Pat Mell Rd SW # 104", "postal_code": "30060"}, "capProviderId": null, "distance": null, "has_offers": false, "name": "Jimmy's Pizza", "longitude": -84.567429, "has_menu": false, "awards": null, "user_review_count": 0}, {"business_operation_status": 0, "rating": null, "neighborhood": null, "image": null, "scorecard": null, "featured": false, "sample_categories": "Restaurants, Pizza", "public_id": "luna-pizza-kennesaw", "id": 824661650, "votes": null, "tagline": null, "has_video": false, "website": null, "offers": null, "latitude": 34.013172, "politanName": "Atlanta, GA Metro ", "phone_number": "6787660449", "tags": [{"primary": false, "id": 1722, "name": "Restaurants"}, {"primary": true, "id": 11299, "name": "Pizza"}], "fax_number": null, "expansion": {"count": null, "uri": null}, "impression_id": "000b000000d00002598b404dd6b1ab6aef000b412b", "profile": "http://www.citysearch.com/profile/824661650/kennesaw_ga/luna_pizza.html", "address": {"city": "Kennesaw", "state": "GA", "street": "2615 George Busbee Pkwy NW", "postal_code": "30144"}, "capProviderId": null, "distance": null, "has_offers": false, "name": "Luna Pizza", "longitude": -84.567215, "has_menu": false, "awards": null, "user_review_count": 0}, {"business_operation_status": 1, "rating": null, "neighborhood": null, "image": null, "scorecard": null, "featured": false, "sample_categories": "Restaurants", "public_id": "boxcara-cheesecake-cafe-kennesaw", "id": 823298160, "votes": null, "tagline": null, "has_video": false, "website": null, "offers": null, "latitude": 34.024396, "politanName": "Atlanta, GA Metro ", "phone_number": "7709197740", "tags": [{"primary": true, "id": 1722, "name": "Restaurants"}], "fax_number": null, "expansion": {"count": null, "uri": null}, "impression_id": "000b0000000638a758001f4a25a09c9e513289f2b6", "profile": "http://www.citysearch.com/profile/823298160/kennesaw_ga/boxcar_a_cheesecake_cafe.html", "address": {"city": "Kennesaw", "state": "GA", "street": "2893 N Main St NW", "postal_code": "30144"}, "capProviderId": null, "distance": null, "has_offers": false, "name": "Boxcar-A Cheesecake Cafe", "longitude": -84.615917, "has_menu": true, "awards": null, "user_review_count": 3}, {"business_operation_status": 1, "rating": null, "neighborhood": null, "image": null, "scorecard": null, "featured": false, "sample_categories": "Restaurants", "public_id": "finca-bonita-mexican-grill-marietta", "id": 838631820, "votes": null, "tagline": null, "has_video": false, "website": null, "offers": null, "latitude": 33.951258, "politanName": "Atlanta, GA Metro ", "phone_number": "7704198290", "tags": [{"primary": true, "id": 1722, "name": "Restaurants"}], "fax_number": null, "expansion": {"count": null, "uri": null}, "impression_id": "000b00000055ec28cdd7bc44a4ae72830d418f6396", "profile": "http://www.citysearch.com/profile/838631820/marietta_ga/finca_bonita_mexican_grill.html", "address": {"city": "Marietta", "state": "GA", "street": "1157 Roswell Rd", "postal_code": "30062"}, "capProviderId": null, "distance": null, "has_offers": false, "name": "Finca Bonita Mexican Grill", "longitude": -84.517723, "has_menu": false, "awards": null, "user_review_count": 1}, {"business_operation_status": 1, "rating": null, "neighborhood": null, "image": null, "scorecard": null, "featured": false, "sample_categories": "Restaurants", "public_id": "whitcher-street-caf-marietta", "id": 713628600, "votes": null, "tagline": null, "has_video": false, "website": null, "offers": null, "latitude": 33.967469, "politanName": "Atlanta, GA Metro ", "phone_number": "6785813888", "tags": [{"primary": true, "id": 1722, "name": "Restaurants"}], "fax_number": null, "expansion": {"count": null, "uri": null}, "impression_id": "000b0000008b060e48936a4393ad3c456479b58e2b", "profile": "http://www.citysearch.com/profile/713628600/marietta_ga/whitcher_street_caf.html", "address": {"city": "Marietta", "state": "GA", "street": "55 Whitcher St Ne", "postal_code": "30060"}, "capProviderId": null, "distance": null, "has_offers": false, "name": "Whitcher Street Caf", "longitude": -84.551412, "has_menu": false, "awards": null, "user_review_count": 0}, {"business_operation_status": 1, "rating": null, "neighborhood": null, "image": null, "scorecard": null, "featured": false, "sample_categories": "Restaurants", "public_id": "mrs-winners-austell", "id": 822291490, "votes": null, "tagline": null, "has_video": false, "website": null, "offers": null, "latitude": 33.839909, "politanName": "Atlanta, GA Metro ", "phone_number": "7704386204", "tags": [{"primary": true, "id": 1722, "name": "Restaurants"}], "fax_number": null, "expansion": {"count": null, "uri": null}, "impression_id": "000b0000004efeee8ce77c41ecbc00a71b6dfab698", "profile": "http://www.citysearch.com/profile/822291490/austell_ga/mrs_winners.html", "address": {"city": "Austell", "state": "GA", "street": "Austell Rd", "postal_code": "30106"}, "capProviderId": null, "distance": null, "has_offers": false, "name": "Mrs Winners", "longitude": -84.610817, "has_menu": false, "awards": null, "user_review_count": 0}, {"business_operation_status": 1, "rating": null, "neighborhood": null, "image": null, "scorecard": null, "featured": false, "sample_categories": "Restaurants, Delis And Delicatessens", "public_id": "d-w-cafe-marietta", "id": 775198490, "votes": null, "tagline": null, "has_video": false, "website": null, "offers": null, "latitude": 33.972386, "politanName": "Atlanta, GA Metro ", "phone_number": "6784018966", "tags": [{"primary": false, "id": 1727, "name": "Delis And Delicatessens"}, {"primary": true, "id": 1722, "name": "Restaurants"}], "fax_number": null, "expansion": {"count": null, "uri": null}, "impression_id": "000b0000006808eb7cf36842f5b2fe2459f2bb3869", "profile": "http://www.citysearch.com/profile/775198490/marietta_ga/d_w_cafe.html", "address": {"city": "Marietta", "state": "GA", "street": "833 Campbell Hill St NW", "postal_code": "30060"}, "capProviderId": null, "distance": null, "has_offers": false, "name": "D W Cafe", "longitude": -84.552023, "has_menu": false, "awards": null, "user_review_count": 0}, {"business_operation_status": 1, "rating": null, "neighborhood": null, "image": null, "scorecard": null, "featured": false, "sample_categories": "Restaurants", "public_id": "golden-choice-pet-foods-llc-kennesaw", "id": 787124940, "votes": null, "tagline": null, "has_video": false, "website": "http://www.citysearch.com/profile/external/787124940/kennesaw_ga/golden_choice_pet_foods_llc.html", "offers": null, "latitude": 34.003702, "politanName": "Atlanta, GA Metro ", "phone_number": "7704255412", "tags": [{"primary": true, "id": 1722, "name": "Restaurants"}], "fax_number": null, "expansion": {"count": null, "uri": null}, "impression_id": "000b000000e1d2084d154c4d8ab6e0a18c24f57919", "profile": "http://www.citysearch.com/profile/787124940/kennesaw_ga/golden_choice_pet_foods_llc.html", "address": {"city": "Kennesaw", "state": "GA", "street": "2084 Battlewood Dr NW", "postal_code": "30152"}, "capProviderId": null, "distance": null, "has_offers": false, "name": "Golden Choice Pet Foods LLC", "longitude": -84.622899, "has_menu": false, "awards": null, "user_review_count": 0}, {"business_operation_status": 1, "rating": null, "neighborhood": null, "image": null, "scorecard": null, "featured": false, "sample_categories": "Restaurants, Carry Out, Chicken", "public_id": "zaxbys-marietta-6", "id": 787134660, "votes": null, "tagline": null, "has_video": false, "website": "http://www.citysearch.com/profile/external/787134660/marietta_ga/zaxby_s.html", "offers": null, "latitude": 33.952602, "politanName": "Atlanta, GA Metro ", "phone_number": "6788521483", "tags": [{"primary": false, "id": 11247, "name": "Carry Out"}, {"primary": false, "id": 12839, "name": "Chicken"}, {"primary": true, "id": 1722, "name": "Restaurants"}], "fax_number": null, "expansion": {"count": null, "uri": null}, "impression_id": "000b000000dd745c48e47540b49f1a15e7582c85a5", "profile": "http://www.citysearch.com/profile/787134660/marietta_ga/zaxby_s.html", "address": {"city": "Marietta", "state": "GA", "street": "2756 Sandy Plains Rd", "postal_code": "30066"}, "capProviderId": null, "distance": null, "has_offers": false, "name": "Zaxby's", "longitude": -84.549933, "has_menu": true, "awards": null, "user_review_count": 0}, {"business_operation_status": 1, "rating": 8.0, "neighborhood": null, "image": null, "scorecard": null, "featured": false, "sample_categories": "Restaurants, Chinese", "public_id": "new-china-house-marietta", "id": 2904692, "votes": null, "tagline": null, "has_video": false, "website": "http://www.citysearch.com/profile/external/2904692/marietta_ga/new_china_house.html", "offers": null, "latitude": 33.971616, "politanName": "Atlanta, GA Metro ", "phone_number": "7704286409", "tags": [{"primary": false, "id": 11252, "name": "Chinese"}, {"primary": true, "id": 1722, "name": "Restaurants"}], "fax_number": null, "expansion": {"count": null, "uri": null}, "impression_id": "000b000000be6093fef4b8406094c8415b116eecf7", "profile": "http://www.citysearch.com/profile/2904692/marietta_ga/new_china_house.html", "address": {"city": "Marietta", "state": "GA", "street": "803 Cobb Pkwy N", "postal_code": "30062"}, "capProviderId": null, "distance": null, "has_offers": false, "name": "New China House", "longitude": -84.540539, "has_menu": true, "awards": null, "user_review_count": 1}, {"business_operation_status": 1, "rating": null, "neighborhood": null, "image": null, "scorecard": null, "featured": false, "sample_categories": "Restaurants", "public_id": "bandido-wings-marietta", "id": 838396080, "votes": null, "tagline": null, "has_video": false, "website": null, "offers": null, "latitude": 33.902517, "politanName": "Atlanta, GA Metro ", "phone_number": "7706528890", "tags": [{"primary": true, "id": 1722, "name": "Restaurants"}], "fax_number": null, "expansion": {"count": null, "uri": null}, "impression_id": "000b000000529036ecd5ab4b9c9892b093c1e44dea", "profile": "http://www.citysearch.com/profile/838396080/marietta_ga/bandido_wings.html", "address": {"city": "Marietta", "state": "GA", "street": "371 Pat Mell Rd SE # 137", "postal_code": "30060"}, "capProviderId": null, "distance": null, "has_offers": false, "name": "Bandido Wings", "longitude": -84.543334, "has_menu": false, "awards": null, "user_review_count": 0}, {"business_operation_status": 1, "rating": 6.0, "neighborhood": null, "image": null, "scorecard": null, "featured": false, "sample_categories": "Restaurants, Traditional American, Carry Out, Steakhouse, American Express", "public_id": "golden-corral-buffet-grill-kennesaw", "id": 2955047, "votes": null, "tagline": null, "has_video": false, "website": "http://www.citysearch.com/profile/external/2955047/kennesaw_ga/golden_corral_buffet_grill.html", "offers": null, "latitude": 34.007877, "politanName": "Atlanta, GA Metro ", "phone_number": "7704286770", "tags": [{"primary": false, "id": 11190, "name": "Traditional American"}, {"primary": false, "id": 11247, "name": "Carry Out"}, {"primary": false, "id": 11316, "name": "Steakhouse"}, {"primary": false, "id": 11333, "name": "American Express"}, {"primary": false, "id": 11349, "name": "Discover"}, {"primary": false, "id": 11361, "name": "MasterCard"}, {"primary": false, "id": 11382, "name": "Visa"}, {"primary": true, "id": 1722, "name": "Restaurants"}], "fax_number": null, "expansion": {"count": null, "uri": null}, "impression_id": "000b00000057acdcfc9aec4ba785dec752ab848a3a", "profile": "http://www.citysearch.com/profile/2955047/kennesaw_ga/golden_corral_buffet_grill.html", "address": {"city": "Kennesaw", "state": "GA", "street": "700 Ernest W Barrett Pkwy NW", "postal_code": "30144"}, "capProviderId": null, "distance": null, "has_offers": false, "name": "Golden Corral Buffet & Grill", "longitude": -84.572373, "has_menu": true, "awards": null, "user_review_count": 8}, {"business_operation_status": 1, "rating": null, "neighborhood": null, "image": null, "scorecard": null, "featured": false, "sample_categories": "Restaurants, Diners, Cafes", "public_id": "campus-cafe-marietta", "id": 33669246, "votes": null, "tagline": null, "has_video": false, "website": null, "offers": null, "latitude": 33.930756, "politanName": "Atlanta, GA Metro ", "phone_number": "7707926042", "tags": [{"primary": false, "id": 1732, "name": "Diners"}, {"primary": false, "id": 6190, "name": "Cafes"}, {"primary": true, "id": 1722, "name": "Restaurants"}], "fax_number": null, "expansion": {"count": null, "uri": null}, "impression_id": "000b0000000854593e8b3448a693ea55eb81c538f9", "profile": "http://www.citysearch.com/profile/33669246/marietta_ga/campus_cafe.html", "address": {"city": "Marietta", "state": "GA", "street": "1269 Barclay Cir SE", "postal_code": "30060"}, "capProviderId": null, "distance": null, "has_offers": false, "name": "Campus Cafe", "longitude": -84.514539, "has_menu": false, "awards": null, "user_review_count": 0}, {"business_operation_status": 1, "rating": null, "neighborhood": null, "image": null, "scorecard": null, "featured": false, "sample_categories": "Doughnut Shops", "public_id": "sublime-doughnuts-marietta", "id": 787115930, "votes": null, "tagline": null, "has_video": false, "website": null, "offers": null, "latitude": 33.918263, "politanName": "Atlanta, GA Metro ", "phone_number": "7704260814", "tags": [{"primary": true, "id": 1734, "name": "Doughnut Shops"}], "fax_number": null, "expansion": {"count": null, "uri": null}, "impression_id": "000b000000f3de502ce8e54ef6a236de31e18ec0b3", "profile": "http://www.citysearch.com/profile/787115930/marietta_ga/sublime_doughnuts.html", "address": {"city": "Marietta", "state": "GA", "street": "1345 Old Coach Rd Sw", "postal_code": "30008"}, "capProviderId": null, "distance": null, "has_offers": false, "name": "Sublime Doughnuts", "longitude": -84.572952, "has_menu": false, "awards": null, "user_review_count": 0}, {"business_operation_status": 1, "rating": null, "neighborhood": null, "image": null, "scorecard": null, "featured": false, "sample_categories": "Restaurants, Catering, Barbecue Restaurants", "public_id": "sonnys-real-pit-barbq-austell", "id": 827597680, "votes": null, "tagline": null, "has_video": false, "website": null, "offers": null, "latitude": 33.854519, "politanName": "Atlanta, GA Metro ", "phone_number": "7707457240", "tags": [{"primary": false, "id": 1705, "name": "Catering"}, {"primary": false, "id": 1724, "name": "Barbecue Restaurants"}, {"primary": true, "id": 1722, "name": "Restaurants"}], "fax_number": null, "expansion": {"count": null, "uri": null}, "impression_id": "000b0000001b7bdb9039f34c9db7f5d9b4007c8423", "profile": "http://www.citysearch.com/profile/827597680/austell_ga/sonny_s_real_pit_bar_b_q.html", "address": {"city": "Austell", "state": "GA", "street": "1804 E West Connector", "postal_code": "30106"}, "capProviderId": null, "distance": null, "has_offers": false, "name": "Sonny's Real Pit Bar-B-Q", "longitude": -84.605012, "has_menu": true, "awards": null, "user_review_count": 0}, {"business_operation_status": 1, "rating": null, "neighborhood": null, "image": null, "scorecard": null, "featured": false, "sample_categories": "Restaurants, Mexican", "public_id": "pappasitos-cantina-marietta-2", "id": 787083440, "votes": null, "tagline": null, "has_video": false, "website": "http://www.citysearch.com/profile/external/787083440/marietta_ga/pappasito_s_cantina.html", "offers": null, "latitude": 34.019839, "politanName": "Atlanta, GA Metro ", "phone_number": "7709518409", "tags": [{"primary": false, "id": 11208, "name": "Mexican"}, {"primary": true, "id": 1722, "name": "Restaurants"}], "fax_number": null, "expansion": {"count": null, "uri": null}, "impression_id": "000b000000cf1d30903da04ea8b99ab0194c5ef7cf", "profile": "http://www.citysearch.com/profile/787083440/marietta_ga/pappasito_s_cantina.html", "address": {"city": "Marietta", "state": "GA", "street": "2788 Wendy Ln", "postal_code": "30062"}, "capProviderId": null, "distance": null, "has_offers": false, "name": "Pappasito's Cantina", "longitude": -84.459525, "has_menu": false, "awards": null, "user_review_count": 0}, {"business_operation_status": 1, "rating": 10.0, "neighborhood": null, "image": null, "scorecard": null, "featured": false, "sample_categories": "Catering, Restaurants", "public_id": "williamson-brothers-catering-marietta", "id": 2901685, "votes": null, "tagline": null, "has_video": false, "website": "http://www.citysearch.com/profile/external/2901685/marietta_ga/williamson_brothers_catering.html", "offers": null, "latitude": 33.942617, "politanName": "Atlanta, GA Metro ", "phone_number": "7704251739", "tags": [{"primary": false, "id": 1705, "name": "Catering"}, {"primary": true, "id": 1722, "name": "Restaurants"}], "fax_number": null, "expansion": {"count": null, "uri": null}, "impression_id": "000b000000c32f4fdd6b22417d96af8cc97b49f6ab", "profile": "http://www.citysearch.com/profile/2901685/marietta_ga/williamson_brothers_catering.html", "address": {"city": "Marietta", "state": "GA", "street": "403 Sycamore St SE", "postal_code": "30060"}, "capProviderId": null, "distance": null, "has_offers": false, "name": "Williamson Brothers Catering", "longitude": -84.541082, "has_menu": false, "awards": null, "user_review_count": 1}, {"business_operation_status": 1, "rating": null, "neighborhood": null, "image": null, "scorecard": null, "featured": false, "sample_categories": "Restaurants, Chinese, MasterCard, Visa", "public_id": "mr-won-ton-marietta", "id": 2908318, "votes": null, "tagline": null, "has_video": false, "website": "http://www.citysearch.com/profile/external/2908318/marietta_ga/mr_won_ton.html", "offers": null, "latitude": 34.038928, "politanName": "Atlanta, GA Metro ", "phone_number": "7705917706", "tags": [{"primary": false, "id": 11252, "name": "Chinese"}, {"primary": false, "id": 11361, "name": "MasterCard"}, {"primary": false, "id": 11382, "name": "Visa"}, {"primary": true, "id": 1722, "name": "Restaurants"}], "fax_number": null, "expansion": {"count": null, "uri": null}, "impression_id": "000b0000005994173cc422492fb339b15ff4e3cd4c", "profile": "http://www.citysearch.com/profile/2908318/marietta_ga/mr_won_ton.html", "address": {"city": "Marietta", "state": "GA", "street": "3595 Canton Rd # Ste 328", "postal_code": "30066"}, "capProviderId": null, "distance": null, "has_offers": false, "name": "Mr Won Ton", "longitude": -84.530249, "has_menu": false, "awards": null, "user_review_count": 0}, {"business_operation_status": 1, "rating": null, "neighborhood": null, "image": null, "scorecard": null, "featured": false, "sample_categories": "Restaurants", "public_id": "drive-time-marrietta", "id": 831886880, "votes": null, "tagline": null, "has_video": false, "website": null, "offers": null, "latitude": 33.939976, "politanName": "Atlanta, GA Metro ", "phone_number": "7705773077", "tags": [{"primary": true, "id": 1722, "name": "Restaurants"}], "fax_number": null, "expansion": {"count": null, "uri": null}, "impression_id": "000b000000005193ec55ca40f98947620075f167b6", "profile": "http://www.citysearch.com/profile/831886880/marrietta_ga/drive_time.html", "address": {"city": "Marrietta", "state": "GA", "street": "502 S Cobb Parkway", "postal_code": "30060"}, "capProviderId": null, "distance": null, "has_offers": false, "name": "Drive Time", "longitude": -84.515396, "has_menu": false, "awards": null, "user_review_count": 0}, {"business_operation_status": 1, "rating": null, "neighborhood": null, "image": null, "scorecard": null, "featured": false, "sample_categories": "Restaurants", "public_id": "gyro-bros-kennesaw", "id": 836770140, "votes": null, "tagline": null, "has_video": false, "website": null, "offers": null, "latitude": 34.017369, "politanName": "Atlanta, GA Metro ", "phone_number": "7704238887", "tags": [{"primary": true, "id": 1722, "name": "Restaurants"}], "fax_number": null, "expansion": {"count": null, "uri": null}, "impression_id": "000b0000004d92932bd6c441d99679ed3e280c37b2", "profile": "http://www.citysearch.com/profile/836770140/kennesaw_ga/gyro_bros.html", "address": {"city": "Kennesaw", "state": "GA", "street": "400 Ernest W Barrett Pkwy NW", "postal_code": "30144"}, "capProviderId": null, "distance": null, "has_offers": false, "name": "Gyro Bros", "longitude": -84.564255, "has_menu": false, "awards": null, "user_review_count": 0}, {"business_operation_status": 1, "rating": null, "neighborhood": null, "image": null, "scorecard": null, "featured": false, "sample_categories": "Restaurants, Mexican, Carry Out", "public_id": "acworth-taco-dallas", "id": 801077680, "votes": null, "tagline": null, "has_video": false, "website": "http://www.citysearch.com/profile/external/801077680/dallas_ga/acworth_taco.html", "offers": null, "latitude": 34.010309, "politanName": "Atlanta, GA Metro ", "phone_number": "6785743774", "tags": [{"primary": false, "id": 11208, "name": "Mexican"}, {"primary": false, "id": 11247, "name": "Carry Out"}, {"primary": true, "id": 1722, "name": "Restaurants"}], "fax_number": null, "expansion": {"count": null, "uri": null}, "impression_id": "000b00000015bcbd2d14174aca92a45e66382606ab", "profile": "http://www.citysearch.com/profile/801077680/dallas_ga/acworth_taco.html", "address": {"city": "Dallas", "state": "GA", "street": "8876 Dallas Acworth Hwy", "postal_code": "30132"}, "capProviderId": null, "distance": null, "has_offers": false, "name": "Acworth Taco", "longitude": -84.753348, "has_menu": false, "awards": null, "user_review_count": 0}], "histograms": [], "tag_ids": [1722], "uri": "http://api.citygridmedia.com:8080/search/places/v2/search/where?has_offers=false&type=restaurant&format=json&page=19&where=30064&rpp=50&histograms=false&publisher=10000009598&region_type=circle", "did_you_mean": "", "regions": [{"latitude": 33.938860999999996, "default_radius": 5.31, "type": "postal_code", "name": "30064", "longitude": -84.614086}], "call_id": "000b00000085e329044d8d42099b8af595d7a42560", "first_hit": 901, "total_hits": 1588, "geo_ids": [26293], "page": 19, "last_hit": 950}}