{"results": {"rpp": 50, "locations": [{"business_operation_status": 1, "rating": null, "neighborhood": null, "image": null, "scorecard": null, "featured": false, "sample_categories": "Restaurants, Chinese", "public_id": "magic-wok-atlanta", "id": 777701890, "votes": null, "tagline": null, "has_video": false, "website": null, "offers": null, "latitude": 33.936227, "politanName": "Atlanta, GA Metro ", "phone_number": "6786380868", "tags": [{"primary": false, "id": 11252, "name": "Chinese"}, {"primary": true, "id": 1722, "name": "Restaurants"}], "fax_number": null, "expansion": {"count": null, "uri": null}, "impression_id": "000b000000aa3bfa2b25c442d5849d51799a5d2797", "profile": "http://www.citysearch.com/profile/777701890/atlanta_ga/magic_wok.html", "address": {"city": "Atlanta", "state": "GA", "street": "12809 Hwy 9 N", "postal_code": "30328"}, "capProviderId": null, "distance": null, "has_offers": false, "name": "Magic Wok", "longitude": -84.378789, "has_menu": false, "awards": null, "user_review_count": 0}, {"business_operation_status": 1, "rating": null, "neighborhood": null, "image": null, "scorecard": null, "featured": false, "sample_categories": "Restaurants", "public_id": "are-you-hungry-marietta", "id": 777827260, "votes": null, "tagline": null, "has_video": false, "website": null, "offers": null, "latitude": 34.021599, "politanName": "Atlanta, GA Metro ", "phone_number": "6783520770", "tags": [{"primary": true, "id": 1722, "name": "Restaurants"}], "fax_number": null, "expansion": {"count": null, "uri": null}, "impression_id": "000b00000084865bc65e484e4ca3779774811da9ad", "profile": "http://www.citysearch.com/profile/777827260/marietta_ga/are_you_hungry.html", "address": {"city": "Marietta", "state": "GA", "street": "2986 Johnson Ferry Rd", "postal_code": "30062"}, "capProviderId": null, "distance": null, "has_offers": false, "name": "Are You Hungry", "longitude": -84.426314, "has_menu": false, "awards": null, "user_review_count": 0}, {"business_operation_status": 1, "rating": null, "neighborhood": null, "image": null, "scorecard": null, "featured": false, "sample_categories": "Restaurants, Seafood", "public_id": "sfb-crab-apple-alpharetta", "id": 777654370, "votes": null, "tagline": null, "has_video": false, "website": null, "offers": null, "latitude": 34.081775, "politanName": "Atlanta, GA Metro ", "phone_number": "6783668129", "tags": [{"primary": false, "id": 11228, "name": "Seafood"}, {"primary": true, "id": 1722, "name": "Restaurants"}], "fax_number": null, "expansion": {"count": null, "uri": null}, "impression_id": "000b000000a6a09b87e4aa43fdaabeb0759bfe2f70", "profile": "http://www.citysearch.com/profile/777654370/alpharetta_ga/sfb_crab_apple.html", "address": {"city": "Alpharetta", "state": "GA", "street": "12330 Crabapple Rd", "postal_code": "30004"}, "capProviderId": null, "distance": null, "has_offers": false, "name": "Sfb Crab Apple", "longitude": -84.358005, "has_menu": false, "awards": null, "user_review_count": 0}, {"business_operation_status": 1, "rating": null, "neighborhood": null, "image": null, "scorecard": null, "featured": false, "sample_categories": "Restaurants, Barbecue Restaurants", "public_id": "hot-wings-marietta", "id": 682287680, "votes": null, "tagline": null, "has_video": false, "website": null, "offers": null, "latitude": 33.941419, "politanName": "Atlanta, GA Metro ", "phone_number": "7702181589", "tags": [{"primary": false, "id": 1724, "name": "Barbecue Restaurants"}, {"primary": true, "id": 1722, "name": "Restaurants"}], "fax_number": null, "expansion": {"count": null, "uri": null}, "impression_id": "000b0000004c3e46839cb0448bb6a91ceac2f7e35e", "profile": "http://www.citysearch.com/profile/682287680/marietta_ga/hot_wings.html", "address": {"city": "Marietta", "state": "GA", "street": "981 S Marietta Pkwy Se", "postal_code": "30060"}, "capProviderId": null, "distance": null, "has_offers": false, "name": "Hot Wings", "longitude": -84.522978, "has_menu": true, "awards": null, "user_review_count": 2}, {"business_operation_status": 1, "rating": null, "neighborhood": null, "image": null, "scorecard": null, "featured": false, "sample_categories": "Restaurants, Italian", "public_id": "martinos-pasta-roswell", "id": 682297940, "votes": null, "tagline": null, "has_video": false, "website": "http://www.citysearch.com/profile/external/682297940/roswell_ga/martino_s_pasta.html", "offers": null, "latitude": 34.033417, "politanName": "Atlanta, GA Metro ", "phone_number": "6787959636", "tags": [{"primary": false, "id": 11279, "name": "Italian"}, {"primary": true, "id": 1722, "name": "Restaurants"}], "fax_number": null, "expansion": {"count": null, "uri": null}, "impression_id": "000b00000052a5beba08124e35a61e37d3e5af25c6", "profile": "http://www.citysearch.com/profile/682297940/roswell_ga/martino_s_pasta.html", "address": {"city": "Roswell", "state": "GA", "street": "690 Holcomb Bridge Rd", "postal_code": "30076"}, "capProviderId": null, "distance": null, "has_offers": false, "name": "Martino's Pasta", "longitude": -84.339787, "has_menu": true, "awards": null, "user_review_count": 0}, {"business_operation_status": 1, "rating": null, "neighborhood": null, "image": null, "scorecard": null, "featured": false, "sample_categories": "Restaurants, Carry Out, Hamburgers", "public_id": "wendys-sandy-4", "id": 777726740, "votes": null, "tagline": null, "has_video": false, "website": "http://www.citysearch.com/profile/external/777726740/sandy_springs_ga/wendy_s.html", "offers": null, "latitude": 33.930223, "politanName": "Atlanta, GA Metro ", "phone_number": "7703919886", "tags": [{"primary": false, "id": 11247, "name": "Carry Out"}, {"primary": false, "id": 11270, "name": "Hamburgers"}, {"primary": true, "id": 1722, "name": "Restaurants"}], "fax_number": null, "expansion": {"count": null, "uri": null}, "impression_id": "000b0000002ff69c86e5fc48e28e71c8fe28963bff", "profile": "http://www.citysearch.com/profile/777726740/sandy_springs_ga/wendy_s.html", "address": {"city": "Sandy Springs", "state": "GA", "street": "1170 Perimeter Ctr W", "postal_code": "30338"}, "capProviderId": null, "distance": null, "has_offers": false, "name": "Wendy's", "longitude": -84.3486, "has_menu": false, "awards": null, "user_review_count": 0}, {"business_operation_status": 1, "rating": null, "neighborhood": null, "image": null, "scorecard": null, "featured": false, "sample_categories": "Restaurants, Cajun & Creole", "public_id": "ji-bou-te-marietta", "id": 777783530, "votes": null, "tagline": null, "has_video": false, "website": null, "offers": null, "latitude": 33.952594, "politanName": "Atlanta, GA Metro ", "phone_number": "7707940772", "tags": [{"primary": false, "id": 11245, "name": "Cajun & Creole"}, {"primary": true, "id": 1722, "name": "Restaurants"}], "fax_number": null, "expansion": {"count": null, "uri": null}, "impression_id": "000b000000c50823e23e4d43128f81224e0ee6837a", "profile": "http://www.citysearch.com/profile/777783530/marietta_ga/ji_bou_te.html", "address": {"city": "Marietta", "state": "GA", "street": "800 Whitlock Ave NW # 103", "postal_code": "30064"}, "capProviderId": null, "distance": null, "has_offers": false, "name": "Ji Bou Te", "longitude": -84.575881, "has_menu": false, "awards": null, "user_review_count": 0}, {"business_operation_status": 1, "rating": null, "neighborhood": null, "image": null, "scorecard": null, "featured": false, "sample_categories": "Restaurants", "public_id": "carolina-creek-roswell", "id": 777624770, "votes": null, "tagline": null, "has_video": false, "website": null, "offers": null, "latitude": 34.034238, "politanName": "Atlanta, GA Metro ", "phone_number": "7705180401", "tags": [{"primary": true, "id": 1722, "name": "Restaurants"}], "fax_number": null, "expansion": {"count": null, "uri": null}, "impression_id": "000b00000004bdd152033a4d33b23a0a39209c24b3", "profile": "http://www.citysearch.com/profile/777624770/roswell_ga/carolina_creek.html", "address": {"city": "Roswell", "state": "GA", "street": "10479 Alpharetta St # 1", "postal_code": "30075"}, "capProviderId": null, "distance": null, "has_offers": false, "name": "Carolina Creek", "longitude": -84.345527, "has_menu": false, "awards": null, "user_review_count": 0}, {"business_operation_status": 1, "rating": null, "neighborhood": null, "image": null, "scorecard": null, "featured": false, "sample_categories": "Restaurants", "public_id": "slate-grill-marietta", "id": 777808910, "votes": null, "tagline": null, "has_video": false, "website": null, "offers": null, "latitude": 33.940805, "politanName": "Atlanta, GA Metro ", "phone_number": "7704269777", "tags": [{"primary": true, "id": 1722, "name": "Restaurants"}], "fax_number": null, "expansion": {"count": null, "uri": null}, "impression_id": "000b00000077ab6e12d863473b9373f325febf1136", "profile": "http://www.citysearch.com/profile/777808910/marietta_ga/slate_grill.html", "address": {"city": "Marietta", "state": "GA", "street": "3348 Farrier Walk Se", "postal_code": "30067"}, "capProviderId": null, "distance": null, "has_offers": false, "name": "Slate Grill", "longitude": -84.45506, "has_menu": false, "awards": null, "user_review_count": 0}, {"business_operation_status": 1, "rating": null, "neighborhood": null, "image": null, "scorecard": null, "featured": false, "sample_categories": "Restaurants, South American", "public_id": "el-hondureno-billares-marietta", "id": 777670670, "votes": null, "tagline": null, "has_video": false, "website": null, "offers": null, "latitude": 33.928458, "politanName": "Atlanta, GA Metro ", "phone_number": "7709532737", "tags": [{"primary": false, "id": 15490, "name": "South American"}, {"primary": true, "id": 1722, "name": "Restaurants"}], "fax_number": null, "expansion": {"count": null, "uri": null}, "impression_id": "000b00000052867787bbdf412ca6a221686a3c6868", "profile": "http://www.citysearch.com/profile/777670670/marietta_ga/el_hondureno_billares.html", "address": {"city": "Marietta", "state": "GA", "street": "1033 Franklin Rd Se", "postal_code": "30067"}, "capProviderId": null, "distance": null, "has_offers": false, "name": "El Hondureno Billares", "longitude": -84.492995, "has_menu": false, "awards": null, "user_review_count": 0}, {"business_operation_status": 1, "rating": 6.0, "neighborhood": null, "image": null, "scorecard": null, "featured": false, "sample_categories": "Restaurants, American Express, Discover, MasterCard, Visa", "public_id": "jimmy-macks-food-spirits-marietta", "id": 35740195, "votes": null, "tagline": null, "has_video": false, "website": "http://www.citysearch.com/profile/external/35740195/marietta_ga/jimmy_mack_s_food_spirits.html", "offers": null, "latitude": 34.030179, "politanName": "Atlanta, GA Metro ", "phone_number": "7707949700", "tags": [{"primary": false, "id": 11333, "name": "American Express"}, {"primary": false, "id": 11349, "name": "Discover"}, {"primary": false, "id": 11361, "name": "MasterCard"}, {"primary": false, "id": 11382, "name": "Visa"}, {"primary": true, "id": 1722, "name": "Restaurants"}], "fax_number": null, "expansion": {"count": null, "uri": null}, "impression_id": "000b000000786adb18d8eb4e9ebb16ae7e529aa7d6", "profile": "http://www.citysearch.com/profile/35740195/marietta_ga/jimmy_mack_s_food_spirits.html", "address": {"city": "Marietta", "state": "GA", "street": "3205 Canton Rd Ste 104-106", "postal_code": "30066"}, "capProviderId": null, "distance": null, "has_offers": false, "name": "Jimmy Mack's Food & Spirits", "longitude": -84.528473, "has_menu": true, "awards": null, "user_review_count": 1}, {"business_operation_status": 0, "rating": null, "neighborhood": null, "image": null, "scorecard": null, "featured": false, "sample_categories": "Restaurants", "public_id": "wild-bean-cafe-atlanta", "id": 35740492, "votes": null, "tagline": null, "has_video": false, "website": null, "offers": null, "latitude": 33.991496, "politanName": "Atlanta, GA Metro ", "phone_number": "4048766755", "tags": [{"primary": true, "id": 1722, "name": "Restaurants"}], "fax_number": null, "expansion": {"count": null, "uri": null}, "impression_id": "000b00000089c1c69fd70c47faa4704c8f616bed91", "profile": "http://www.citysearch.com/profile/35740492/atlanta_ga/wild_bean_cafe.html", "address": {"city": "Atlanta", "state": "GA", "street": "610 Springs St.", "postal_code": "30308"}, "capProviderId": null, "distance": null, "has_offers": false, "name": "Wild Bean Cafe", "longitude": -84.346363, "has_menu": true, "awards": null, "user_review_count": 0}, {"business_operation_status": 1, "rating": null, "neighborhood": null, "image": null, "scorecard": null, "featured": false, "sample_categories": "Restaurants", "public_id": "chili-dog-factory-marietta", "id": 672271920, "votes": null, "tagline": null, "has_video": false, "website": null, "offers": null, "latitude": 33.940571, "politanName": "Atlanta, GA Metro ", "phone_number": "6782131114", "tags": [{"primary": true, "id": 1722, "name": "Restaurants"}], "fax_number": null, "expansion": {"count": null, "uri": null}, "impression_id": "000b0000004bebe6e2aa534cc6a8f106855950d048", "profile": "http://www.citysearch.com/profile/672271920/marietta_ga/chili_dog_factory.html", "address": {"city": "Marietta", "state": "GA", "street": "940 South Marietta Parkway", "postal_code": "30060"}, "capProviderId": null, "distance": null, "has_offers": false, "name": "Chili Dog Factory", "longitude": -84.525094, "has_menu": false, "awards": null, "user_review_count": 0}, {"business_operation_status": 1, "rating": null, "neighborhood": null, "image": null, "scorecard": null, "featured": false, "sample_categories": "Restaurants", "public_id": "niche-private-diningcatering-marietta", "id": 773444390, "votes": null, "tagline": null, "has_video": false, "website": null, "offers": null, "latitude": 34.010385, "politanName": "Atlanta, GA Metro ", "phone_number": "4049019840", "tags": [{"primary": true, "id": 1722, "name": "Restaurants"}], "fax_number": null, "expansion": {"count": null, "uri": null}, "impression_id": "000b000000649c54dd8a2d4aa592d0dd99f08c1ec8", "profile": "http://www.citysearch.com/profile/773444390/marietta_ga/niche_private_dining_catering.html", "address": {"city": "Marietta", "state": "GA", "street": "2287 Nottley Dr", "postal_code": "30066"}, "capProviderId": null, "distance": null, "has_offers": false, "name": "Niche Private Dining-Catering", "longitude": -84.557109, "has_menu": false, "awards": null, "user_review_count": 0}, {"business_operation_status": 1, "rating": null, "neighborhood": null, "image": null, "scorecard": null, "featured": false, "sample_categories": "Restaurants, Japanese", "public_id": "japanese-engine-line-marietta", "id": 775183550, "votes": null, "tagline": null, "has_video": false, "website": null, "offers": null, "latitude": 33.910751, "politanName": "Atlanta, GA Metro ", "phone_number": "7709521200", "tags": [{"primary": false, "id": 11202, "name": "Japanese"}, {"primary": true, "id": 1722, "name": "Restaurants"}], "fax_number": null, "expansion": {"count": null, "uri": null}, "impression_id": "000b00000028b5521afb2140378ec625ab3c128071", "profile": "http://www.citysearch.com/profile/775183550/marietta_ga/japanese_engine_line.html", "address": {"city": "Marietta", "state": "GA", "street": "1735 Cobb Pkwy S", "postal_code": "30060"}, "capProviderId": null, "distance": null, "has_offers": false, "name": "Japanese Engine Line", "longitude": -84.493702, "has_menu": false, "awards": null, "user_review_count": 0}, {"business_operation_status": 1, "rating": 8.0, "neighborhood": null, "image": null, "scorecard": null, "featured": false, "sample_categories": "Restaurants, Traditional American", "public_id": "silos-grill-alpharetta", "id": 33623237, "votes": null, "tagline": null, "has_video": false, "website": null, "offers": null, "latitude": 34.082716, "politanName": "Atlanta, GA Metro ", "phone_number": "7707527456", "tags": [{"primary": false, "id": 1722, "name": "Restaurants"}, {"primary": true, "id": 11190, "name": "Traditional American"}], "fax_number": null, "expansion": {"count": null, "uri": null}, "impression_id": "000b000000bdc17641111646d18cf9d78a1bf7bdfc", "profile": "http://www.citysearch.com/profile/33623237/alpharetta_ga/silos_grill.html", "address": {"city": "Alpharetta", "state": "GA", "street": "12315 Crabapple Rd", "postal_code": "30004"}, "capProviderId": null, "distance": null, "has_offers": false, "name": "Silos Grill", "longitude": -84.355553, "has_menu": false, "awards": null, "user_review_count": 0}, {"business_operation_status": 0, "rating": null, "neighborhood": null, "image": null, "scorecard": null, "featured": false, "sample_categories": "Restaurants, Mexican, Carry Out", "public_id": "taco-bell-corporate-office-roswell", "id": 777708760, "votes": null, "tagline": null, "has_video": false, "website": null, "offers": null, "latitude": 34.04192, "politanName": "Atlanta, GA Metro ", "phone_number": "7709903000", "tags": [{"primary": false, "id": 11208, "name": "Mexican"}, {"primary": false, "id": 11247, "name": "Carry Out"}, {"primary": true, "id": 1722, "name": "Restaurants"}], "fax_number": null, "expansion": {"count": null, "uri": null}, "impression_id": "000b000000d59ac1ca5ea8492fb2154276e9ba8c1d", "profile": "http://www.citysearch.com/profile/777708760/roswell_ga/taco_bell_corporate_office.html", "address": {"city": "Roswell", "state": "GA", "street": "675 Mansell Rd # 200", "postal_code": "30076"}, "capProviderId": null, "distance": null, "has_offers": false, "name": "Taco Bell Corporate Office", "longitude": -84.344642, "has_menu": false, "awards": null, "user_review_count": 0}, {"business_operation_status": 0, "rating": null, "neighborhood": null, "image": null, "scorecard": null, "featured": false, "sample_categories": "Restaurants, Italian", "public_id": "fratelli-di-napoli-roswell", "id": 777781570, "votes": null, "tagline": null, "has_video": false, "website": "http://www.citysearch.com/profile/external/777781570/roswell_ga/fratelli_di_napoli.html", "offers": null, "latitude": 34.023676, "politanName": "Atlanta, GA Metro ", "phone_number": "7706429917", "tags": [{"primary": false, "id": 11279, "name": "Italian"}, {"primary": true, "id": 1722, "name": "Restaurants"}], "fax_number": null, "expansion": {"count": null, "uri": null}, "impression_id": "000b0000008c5a9092e3d54bcd9a5f27555cb4923f", "profile": "http://www.citysearch.com/profile/777781570/roswell_ga/fratelli_di_napoli.html", "address": {"city": "Roswell", "state": "GA", "street": "928 Canton St", "postal_code": "30075"}, "capProviderId": null, "distance": null, "has_offers": false, "name": "Fratelli Di Napoli", "longitude": -84.361782, "has_menu": true, "awards": null, "user_review_count": 2}, {"business_operation_status": 1, "rating": null, "neighborhood": null, "image": null, "scorecard": null, "featured": false, "sample_categories": "Restaurants", "public_id": "chans-alterations-roswell", "id": 777659440, "votes": null, "tagline": null, "has_video": false, "website": null, "offers": null, "latitude": 34.011764, "politanName": "Atlanta, GA Metro ", "phone_number": "7709987882", "tags": [{"primary": true, "id": 1722, "name": "Restaurants"}], "fax_number": null, "expansion": {"count": null, "uri": null}, "impression_id": "000b000000af63fb48709d44cc83b768c7fde0ccbc", "profile": "http://www.citysearch.com/profile/777659440/roswell_ga/chan_s_alterations.html", "address": {"city": "Roswell", "state": "GA", "street": "48 King St", "postal_code": "30075"}, "capProviderId": null, "distance": null, "has_offers": false, "name": "Chan's Alterations", "longitude": -84.36332, "has_menu": false, "awards": null, "user_review_count": 0}, {"business_operation_status": 1, "rating": null, "neighborhood": null, "image": null, "scorecard": null, "featured": false, "sample_categories": "Restaurants", "public_id": "dominicks-of-roswell-roswell", "id": 779688750, "votes": null, "tagline": null, "has_video": false, "website": null, "offers": null, "latitude": 34.009785, "politanName": "Atlanta, GA Metro ", "phone_number": "7705181430", "tags": [{"primary": true, "id": 1722, "name": "Restaurants"}], "fax_number": null, "expansion": {"count": null, "uri": null}, "impression_id": "000b000000dc5422c63e6b4a4fb66588b9a1a0801c", "profile": "http://www.citysearch.com/profile/779688750/roswell_ga/dominick_s_of_roswell.html", "address": {"city": "Roswell", "state": "GA", "street": "408 S Atlanta St", "postal_code": "30075"}, "capProviderId": null, "distance": null, "has_offers": false, "name": "Dominick's of Roswell", "longitude": -84.361532, "has_menu": false, "awards": null, "user_review_count": 0}, {"business_operation_status": 1, "rating": null, "neighborhood": null, "image": null, "scorecard": null, "featured": false, "sample_categories": "Restaurants, Mexican", "public_id": "desperados-tex-mex-rstrnt-marietta", "id": 775196520, "votes": null, "tagline": null, "has_video": false, "website": null, "offers": null, "latitude": 33.99637, "politanName": "Atlanta, GA Metro ", "phone_number": "7704202550", "tags": [{"primary": false, "id": 11208, "name": "Mexican"}, {"primary": true, "id": 1722, "name": "Restaurants"}], "fax_number": null, "expansion": {"count": null, "uri": null}, "impression_id": "000b000000275257fbd50f4f0c910d9203da909390", "profile": "http://www.citysearch.com/profile/775196520/marietta_ga/desperado_s_tex_mex_rstrnt.html", "address": {"city": "Marietta", "state": "GA", "street": "700 Sandy Plains Rd", "postal_code": "30066"}, "capProviderId": null, "distance": null, "has_offers": false, "name": "Desperado's Tex Mex Rstrnt", "longitude": -84.528753, "has_menu": false, "awards": null, "user_review_count": 0}, {"business_operation_status": 1, "rating": null, "neighborhood": null, "image": null, "scorecard": null, "featured": false, "sample_categories": "Restaurants", "public_id": "cosmopolitan-marietta", "id": 793243310, "votes": null, "tagline": null, "has_video": false, "website": null, "offers": null, "latitude": 33.92362, "politanName": "Atlanta, GA Metro ", "phone_number": "7704859213", "tags": [{"primary": true, "id": 1722, "name": "Restaurants"}], "fax_number": null, "expansion": {"count": null, "uri": null}, "impression_id": "000b000000220d8108e47842e69e536e1f5ac96344", "profile": "http://www.citysearch.com/profile/793243310/marietta_ga/cosmopolitan.html", "address": {"city": "Marietta", "state": "GA", "street": "2475 Delk Rd Se", "postal_code": "30067"}, "capProviderId": null, "distance": null, "has_offers": false, "name": "Cosmopolitan", "longitude": -84.479496, "has_menu": false, "awards": null, "user_review_count": 0}, {"business_operation_status": 1, "rating": null, "neighborhood": null, "image": null, "scorecard": null, "featured": false, "sample_categories": "Restaurants", "public_id": "j-gumbos-marietta", "id": 713632110, "votes": null, "tagline": null, "has_video": false, "website": null, "offers": null, "latitude": 33.903919, "politanName": "Atlanta, GA Metro ", "phone_number": "7706121810", "tags": [{"primary": true, "id": 1722, "name": "Restaurants"}], "fax_number": null, "expansion": {"count": null, "uri": null}, "impression_id": "000b000000f60c968c87834a4092900b4f15b5d464", "profile": "http://www.citysearch.com/profile/713632110/marietta_ga/j_gumbo_s.html", "address": {"city": "Marietta", "state": "GA", "street": "3000 Windy Hill Rd Se", "postal_code": "30067"}, "capProviderId": null, "distance": null, "has_offers": false, "name": "J Gumbo's", "longitude": -84.4706, "has_menu": true, "awards": null, "user_review_count": 0}, {"business_operation_status": 1, "rating": null, "neighborhood": null, "image": null, "scorecard": null, "featured": false, "sample_categories": "Restaurants, Bistros", "public_id": "paris-bistro-atlanta-12", "id": 801055910, "votes": null, "tagline": null, "has_video": false, "website": null, "offers": null, "latitude": 33.934317, "politanName": "Atlanta, GA Metro ", "phone_number": "6785276499", "tags": [{"primary": false, "id": 13690, "name": "Bistros"}, {"primary": true, "id": 1722, "name": "Restaurants"}], "fax_number": null, "expansion": {"count": null, "uri": null}, "impression_id": "000b0000007438b78a83e445e18a7f426ad2fe86b9", "profile": "http://www.citysearch.com/profile/801055910/atlanta_ga/paris_bistro.html", "address": {"city": "Atlanta", "state": "GA", "street": "1 Glenlake Pkwy", "postal_code": "30328"}, "capProviderId": null, "distance": null, "has_offers": false, "name": "Paris Bistro", "longitude": -84.359272, "has_menu": false, "awards": null, "user_review_count": 0}, {"business_operation_status": 1, "rating": null, "neighborhood": null, "image": null, "scorecard": null, "featured": false, "sample_categories": "Restaurants, Pizza, Carry Out", "public_id": "little-caesars-pizza-marietta-13", "id": 798841470, "votes": null, "tagline": null, "has_video": false, "website": "http://www.citysearch.com/profile/external/798841470/marietta_ga/little_caesars_pizza.html", "offers": null, "latitude": 34.033796, "politanName": "Atlanta, GA Metro ", "phone_number": "7704245051", "tags": [{"primary": false, "id": 1722, "name": "Restaurants"}, {"primary": false, "id": 11247, "name": "Carry Out"}, {"primary": true, "id": 11299, "name": "Pizza"}], "fax_number": null, "expansion": {"count": null, "uri": null}, "impression_id": "000b000000b195003a142242c099992149353e60a3", "profile": "http://www.citysearch.com/profile/798841470/marietta_ga/little_caesars_pizza.html", "address": {"city": "Marietta", "state": "GA", "street": "3372 Canton Rd", "postal_code": "30066"}, "capProviderId": null, "distance": null, "has_offers": false, "name": "Little Caesars Pizza", "longitude": -84.527673, "has_menu": false, "awards": null, "user_review_count": 0}, {"business_operation_status": 1, "rating": null, "neighborhood": null, "image": null, "scorecard": null, "featured": false, "sample_categories": "Sandwich Shops, Restaurants, Delis And Delicatessens, Soups", "public_id": "georgia-sandwich-co-marietta", "id": 33646008, "votes": null, "tagline": null, "has_video": false, "website": "http://www.citysearch.com/profile/external/33646008/marietta_ga/georgia_sandwich_co.html", "offers": null, "latitude": 33.933969, "politanName": "Atlanta, GA Metro ", "phone_number": "7704265678", "tags": [{"primary": false, "id": 1722, "name": "Restaurants"}, {"primary": false, "id": 1727, "name": "Delis And Delicatessens"}, {"primary": false, "id": 11311, "name": "Soups"}, {"primary": true, "id": 1736, "name": "Sandwich Shops"}], "fax_number": null, "expansion": {"count": null, "uri": null}, "impression_id": "000b0000005edbb81b60ed48608e8deb50d04fe1ff", "profile": "http://www.citysearch.com/profile/33646008/marietta_ga/georgia_sandwich_co.html", "address": {"city": "Marietta", "state": "GA", "street": "115 Davis Cir SW", "postal_code": "30008"}, "capProviderId": null, "distance": null, "has_offers": false, "name": "Georgia Sandwich Co", "longitude": -84.554133, "has_menu": false, "awards": null, "user_review_count": 0}, {"business_operation_status": 1, "rating": null, "neighborhood": null, "image": null, "scorecard": null, "featured": false, "sample_categories": "Restaurants", "public_id": "le-peep-restaurant-marietta", "id": 819290350, "votes": null, "tagline": null, "has_video": false, "website": null, "offers": null, "latitude": 33.952271, "politanName": "Atlanta, GA Metro ", "phone_number": "7704265161", "tags": [{"primary": true, "id": 1722, "name": "Restaurants"}], "fax_number": null, "expansion": {"count": null, "uri": null}, "impression_id": "000b0000004df3947687c04d908d2c06b33908ce34", "profile": "http://www.citysearch.com/profile/819290350/marietta_ga/le_peep_restaurant.html", "address": {"city": "Marietta", "state": "GA", "street": "70 S Park Sq NE", "postal_code": "30060"}, "capProviderId": null, "distance": null, "has_offers": false, "name": "Le Peep Restaurant", "longitude": -84.549833, "has_menu": false, "awards": null, "user_review_count": 0}, {"business_operation_status": 1, "rating": null, "neighborhood": null, "image": null, "scorecard": null, "featured": false, "sample_categories": "Restaurants", "public_id": "south-beach-bistro-sandy", "id": 816128040, "votes": null, "tagline": null, "has_video": false, "website": null, "offers": null, "latitude": 33.925302, "politanName": "Atlanta, GA Metro ", "phone_number": "7709344988", "tags": [{"primary": true, "id": 1722, "name": "Restaurants"}], "fax_number": null, "expansion": {"count": null, "uri": null}, "impression_id": "000b000000ab00576951fe493193b27fdf57bf3008", "profile": "http://www.citysearch.com/profile/816128040/sandy_springs_ga/south_beach_bistro.html", "address": {"city": "Sandy Springs", "state": "GA", "street": "5920 Roswell Rd", "postal_code": "30328"}, "capProviderId": null, "distance": null, "has_offers": false, "name": "South Beach Bistro", "longitude": -84.385744, "has_menu": false, "awards": null, "user_review_count": 0}, {"business_operation_status": 1, "rating": null, "neighborhood": null, "image": null, "scorecard": null, "featured": false, "sample_categories": "Restaurants", "public_id": "belles-southern-eatery-roswell", "id": 825319430, "votes": null, "tagline": null, "has_video": false, "website": null, "offers": null, "latitude": 34.024434, "politanName": "Atlanta, GA Metro ", "phone_number": "7709929600", "tags": [{"primary": true, "id": 1722, "name": "Restaurants"}], "fax_number": null, "expansion": {"count": null, "uri": null}, "impression_id": "000b000000a1a4a53e50124ca1814d1be3413010f8", "profile": "http://www.citysearch.com/profile/825319430/roswell_ga/belles_southern_eatery.html", "address": {"city": "Roswell", "state": "GA", "street": "1076 Holcomb Bridge Rd", "postal_code": "30076"}, "capProviderId": null, "distance": null, "has_offers": false, "name": "Belles Southern Eatery", "longitude": -84.330369, "has_menu": false, "awards": null, "user_review_count": 0}, {"business_operation_status": 1, "rating": null, "neighborhood": null, "image": null, "scorecard": null, "featured": false, "sample_categories": "Restaurants", "public_id": "szechuan-garden-chinese-rstrnt-atlanta", "id": 818670710, "votes": null, "tagline": null, "has_video": false, "website": null, "offers": null, "latitude": 33.956697, "politanName": "Atlanta, GA Metro ", "phone_number": "7704557723", "tags": [{"primary": true, "id": 1722, "name": "Restaurants"}], "fax_number": null, "expansion": {"count": null, "uri": null}, "impression_id": "000b0000005fe57bb6d16b4cd8a25f5fe794c3ae31", "profile": "http://www.citysearch.com/profile/818670710/atlanta_ga/szechuan_garden_chinese_rstrnt.html", "address": {"city": "Atlanta", "state": "GA", "street": "5446 Chanel CT # 1", "postal_code": "30338"}, "capProviderId": null, "distance": null, "has_offers": false, "name": "Szechuan Garden Chinese Rstrnt", "longitude": -84.337336, "has_menu": false, "awards": null, "user_review_count": 0}, {"business_operation_status": 1, "rating": null, "neighborhood": null, "image": null, "scorecard": null, "featured": false, "sample_categories": "Restaurants, Chinese", "public_id": "china-bay-atlanta", "id": 33612706, "votes": null, "tagline": null, "has_video": false, "website": null, "offers": null, "latitude": 33.972025, "politanName": "Atlanta, GA Metro ", "phone_number": "7708280338", "tags": [{"primary": false, "id": 11252, "name": "Chinese"}, {"primary": true, "id": 1722, "name": "Restaurants"}], "fax_number": null, "expansion": {"count": null, "uri": null}, "impression_id": "000b000000d5b45f11e6a54b8087130c20298b45c6", "profile": "http://www.citysearch.com/profile/33612706/atlanta_ga/china_bay.html", "address": {"city": "Atlanta", "state": "GA", "street": "7878 Roswell Rd", "postal_code": "30350"}, "capProviderId": null, "distance": null, "has_offers": false, "name": "China Bay", "longitude": -84.358529, "has_menu": true, "awards": null, "user_review_count": 0}, {"business_operation_status": 1, "rating": null, "neighborhood": null, "image": null, "scorecard": null, "featured": false, "sample_categories": "Restaurants", "public_id": "grazie-a-bistro-marietta", "id": 823574700, "votes": null, "tagline": null, "has_video": false, "website": null, "offers": null, "latitude": 33.953111, "politanName": "Atlanta, GA Metro ", "phone_number": "7704998585", "tags": [{"primary": true, "id": 1722, "name": "Restaurants"}], "fax_number": null, "expansion": {"count": null, "uri": null}, "impression_id": "000b0000008a7d09c8240d4eeb9c1b7235e131d01a", "profile": "http://www.citysearch.com/profile/823574700/marietta_ga/grazie_a_bistro.html", "address": {"city": "Marietta", "state": "GA", "street": "1000 Whitlock Ave NW # 410", "postal_code": "30064"}, "capProviderId": null, "distance": null, "has_offers": false, "name": "Grazie A Bistro", "longitude": -84.581272, "has_menu": false, "awards": null, "user_review_count": 0}, {"business_operation_status": 1, "rating": null, "neighborhood": null, "image": null, "scorecard": null, "featured": false, "sample_categories": "Restaurants", "public_id": "riviera-maya-sandy", "id": 762764790, "votes": null, "tagline": null, "has_video": false, "website": null, "offers": null, "latitude": 33.982083, "politanName": "Atlanta, GA Metro ", "phone_number": "4047340179", "tags": [{"primary": true, "id": 1722, "name": "Restaurants"}], "fax_number": null, "expansion": {"count": null, "uri": null}, "impression_id": "000b000000597b79177c334ada85da10a37c5c813b", "profile": "http://www.citysearch.com/profile/762764790/sandy_springs_ga/riviera_maya.html", "address": {"city": "Sandy Springs", "state": "GA", "street": "350 Northridge Rd", "postal_code": "30350"}, "capProviderId": null, "distance": null, "has_offers": false, "name": "Riviera Maya", "longitude": -84.347861, "has_menu": false, "awards": null, "user_review_count": 0}, {"business_operation_status": 1, "rating": null, "neighborhood": null, "image": null, "scorecard": null, "featured": false, "sample_categories": "Restaurants, Mexican", "public_id": "pure-taqueria-roswell", "id": 764878880, "votes": null, "tagline": null, "has_video": false, "website": null, "offers": null, "latitude": 34.029704, "politanName": "Atlanta, GA Metro ", "phone_number": "6787950005", "tags": [{"primary": false, "id": 11208, "name": "Mexican"}, {"primary": true, "id": 1722, "name": "Restaurants"}], "fax_number": null, "expansion": {"count": null, "uri": null}, "impression_id": "000b000000e61e5496068a4879b309a14017b57681", "profile": "http://www.citysearch.com/profile/764878880/roswell_ga/pure_taqueria.html", "address": {"city": "Roswell", "state": "GA", "street": "1143 Alpharetta St", "postal_code": "30075"}, "capProviderId": null, "distance": null, "has_offers": false, "name": "Pure Taqueria", "longitude": -84.354613, "has_menu": false, "awards": null, "user_review_count": 0}, {"business_operation_status": 1, "rating": null, "neighborhood": null, "image": null, "scorecard": null, "featured": false, "sample_categories": "Restaurants", "public_id": "folia-brazilian-steakhouse-marietta", "id": 831979230, "votes": null, "tagline": null, "has_video": false, "website": "http://www.citysearch.com/profile/external/831979230/marietta_ga/folia_brazilian_steakhouse.html", "offers": null, "latitude": 33.918527, "politanName": "Atlanta, GA Metro ", "phone_number": "7706273170", "tags": [{"primary": true, "id": 1722, "name": "Restaurants"}], "fax_number": null, "expansion": {"count": null, "uri": null}, "impression_id": "000b0000004fa5954529b54c9093e5bddf99248451", "profile": "http://www.citysearch.com/profile/831979230/marietta_ga/folia_brazilian_steakhouse.html", "address": {"city": "Marietta", "state": "GA", "street": "1360 Powers Ferry Rd SE # B165", "postal_code": "30067"}, "capProviderId": null, "distance": null, "has_offers": false, "name": "Folia Brazilian Steakhouse", "longitude": -84.468586, "has_menu": false, "awards": null, "user_review_count": 0}, {"business_operation_status": 1, "rating": null, "neighborhood": null, "image": null, "scorecard": null, "featured": false, "sample_categories": "Restaurants, Bars & Clubs", "public_id": "nosh-table-tap-roswell", "id": 838413810, "votes": null, "tagline": null, "has_video": false, "website": "http://www.citysearch.com/profile/external/838413810/roswell_ga/nosh_table_tap.html", "offers": null, "latitude": 34.058094, "politanName": "Atlanta, GA Metro ", "phone_number": "7706418282", "tags": [{"primary": false, "id": 164, "name": "Bars & Clubs"}, {"primary": true, "id": 1722, "name": "Restaurants"}], "fax_number": null, "expansion": {"count": null, "uri": null}, "impression_id": "000b000000a467aee5d15f4c07b0131946333cc961", "profile": "http://www.citysearch.com/profile/838413810/roswell_ga/nosh_table_tap.html", "address": {"city": "Roswell", "state": "GA", "street": "11255 Woodstock Rd 500", "postal_code": "30075"}, "capProviderId": null, "distance": null, "has_offers": false, "name": "Nosh Table & Tap", "longitude": -84.382839, "has_menu": false, "awards": null, "user_review_count": 0}, {"business_operation_status": 1, "rating": null, "neighborhood": null, "image": null, "scorecard": null, "featured": false, "sample_categories": "Restaurants", "public_id": "red-house-marietta", "id": 775207480, "votes": null, "tagline": null, "has_video": false, "website": null, "offers": null, "latitude": 33.951025, "politanName": "Atlanta, GA Metro ", "phone_number": "7704277588", "tags": [{"primary": true, "id": 1722, "name": "Restaurants"}], "fax_number": null, "expansion": {"count": null, "uri": null}, "impression_id": "000b000000001101736b00494e9b02e217821cb7ee", "profile": "http://www.citysearch.com/profile/775207480/marietta_ga/red_house.html", "address": {"city": "Marietta", "state": "GA", "street": "35 S Marietta Pkwy SW", "postal_code": "30064"}, "capProviderId": null, "distance": null, "has_offers": false, "name": "Red House", "longitude": -84.551785, "has_menu": false, "awards": null, "user_review_count": 0}, {"business_operation_status": 1, "rating": null, "neighborhood": null, "image": null, "scorecard": null, "featured": false, "sample_categories": "Restaurants, Barbecue Restaurants", "public_id": "travelers-bar-b-que-ctrng-marietta", "id": 777759510, "votes": null, "tagline": null, "has_video": false, "website": null, "offers": null, "latitude": 33.952909, "politanName": "Atlanta, GA Metro ", "phone_number": "7704234884", "tags": [{"primary": false, "id": 1724, "name": "Barbecue Restaurants"}, {"primary": true, "id": 1722, "name": "Restaurants"}], "fax_number": null, "expansion": {"count": null, "uri": null}, "impression_id": "000b000000001980d121774ec69ad576fa90592dd7", "profile": "http://www.citysearch.com/profile/777759510/marietta_ga/traveler_s_bar_b_que_ctrng.html", "address": {"city": "Marietta", "state": "GA", "street": "79 N Fairground St Ne", "postal_code": "30060"}, "capProviderId": null, "distance": null, "has_offers": false, "name": "Traveler's Bar B Que & Ctrng", "longitude": -84.53505, "has_menu": false, "awards": null, "user_review_count": 0}, {"business_operation_status": 1, "rating": null, "neighborhood": null, "image": null, "scorecard": null, "featured": false, "sample_categories": "Restaurants, Bars & Clubs, Barbecue Restaurants, Hamburgers, American Express", "public_id": "jo-jos-wings-grill-atlanta", "id": 621998300, "votes": null, "tagline": null, "has_video": false, "website": "http://www.citysearch.com/profile/external/621998300/atlanta_ga/jo_jo_s_wings_grill.html", "offers": null, "latitude": 33.986373, "politanName": "Atlanta, GA Metro ", "phone_number": "7706498272", "tags": [{"primary": false, "id": 164, "name": "Bars & Clubs"}, {"primary": false, "id": 1724, "name": "Barbecue Restaurants"}, {"primary": false, "id": 11270, "name": "Hamburgers"}, {"primary": false, "id": 11333, "name": "American Express"}, {"primary": false, "id": 11349, "name": "Discover"}, {"primary": false, "id": 11361, "name": "MasterCard"}, {"primary": false, "id": 11382, "name": "Visa"}, {"primary": true, "id": 1722, "name": "Restaurants"}], "fax_number": null, "expansion": {"count": null, "uri": null}, "impression_id": "000b000000cb3cb96428f84e19be4af54a06c2321e", "profile": "http://www.citysearch.com/profile/621998300/atlanta_ga/jo_jo_s_wings_grill.html", "address": {"city": "Atlanta", "state": "GA", "street": "8540 Roswell Rd", "postal_code": "30350"}, "capProviderId": null, "distance": null, "has_offers": false, "name": "Jo Jo's Wings & Grill", "longitude": -84.351439, "has_menu": false, "awards": null, "user_review_count": 1}, {"business_operation_status": 1, "rating": null, "neighborhood": null, "image": null, "scorecard": null, "featured": false, "sample_categories": "Ice Cream Parlors", "public_id": "ritas-water-ice-marietta-2", "id": 621872750, "votes": null, "tagline": null, "has_video": false, "website": "http://www.citysearch.com/profile/external/621872750/marietta_ga/rita_s_water_ice.html", "offers": null, "latitude": 33.952594, "politanName": "Atlanta, GA Metro ", "phone_number": "6784026240", "tags": [{"primary": true, "id": 1730, "name": "Ice Cream Parlors"}], "fax_number": null, "expansion": {"count": null, "uri": null}, "impression_id": "000b00000044efdf67a38240d29efd9a6bda990ba2", "profile": "http://www.citysearch.com/profile/621872750/marietta_ga/rita_s_water_ice.html", "address": {"city": "Marietta", "state": "GA", "street": "800 Whitlock Ave Nw", "postal_code": "30064"}, "capProviderId": null, "distance": null, "has_offers": false, "name": "Rita's Water Ice", "longitude": -84.575881, "has_menu": false, "awards": null, "user_review_count": 1}, {"business_operation_status": 1, "rating": null, "neighborhood": null, "image": null, "scorecard": null, "featured": false, "sample_categories": "Restaurants", "public_id": "grain-works-marietta", "id": 621976160, "votes": null, "tagline": null, "has_video": false, "website": "http://www.citysearch.com/profile/external/621976160/marietta_ga/grain_works.html", "offers": null, "latitude": 33.923408, "politanName": "Atlanta, GA Metro ", "phone_number": "7709800081", "tags": [{"primary": true, "id": 1722, "name": "Restaurants"}], "fax_number": null, "expansion": {"count": null, "uri": null}, "impression_id": "000b000000cc412c92755a4322ababf5f67c2d8831", "profile": "http://www.citysearch.com/profile/621976160/marietta_ga/grain_works.html", "address": {"city": "Marietta", "state": "GA", "street": "2160 Kingston Ct Se", "postal_code": "30067"}, "capProviderId": null, "distance": null, "has_offers": false, "name": "Grain Works", "longitude": -84.489216, "has_menu": false, "awards": null, "user_review_count": 0}, {"business_operation_status": 1, "rating": null, "neighborhood": null, "image": null, "scorecard": null, "featured": false, "sample_categories": "Restaurants, Steakhouse", "public_id": "fuji-hana-steak-house-roswell", "id": 621949350, "votes": null, "tagline": null, "has_video": false, "website": null, "offers": null, "latitude": 34.058626, "politanName": "Atlanta, GA Metro ", "phone_number": "7709927474", "tags": [{"primary": false, "id": 11316, "name": "Steakhouse"}, {"primary": true, "id": 1722, "name": "Restaurants"}], "fax_number": null, "expansion": {"count": null, "uri": null}, "impression_id": "000b000000e9fbe190f45143ffa7913fb16e1de6dd", "profile": "http://www.citysearch.com/profile/621949350/roswell_ga/fuji_hana_steak_house.html", "address": {"city": "Roswell", "state": "GA", "street": "3162 John Ferry Rd", "postal_code": "30075"}, "capProviderId": null, "distance": null, "has_offers": false, "name": "Fuji Hana Steak House", "longitude": -84.385744, "has_menu": false, "awards": null, "user_review_count": 0}, {"business_operation_status": 1, "rating": null, "neighborhood": null, "image": null, "scorecard": null, "featured": false, "sample_categories": "Restaurants, Mexican", "public_id": "taco-el-paisa-roswell", "id": 621950880, "votes": null, "tagline": null, "has_video": false, "website": null, "offers": null, "latitude": 34.034454, "politanName": "Atlanta, GA Metro ", "phone_number": "7708170207", "tags": [{"primary": false, "id": 11208, "name": "Mexican"}, {"primary": true, "id": 1722, "name": "Restaurants"}], "fax_number": null, "expansion": {"count": null, "uri": null}, "impression_id": "000b000000ce7ea15abaf84a91ac42458703afbe4e", "profile": "http://www.citysearch.com/profile/621950880/roswell_ga/taco_el_paisa.html", "address": {"city": "Roswell", "state": "GA", "street": "10360 Alpharetta St", "postal_code": "30075"}, "capProviderId": null, "distance": null, "has_offers": false, "name": "Taco El Paisa", "longitude": -84.347833, "has_menu": true, "awards": null, "user_review_count": 0}, {"business_operation_status": 0, "rating": 8.0, "neighborhood": null, "image": null, "scorecard": null, "featured": false, "sample_categories": "Restaurants, Bars & Pubs", "public_id": "ts-parkside-bar-grill-marietta", "id": 44773749, "votes": null, "tagline": null, "has_video": false, "website": null, "offers": null, "latitude": 34.038148, "politanName": "Atlanta, GA Metro ", "phone_number": "7705784666", "tags": [{"primary": false, "id": 1686, "name": "Bars & Pubs"}, {"primary": true, "id": 1722, "name": "Restaurants"}], "fax_number": null, "expansion": {"count": null, "uri": null}, "impression_id": "000b000000a014d4d106874720b6a323d3b097bb71", "profile": "http://www.citysearch.com/profile/44773749/marietta_ga/t_s_parkside_bar_grill.html", "address": {"city": "Marietta", "state": "GA", "street": "3605 Sandy Plains Rd", "postal_code": "30066"}, "capProviderId": null, "distance": null, "has_offers": false, "name": "T's Parkside Bar & Grill", "longitude": -84.465333, "has_menu": false, "awards": null, "user_review_count": 2}, {"business_operation_status": 1, "rating": null, "neighborhood": null, "image": null, "scorecard": null, "featured": false, "sample_categories": "Restaurants, Catering, Delis And Delicatessens, Sandwich Shops, Carry Out", "public_id": "quiznos-marietta", "id": 45989666, "votes": null, "tagline": null, "has_video": false, "website": "http://www.citysearch.com/profile/external/45989666/marietta_ga/quiznos.html", "offers": null, "latitude": 34.014064, "politanName": "Atlanta, GA Metro ", "phone_number": "7709734979", "tags": [{"primary": false, "id": 1705, "name": "Catering"}, {"primary": false, "id": 1727, "name": "Delis And Delicatessens"}, {"primary": false, "id": 1736, "name": "Sandwich Shops"}, {"primary": false, "id": 11247, "name": "Carry Out"}, {"primary": false, "id": 11375, "name": "Shop Online"}, {"primary": true, "id": 1722, "name": "Restaurants"}], "fax_number": null, "expansion": {"count": null, "uri": null}, "impression_id": "000b00000085e6b860afe54e5da03cc5cb6f0a5f88", "profile": "http://www.citysearch.com/profile/45989666/marietta_ga/quiznos.html", "address": {"city": "Marietta", "state": "GA", "street": "2595 Sandy Plains Rd Ste 4", "postal_code": "30066"}, "capProviderId": null, "distance": null, "has_offers": false, "name": "Quiznos", "longitude": -84.495766, "has_menu": true, "awards": null, "user_review_count": 0}, {"business_operation_status": 1, "rating": null, "neighborhood": null, "image": null, "scorecard": null, "featured": false, "sample_categories": "Restaurants", "public_id": "nagoya-roswell", "id": 625908764, "votes": null, "tagline": null, "has_video": false, "website": null, "offers": null, "latitude": 34.004732, "politanName": "Atlanta, GA Metro ", "phone_number": "7709988899", "tags": [{"primary": true, "id": 1722, "name": "Restaurants"}], "fax_number": null, "expansion": {"count": null, "uri": null}, "impression_id": "000b000000022c5caccf5647cf845d74575f4a18bd", "profile": "http://www.citysearch.com/profile/625908764/roswell_ga/nagoya.html", "address": {"city": "Roswell", "state": "GA", "street": "910 Marietta Hwy", "postal_code": "30075"}, "capProviderId": null, "distance": null, "has_offers": false, "name": "Nagoya", "longitude": -84.389163, "has_menu": false, "awards": null, "user_review_count": 0}, {"business_operation_status": 1, "rating": null, "neighborhood": null, "image": null, "scorecard": null, "featured": false, "sample_categories": "Restaurants, Traditional American", "public_id": "judys-country-kitchen-ii-marietta", "id": 672819800, "votes": null, "tagline": null, "has_video": false, "website": "http://www.citysearch.com/profile/external/672819800/marietta_ga/judy_s_country_kitchen_ii.html", "offers": null, "latitude": 34.017913, "politanName": "Atlanta, GA Metro ", "phone_number": "6783888680", "tags": [{"primary": false, "id": 11190, "name": "Traditional American"}, {"primary": true, "id": 1722, "name": "Restaurants"}], "fax_number": null, "expansion": {"count": null, "uri": null}, "impression_id": "000b000000a92dd249194a4b458af6b54314add8b0", "profile": "http://www.citysearch.com/profile/672819800/marietta_ga/judy_s_country_kitchen_ii.html", "address": {"city": "Marietta", "state": "GA", "street": "2745 Sandy Plains Road #106", "postal_code": "30066"}, "capProviderId": null, "distance": null, "has_offers": false, "name": "Judy's Country Kitchen II", "longitude": -84.492683, "has_menu": false, "awards": null, "user_review_count": 0}, {"business_operation_status": 1, "rating": null, "neighborhood": null, "image": null, "scorecard": null, "featured": false, "sample_categories": "Restaurants, Mediterranean", "public_id": "316-cafe-kabob-more-marietta", "id": 672208690, "votes": null, "tagline": null, "has_video": false, "website": null, "offers": null, "latitude": 33.921284, "politanName": "Atlanta, GA Metro ", "phone_number": "7709550804", "tags": [{"primary": false, "id": 11289, "name": "Mediterranean"}, {"primary": true, "id": 1722, "name": "Restaurants"}], "fax_number": null, "expansion": {"count": null, "uri": null}, "impression_id": "000b000000198aab95a0b34a36a741589c9b772a39", "profile": "http://www.citysearch.com/profile/672208690/marietta_ga/316_cafe_kabob_more.html", "address": {"city": "Marietta", "state": "GA", "street": "1260 Powers Ferry Road", "postal_code": "30067"}, "capProviderId": null, "distance": null, "has_offers": false, "name": "316 Cafe Kabob & More", "longitude": -84.467848, "has_menu": false, "awards": null, "user_review_count": 0}, {"business_operation_status": 1, "rating": null, "neighborhood": null, "image": null, "scorecard": null, "featured": false, "sample_categories": "Restaurants", "public_id": "dressed-salads-with-style-atlanta-2", "id": 672272590, "votes": null, "tagline": null, "has_video": false, "website": null, "offers": null, "latitude": 33.920748, "politanName": "Atlanta, GA Metro ", "phone_number": null, "tags": [{"primary": true, "id": 1722, "name": "Restaurants"}], "fax_number": null, "expansion": {"count": null, "uri": null}, "impression_id": "000b000000f3e782b25b9c4e7984bdd0d79f12ca3e", "profile": "http://www.citysearch.com/profile/672272590/atlanta_ga/dressed_salads_with_style.html", "address": {"city": "Atlanta", "state": "GA", "street": "1140 Hammond Dr.", "postal_code": "30328"}, "capProviderId": null, "distance": null, "has_offers": false, "name": "Dressed Salads with Style", "longitude": -84.349479, "has_menu": false, "awards": null, "user_review_count": 0}, {"business_operation_status": 1, "rating": null, "neighborhood": null, "image": null, "scorecard": null, "featured": false, "sample_categories": "Restaurants", "public_id": "slate-table-and-tap-opening-soon-roswell", "id": 672366460, "votes": null, "tagline": null, "has_video": false, "website": null, "offers": null, "latitude": 34.029548, "politanName": "Atlanta, GA Metro ", "phone_number": null, "tags": [{"primary": true, "id": 1722, "name": "Restaurants"}], "fax_number": null, "expansion": {"count": null, "uri": null}, "impression_id": "000b000000bf6c008b92184cdf8e143a258956659f", "profile": "http://www.citysearch.com/profile/672366460/roswell_ga/slate_table_and_tap_opening_soon.html", "address": {"city": "Roswell", "state": "GA", "street": "1132 Canton St", "postal_code": "30075"}, "capProviderId": null, "distance": null, "has_offers": false, "name": "Slate Table and Tap _ Opening Soon", "longitude": -84.361851, "has_menu": false, "awards": null, "user_review_count": 0}], "histograms": [], "tag_ids": [1722], "uri": "http://api.citygridmedia.com:8080/search/places/v2/search/where?has_offers=false&type=restaurant&format=json&page=30&where=30068&rpp=50&histograms=false&publisher=10000009598&region_type=circle", "did_you_mean": "", "regions": [{"latitude": 33.967813, "default_radius": 3.91, "type": "postal_code", "name": "30068", "longitude": -84.433422}], "call_id": "000b00000071b51d79f6704c1eb720cfb08ed8563e", "first_hit": 1451, "total_hits": 2028, "geo_ids": [26296], "page": 30, "last_hit": 1500}}