{"results": {"rpp": 50, "locations": [{"business_operation_status": 1, "rating": null, "neighborhood": null, "image": null, "scorecard": null, "featured": false, "sample_categories": "Restaurants, Bistros", "public_id": "lime-juice-thai-bistro-alpharetta", "id": 601287758, "votes": null, "tagline": null, "has_video": false, "website": "http://www.citysearch.com/profile/external/601287758/alpharetta_ga/lime_juice_thai_bistro.html", "offers": null, "latitude": 34.092081, "politanName": "Atlanta, GA Metro ", "phone_number": "6782422992", "tags": [{"primary": false, "id": 13690, "name": "Bistros"}, {"primary": true, "id": 1722, "name": "Restaurants"}], "fax_number": null, "expansion": {"count": null, "uri": null}, "impression_id": "000b0000004bf20b60ac60445aacc199c122770df0", "profile": "http://www.citysearch.com/profile/601287758/alpharetta_ga/lime_juice_thai_bistro.html", "address": {"city": "Alpharetta", "state": "GA", "street": "684 N Main St", "postal_code": "30009"}, "capProviderId": null, "distance": null, "has_offers": false, "name": "Lime Juice Thai Bistro", "longitude": -84.288109, "has_menu": false, "awards": null, "user_review_count": 3}, {"business_operation_status": 1, "rating": null, "neighborhood": null, "image": null, "scorecard": null, "featured": false, "sample_categories": "Restaurants, Carry Out", "public_id": "panda-express-woodstock-2", "id": 609425264, "votes": null, "tagline": null, "has_video": false, "website": "http://www.citysearch.com/profile/external/609425264/woodstock_ga/panda_express.html", "offers": null, "latitude": 34.122763, "politanName": "Atlanta, GA Metro ", "phone_number": "7705177719", "tags": [{"primary": false, "id": 11247, "name": "Carry Out"}, {"primary": true, "id": 1722, "name": "Restaurants"}], "fax_number": null, "expansion": {"count": null, "uri": null}, "impression_id": "000b0000003f497bfbd2924c26b71bc60ae45065ff", "profile": "http://www.citysearch.com/profile/609425264/woodstock_ga/panda_express.html", "address": {"city": "Woodstock", "state": "GA", "street": "941 Ridgewalk Pkwy", "postal_code": "30188"}, "capProviderId": null, "distance": null, "has_offers": false, "name": "Panda Express", "longitude": -84.524691, "has_menu": false, "awards": null, "user_review_count": 0}, {"business_operation_status": 1, "rating": null, "neighborhood": null, "image": null, "scorecard": null, "featured": false, "sample_categories": "Restaurants, Carry Out", "public_id": "jimmy-johns-kennesaw", "id": 612255804, "votes": null, "tagline": null, "has_video": false, "website": "http://www.citysearch.com/profile/external/612255804/kennesaw_ga/jimmy_john_s.html", "offers": null, "latitude": 34.030272, "politanName": "Atlanta, GA Metro ", "phone_number": "6783100766", "tags": [{"primary": false, "id": 11247, "name": "Carry Out"}, {"primary": true, "id": 1722, "name": "Restaurants"}], "fax_number": null, "expansion": {"count": null, "uri": null}, "impression_id": "000b000000e819a3242e9045c4968685042cdd69a1", "profile": "http://www.citysearch.com/profile/612255804/kennesaw_ga/jimmy_john_s.html", "address": {"city": "Kennesaw", "state": "GA", "street": "1133 Chastain Rd NW # 300", "postal_code": "30144"}, "capProviderId": null, "distance": null, "has_offers": false, "name": "Jimmy John's", "longitude": -84.582584, "has_menu": false, "awards": null, "user_review_count": 0}, {"business_operation_status": 1, "rating": null, "neighborhood": null, "image": null, "scorecard": null, "featured": false, "sample_categories": "Restaurants, Bars & Clubs, Lounges", "public_id": "stock-bistro-lounge-woodstock", "id": 617747854, "votes": null, "tagline": null, "has_video": false, "website": "http://www.citysearch.com/profile/external/617747854/woodstock_ga/stock_bistro_lounge.html", "offers": null, "latitude": 34.113484, "politanName": "Atlanta, GA Metro ", "phone_number": "7705166779", "tags": [{"primary": false, "id": 164, "name": "Bars & Clubs"}, {"primary": false, "id": 1697, "name": "Lounges"}, {"primary": true, "id": 1722, "name": "Restaurants"}], "fax_number": null, "expansion": {"count": null, "uri": null}, "impression_id": "000b00000098771c07d0434e8b809804722a004693", "profile": "http://www.citysearch.com/profile/617747854/woodstock_ga/stock_bistro_lounge.html", "address": {"city": "Woodstock", "state": "GA", "street": "6424 Bells Ferry Rd #118", "postal_code": "30189"}, "capProviderId": null, "distance": null, "has_offers": false, "name": "Stock Bistro & Lounge", "longitude": -84.580747, "has_menu": false, "awards": null, "user_review_count": 0}, {"business_operation_status": 1, "rating": null, "neighborhood": null, "image": null, "scorecard": null, "featured": false, "sample_categories": "Restaurants, Carry Out, Chicken", "public_id": "chickfila-kennesaw-2", "id": 627656020, "votes": null, "tagline": null, "has_video": false, "website": null, "offers": null, "latitude": 34.034361, "politanName": "Atlanta, GA Metro ", "phone_number": "7704236448", "tags": [{"primary": false, "id": 11247, "name": "Carry Out"}, {"primary": false, "id": 12839, "name": "Chicken"}, {"primary": true, "id": 1722, "name": "Restaurants"}], "fax_number": null, "expansion": {"count": null, "uri": null}, "impression_id": "000b000000069d2d5a1ef646f9b8799524d6982a73", "profile": "http://www.citysearch.com/profile/627656020/kennesaw_ga/chick_fil_a.html", "address": {"city": "Kennesaw", "state": "GA", "street": "1000 Chastain Rd NW", "postal_code": "30144"}, "capProviderId": null, "distance": null, "has_offers": false, "name": "Chick-Fil-A", "longitude": -84.574216, "has_menu": false, "awards": null, "user_review_count": 0}, {"business_operation_status": 1, "rating": null, "neighborhood": null, "image": null, "scorecard": null, "featured": false, "sample_categories": "Restaurants, Bakeries", "public_id": "banbou-restaurant-bakery-kennesaw", "id": 653623320, "votes": null, "tagline": null, "has_video": false, "website": null, "offers": null, "latitude": 34.050651, "politanName": "Atlanta, GA Metro ", "phone_number": "6784018595", "tags": [{"primary": false, "id": 1685, "name": "Bakeries"}, {"primary": true, "id": 1722, "name": "Restaurants"}], "fax_number": null, "expansion": {"count": null, "uri": null}, "impression_id": "000b0000004cedec90c43947b9a35d8214ec7294c2", "profile": "http://www.citysearch.com/profile/653623320/kennesaw_ga/banbou_restaurant_bakery.html", "address": {"city": "Kennesaw", "state": "GA", "street": "3600 Cherokee St Nw # 115", "postal_code": "30144"}, "capProviderId": null, "distance": null, "has_offers": false, "name": "Banbou Restaurant & Bakery", "longitude": -84.595684, "has_menu": false, "awards": null, "user_review_count": 0}, {"business_operation_status": 1, "rating": null, "neighborhood": null, "image": null, "scorecard": null, "featured": false, "sample_categories": "Restaurants", "public_id": "moms-table-woodstock", "id": 655902740, "votes": null, "tagline": null, "has_video": false, "website": "http://www.citysearch.com/profile/external/655902740/woodstock_ga/mom_s_table.html", "offers": null, "latitude": 34.103521, "politanName": "Atlanta, GA Metro ", "phone_number": "6783887510", "tags": [{"primary": true, "id": 1722, "name": "Restaurants"}], "fax_number": null, "expansion": {"count": null, "uri": null}, "impression_id": "000b000000528f010079264fca98f48e61ff271429", "profile": "http://www.citysearch.com/profile/655902740/woodstock_ga/mom_s_table.html", "address": {"city": "Woodstock", "state": "GA", "street": "8420 Main St", "postal_code": "30188"}, "capProviderId": null, "distance": null, "has_offers": false, "name": "Mom's Table", "longitude": -84.51867, "has_menu": false, "awards": null, "user_review_count": 0}, {"business_operation_status": 1, "rating": null, "neighborhood": null, "image": null, "scorecard": null, "featured": false, "sample_categories": "Bakeries, Restaurants", "public_id": "real-bread-co-woodstock", "id": 655932440, "votes": null, "tagline": null, "has_video": false, "website": "http://www.citysearch.com/profile/external/655932440/woodstock_ga/real_bread_co.html", "offers": null, "latitude": 34.12574, "politanName": "Atlanta, GA Metro ", "phone_number": "7709267325", "tags": [{"primary": false, "id": 1722, "name": "Restaurants"}, {"primary": true, "id": 1685, "name": "Bakeries"}], "fax_number": null, "expansion": {"count": null, "uri": null}, "impression_id": "000b00000049c0a353d6434091b8cfa02ba8845970", "profile": "http://www.citysearch.com/profile/655932440/woodstock_ga/real_bread_co.html", "address": {"city": "Woodstock", "state": "GA", "street": "324 Bell Park Dr # F", "postal_code": "30188"}, "capProviderId": null, "distance": null, "has_offers": false, "name": "Real Bread Co", "longitude": -84.511132, "has_menu": false, "awards": null, "user_review_count": 0}, {"business_operation_status": 1, "rating": null, "neighborhood": null, "image": null, "scorecard": null, "featured": false, "sample_categories": "Restaurants", "public_id": "ritas-woodstock", "id": 672865880, "votes": null, "tagline": null, "has_video": false, "website": null, "offers": null, "latitude": 34.088057, "politanName": "Atlanta, GA Metro ", "phone_number": "6784016788", "tags": [{"primary": true, "id": 1722, "name": "Restaurants"}], "fax_number": null, "expansion": {"count": null, "uri": null}, "impression_id": "000b00000069c7c5a2047045c89a830c50c712de8e", "profile": "http://www.citysearch.com/profile/672865880/woodstock_ga/rita_s.html", "address": {"city": "Woodstock", "state": "GA", "street": "12201 Highway 92", "postal_code": "30188"}, "capProviderId": null, "distance": null, "has_offers": false, "name": "Rita's", "longitude": -84.48162, "has_menu": false, "awards": null, "user_review_count": 0}, {"business_operation_status": 1, "rating": null, "neighborhood": null, "image": null, "scorecard": null, "featured": false, "sample_categories": "Restaurants, Mexican, Carry Out, American Express, Discover", "public_id": "taco-bell-marietta-7", "id": 682721700, "votes": null, "tagline": null, "has_video": false, "website": "http://www.citysearch.com/profile/external/682721700/marietta_ga/taco_bell.html", "offers": null, "latitude": 33.944909, "politanName": "Atlanta, GA Metro ", "phone_number": "7704218815", "tags": [{"primary": false, "id": 11208, "name": "Mexican"}, {"primary": false, "id": 11247, "name": "Carry Out"}, {"primary": false, "id": 11333, "name": "American Express"}, {"primary": false, "id": 11349, "name": "Discover"}, {"primary": false, "id": 11361, "name": "MasterCard"}, {"primary": false, "id": 11382, "name": "Visa"}, {"primary": true, "id": 1722, "name": "Restaurants"}], "fax_number": null, "expansion": {"count": null, "uri": null}, "impression_id": "000b000000c664fab521c9470b836dce3170ee9b09", "profile": "http://www.citysearch.com/profile/682721700/marietta_ga/taco_bell.html", "address": {"city": "Marietta", "state": "GA", "street": "3480 Ernest W Barrett Pkwy Sw", "postal_code": "30064"}, "capProviderId": null, "distance": null, "has_offers": false, "name": "Taco Bell", "longitude": -84.624717, "has_menu": true, "awards": null, "user_review_count": 0}, {"business_operation_status": 1, "rating": null, "neighborhood": null, "image": null, "scorecard": null, "featured": false, "sample_categories": "Ice Cream Parlors, Restaurants", "public_id": "pino-gelalo-of-marietta-marietta", "id": 713581850, "votes": null, "tagline": null, "has_video": false, "website": null, "offers": null, "latitude": 33.952532, "politanName": "Atlanta, GA Metro ", "phone_number": "7702182525", "tags": [{"primary": false, "id": 1722, "name": "Restaurants"}, {"primary": true, "id": 1730, "name": "Ice Cream Parlors"}], "fax_number": null, "expansion": {"count": null, "uri": null}, "impression_id": "000b00000093568230827a4bb1b939531e7fd9bad2", "profile": "http://www.citysearch.com/profile/713581850/marietta_ga/pino_gelalo_of_marietta.html", "address": {"city": "Marietta", "state": "GA", "street": "21 W Park Sq Ne", "postal_code": "30060"}, "capProviderId": null, "distance": null, "has_offers": false, "name": "Pino Gelalo of Marietta", "longitude": -84.550467, "has_menu": false, "awards": null, "user_review_count": 0}, {"business_operation_status": 1, "rating": null, "neighborhood": null, "image": null, "scorecard": null, "featured": false, "sample_categories": "Ice Cream Parlors", "public_id": "haagendazs-shop-kennesaw", "id": 706821520, "votes": null, "tagline": null, "has_video": false, "website": "http://www.citysearch.com/profile/external/706821520/kennesaw_ga/haagen_dazs_shop.html", "offers": null, "latitude": 34.019128, "politanName": "Atlanta, GA Metro ", "phone_number": "7705903120", "tags": [{"primary": true, "id": 1730, "name": "Ice Cream Parlors"}], "fax_number": null, "expansion": {"count": null, "uri": null}, "impression_id": "000b0000005c2f99b35cbc4030b93f2fd78dcfca79", "profile": "http://www.citysearch.com/profile/706821520/kennesaw_ga/haagen_dazs_shop.html", "address": {"city": "Kennesaw", "state": "GA", "street": "400 Ernest W Barrett Pkwy NW", "postal_code": "30144"}, "capProviderId": null, "distance": null, "has_offers": false, "name": "Haagen-Dazs Shop", "longitude": -84.563608, "has_menu": true, "awards": null, "user_review_count": 0}, {"business_operation_status": 1, "rating": null, "neighborhood": null, "image": null, "scorecard": null, "featured": false, "sample_categories": "Restaurants", "public_id": "willamsonbros-marietta-2", "id": 609749214, "votes": null, "tagline": null, "has_video": false, "website": null, "offers": null, "latitude": 33.977691, "politanName": "Atlanta, GA Metro ", "phone_number": "7704999797", "tags": [{"primary": true, "id": 1722, "name": "Restaurants"}], "fax_number": null, "expansion": {"count": null, "uri": null}, "impression_id": "000b000000595bec052df54fcab6d3e36c7f9f0381", "profile": "http://www.citysearch.com/profile/609749214/marietta_ga/willamsonbros.html", "address": {"city": "Marietta", "state": "GA", "street": "1160 Hayes Industrial Dr", "postal_code": "30062"}, "capProviderId": null, "distance": null, "has_offers": false, "name": "Willamsonbros", "longitude": -84.542327, "has_menu": false, "awards": null, "user_review_count": 0}, {"business_operation_status": 1, "rating": null, "neighborhood": null, "image": null, "scorecard": null, "featured": false, "sample_categories": "Restaurants, Food Stores, Grocery Stores, Asian, Chinese", "public_id": "happy-panda-kennesaw", "id": 732232180, "votes": null, "tagline": null, "has_video": false, "website": "http://www.citysearch.com/profile/external/732232180/kennesaw_ga/happy_panda.html", "offers": null, "latitude": 34.060235, "politanName": "Atlanta, GA Metro ", "phone_number": "7704269188", "tags": [{"primary": false, "id": 1706, "name": "Food Stores"}, {"primary": false, "id": 1713, "name": "Grocery Stores"}, {"primary": false, "id": 11235, "name": "Asian"}, {"primary": false, "id": 11252, "name": "Chinese"}, {"primary": false, "id": 11333, "name": "American Express"}, {"primary": false, "id": 11349, "name": "Discover"}, {"primary": false, "id": 11361, "name": "MasterCard"}, {"primary": false, "id": 11382, "name": "Visa"}, {"primary": true, "id": 1722, "name": "Restaurants"}], "fax_number": null, "expansion": {"count": null, "uri": null}, "impression_id": "000b000000b4b1e58b368d463e848d63e0e3b2e689", "profile": "http://www.citysearch.com/profile/732232180/kennesaw_ga/happy_panda.html", "address": {"city": "Kennesaw", "state": "GA", "street": "4430 Wade Green Rd NW", "postal_code": "30144"}, "capProviderId": null, "distance": null, "has_offers": false, "name": "Happy Panda", "longitude": -84.592066, "has_menu": true, "awards": null, "user_review_count": 1}, {"business_operation_status": 1, "rating": null, "neighborhood": null, "image": null, "scorecard": null, "featured": false, "sample_categories": "Delis And Delicatessens, Restaurants", "public_id": "european-deli-marietta", "id": 713573470, "votes": null, "tagline": null, "has_video": false, "website": null, "offers": null, "latitude": 33.980787, "politanName": "Atlanta, GA Metro ", "phone_number": "7706939409", "tags": [{"primary": false, "id": 1722, "name": "Restaurants"}, {"primary": true, "id": 1727, "name": "Delis And Delicatessens"}], "fax_number": null, "expansion": {"count": null, "uri": null}, "impression_id": "000b0000002915b7ecaa7d45b1b29680b23d04c422", "profile": "http://www.citysearch.com/profile/713573470/marietta_ga/european_deli.html", "address": {"city": "Marietta", "state": "GA", "street": "3101 Roswell Rd # F1", "postal_code": "30062"}, "capProviderId": null, "distance": null, "has_offers": false, "name": "European Deli", "longitude": -84.464028, "has_menu": false, "awards": null, "user_review_count": 0}, {"business_operation_status": 1, "rating": null, "neighborhood": null, "image": null, "scorecard": null, "featured": false, "sample_categories": "Bars & Clubs, Restaurants", "public_id": "two-monkeys-llc-marietta", "id": 823894470, "votes": null, "tagline": null, "has_video": false, "website": null, "offers": null, "latitude": 33.951907, "politanName": "Atlanta, GA Metro ", "phone_number": "7704220108", "tags": [{"primary": false, "id": 1722, "name": "Restaurants"}, {"primary": true, "id": 164, "name": "Bars & Clubs"}], "fax_number": null, "expansion": {"count": null, "uri": null}, "impression_id": "000b000000936a570ca70b48939e4ae1bf29c79ae1", "profile": "http://www.citysearch.com/profile/823894470/marietta_ga/two_monkeys_llc.html", "address": {"city": "Marietta", "state": "GA", "street": "688 Whitlock Ave NW # G", "postal_code": "30064"}, "capProviderId": null, "distance": null, "has_offers": false, "name": "Two Monkeys LLC", "longitude": -84.572199, "has_menu": false, "awards": null, "user_review_count": 0}, {"business_operation_status": 1, "rating": null, "neighborhood": null, "image": null, "scorecard": null, "featured": false, "sample_categories": "Ice Cream Parlors", "public_id": "high-road-craft-ice-cream-inc-roswell", "id": 732210260, "votes": null, "tagline": null, "has_video": false, "website": null, "offers": null, "latitude": 34.043654, "politanName": "Atlanta, GA Metro ", "phone_number": "4045396444", "tags": [{"primary": true, "id": 1730, "name": "Ice Cream Parlors"}], "fax_number": null, "expansion": {"count": null, "uri": null}, "impression_id": "000b00000009bf0aded6054291a60af601f36d4133", "profile": "http://www.citysearch.com/profile/732210260/roswell_ga/high_road_craft_ice_cream_inc.html", "address": {"city": "Roswell", "state": "GA", "street": "4147 Edinburgh Trl NE", "postal_code": "30075"}, "capProviderId": null, "distance": null, "has_offers": false, "name": "High Road Craft Ice Cream Inc", "longitude": -84.429593, "has_menu": false, "awards": null, "user_review_count": 0}, {"business_operation_status": 1, "rating": null, "neighborhood": null, "image": null, "scorecard": null, "featured": false, "sample_categories": "Restaurants", "public_id": "el-barco-mexican-restaurant-marietta-3", "id": 822028770, "votes": null, "tagline": null, "has_video": false, "website": null, "offers": null, "latitude": 33.883313, "politanName": "Atlanta, GA Metro ", "phone_number": "6783555007", "tags": [{"primary": true, "id": 1722, "name": "Restaurants"}], "fax_number": null, "expansion": {"count": null, "uri": null}, "impression_id": "000b000000fd9fbe67f3e24c698d1f08e0a5e7cb0d", "profile": "http://www.citysearch.com/profile/822028770/marietta_ga/el_barco_mexican_restaurant.html", "address": {"city": "Marietta", "state": "GA", "street": "2200 Powder Springs Rd SW #100", "postal_code": "30064"}, "capProviderId": null, "distance": null, "has_offers": false, "name": "El Barco Mexican Restaurant", "longitude": -84.620092, "has_menu": false, "awards": null, "user_review_count": 0}, {"business_operation_status": 1, "rating": null, "neighborhood": null, "image": null, "scorecard": null, "featured": false, "sample_categories": "Restaurants", "public_id": "new-china-buffet-kennesaw-2", "id": 830498290, "votes": null, "tagline": null, "has_video": false, "website": null, "offers": null, "latitude": 34.014631, "politanName": "Atlanta, GA Metro ", "phone_number": "7707922262", "tags": [{"primary": true, "id": 1722, "name": "Restaurants"}], "fax_number": null, "expansion": {"count": null, "uri": null}, "impression_id": "000b000000c1d92360d68c4fac94ce0abd0a137b09", "profile": "http://www.citysearch.com/profile/830498290/kennesaw_ga/new_china_buffet.html", "address": {"city": "Kennesaw", "state": "GA", "street": "Town Center Plz", "postal_code": "30144"}, "capProviderId": null, "distance": null, "has_offers": false, "name": "New China Buffet", "longitude": -84.562889, "has_menu": false, "awards": null, "user_review_count": 0}, {"business_operation_status": 1, "rating": null, "neighborhood": null, "image": null, "scorecard": null, "featured": false, "sample_categories": "Juice & Smoothie Shops", "public_id": "energy-juice-bar-kennesaw", "id": 836019090, "votes": null, "tagline": null, "has_video": false, "website": null, "offers": null, "latitude": 33.999616, "politanName": "Atlanta, GA Metro ", "phone_number": "8622244594", "tags": [{"primary": true, "id": 1735, "name": "Juice & Smoothie Shops"}], "fax_number": null, "expansion": {"count": null, "uri": null}, "impression_id": "000b00000069efd6b0539d45ceb3739c0a9acb85d1", "profile": "http://www.citysearch.com/profile/836019090/kennesaw_ga/energy_juice_bar.html", "address": {"city": "Kennesaw", "state": "GA", "street": "1185 Ernest W Barrett Pkwy NW", "postal_code": "30144"}, "capProviderId": null, "distance": null, "has_offers": false, "name": "Energy Juice Bar", "longitude": -84.58372, "has_menu": false, "awards": null, "user_review_count": 0}, {"business_operation_status": 1, "rating": null, "neighborhood": null, "image": null, "scorecard": null, "featured": false, "sample_categories": "Coffeehouses, Coffee & Tea Shops, Restaurants", "public_id": "starbucks-coffee-marietta", "id": 839436920, "votes": null, "tagline": null, "has_video": false, "website": "http://www.citysearch.com/profile/external/839436920/marietta_ga/starbucks_coffee.html", "offers": null, "latitude": 33.905379, "politanName": "Atlanta, GA Metro ", "phone_number": "7704991251", "tags": [{"primary": false, "id": 1711, "name": "Coffee & Tea Shops"}, {"primary": false, "id": 1722, "name": "Restaurants"}, {"primary": true, "id": 1726, "name": "Coffeehouses"}], "fax_number": null, "expansion": {"count": null, "uri": null}, "impression_id": "000b000000e467a2f7c2c74256a6f8b34483dd4b6c", "profile": "http://www.citysearch.com/profile/839436920/marietta_ga/starbucks_coffee.html", "address": {"city": "Marietta", "state": "GA", "street": "1733 Powder Springs Rd SW", "postal_code": "30064"}, "capProviderId": null, "distance": null, "has_offers": false, "name": "Starbucks Coffee", "longitude": -84.603225, "has_menu": true, "awards": null, "user_review_count": 0}, {"business_operation_status": 1, "rating": 9.0, "neighborhood": null, "image": null, "scorecard": null, "featured": false, "sample_categories": "Bakeries, Restaurants, Wholesale Bakers", "public_id": "my-friends-place-bakery-woodstock", "id": 33570795, "votes": null, "tagline": null, "has_video": false, "website": null, "offers": null, "latitude": 34.084441, "politanName": "Atlanta, GA Metro ", "phone_number": "6784455100", "tags": [{"primary": false, "id": 1722, "name": "Restaurants"}, {"primary": false, "id": 5696, "name": "Wholesale Bakers"}, {"primary": true, "id": 1685, "name": "Bakeries"}], "fax_number": null, "expansion": {"count": null, "uri": null}, "impression_id": "000b000000c9db5b2acea8406ca81c9e19f60cfcfa", "profile": "http://www.citysearch.com/profile/33570795/woodstock_ga/my_friends_place_bakery.html", "address": {"city": "Woodstock", "state": "GA", "street": "9740 Main St", "postal_code": "30188"}, "capProviderId": null, "distance": null, "has_offers": false, "name": "My Friends' Place Bakery", "longitude": -84.519818, "has_menu": false, "awards": null, "user_review_count": 3}, {"business_operation_status": 0, "rating": null, "neighborhood": null, "image": null, "scorecard": null, "featured": false, "sample_categories": "Restaurants", "public_id": "yellow-house-roswell", "id": 44771210, "votes": null, "tagline": null, "has_video": false, "website": null, "offers": null, "latitude": 34.028147, "politanName": "Atlanta, GA Metro ", "phone_number": "7709925383", "tags": [{"primary": true, "id": 1722, "name": "Restaurants"}], "fax_number": null, "expansion": {"count": null, "uri": null}, "impression_id": "000b000000358f08968eb943afa9fca6a21da27583", "profile": "http://www.citysearch.com/profile/44771210/roswell_ga/yellow_house.html", "address": {"city": "Roswell", "state": "GA", "street": "1088 Green St", "postal_code": "30075"}, "capProviderId": null, "distance": null, "has_offers": false, "name": "Yellow House", "longitude": -84.360335, "has_menu": false, "awards": null, "user_review_count": 2}, {"business_operation_status": 1, "rating": null, "neighborhood": null, "image": null, "scorecard": null, "featured": false, "sample_categories": "Restaurants, Pizza", "public_id": "fratelliss-new-york-pizza-roswell", "id": 777757890, "votes": null, "tagline": null, "has_video": false, "website": null, "offers": null, "latitude": 34.047226, "politanName": "Atlanta, GA Metro ", "phone_number": "6785850208", "tags": [{"primary": false, "id": 1722, "name": "Restaurants"}, {"primary": true, "id": 11299, "name": "Pizza"}], "fax_number": null, "expansion": {"count": null, "uri": null}, "impression_id": "000b000000bc91f46d4ee94a8689c9c36c3e9c36e6", "profile": "http://www.citysearch.com/profile/777757890/roswell_ga/fratellis_s_new_york_pizza.html", "address": {"city": "Roswell", "state": "GA", "street": "10930 Crabapple Rd", "postal_code": "30075"}, "capProviderId": null, "distance": null, "has_offers": false, "name": "Fratellis's New York Pizza", "longitude": -84.362959, "has_menu": false, "awards": null, "user_review_count": 0}, {"business_operation_status": 1, "rating": null, "neighborhood": null, "image": null, "scorecard": null, "featured": false, "sample_categories": "Restaurants, Pizza", "public_id": "johnnys-pizza-subs-marietta", "id": 2904727, "votes": null, "tagline": null, "has_video": false, "website": null, "offers": null, "latitude": 33.968758, "politanName": "Atlanta, GA Metro ", "phone_number": "7705658665", "tags": [{"primary": false, "id": 11299, "name": "Pizza"}, {"primary": true, "id": 1722, "name": "Restaurants"}], "fax_number": null, "expansion": {"count": null, "uri": null}, "impression_id": "000b0000008070abcc8ed94140b2d0484545425f95", "profile": "http://www.citysearch.com/profile/2904727/marietta_ga/johnny_s_pizza_subs.html", "address": {"city": "Marietta", "state": "GA", "street": "2100 Roswell Rd", "postal_code": "30062"}, "capProviderId": null, "distance": null, "has_offers": false, "name": "Johnny's Pizza & Subs", "longitude": -84.488447, "has_menu": true, "awards": null, "user_review_count": 0}, {"business_operation_status": 1, "rating": null, "neighborhood": null, "image": null, "scorecard": null, "featured": false, "sample_categories": "Restaurants, Asian", "public_id": "atami-grill-sushi-marietta", "id": 793235190, "votes": null, "tagline": null, "has_video": false, "website": null, "offers": null, "latitude": 33.955116, "politanName": "Atlanta, GA Metro ", "phone_number": "7706938260", "tags": [{"primary": false, "id": 11235, "name": "Asian"}, {"primary": true, "id": 1722, "name": "Restaurants"}], "fax_number": null, "expansion": {"count": null, "uri": null}, "impression_id": "000b000000cc87945506c84d11ba13a80563e27041", "profile": "http://www.citysearch.com/profile/793235190/marietta_ga/atami_grill_sushi.html", "address": {"city": "Marietta", "state": "GA", "street": "3600 Dallas Hwy Sw", "postal_code": "30064"}, "capProviderId": null, "distance": null, "has_offers": false, "name": "Atami Grill & Sushi", "longitude": -84.656027, "has_menu": false, "awards": null, "user_review_count": 0}, {"business_operation_status": 1, "rating": null, "neighborhood": null, "image": null, "scorecard": null, "featured": false, "sample_categories": "Restaurants", "public_id": "1904-house-restaurant-woodstock", "id": 601322141, "votes": null, "tagline": null, "has_video": false, "website": null, "offers": null, "latitude": 34.101487, "politanName": "Atlanta, GA Metro ", "phone_number": "7709261904", "tags": [{"primary": true, "id": 1722, "name": "Restaurants"}], "fax_number": null, "expansion": {"count": null, "uri": null}, "impression_id": "000b00000088091b0504204a75b99552fb38d3447e", "profile": "http://www.citysearch.com/profile/601322141/woodstock_ga/1904_house_restaurant.html", "address": {"city": "Woodstock", "state": "GA", "street": "Po Box 818", "postal_code": "30188"}, "capProviderId": null, "distance": null, "has_offers": false, "name": "1904 House Restaurant", "longitude": -84.519375, "has_menu": false, "awards": null, "user_review_count": 0}, {"business_operation_status": 1, "rating": null, "neighborhood": null, "image": null, "scorecard": null, "featured": false, "sample_categories": "Restaurants, Pizza, Carry Out", "public_id": "little-caesars-pizza-marietta-14", "id": 607327154, "votes": null, "tagline": null, "has_video": false, "website": "http://www.citysearch.com/profile/external/607327154/marietta_ga/little_caesars_pizza.html", "offers": null, "latitude": 33.951081, "politanName": "Atlanta, GA Metro ", "phone_number": "7709195595", "tags": [{"primary": false, "id": 1722, "name": "Restaurants"}, {"primary": false, "id": 11247, "name": "Carry Out"}, {"primary": true, "id": 11299, "name": "Pizza"}], "fax_number": null, "expansion": {"count": null, "uri": null}, "impression_id": "000b00000086cda1915cc9475aa71615e4fb39504f", "profile": "http://www.citysearch.com/profile/607327154/marietta_ga/little_caesars_pizza.html", "address": {"city": "Marietta", "state": "GA", "street": "36 Powder Springs St", "postal_code": "30064"}, "capProviderId": null, "distance": null, "has_offers": false, "name": "Little Caesars Pizza", "longitude": -84.55027, "has_menu": false, "awards": null, "user_review_count": 0}, {"business_operation_status": 1, "rating": null, "neighborhood": null, "image": null, "scorecard": null, "featured": false, "sample_categories": "Restaurants", "public_id": "viva-mexico-restaurant-marietta", "id": 611156824, "votes": null, "tagline": null, "has_video": false, "website": null, "offers": null, "latitude": 33.925486, "politanName": "Atlanta, GA Metro ", "phone_number": "7704298909", "tags": [{"primary": true, "id": 1722, "name": "Restaurants"}], "fax_number": null, "expansion": {"count": null, "uri": null}, "impression_id": "000b000000afff4fb8ad3645a3b930912de75d1b19", "profile": "http://www.citysearch.com/profile/611156824/marietta_ga/viva_mexico_restaurant.html", "address": {"city": "Marietta", "state": "GA", "street": "1115 Powder Springs St # S", "postal_code": "30064"}, "capProviderId": null, "distance": null, "has_offers": false, "name": "Viva Mexico Restaurant", "longitude": -84.572072, "has_menu": false, "awards": null, "user_review_count": 0}, {"business_operation_status": 1, "rating": null, "neighborhood": null, "image": null, "scorecard": null, "featured": false, "sample_categories": "Restaurants", "public_id": "angels-burrito-on-the-square-marietta", "id": 609728344, "votes": null, "tagline": null, "has_video": false, "website": null, "offers": null, "latitude": 33.952259, "politanName": "Atlanta, GA Metro ", "phone_number": "6785943352", "tags": [{"primary": true, "id": 1722, "name": "Restaurants"}], "fax_number": null, "expansion": {"count": null, "uri": null}, "impression_id": "000b000000e2bd66dbfdaa42189949d6bda2228111", "profile": "http://www.citysearch.com/profile/609728344/marietta_ga/angel_s_burrito_on_the_square.html", "address": {"city": "Marietta", "state": "GA", "street": "154 Roswell St SE", "postal_code": "30060"}, "capProviderId": null, "distance": null, "has_offers": false, "name": "Angel's Burrito On The Square", "longitude": -84.548687, "has_menu": false, "awards": null, "user_review_count": 0}, {"business_operation_status": 1, "rating": null, "neighborhood": null, "image": null, "scorecard": null, "featured": false, "sample_categories": "Coffeehouses", "public_id": "gold-cup-coffee-service-inc-smyrna", "id": 817382800, "votes": null, "tagline": null, "has_video": false, "website": null, "offers": null, "latitude": 33.897454, "politanName": "Atlanta, GA Metro ", "phone_number": "7703199067", "tags": [{"primary": true, "id": 1726, "name": "Coffeehouses"}], "fax_number": null, "expansion": {"count": null, "uri": null}, "impression_id": "000b000000e0d022e7e7b847cd8160b67af65075a8", "profile": "http://www.citysearch.com/profile/817382800/smyrna_ga/gold_cup_coffee_service_inc.html", "address": {"city": "Smyrna", "state": "GA", "street": "2301 Benson Poole Rd SE", "postal_code": "30082"}, "capProviderId": null, "distance": null, "has_offers": false, "name": "Gold Cup Coffee Service Inc", "longitude": -84.541681, "has_menu": false, "awards": null, "user_review_count": 0}, {"business_operation_status": 1, "rating": null, "neighborhood": null, "image": null, "scorecard": null, "featured": false, "sample_categories": "Restaurants, Bakeries, Delis And Delicatessens, Carry Out, American Express", "public_id": "panera-bread-roswell", "id": 742263270, "votes": null, "tagline": null, "has_video": false, "website": "http://www.citysearch.com/profile/external/742263270/roswell_ga/panera_bread.html", "offers": null, "latitude": 34.061698, "politanName": "Atlanta, GA Metro ", "phone_number": "7706439570", "tags": [{"primary": false, "id": 1685, "name": "Bakeries"}, {"primary": false, "id": 1727, "name": "Delis And Delicatessens"}, {"primary": false, "id": 11247, "name": "Carry Out"}, {"primary": false, "id": 11333, "name": "American Express"}, {"primary": false, "id": 11347, "name": "Debit Card"}, {"primary": false, "id": 11349, "name": "Discover"}, {"primary": false, "id": 11361, "name": "MasterCard"}, {"primary": false, "id": 11382, "name": "Visa"}, {"primary": true, "id": 1722, "name": "Restaurants"}], "fax_number": null, "expansion": {"count": null, "uri": null}, "impression_id": "000b000000bc725ec49bd6451cbeb5341b5d8c2022", "profile": "http://www.citysearch.com/profile/742263270/roswell_ga/panera_bread.html", "address": {"city": "Roswell", "state": "GA", "street": "1195 Woodstock Rd", "postal_code": "30075"}, "capProviderId": null, "distance": null, "has_offers": false, "name": "Panera Bread", "longitude": -84.400088, "has_menu": false, "awards": null, "user_review_count": 0}, {"business_operation_status": 1, "rating": null, "neighborhood": null, "image": null, "scorecard": null, "featured": false, "sample_categories": "Health Food Stores, Produce Markets, Juice & Smoothie Shops, Health Food Stores, Vitamins", "public_id": "juice-plus-roswell", "id": 2871440, "votes": null, "tagline": null, "has_video": false, "website": null, "offers": null, "latitude": 34.011678, "politanName": "Atlanta, GA Metro ", "phone_number": "7709935526", "tags": [{"primary": false, "id": 1716, "name": "Health Food Stores"}, {"primary": false, "id": 1717, "name": "Produce Markets"}, {"primary": false, "id": 1735, "name": "Juice & Smoothie Shops"}, {"primary": false, "id": 17570, "name": "Health Food Stores"}, {"primary": true, "id": 11164, "name": "Vitamins"}], "fax_number": null, "expansion": {"count": null, "uri": null}, "impression_id": "000b000000594878fbe50849059603811fdc42ef91", "profile": "http://www.citysearch.com/profile/2871440/roswell_ga/juice_plus.html", "address": {"city": "Roswell", "state": "GA", "street": "479 S Atlanta St", "postal_code": "30075"}, "capProviderId": null, "distance": null, "has_offers": false, "name": "Juice Plus", "longitude": -84.362706, "has_menu": false, "awards": null, "user_review_count": 1}, {"business_operation_status": 1, "rating": 8.0, "neighborhood": null, "image": null, "scorecard": null, "featured": false, "sample_categories": "Restaurants, Mexican", "public_id": "el-toro-marietta-2", "id": 2903732, "votes": null, "tagline": null, "has_video": false, "website": null, "offers": null, "latitude": 33.977237, "politanName": "Atlanta, GA Metro ", "phone_number": "7709733173", "tags": [{"primary": false, "id": 1722, "name": "Restaurants"}, {"primary": true, "id": 11208, "name": "Mexican"}], "fax_number": null, "expansion": {"count": null, "uri": null}, "impression_id": "000b000000b98184cd0e894e5aa9da952fcf7da53b", "profile": "http://www.citysearch.com/profile/2903732/marietta_ga/el_toro.html", "address": {"city": "Marietta", "state": "GA", "street": "1060 E Piedmont Rd", "postal_code": "30062"}, "capProviderId": null, "distance": null, "has_offers": false, "name": "El Toro", "longitude": -84.479761, "has_menu": true, "awards": null, "user_review_count": 0}, {"business_operation_status": 1, "rating": null, "neighborhood": null, "image": null, "scorecard": null, "featured": false, "sample_categories": "Restaurants, Pizza", "public_id": "capozzis-pizza-marietta", "id": 748319980, "votes": null, "tagline": null, "has_video": false, "website": null, "offers": null, "latitude": 33.985529, "politanName": "Atlanta, GA Metro ", "phone_number": "7703215550", "tags": [{"primary": false, "id": 1722, "name": "Restaurants"}, {"primary": true, "id": 11299, "name": "Pizza"}], "fax_number": null, "expansion": {"count": null, "uri": null}, "impression_id": "000b0000003dc975d96d4e4ba99dbfe5302d4607cd", "profile": "http://www.citysearch.com/profile/748319980/marietta_ga/capozzi_s_pizza.html", "address": {"city": "Marietta", "state": "GA", "street": "4285 Roswell Rd", "postal_code": "30062"}, "capProviderId": null, "distance": null, "has_offers": false, "name": "Capozzi's Pizza", "longitude": -84.424063, "has_menu": true, "awards": null, "user_review_count": 0}, {"business_operation_status": 1, "rating": null, "neighborhood": null, "image": null, "scorecard": null, "featured": false, "sample_categories": "Bars & Pubs, Bars & Clubs, Restaurants", "public_id": "roswell-tap-llc-roswell", "id": 764900040, "votes": null, "tagline": null, "has_video": false, "website": "http://www.citysearch.com/profile/external/764900040/roswell_ga/roswell_tap_llc.html", "offers": null, "latitude": 34.028365, "politanName": "Atlanta, GA Metro ", "phone_number": "7709929206", "tags": [{"primary": false, "id": 164, "name": "Bars & Clubs"}, {"primary": false, "id": 1722, "name": "Restaurants"}, {"primary": true, "id": 1686, "name": "Bars & Pubs"}], "fax_number": null, "expansion": {"count": null, "uri": null}, "impression_id": "000b00000000e94d41146d4d2faf51cd7801338413", "profile": "http://www.citysearch.com/profile/764900040/roswell_ga/roswell_tap_llc.html", "address": {"city": "Roswell", "state": "GA", "street": "1090 Alpharetta St", "postal_code": "30075"}, "capProviderId": null, "distance": null, "has_offers": false, "name": "Roswell Tap Llc", "longitude": -84.358404, "has_menu": false, "awards": null, "user_review_count": 0}, {"business_operation_status": 1, "rating": null, "neighborhood": null, "image": null, "scorecard": null, "featured": false, "sample_categories": "Restaurants, Bars & Clubs", "public_id": "bokitas-tapas-bar-woodstock", "id": 672914460, "votes": null, "tagline": null, "has_video": false, "website": null, "offers": null, "latitude": 34.104277, "politanName": "Atlanta, GA Metro ", "phone_number": "7709246585", "tags": [{"primary": false, "id": 164, "name": "Bars & Clubs"}, {"primary": true, "id": 1722, "name": "Restaurants"}], "fax_number": null, "expansion": {"count": null, "uri": null}, "impression_id": "000b000000742503a9c33847ee903efd74cf0fc33c", "profile": "http://www.citysearch.com/profile/672914460/woodstock_ga/bokita_s_tapas_bar.html", "address": {"city": "Woodstock", "state": "GA", "street": "900 Towne Lake Pkwy", "postal_code": "30189"}, "capProviderId": null, "distance": null, "has_offers": false, "name": "Bokita's Tapas Bar", "longitude": -84.534724, "has_menu": false, "awards": null, "user_review_count": 1}, {"business_operation_status": 1, "rating": null, "neighborhood": null, "image": null, "scorecard": null, "featured": false, "sample_categories": "Restaurants", "public_id": "townlake-diner-woodstock", "id": 672289320, "votes": null, "tagline": null, "has_video": false, "website": null, "offers": null, "latitude": 34.112372, "politanName": "Atlanta, GA Metro ", "phone_number": null, "tags": [{"primary": true, "id": 1722, "name": "Restaurants"}], "fax_number": null, "expansion": {"count": null, "uri": null}, "impression_id": "000b0000006e1d56fadc194f88882e1fc26142878c", "profile": "http://www.citysearch.com/profile/672289320/woodstock_ga/townlake_diner.html", "address": {"city": "Woodstock", "state": "GA", "street": "2990 eagle drive", "postal_code": "30189"}, "capProviderId": null, "distance": null, "has_offers": false, "name": "Townlake Diner", "longitude": -84.561077, "has_menu": false, "awards": null, "user_review_count": 0}, {"business_operation_status": 1, "rating": null, "neighborhood": null, "image": null, "scorecard": null, "featured": false, "sample_categories": "Restaurants", "public_id": "ragamuffin-ice-cream-parlor-coffeehouse-roswell", "id": 672972420, "votes": null, "tagline": null, "has_video": false, "website": null, "offers": null, "latitude": 34.014811, "politanName": "Atlanta, GA Metro ", "phone_number": "7706567137", "tags": [{"primary": true, "id": 1722, "name": "Restaurants"}], "fax_number": null, "expansion": {"count": null, "uri": null}, "impression_id": "000b000000ffa6048a8748407e8c6d014e99e5dfa1", "profile": "http://www.citysearch.com/profile/672972420/roswell_ga/ragamuffin_ice_cream_parlor_coffeehouse.html", "address": {"city": "Roswell", "state": "GA", "street": "585 Atlanta Street", "postal_code": "30075"}, "capProviderId": null, "distance": null, "has_offers": false, "name": "Ragamuffin Ice Cream Parlor & Coffeehouse", "longitude": -84.362391, "has_menu": false, "awards": null, "user_review_count": 0}, {"business_operation_status": 1, "rating": null, "neighborhood": null, "image": null, "scorecard": null, "featured": false, "sample_categories": "Ice Cream Parlors, Restaurants, Carry Out", "public_id": "dairy-queen-kennesaw-3", "id": 777729670, "votes": null, "tagline": null, "has_video": false, "website": "http://www.citysearch.com/profile/external/777729670/kennesaw_ga/dairy_queen.html", "offers": null, "latitude": 34.014009, "politanName": "Atlanta, GA Metro ", "phone_number": "7704281468", "tags": [{"primary": false, "id": 1722, "name": "Restaurants"}, {"primary": false, "id": 11247, "name": "Carry Out"}, {"primary": true, "id": 1730, "name": "Ice Cream Parlors"}], "fax_number": null, "expansion": {"count": null, "uri": null}, "impression_id": "000b000000d1336a9f213044b9890242cc381bc396", "profile": "http://www.citysearch.com/profile/777729670/kennesaw_ga/dairy_queen.html", "address": {"city": "Kennesaw", "state": "GA", "street": "400 Ernest W Barrett NW # 205", "postal_code": "30144"}, "capProviderId": null, "distance": null, "has_offers": false, "name": "Dairy Queen", "longitude": -84.561425, "has_menu": true, "awards": null, "user_review_count": 0}, {"business_operation_status": 1, "rating": null, "neighborhood": null, "image": null, "scorecard": null, "featured": false, "sample_categories": "Restaurants, Pizza", "public_id": "pizza-rogizio-marietta", "id": 777749830, "votes": null, "tagline": null, "has_video": false, "website": null, "offers": null, "latitude": 33.951936, "politanName": "Atlanta, GA Metro ", "phone_number": "7705782824", "tags": [{"primary": false, "id": 11299, "name": "Pizza"}, {"primary": true, "id": 1722, "name": "Restaurants"}], "fax_number": null, "expansion": {"count": null, "uri": null}, "impression_id": "000b0000007bc359c11fa8490ca0c8617cffdae36d", "profile": "http://www.citysearch.com/profile/777749830/marietta_ga/pizza_rogizio.html", "address": {"city": "Marietta", "state": "GA", "street": "1818 Lower Roswell Rd", "postal_code": "30068"}, "capProviderId": null, "distance": null, "has_offers": false, "name": "Pizza Rogizio", "longitude": -84.499113, "has_menu": false, "awards": null, "user_review_count": 0}, {"business_operation_status": 1, "rating": null, "neighborhood": null, "image": null, "scorecard": null, "featured": false, "sample_categories": "Restaurants, Mexican", "public_id": "taqueria-tsunami-woodstock", "id": 793252160, "votes": null, "tagline": null, "has_video": false, "website": null, "offers": null, "latitude": 34.119763, "politanName": "Atlanta, GA Metro ", "phone_number": "7704853586", "tags": [{"primary": false, "id": 11208, "name": "Mexican"}, {"primary": true, "id": 1722, "name": "Restaurants"}], "fax_number": null, "expansion": {"count": null, "uri": null}, "impression_id": "000b000000f96747f079244360b5d6dec92dbef3bf", "profile": "http://www.citysearch.com/profile/793252160/woodstock_ga/taqueria_tsunami.html", "address": {"city": "Woodstock", "state": "GA", "street": "915 Ridgewalk Pkwy", "postal_code": "30188"}, "capProviderId": null, "distance": null, "has_offers": false, "name": "Taqueria Tsunami", "longitude": -84.518527, "has_menu": false, "awards": null, "user_review_count": 0}, {"business_operation_status": 1, "rating": null, "neighborhood": null, "image": null, "scorecard": null, "featured": false, "sample_categories": "Restaurants, Pizza", "public_id": "brick-house-pizza-pasta-roswell-2", "id": 787114170, "votes": null, "tagline": null, "has_video": false, "website": null, "offers": null, "latitude": 34.034238, "politanName": "Atlanta, GA Metro ", "phone_number": "7706400023", "tags": [{"primary": false, "id": 11299, "name": "Pizza"}, {"primary": true, "id": 1722, "name": "Restaurants"}], "fax_number": null, "expansion": {"count": null, "uri": null}, "impression_id": "000b000000e9c34ffbbeb14bc2858737e43451cc7f", "profile": "http://www.citysearch.com/profile/787114170/roswell_ga/brick_house_pizza_pasta.html", "address": {"city": "Roswell", "state": "GA", "street": "10479 Alpharetta St", "postal_code": "30075"}, "capProviderId": null, "distance": null, "has_offers": false, "name": "Brick House Pizza & Pasta", "longitude": -84.345527, "has_menu": false, "awards": null, "user_review_count": 0}, {"business_operation_status": 1, "rating": null, "neighborhood": null, "image": null, "scorecard": null, "featured": false, "sample_categories": "Restaurants, Carry Out, Hamburgers", "public_id": "wendys-woodstock-7", "id": 787134330, "votes": null, "tagline": null, "has_video": false, "website": null, "offers": null, "latitude": 34.112447, "politanName": "Atlanta, GA Metro ", "phone_number": "7705925656", "tags": [{"primary": false, "id": 11247, "name": "Carry Out"}, {"primary": false, "id": 11270, "name": "Hamburgers"}, {"primary": true, "id": 1722, "name": "Restaurants"}], "fax_number": null, "expansion": {"count": null, "uri": null}, "impression_id": "000b000000ae4dc6d532a1455b818d878b06f48270", "profile": "http://www.citysearch.com/profile/787134330/woodstock_ga/wendy_s.html", "address": {"city": "Woodstock", "state": "GA", "street": "230 Towne Lake Pkwy", "postal_code": "30189"}, "capProviderId": null, "distance": null, "has_offers": false, "name": "Wendy's", "longitude": -84.552535, "has_menu": true, "awards": null, "user_review_count": 0}, {"business_operation_status": 1, "rating": null, "neighborhood": null, "image": null, "scorecard": null, "featured": false, "sample_categories": "Restaurants, Seafood", "public_id": "a-js-famous-seafood-poboys-marietta", "id": 793361500, "votes": null, "tagline": null, "has_video": false, "website": null, "offers": null, "latitude": 33.968758, "politanName": "Atlanta, GA Metro ", "phone_number": "6786273971", "tags": [{"primary": false, "id": 11228, "name": "Seafood"}, {"primary": true, "id": 1722, "name": "Restaurants"}], "fax_number": null, "expansion": {"count": null, "uri": null}, "impression_id": "000b0000003108b9c6e7de4f64ae8399fd71798578", "profile": "http://www.citysearch.com/profile/793361500/marietta_ga/a_j_s_famous_seafood_poboys.html", "address": {"city": "Marietta", "state": "GA", "street": "2100 Roswell Rd", "postal_code": "30062"}, "capProviderId": null, "distance": null, "has_offers": false, "name": "A J's Famous Seafood & Poboys", "longitude": -84.488447, "has_menu": false, "awards": null, "user_review_count": 0}, {"business_operation_status": 1, "rating": null, "neighborhood": null, "image": null, "scorecard": null, "featured": false, "sample_categories": "Restaurants, Cafes", "public_id": "socrates-cafe-marietta", "id": 713427300, "votes": null, "tagline": null, "has_video": false, "website": null, "offers": null, "latitude": 33.930756, "politanName": "Atlanta, GA Metro ", "phone_number": "7707926042", "tags": [{"primary": false, "id": 6190, "name": "Cafes"}, {"primary": true, "id": 1722, "name": "Restaurants"}], "fax_number": null, "expansion": {"count": null, "uri": null}, "impression_id": "000b0000000b400ff9a9fe487584e6a79ea57d7580", "profile": "http://www.citysearch.com/profile/713427300/marietta_ga/socrates_cafe.html", "address": {"city": "Marietta", "state": "GA", "street": "1269 Barclay Cir Se", "postal_code": "30060"}, "capProviderId": null, "distance": null, "has_offers": false, "name": "Socrates Cafe", "longitude": -84.514539, "has_menu": false, "awards": null, "user_review_count": 0}, {"business_operation_status": 1, "rating": null, "neighborhood": null, "image": null, "scorecard": null, "featured": false, "sample_categories": "Restaurants", "public_id": "hoof-ale-marietta", "id": 796118290, "votes": null, "tagline": null, "has_video": false, "website": null, "offers": null, "latitude": 33.968758, "politanName": "Atlanta, GA Metro ", "phone_number": "7709710334", "tags": [{"primary": true, "id": 1722, "name": "Restaurants"}], "fax_number": null, "expansion": {"count": null, "uri": null}, "impression_id": "000b00000065efdf021ba84d408e3e2004fce09a5f", "profile": "http://www.citysearch.com/profile/796118290/marietta_ga/hoof_ale.html", "address": {"city": "Marietta", "state": "GA", "street": "2100 Roswell Rd", "postal_code": "30062"}, "capProviderId": null, "distance": null, "has_offers": false, "name": "Hoof & Ale", "longitude": -84.488447, "has_menu": false, "awards": null, "user_review_count": 0}, {"business_operation_status": 0, "rating": null, "neighborhood": null, "image": null, "scorecard": null, "featured": false, "sample_categories": "Restaurants, Traditional American", "public_id": "shoneys-marietta", "id": 2900905, "votes": null, "tagline": null, "has_video": false, "website": null, "offers": null, "latitude": 33.9485, "politanName": "Atlanta, GA Metro ", "phone_number": "7704225333", "tags": [{"primary": false, "id": 11190, "name": "Traditional American"}, {"primary": true, "id": 1722, "name": "Restaurants"}], "fax_number": null, "expansion": {"count": null, "uri": null}, "impression_id": "000b000000d8cee232a9ea4f5aa8251c7eeeee9ff7", "profile": "http://www.citysearch.com/profile/2900905/marietta_ga/shoney_s.html", "address": {"city": "Marietta", "state": "GA", "street": "155 Cobb Pkwy S", "postal_code": "30060"}, "capProviderId": null, "distance": null, "has_offers": false, "name": "Shoney's", "longitude": -84.518323, "has_menu": true, "awards": null, "user_review_count": 0}, {"business_operation_status": 1, "rating": null, "neighborhood": null, "image": null, "scorecard": null, "featured": false, "sample_categories": "Restaurants", "public_id": "little-china-smyrna", "id": 805796770, "votes": null, "tagline": null, "has_video": false, "website": null, "offers": null, "latitude": 33.894335, "politanName": "Atlanta, GA Metro ", "phone_number": "6783057377", "tags": [{"primary": true, "id": 1722, "name": "Restaurants"}], "fax_number": null, "expansion": {"count": null, "uri": null}, "impression_id": "000b0000009ed4b1becadc45f88951861123aff036", "profile": "http://www.citysearch.com/profile/805796770/smyrna_ga/little_china.html", "address": {"city": "Smyrna", "state": "GA", "street": "1065 Windy Hill Rd SE", "postal_code": "30080"}, "capProviderId": null, "distance": null, "has_offers": false, "name": "Little China", "longitude": -84.522435, "has_menu": false, "awards": null, "user_review_count": 0}, {"business_operation_status": 1, "rating": null, "neighborhood": null, "image": null, "scorecard": null, "featured": false, "sample_categories": "Restaurants", "public_id": "juan-j-garcia-woodstock", "id": 807710220, "votes": null, "tagline": null, "has_video": false, "website": null, "offers": null, "latitude": 34.101487, "politanName": "Atlanta, GA Metro ", "phone_number": "6784457635", "tags": [{"primary": true, "id": 1722, "name": "Restaurants"}], "fax_number": null, "expansion": {"count": null, "uri": null}, "impression_id": "000b000000bdadb3c696cc481fa5b6d2c5a576a1cd", "profile": "http://www.citysearch.com/profile/807710220/woodstock_ga/juan_j_garcia.html", "address": {"city": "Woodstock", "state": "GA", "street": "5016 River Road Way", "postal_code": "30188"}, "capProviderId": null, "distance": null, "has_offers": false, "name": "Juan J Garcia", "longitude": -84.519375, "has_menu": false, "awards": null, "user_review_count": 0}], "histograms": [], "tag_ids": [1722], "uri": "http://api.citygridmedia.com:8080/search/places/v2/search/where?has_offers=false&type=restaurant&format=json&page=33&where=30066&rpp=50&histograms=false&publisher=10000009598&region_type=circle", "did_you_mean": "", "regions": [{"latitude": 34.034132, "default_radius": 5.28, "type": "postal_code", "name": "30066", "longitude": -84.508332}], "call_id": "000b000000c0de1760d9b14e11acad438814d6aa8d", "first_hit": 1601, "total_hits": 2075, "geo_ids": [26294], "page": 33, "last_hit": 1650}}