{"results": {"rpp": 50, "locations": [{"business_operation_status": 1, "rating": null, "neighborhood": null, "image": null, "scorecard": null, "featured": false, "sample_categories": "Restaurants, Delis And Delicatessens", "public_id": "d-w-cafe-marietta", "id": 775198490, "votes": null, "tagline": null, "has_video": false, "website": null, "offers": null, "latitude": 33.972386, "politanName": "Atlanta, GA Metro ", "phone_number": "6784018966", "tags": [{"primary": false, "id": 1727, "name": "Delis And Delicatessens"}, {"primary": true, "id": 1722, "name": "Restaurants"}], "fax_number": null, "expansion": {"count": null, "uri": null}, "impression_id": "000b00000002d9aa86aa7f4b1f957ae62dfcc18c2a", "profile": "http://www.citysearch.com/profile/775198490/marietta_ga/d_w_cafe.html", "address": {"city": "Marietta", "state": "GA", "street": "833 Campbell Hill St NW", "postal_code": "30060"}, "capProviderId": null, "distance": null, "has_offers": false, "name": "D W Cafe", "longitude": -84.552023, "has_menu": false, "awards": null, "user_review_count": 0}, {"business_operation_status": 1, "rating": null, "neighborhood": null, "image": null, "scorecard": null, "featured": false, "sample_categories": "Restaurants", "public_id": "nations-cafe-atlanta-4", "id": 732130340, "votes": null, "tagline": null, "has_video": false, "website": null, "offers": null, "latitude": 33.981228, "politanName": "Atlanta, GA Metro ", "phone_number": "6786914382", "tags": [{"primary": true, "id": 1722, "name": "Restaurants"}], "fax_number": null, "expansion": {"count": null, "uri": null}, "impression_id": "000b0000006d7fa93e6e9b4145a685e43600fbf350", "profile": "http://www.citysearch.com/profile/732130340/atlanta_ga/nation_s_cafe.html", "address": {"city": "Atlanta", "state": "GA", "street": "8290 Roswell Rd", "postal_code": "30350"}, "capProviderId": null, "distance": null, "has_offers": false, "name": "Nation's Cafe", "longitude": -84.351122, "has_menu": false, "awards": null, "user_review_count": 0}, {"business_operation_status": 1, "rating": null, "neighborhood": null, "image": null, "scorecard": null, "featured": false, "sample_categories": "Restaurants, Carry Out, Chicken", "public_id": "zaxbys-marietta-6", "id": 787134660, "votes": null, "tagline": null, "has_video": false, "website": "http://www.citysearch.com/profile/external/787134660/marietta_ga/zaxby_s.html", "offers": null, "latitude": 33.952602, "politanName": "Atlanta, GA Metro ", "phone_number": "6788521483", "tags": [{"primary": false, "id": 11247, "name": "Carry Out"}, {"primary": false, "id": 12839, "name": "Chicken"}, {"primary": true, "id": 1722, "name": "Restaurants"}], "fax_number": null, "expansion": {"count": null, "uri": null}, "impression_id": "000b0000001bba24b2a34b4872bbfecb527ff4c059", "profile": "http://www.citysearch.com/profile/787134660/marietta_ga/zaxby_s.html", "address": {"city": "Marietta", "state": "GA", "street": "2756 Sandy Plains Rd", "postal_code": "30066"}, "capProviderId": null, "distance": null, "has_offers": false, "name": "Zaxby's", "longitude": -84.549933, "has_menu": true, "awards": null, "user_review_count": 0}, {"business_operation_status": 1, "rating": 8.0, "neighborhood": null, "image": null, "scorecard": null, "featured": false, "sample_categories": "Restaurants, Chinese", "public_id": "new-china-house-marietta", "id": 2904692, "votes": null, "tagline": null, "has_video": false, "website": "http://www.citysearch.com/profile/external/2904692/marietta_ga/new_china_house.html", "offers": null, "latitude": 33.971616, "politanName": "Atlanta, GA Metro ", "phone_number": "7704286409", "tags": [{"primary": false, "id": 11252, "name": "Chinese"}, {"primary": true, "id": 1722, "name": "Restaurants"}], "fax_number": null, "expansion": {"count": null, "uri": null}, "impression_id": "000b00000037c3ac5c5ee342fb81275ed044fe7606", "profile": "http://www.citysearch.com/profile/2904692/marietta_ga/new_china_house.html", "address": {"city": "Marietta", "state": "GA", "street": "803 Cobb Pkwy N", "postal_code": "30062"}, "capProviderId": null, "distance": null, "has_offers": false, "name": "New China House", "longitude": -84.540539, "has_menu": true, "awards": null, "user_review_count": 1}, {"business_operation_status": 1, "rating": null, "neighborhood": null, "image": null, "scorecard": null, "featured": false, "sample_categories": "Restaurants", "public_id": "bandido-wings-marietta", "id": 838396080, "votes": null, "tagline": null, "has_video": false, "website": null, "offers": null, "latitude": 33.902517, "politanName": "Atlanta, GA Metro ", "phone_number": "7706528890", "tags": [{"primary": true, "id": 1722, "name": "Restaurants"}], "fax_number": null, "expansion": {"count": null, "uri": null}, "impression_id": "000b0000008d6a3a4f2390442f820a1ac022aa335d", "profile": "http://www.citysearch.com/profile/838396080/marietta_ga/bandido_wings.html", "address": {"city": "Marietta", "state": "GA", "street": "371 Pat Mell Rd SE # 137", "postal_code": "30060"}, "capProviderId": null, "distance": null, "has_offers": false, "name": "Bandido Wings", "longitude": -84.543334, "has_menu": false, "awards": null, "user_review_count": 0}, {"business_operation_status": 1, "rating": null, "neighborhood": null, "image": null, "scorecard": null, "featured": false, "sample_categories": "Food Stores, Restaurants", "public_id": "atlanta-smokehouse-prodcuts-marietta", "id": 793290190, "votes": null, "tagline": null, "has_video": false, "website": null, "offers": null, "latitude": 33.912568, "politanName": "Atlanta, GA Metro ", "phone_number": "7706934435", "tags": [{"primary": false, "id": 1722, "name": "Restaurants"}, {"primary": true, "id": 1706, "name": "Food Stores"}], "fax_number": null, "expansion": {"count": null, "uri": null}, "impression_id": "000b0000000bc4da341f914a04980016d03ea44976", "profile": "http://www.citysearch.com/profile/793290190/marietta_ga/atlanta_smokehouse_prodcuts.html", "address": {"city": "Marietta", "state": "GA", "street": "1700 Enterprise Way Se", "postal_code": "30067"}, "capProviderId": null, "distance": null, "has_offers": false, "name": "Atlanta Smokehouse Prodcuts", "longitude": -84.492151, "has_menu": false, "awards": null, "user_review_count": 0}, {"business_operation_status": 1, "rating": 6.0, "neighborhood": null, "image": null, "scorecard": null, "featured": false, "sample_categories": "Restaurants, Traditional American, Carry Out, Steakhouse, American Express", "public_id": "golden-corral-buffet-grill-kennesaw", "id": 2955047, "votes": null, "tagline": null, "has_video": false, "website": "http://www.citysearch.com/profile/external/2955047/kennesaw_ga/golden_corral_buffet_grill.html", "offers": null, "latitude": 34.007877, "politanName": "Atlanta, GA Metro ", "phone_number": "7704286770", "tags": [{"primary": false, "id": 11190, "name": "Traditional American"}, {"primary": false, "id": 11247, "name": "Carry Out"}, {"primary": false, "id": 11316, "name": "Steakhouse"}, {"primary": false, "id": 11333, "name": "American Express"}, {"primary": false, "id": 11349, "name": "Discover"}, {"primary": false, "id": 11361, "name": "MasterCard"}, {"primary": false, "id": 11382, "name": "Visa"}, {"primary": true, "id": 1722, "name": "Restaurants"}], "fax_number": null, "expansion": {"count": null, "uri": null}, "impression_id": "000b000000adeac5e62fda4055adb1b9b4573c7052", "profile": "http://www.citysearch.com/profile/2955047/kennesaw_ga/golden_corral_buffet_grill.html", "address": {"city": "Kennesaw", "state": "GA", "street": "700 Ernest W Barrett Pkwy NW", "postal_code": "30144"}, "capProviderId": null, "distance": null, "has_offers": false, "name": "Golden Corral Buffet & Grill", "longitude": -84.572373, "has_menu": true, "awards": null, "user_review_count": 8}, {"business_operation_status": 1, "rating": null, "neighborhood": null, "image": null, "scorecard": null, "featured": false, "sample_categories": "Restaurants, Diners, Cafes", "public_id": "campus-cafe-marietta", "id": 33669246, "votes": null, "tagline": null, "has_video": false, "website": null, "offers": null, "latitude": 33.930756, "politanName": "Atlanta, GA Metro ", "phone_number": "7707926042", "tags": [{"primary": false, "id": 1732, "name": "Diners"}, {"primary": false, "id": 6190, "name": "Cafes"}, {"primary": true, "id": 1722, "name": "Restaurants"}], "fax_number": null, "expansion": {"count": null, "uri": null}, "impression_id": "000b0000008457f64bf69343ea82db3958305b31be", "profile": "http://www.citysearch.com/profile/33669246/marietta_ga/campus_cafe.html", "address": {"city": "Marietta", "state": "GA", "street": "1269 Barclay Cir SE", "postal_code": "30060"}, "capProviderId": null, "distance": null, "has_offers": false, "name": "Campus Cafe", "longitude": -84.514539, "has_menu": false, "awards": null, "user_review_count": 0}, {"business_operation_status": 1, "rating": null, "neighborhood": null, "image": null, "scorecard": null, "featured": false, "sample_categories": "Restaurants", "public_id": "fosters-grille-alpharetta-2", "id": 815338730, "votes": null, "tagline": null, "has_video": false, "website": null, "offers": null, "latitude": 34.087353, "politanName": "Atlanta, GA Metro ", "phone_number": "7706677491", "tags": [{"primary": true, "id": 1722, "name": "Restaurants"}], "fax_number": null, "expansion": {"count": null, "uri": null}, "impression_id": "000b0000000e0236cbe0df4025a9f123b5d2af7507", "profile": "http://www.citysearch.com/profile/815338730/alpharetta_ga/foster_s_grille.html", "address": {"city": "Alpharetta", "state": "GA", "street": "12540 Broadwell Rd # 1103", "postal_code": "30004"}, "capProviderId": null, "distance": null, "has_offers": false, "name": "Foster's Grille", "longitude": -84.339515, "has_menu": true, "awards": null, "user_review_count": 0}, {"business_operation_status": 1, "rating": null, "neighborhood": null, "image": null, "scorecard": null, "featured": false, "sample_categories": "Doughnut Shops", "public_id": "sublime-doughnuts-marietta", "id": 787115930, "votes": null, "tagline": null, "has_video": false, "website": null, "offers": null, "latitude": 33.918263, "politanName": "Atlanta, GA Metro ", "phone_number": "7704260814", "tags": [{"primary": true, "id": 1734, "name": "Doughnut Shops"}], "fax_number": null, "expansion": {"count": null, "uri": null}, "impression_id": "000b0000003c135006e3c249f6a599c768b89292d7", "profile": "http://www.citysearch.com/profile/787115930/marietta_ga/sublime_doughnuts.html", "address": {"city": "Marietta", "state": "GA", "street": "1345 Old Coach Rd Sw", "postal_code": "30008"}, "capProviderId": null, "distance": null, "has_offers": false, "name": "Sublime Doughnuts", "longitude": -84.572952, "has_menu": false, "awards": null, "user_review_count": 0}, {"business_operation_status": 1, "rating": 10.0, "neighborhood": null, "image": null, "scorecard": null, "featured": false, "sample_categories": "Catering, Restaurants", "public_id": "williamson-brothers-catering-marietta", "id": 2901685, "votes": null, "tagline": null, "has_video": false, "website": "http://www.citysearch.com/profile/external/2901685/marietta_ga/williamson_brothers_catering.html", "offers": null, "latitude": 33.942617, "politanName": "Atlanta, GA Metro ", "phone_number": "7704251739", "tags": [{"primary": false, "id": 1705, "name": "Catering"}, {"primary": true, "id": 1722, "name": "Restaurants"}], "fax_number": null, "expansion": {"count": null, "uri": null}, "impression_id": "000b00000005d343cf694a4a7188e07337d63e275d", "profile": "http://www.citysearch.com/profile/2901685/marietta_ga/williamson_brothers_catering.html", "address": {"city": "Marietta", "state": "GA", "street": "403 Sycamore St SE", "postal_code": "30060"}, "capProviderId": null, "distance": null, "has_offers": false, "name": "Williamson Brothers Catering", "longitude": -84.541082, "has_menu": false, "awards": null, "user_review_count": 1}, {"business_operation_status": 1, "rating": null, "neighborhood": null, "image": null, "scorecard": null, "featured": false, "sample_categories": "Restaurants, Chinese, MasterCard, Visa", "public_id": "mr-won-ton-marietta", "id": 2908318, "votes": null, "tagline": null, "has_video": false, "website": "http://www.citysearch.com/profile/external/2908318/marietta_ga/mr_won_ton.html", "offers": null, "latitude": 34.038928, "politanName": "Atlanta, GA Metro ", "phone_number": "7705917706", "tags": [{"primary": false, "id": 11252, "name": "Chinese"}, {"primary": false, "id": 11361, "name": "MasterCard"}, {"primary": false, "id": 11382, "name": "Visa"}, {"primary": true, "id": 1722, "name": "Restaurants"}], "fax_number": null, "expansion": {"count": null, "uri": null}, "impression_id": "000b0000004f3bf4f3c900488d8c837bce41a5d9cb", "profile": "http://www.citysearch.com/profile/2908318/marietta_ga/mr_won_ton.html", "address": {"city": "Marietta", "state": "GA", "street": "3595 Canton Rd # Ste 328", "postal_code": "30066"}, "capProviderId": null, "distance": null, "has_offers": false, "name": "Mr Won Ton", "longitude": -84.530249, "has_menu": false, "awards": null, "user_review_count": 0}, {"business_operation_status": 1, "rating": null, "neighborhood": null, "image": null, "scorecard": null, "featured": false, "sample_categories": "Restaurants, Mexican", "public_id": "el-toro-marietta", "id": 2912197, "votes": null, "tagline": null, "has_video": false, "website": null, "offers": null, "latitude": 33.979176, "politanName": "Atlanta, GA Metro ", "phone_number": "7709717318", "tags": [{"primary": false, "id": 11208, "name": "Mexican"}, {"primary": true, "id": 1722, "name": "Restaurants"}], "fax_number": null, "expansion": {"count": null, "uri": null}, "impression_id": "000b000000ca49aa542a95414aa92ef795dc6a509e", "profile": "http://www.citysearch.com/profile/2912197/marietta_ga/el_toro.html", "address": {"city": "Marietta", "state": "GA", "street": "1255 Johnson Ferry Rd Ste 34", "postal_code": "30068"}, "capProviderId": null, "distance": null, "has_offers": false, "name": "El Toro", "longitude": -84.423044, "has_menu": true, "awards": null, "user_review_count": 0}, {"business_operation_status": 1, "rating": null, "neighborhood": null, "image": null, "scorecard": null, "featured": false, "sample_categories": "Restaurants", "public_id": "ajr-inc-marietta", "id": 2912575, "votes": null, "tagline": null, "has_video": false, "website": null, "offers": null, "latitude": 33.978366, "politanName": "Atlanta, GA Metro ", "phone_number": "7705653753", "tags": [{"primary": true, "id": 1722, "name": "Restaurants"}], "fax_number": null, "expansion": {"count": null, "uri": null}, "impression_id": "000b000000891cef29bcf14539af944efe7b48def7", "profile": "http://www.citysearch.com/profile/2912575/marietta_ga/ajr_inc.html", "address": {"city": "Marietta", "state": "GA", "street": "1225 Johnson Ferry Rd", "postal_code": "30068"}, "capProviderId": null, "distance": null, "has_offers": false, "name": "Ajr Inc", "longitude": -84.421438, "has_menu": false, "awards": null, "user_review_count": 0}, {"business_operation_status": 1, "rating": null, "neighborhood": null, "image": null, "scorecard": null, "featured": false, "sample_categories": "Restaurants", "public_id": "drive-time-marrietta", "id": 831886880, "votes": null, "tagline": null, "has_video": false, "website": null, "offers": null, "latitude": 33.939976, "politanName": "Atlanta, GA Metro ", "phone_number": "7705773077", "tags": [{"primary": true, "id": 1722, "name": "Restaurants"}], "fax_number": null, "expansion": {"count": null, "uri": null}, "impression_id": "000b000000fd194eb994e24f8b98f327d9e580fe06", "profile": "http://www.citysearch.com/profile/831886880/marrietta_ga/drive_time.html", "address": {"city": "Marrietta", "state": "GA", "street": "502 S Cobb Parkway", "postal_code": "30060"}, "capProviderId": null, "distance": null, "has_offers": false, "name": "Drive Time", "longitude": -84.515396, "has_menu": false, "awards": null, "user_review_count": 0}, {"business_operation_status": 1, "rating": null, "neighborhood": null, "image": null, "scorecard": null, "featured": false, "sample_categories": "Restaurants", "public_id": "gyro-bros-kennesaw", "id": 836770140, "votes": null, "tagline": null, "has_video": false, "website": null, "offers": null, "latitude": 34.017369, "politanName": "Atlanta, GA Metro ", "phone_number": "7704238887", "tags": [{"primary": true, "id": 1722, "name": "Restaurants"}], "fax_number": null, "expansion": {"count": null, "uri": null}, "impression_id": "000b00000071581fd1cac84e449835c2e6bfefec28", "profile": "http://www.citysearch.com/profile/836770140/kennesaw_ga/gyro_bros.html", "address": {"city": "Kennesaw", "state": "GA", "street": "400 Ernest W Barrett Pkwy NW", "postal_code": "30144"}, "capProviderId": null, "distance": null, "has_offers": false, "name": "Gyro Bros", "longitude": -84.564255, "has_menu": false, "awards": null, "user_review_count": 0}, {"business_operation_status": 1, "rating": null, "neighborhood": null, "image": null, "scorecard": null, "featured": false, "sample_categories": "Ice Cream Parlors", "public_id": "little-blue-ice-cream-truck-marietta", "id": 793367130, "votes": null, "tagline": null, "has_video": false, "website": null, "offers": null, "latitude": 33.966843, "politanName": "Atlanta, GA Metro ", "phone_number": "7702897011", "tags": [{"primary": true, "id": 1730, "name": "Ice Cream Parlors"}], "fax_number": null, "expansion": {"count": null, "uri": null}, "impression_id": "000b000000afe5ee6bc59c4df8975677490cbfd8c7", "profile": "http://www.citysearch.com/profile/793367130/marietta_ga/little_blue_ice_cream_truck.html", "address": {"city": "Marietta", "state": "GA", "street": "737 Johnson Ferry Road", "postal_code": "30068"}, "capProviderId": null, "distance": null, "has_offers": false, "name": "Little Blue Ice Cream Truck", "longitude": -84.412484, "has_menu": false, "awards": null, "user_review_count": 0}, {"business_operation_status": 1, "rating": null, "neighborhood": null, "image": null, "scorecard": null, "featured": false, "sample_categories": "Restaurants", "public_id": "j-christophers-corporate-marietta", "id": 838483640, "votes": null, "tagline": null, "has_video": false, "website": null, "offers": null, "latitude": 33.921701, "politanName": "Atlanta, GA Metro ", "phone_number": "7707381170", "tags": [{"primary": true, "id": 1722, "name": "Restaurants"}], "fax_number": null, "expansion": {"count": null, "uri": null}, "impression_id": "000b0000002a8e7ffb84e6457bb1c1eeeb2aaf1b7f", "profile": "http://www.citysearch.com/profile/838483640/marietta_ga/j_christopher_s_corporate.html", "address": {"city": "Marietta", "state": "GA", "street": "1275 Powers Ferry Rd SE", "postal_code": "30067"}, "capProviderId": null, "distance": null, "has_offers": false, "name": "J Christopher's Corporate", "longitude": -84.466483, "has_menu": false, "awards": null, "user_review_count": 0}, {"business_operation_status": 1, "rating": null, "neighborhood": null, "image": null, "scorecard": null, "featured": false, "sample_categories": "Restaurants, Asian", "public_id": "sushi-mori-roswell", "id": 793293420, "votes": null, "tagline": null, "has_video": false, "website": null, "offers": null, "latitude": 34.073107, "politanName": "Atlanta, GA Metro ", "phone_number": "7706433884", "tags": [{"primary": false, "id": 11235, "name": "Asian"}, {"primary": true, "id": 1722, "name": "Restaurants"}], "fax_number": null, "expansion": {"count": null, "uri": null}, "impression_id": "000b00000061578138af534c33a5ce33810c38e76e", "profile": "http://www.citysearch.com/profile/793293420/roswell_ga/sushi_mori.html", "address": {"city": "Roswell", "state": "GA", "street": "12040 Etris Rd", "postal_code": "30075"}, "capProviderId": null, "distance": null, "has_offers": false, "name": "Sushi Mori", "longitude": -84.362585, "has_menu": false, "awards": null, "user_review_count": 0}, {"business_operation_status": 1, "rating": null, "neighborhood": null, "image": null, "scorecard": null, "featured": false, "sample_categories": "Restaurants", "public_id": "taquito-expressarnold-mill-alpharetta", "id": 839477420, "votes": null, "tagline": null, "has_video": false, "website": null, "offers": null, "latitude": 34.082713, "politanName": "Atlanta, GA Metro ", "phone_number": "6782060868", "tags": [{"primary": true, "id": 1722, "name": "Restaurants"}], "fax_number": null, "expansion": {"count": null, "uri": null}, "impression_id": "000b000000a55d1022cd464a9c83978c70a4f9510d", "profile": "http://www.citysearch.com/profile/839477420/alpharetta_ga/taquito_express_arnold_mill.html", "address": {"city": "Alpharetta", "state": "GA", "street": "12335 Arnold Mill Rd", "postal_code": "30004"}, "capProviderId": null, "distance": null, "has_offers": false, "name": "Taquito Express-Arnold Mill", "longitude": -84.357709, "has_menu": false, "awards": null, "user_review_count": 0}, {"business_operation_status": 1, "rating": null, "neighborhood": null, "image": null, "scorecard": null, "featured": false, "sample_categories": "Restaurants, Pizza, Carry Out", "public_id": "little-caesars-pizza-marietta-2", "id": 653582070, "votes": null, "tagline": null, "has_video": false, "website": "http://www.citysearch.com/profile/external/653582070/marietta_ga/little_caesars_pizza.html", "offers": null, "latitude": 33.952972, "politanName": "Atlanta, GA Metro ", "phone_number": "6784014181", "tags": [{"primary": false, "id": 1722, "name": "Restaurants"}, {"primary": false, "id": 11247, "name": "Carry Out"}, {"primary": true, "id": 11299, "name": "Pizza"}], "fax_number": null, "expansion": {"count": null, "uri": null}, "impression_id": "000b00000041cc6bac948e4c259b72125b082aa4de", "profile": "http://www.citysearch.com/profile/653582070/marietta_ga/little_caesars_pizza.html", "address": {"city": "Marietta", "state": "GA", "street": "3405 Dallas Hwy Sw", "postal_code": "30064"}, "capProviderId": null, "distance": null, "has_offers": false, "name": "Little Caesars Pizza", "longitude": -84.651096, "has_menu": false, "awards": null, "user_review_count": 0}, {"business_operation_status": 1, "rating": null, "neighborhood": null, "image": null, "scorecard": null, "featured": false, "sample_categories": "Coffeehouses, Restaurants", "public_id": "starbucks-coffee-roswell", "id": 43851270, "votes": null, "tagline": null, "has_video": false, "website": "http://www.citysearch.com/profile/external/43851270/roswell_ga/starbucks_coffee.html", "offers": null, "latitude": 34.062472, "politanName": "Atlanta, GA Metro ", "phone_number": "7706650144", "tags": [{"primary": false, "id": 1722, "name": "Restaurants"}, {"primary": true, "id": 1726, "name": "Coffeehouses"}], "fax_number": null, "expansion": {"count": null, "uri": null}, "impression_id": "000b000000fd4b874e6d2b404cbabeda864fb35374", "profile": "http://www.citysearch.com/profile/43851270/roswell_ga/starbucks_coffee.html", "address": {"city": "Roswell", "state": "GA", "street": "1135 Woodstock Rd", "postal_code": "30075"}, "capProviderId": null, "distance": null, "has_offers": false, "name": "Starbucks Coffee", "longitude": -84.396255, "has_menu": true, "awards": null, "user_review_count": 0}, {"business_operation_status": 1, "rating": null, "neighborhood": null, "image": null, "scorecard": null, "featured": false, "sample_categories": "Restaurants", "public_id": "haas-restaurant-marietta", "id": 655817570, "votes": null, "tagline": null, "has_video": false, "website": null, "offers": null, "latitude": 33.965353, "politanName": "Atlanta, GA Metro ", "phone_number": "7706357662", "tags": [{"primary": true, "id": 1722, "name": "Restaurants"}], "fax_number": null, "expansion": {"count": null, "uri": null}, "impression_id": "000b000000c0e935c426014b27ad4a208575cac5fc", "profile": "http://www.citysearch.com/profile/655817570/marietta_ga/haas_restaurant.html", "address": {"city": "Marietta", "state": "GA", "street": "4665 Lower Roswell Rd", "postal_code": "30068"}, "capProviderId": null, "distance": null, "has_offers": false, "name": "Haas Restaurant", "longitude": -84.415616, "has_menu": false, "awards": null, "user_review_count": 0}, {"business_operation_status": 1, "rating": null, "neighborhood": null, "image": null, "scorecard": null, "featured": false, "sample_categories": "Restaurants", "public_id": "silver-lodestone-inc-marietta-2", "id": 682289320, "votes": null, "tagline": null, "has_video": false, "website": null, "offers": null, "latitude": 33.938198, "politanName": "Atlanta, GA Metro ", "phone_number": "7705907778", "tags": [{"primary": true, "id": 1722, "name": "Restaurants"}], "fax_number": null, "expansion": {"count": null, "uri": null}, "impression_id": "000b000000922fb3789e3249fbb4f3a6b46e3c91f8", "profile": "http://www.citysearch.com/profile/682289320/marietta_ga/silver_lodestone_inc.html", "address": {"city": "Marietta", "state": "GA", "street": "10 Garrison Rd Se", "postal_code": "30008"}, "capProviderId": null, "distance": null, "has_offers": false, "name": "Silver Lodestone INC", "longitude": -84.553364, "has_menu": false, "awards": null, "user_review_count": 0}, {"business_operation_status": 1, "rating": null, "neighborhood": null, "image": null, "scorecard": null, "featured": false, "sample_categories": "Restaurants, Barbecue Restaurants", "public_id": "city-wings-marietta", "id": 45550254, "votes": null, "tagline": null, "has_video": false, "website": null, "offers": null, "latitude": 34.03261, "politanName": "Atlanta, GA Metro ", "phone_number": "6783543412", "tags": [{"primary": false, "id": 1724, "name": "Barbecue Restaurants"}, {"primary": true, "id": 1722, "name": "Restaurants"}], "fax_number": null, "expansion": {"count": null, "uri": null}, "impression_id": "000b00000066d0380e21c3475fabaf026c72a0bef3", "profile": "http://www.citysearch.com/profile/45550254/marietta_ga/city_wings.html", "address": {"city": "Marietta", "state": "GA", "street": "3349 Canton Rd Ste 8", "postal_code": "30066"}, "capProviderId": null, "distance": null, "has_offers": false, "name": "City Wings", "longitude": -84.528907, "has_menu": true, "awards": null, "user_review_count": 0}, {"business_operation_status": 1, "rating": 10.0, "neighborhood": null, "image": null, "scorecard": null, "featured": false, "sample_categories": "Restaurants", "public_id": "stilesboro-biscuits-kennesaw", "id": 45561009, "votes": null, "tagline": null, "has_video": false, "website": null, "offers": null, "latitude": 33.997874, "politanName": "Atlanta, GA Metro ", "phone_number": "7704295552", "tags": [{"primary": true, "id": 1722, "name": "Restaurants"}], "fax_number": null, "expansion": {"count": null, "uri": null}, "impression_id": "000b00000077b7190f4f3d433499680888b8171e5a", "profile": "http://www.citysearch.com/profile/45561009/kennesaw_ga/stilesboro_biscuits.html", "address": {"city": "Kennesaw", "state": "GA", "street": "3545 Stilesboro Rd NW", "postal_code": "30152"}, "capProviderId": null, "distance": null, "has_offers": false, "name": "Stilesboro Biscuits", "longitude": -84.655238, "has_menu": false, "awards": null, "user_review_count": 3}, {"business_operation_status": 1, "rating": null, "neighborhood": null, "image": null, "scorecard": null, "featured": false, "sample_categories": "Restaurants", "public_id": "brazil-restaurant-atlanta", "id": 46007894, "votes": null, "tagline": null, "has_video": false, "website": null, "offers": null, "latitude": 33.988814, "politanName": "Atlanta, GA Metro ", "phone_number": "6782055205", "tags": [{"primary": true, "id": 1722, "name": "Restaurants"}], "fax_number": null, "expansion": {"count": null, "uri": null}, "impression_id": "000b000000bbf7e017d02140f08ae6be6b02dd2c3b", "profile": "http://www.citysearch.com/profile/46007894/atlanta_ga/brazil_restaurant.html", "address": {"city": "Atlanta", "state": "GA", "street": "8599 Roswell Rd", "postal_code": "30350"}, "capProviderId": null, "distance": null, "has_offers": false, "name": "Brazil Restaurant", "longitude": -84.351452, "has_menu": false, "awards": null, "user_review_count": 0}, {"business_operation_status": 1, "rating": null, "neighborhood": null, "image": null, "scorecard": null, "featured": false, "sample_categories": "Restaurants", "public_id": "big-joy-marietta", "id": 772195860, "votes": null, "tagline": null, "has_video": false, "website": "http://www.citysearch.com/profile/external/772195860/marietta_ga/big_joy.html", "offers": null, "latitude": 33.923982, "politanName": "Atlanta, GA Metro ", "phone_number": "7706931907", "tags": [{"primary": true, "id": 1722, "name": "Restaurants"}], "fax_number": null, "expansion": {"count": null, "uri": null}, "impression_id": "000b0000008b4d9bef058142c9bfe41735a4fb5bff", "profile": "http://www.citysearch.com/profile/772195860/marietta_ga/big_joy.html", "address": {"city": "Marietta", "state": "GA", "street": "2852 Delk Rd SE", "postal_code": "30067"}, "capProviderId": null, "distance": null, "has_offers": false, "name": "Big Joy", "longitude": -84.47056, "has_menu": false, "awards": null, "user_review_count": 0}, {"business_operation_status": 0, "rating": null, "neighborhood": null, "image": null, "scorecard": null, "featured": false, "sample_categories": "Restaurants, Carry Out", "public_id": "checkers-drivein-restaurant-marietta-4", "id": 728005600, "votes": null, "tagline": null, "has_video": false, "website": "http://www.citysearch.com/profile/external/728005600/marietta_ga/checkers_drive_in_restaurant.html", "offers": null, "latitude": 33.920788, "politanName": "Atlanta, GA Metro ", "phone_number": "7709527121", "tags": [{"primary": false, "id": 11247, "name": "Carry Out"}, {"primary": true, "id": 1722, "name": "Restaurants"}], "fax_number": null, "expansion": {"count": null, "uri": null}, "impression_id": "000b000000d890687a09084db89a833d5fd6f2bbf3", "profile": "http://www.citysearch.com/profile/728005600/marietta_ga/checkers_drive_in_restaurant.html", "address": {"city": "Marietta", "state": "GA", "street": "1280 Powers Ferry Rd Se", "postal_code": "30067"}, "capProviderId": null, "distance": null, "has_offers": false, "name": "Checkers Drive-In Restaurant", "longitude": -84.467507, "has_menu": false, "awards": null, "user_review_count": 0}, {"business_operation_status": 1, "rating": null, "neighborhood": null, "image": null, "scorecard": null, "featured": false, "sample_categories": "Restaurants", "public_id": "moxie-burger-roswell", "id": 839995050, "votes": null, "tagline": null, "has_video": false, "website": null, "offers": null, "latitude": 34.013259, "politanName": "Atlanta, GA Metro ", "phone_number": "6788784411", "tags": [{"primary": true, "id": 1722, "name": "Restaurants"}], "fax_number": null, "expansion": {"count": null, "uri": null}, "impression_id": "000b0000006f9d647e3d0e4a2fb9a2b180157a202f", "profile": "http://www.citysearch.com/profile/839995050/roswell_ga/moxie_burger.html", "address": {"city": "Roswell", "state": "GA", "street": "555 S Atlanta St", "postal_code": "30075"}, "capProviderId": null, "distance": null, "has_offers": false, "name": "Moxie Burger", "longitude": -84.362854, "has_menu": false, "awards": null, "user_review_count": 0}, {"business_operation_status": 1, "rating": null, "neighborhood": null, "image": null, "scorecard": null, "featured": false, "sample_categories": "Bakeries, Restaurants", "public_id": "lapepite-france-bakery-marietta", "id": 793328380, "votes": null, "tagline": null, "has_video": false, "website": null, "offers": null, "latitude": 33.978482, "politanName": "Atlanta, GA Metro ", "phone_number": "7707904140", "tags": [{"primary": false, "id": 1722, "name": "Restaurants"}, {"primary": true, "id": 1685, "name": "Bakeries"}], "fax_number": null, "expansion": {"count": null, "uri": null}, "impression_id": "000b0000008dab6b2a46fb4fa390526d7e97a592a4", "profile": "http://www.citysearch.com/profile/793328380/marietta_ga/lapepite_france_bakery.html", "address": {"city": "Marietta", "state": "GA", "street": "1070 Atlanta Industrial Dr", "postal_code": "30066"}, "capProviderId": null, "distance": null, "has_offers": false, "name": "Lapepite France Bakery", "longitude": -84.532674, "has_menu": false, "awards": null, "user_review_count": 0}, {"business_operation_status": 1, "rating": null, "neighborhood": null, "image": null, "scorecard": null, "featured": false, "sample_categories": "Restaurants", "public_id": "thg-holdings-atlanta", "id": 813270480, "votes": null, "tagline": null, "has_video": false, "website": null, "offers": null, "latitude": 33.908822, "politanName": "Atlanta, GA Metro ", "phone_number": "7709538334", "tags": [{"primary": true, "id": 1722, "name": "Restaurants"}], "fax_number": null, "expansion": {"count": null, "uri": null}, "impression_id": "000b000000addd77e7402f4a9598d8a23052469759", "profile": "http://www.citysearch.com/profile/813270480/atlanta_ga/thg_holdings.html", "address": {"city": "Atlanta", "state": "GA", "street": "1770 The Exchange SE # 220", "postal_code": "30339"}, "capProviderId": null, "distance": null, "has_offers": false, "name": "THG Holdings", "longitude": -84.480468, "has_menu": false, "awards": null, "user_review_count": 0}, {"business_operation_status": 1, "rating": null, "neighborhood": null, "image": null, "scorecard": null, "featured": false, "sample_categories": "Restaurants, Bars & Clubs", "public_id": "tiburon-bar-grill-roswell", "id": 816668420, "votes": null, "tagline": null, "has_video": false, "website": null, "offers": null, "latitude": 34.06146, "politanName": "Atlanta, GA Metro ", "phone_number": "7706456564", "tags": [{"primary": false, "id": 164, "name": "Bars & Clubs"}, {"primary": true, "id": 1722, "name": "Restaurants"}], "fax_number": null, "expansion": {"count": null, "uri": null}, "impression_id": "000b000000b94530386b424ceeb7b48843d2d056e1", "profile": "http://www.citysearch.com/profile/816668420/roswell_ga/tiburon_bar_grill.html", "address": {"city": "Roswell", "state": "GA", "street": "4651 Woodstock Rd", "postal_code": "30075"}, "capProviderId": null, "distance": null, "has_offers": false, "name": "Tiburon Bar & Grill", "longitude": -84.421723, "has_menu": false, "awards": null, "user_review_count": 0}, {"business_operation_status": 1, "rating": null, "neighborhood": null, "image": null, "scorecard": null, "featured": false, "sample_categories": "Restaurants, Carry Out", "public_id": "churchs-chicken-atlanta-31", "id": 764836400, "votes": null, "tagline": null, "has_video": false, "website": null, "offers": null, "latitude": 33.94293, "politanName": "Atlanta, GA Metro ", "phone_number": "4045034575", "tags": [{"primary": false, "id": 11247, "name": "Carry Out"}, {"primary": true, "id": 1722, "name": "Restaurants"}], "fax_number": null, "expansion": {"count": null, "uri": null}, "impression_id": "000b000000cc10f292425442bfb1ee1496d781b336", "profile": "http://www.citysearch.com/profile/764836400/atlanta_ga/church_s_chicken.html", "address": {"city": "Atlanta", "state": "GA", "street": "100 Marsh Glen Pt NW", "postal_code": "30328"}, "capProviderId": null, "distance": null, "has_offers": false, "name": "Church's Chicken", "longitude": -84.397399, "has_menu": false, "awards": null, "user_review_count": 0}, {"business_operation_status": 1, "rating": null, "neighborhood": null, "image": null, "scorecard": null, "featured": false, "sample_categories": "Grocery Stores, Food Stores, Restaurants", "public_id": "la-pasapita-sandy", "id": 764860520, "votes": null, "tagline": null, "has_video": false, "website": null, "offers": null, "latitude": 33.982083, "politanName": "Atlanta, GA Metro ", "phone_number": "7706499475", "tags": [{"primary": false, "id": 1706, "name": "Food Stores"}, {"primary": false, "id": 1722, "name": "Restaurants"}, {"primary": true, "id": 1713, "name": "Grocery Stores"}], "fax_number": null, "expansion": {"count": null, "uri": null}, "impression_id": "000b0000006c0a705c4c0049599b44c70be8648ff6", "profile": "http://www.citysearch.com/profile/764860520/sandy_springs_ga/la_pasapita.html", "address": {"city": "Sandy Springs", "state": "GA", "street": "350 Northridge Rd", "postal_code": "30350"}, "capProviderId": null, "distance": null, "has_offers": false, "name": "La Pasapita", "longitude": -84.347861, "has_menu": false, "awards": null, "user_review_count": 0}, {"business_operation_status": 1, "rating": null, "neighborhood": null, "image": null, "scorecard": null, "featured": false, "sample_categories": "Restaurants", "public_id": "cafe-210-smyrna", "id": 821687430, "votes": null, "tagline": null, "has_video": false, "website": null, "offers": null, "latitude": 33.89467, "politanName": "Atlanta, GA Metro ", "phone_number": "7704380077", "tags": [{"primary": true, "id": 1722, "name": "Restaurants"}], "fax_number": null, "expansion": {"count": null, "uri": null}, "impression_id": "000b0000000888ae8889e4419bbb24a619a3505e73", "profile": "http://www.citysearch.com/profile/821687430/smyrna_ga/cafe_210.html", "address": {"city": "Smyrna", "state": "GA", "street": "2233 Lake Park Dr SE", "postal_code": "30080"}, "capProviderId": null, "distance": null, "has_offers": false, "name": "Cafe 210", "longitude": -84.484401, "has_menu": false, "awards": null, "user_review_count": 0}, {"business_operation_status": 1, "rating": null, "neighborhood": null, "image": null, "scorecard": null, "featured": false, "sample_categories": "Restaurants, Carry Out", "public_id": "charleys-grilled-subs-kennesaw", "id": 822392670, "votes": null, "tagline": null, "has_video": false, "website": null, "offers": null, "latitude": 34.017369, "politanName": "Atlanta, GA Metro ", "phone_number": "7702188285", "tags": [{"primary": false, "id": 11247, "name": "Carry Out"}, {"primary": true, "id": 1722, "name": "Restaurants"}], "fax_number": null, "expansion": {"count": null, "uri": null}, "impression_id": "000b000000d29e396ccfb743d7ad6d997d726254db", "profile": "http://www.citysearch.com/profile/822392670/kennesaw_ga/charley_s_grilled_subs.html", "address": {"city": "Kennesaw", "state": "GA", "street": "400 Ernest W Barrett Pkwy NW", "postal_code": "30144"}, "capProviderId": null, "distance": null, "has_offers": false, "name": "Charley's Grilled Subs", "longitude": -84.564255, "has_menu": true, "awards": null, "user_review_count": 0}, {"business_operation_status": 1, "rating": null, "neighborhood": null, "image": null, "scorecard": null, "featured": false, "sample_categories": "Restaurants, Fast Food, Carry Out, Chicken", "public_id": "churchs-chicken-atlanta-2", "id": 46007893, "votes": null, "tagline": null, "has_video": false, "website": "http://www.citysearch.com/profile/external/46007893/atlanta_ga/church_s_chicken.html", "offers": null, "latitude": 33.99151, "politanName": "Atlanta, GA Metro ", "phone_number": "6784611362", "tags": [{"primary": false, "id": 11199, "name": "Fast Food"}, {"primary": false, "id": 11247, "name": "Carry Out"}, {"primary": false, "id": 12839, "name": "Chicken"}, {"primary": true, "id": 1722, "name": "Restaurants"}], "fax_number": null, "expansion": {"count": null, "uri": null}, "impression_id": "000b000000e636a1a1d50040b2864701533c82730b", "profile": "http://www.citysearch.com/profile/46007893/atlanta_ga/church_s_chicken.html", "address": {"city": "Atlanta", "state": "GA", "street": "8601 Dunwoody Pl", "postal_code": "30350"}, "capProviderId": null, "distance": null, "has_offers": false, "name": "Church's Chicken", "longitude": -84.342154, "has_menu": true, "awards": null, "user_review_count": 0}, {"business_operation_status": 1, "rating": null, "neighborhood": null, "image": null, "scorecard": null, "featured": false, "sample_categories": "Restaurants", "public_id": "bugaboo-creek-holdings-inc-atlanta", "id": 829015800, "votes": null, "tagline": null, "has_video": false, "website": null, "offers": null, "latitude": 33.978957, "politanName": "Atlanta, GA Metro ", "phone_number": "7703999595", "tags": [{"primary": true, "id": 1722, "name": "Restaurants"}], "fax_number": null, "expansion": {"count": null, "uri": null}, "impression_id": "000b0000009814349478ae4c1e9fcf95f39dc01af1", "profile": "http://www.citysearch.com/profile/829015800/atlanta_ga/bugaboo_creek_holdings_inc.html", "address": {"city": "Atlanta", "state": "GA", "street": "8215 Roswell Rd # 600", "postal_code": "30350"}, "capProviderId": null, "distance": null, "has_offers": false, "name": "Bugaboo Creek Holdings Inc", "longitude": -84.349063, "has_menu": false, "awards": null, "user_review_count": 0}, {"business_operation_status": 1, "rating": null, "neighborhood": null, "image": null, "scorecard": null, "featured": false, "sample_categories": "Restaurants, Japanese, Thai", "public_id": "chandara-thai-sushi-roswell", "id": 601300715, "votes": null, "tagline": null, "has_video": false, "website": null, "offers": null, "latitude": 34.065697, "politanName": "Atlanta, GA Metro ", "phone_number": "7706506938", "tags": [{"primary": false, "id": 11202, "name": "Japanese"}, {"primary": false, "id": 11319, "name": "Thai"}, {"primary": true, "id": 1722, "name": "Restaurants"}], "fax_number": null, "expansion": {"count": null, "uri": null}, "impression_id": "000b000000e91692eec3234c2193a876921630d693", "profile": "http://www.citysearch.com/profile/601300715/roswell_ga/chandara_thai_sushi.html", "address": {"city": "Roswell", "state": "GA", "street": "4750 Alabama Rd Ne", "postal_code": "30075"}, "capProviderId": null, "distance": null, "has_offers": false, "name": "Chandara Thai Sushi", "longitude": -84.422792, "has_menu": false, "awards": null, "user_review_count": 0}, {"business_operation_status": 1, "rating": null, "neighborhood": null, "image": null, "scorecard": null, "featured": false, "sample_categories": "Restaurants", "public_id": "atlanta-halftime-cafe-marietta", "id": 838782380, "votes": null, "tagline": null, "has_video": false, "website": null, "offers": null, "latitude": 33.900651, "politanName": "Atlanta, GA Metro ", "phone_number": "7708500868", "tags": [{"primary": true, "id": 1722, "name": "Restaurants"}], "fax_number": null, "expansion": {"count": null, "uri": null}, "impression_id": "000b00000030c5c249eb23460dabd66cc60fa541e6", "profile": "http://www.citysearch.com/profile/838782380/marietta_ga/atlanta_halftime_cafe.html", "address": {"city": "Marietta", "state": "GA", "street": "2580 Windy Hill Rd SE", "postal_code": "30067"}, "capProviderId": null, "distance": null, "has_offers": false, "name": "Atlanta Halftime Cafe", "longitude": -84.477783, "has_menu": false, "awards": null, "user_review_count": 0}, {"business_operation_status": 1, "rating": null, "neighborhood": null, "image": null, "scorecard": null, "featured": false, "sample_categories": "Ice Cream Parlors, Shop Online", "public_id": "cold-stone-creamery-marietta-3", "id": 793255740, "votes": null, "tagline": null, "has_video": false, "website": "http://www.citysearch.com/profile/external/793255740/marietta_ga/cold_stone_creamery.html", "offers": null, "latitude": 33.988744, "politanName": "Atlanta, GA Metro ", "phone_number": "4045836303", "tags": [{"primary": false, "id": 11375, "name": "Shop Online"}, {"primary": true, "id": 1730, "name": "Ice Cream Parlors"}], "fax_number": null, "expansion": {"count": null, "uri": null}, "impression_id": "000b00000008f9c6d519ca4a87a46ca03dc8d27fff", "profile": "http://www.citysearch.com/profile/793255740/marietta_ga/cold_stone_creamery.html", "address": {"city": "Marietta", "state": "GA", "street": "1573 Asheforde Dr", "postal_code": "30068"}, "capProviderId": null, "distance": null, "has_offers": false, "name": "Cold Stone Creamery", "longitude": -84.386785, "has_menu": true, "awards": null, "user_review_count": 0}, {"business_operation_status": 1, "rating": null, "neighborhood": null, "image": null, "scorecard": null, "featured": false, "sample_categories": "Restaurants", "public_id": "dogfathers-marietta", "id": 793344660, "votes": null, "tagline": null, "has_video": false, "website": null, "offers": null, "latitude": 34.017341, "politanName": "Atlanta, GA Metro ", "phone_number": "6783543223", "tags": [{"primary": true, "id": 1722, "name": "Restaurants"}], "fax_number": null, "expansion": {"count": null, "uri": null}, "impression_id": "000b0000003e2b21d7b4264f21818bc4bdb036c7c4", "profile": "http://www.citysearch.com/profile/793344660/marietta_ga/dogfathers.html", "address": {"city": "Marietta", "state": "GA", "street": "2769 Chastain Meadows Pkwy", "postal_code": "30066"}, "capProviderId": null, "distance": null, "has_offers": false, "name": "Dogfathers", "longitude": -84.555709, "has_menu": false, "awards": null, "user_review_count": 0}, {"business_operation_status": 1, "rating": null, "neighborhood": null, "image": null, "scorecard": null, "featured": false, "sample_categories": "Restaurants, Mexican", "public_id": "lunas-taqueria-marietta", "id": 793347450, "votes": null, "tagline": null, "has_video": false, "website": null, "offers": null, "latitude": 33.905061, "politanName": "Atlanta, GA Metro ", "phone_number": "6785569766", "tags": [{"primary": false, "id": 11208, "name": "Mexican"}, {"primary": true, "id": 1722, "name": "Restaurants"}], "fax_number": null, "expansion": {"count": null, "uri": null}, "impression_id": "000b000000ab017e0ba3f84038af6ea848b7917606", "profile": "http://www.citysearch.com/profile/793347450/marietta_ga/luna_s_taqueria.html", "address": {"city": "Marietta", "state": "GA", "street": "1977 S Cobb Dr Se", "postal_code": "30060"}, "capProviderId": null, "distance": null, "has_offers": false, "name": "Luna's Taqueria", "longitude": -84.542525, "has_menu": false, "awards": null, "user_review_count": 0}, {"business_operation_status": 1, "rating": null, "neighborhood": null, "image": null, "scorecard": null, "featured": false, "sample_categories": "Restaurants", "public_id": "hollie-guacamole-marietta", "id": 806226200, "votes": null, "tagline": null, "has_video": false, "website": null, "offers": null, "latitude": 33.952258, "politanName": "Atlanta, GA Metro ", "phone_number": "6782732403", "tags": [{"primary": true, "id": 1722, "name": "Restaurants"}], "fax_number": null, "expansion": {"count": null, "uri": null}, "impression_id": "000b0000007d6f6970d3774d7c808945cb1700961a", "profile": "http://www.citysearch.com/profile/806226200/marietta_ga/hollie_guacamole_.html", "address": {"city": "Marietta", "state": "GA", "street": "154 Roswell St SE", "postal_code": "30060"}, "capProviderId": null, "distance": null, "has_offers": false, "name": "Hollie Guacamole!", "longitude": -84.54874, "has_menu": false, "awards": null, "user_review_count": 0}, {"business_operation_status": 1, "rating": null, "neighborhood": null, "image": null, "scorecard": null, "featured": false, "sample_categories": "Restaurants", "public_id": "whistle-stop-cafe-kennesaw", "id": 611247574, "votes": null, "tagline": null, "has_video": false, "website": null, "offers": null, "latitude": 33.999345, "politanName": "Atlanta, GA Metro ", "phone_number": "7707940100", "tags": [{"primary": true, "id": 1722, "name": "Restaurants"}], "fax_number": null, "expansion": {"count": null, "uri": null}, "impression_id": "000b0000003ffeecd47fee4b05b1ef622af4dd8d6b", "profile": "http://www.citysearch.com/profile/611247574/kennesaw_ga/whistle_stop_cafe.html", "address": {"city": "Kennesaw", "state": "GA", "street": "1200 Ernest W Barrett Pkwy NW # Ste 144", "postal_code": "30144"}, "capProviderId": null, "distance": null, "has_offers": false, "name": "Whistle Stop Cafe", "longitude": -84.586888, "has_menu": false, "awards": null, "user_review_count": 0}, {"business_operation_status": 1, "rating": null, "neighborhood": null, "image": null, "scorecard": null, "featured": false, "sample_categories": "Restaurants, Carry Out", "public_id": "firehouse-subs-roswell-2", "id": 611387524, "votes": null, "tagline": null, "has_video": false, "website": null, "offers": null, "latitude": 34.062762, "politanName": "Atlanta, GA Metro ", "phone_number": "4702993918", "tags": [{"primary": false, "id": 11247, "name": "Carry Out"}, {"primary": true, "id": 1722, "name": "Restaurants"}], "fax_number": null, "expansion": {"count": null, "uri": null}, "impression_id": "000b000000ad3555c90f04462dbe015215f3d2c6a3", "profile": "http://www.citysearch.com/profile/611387524/roswell_ga/firehouse_subs.html", "address": {"city": "Roswell", "state": "GA", "street": "4648 Woodstock Rd", "postal_code": "30075"}, "capProviderId": null, "distance": null, "has_offers": false, "name": "Firehouse Subs", "longitude": -84.42056, "has_menu": false, "awards": null, "user_review_count": 0}, {"business_operation_status": 1, "rating": null, "neighborhood": null, "image": null, "scorecard": null, "featured": false, "sample_categories": "Restaurants, Barbecue Restaurants", "public_id": "longhorns-wings-marietta", "id": 653586150, "votes": null, "tagline": null, "has_video": false, "website": null, "offers": null, "latitude": 34.068476, "politanName": "Atlanta, GA Metro ", "phone_number": "6784944424", "tags": [{"primary": false, "id": 1724, "name": "Barbecue Restaurants"}, {"primary": true, "id": 1722, "name": "Restaurants"}], "fax_number": null, "expansion": {"count": null, "uri": null}, "impression_id": "000b000000919950ff82144375ab152e3f401872a3", "profile": "http://www.citysearch.com/profile/653586150/marietta_ga/longhorn_s_wings.html", "address": {"city": "Marietta", "state": "GA", "street": "4796 Canton Rd", "postal_code": "30066"}, "capProviderId": null, "distance": null, "has_offers": false, "name": "Longhorn's Wings", "longitude": -84.520809, "has_menu": false, "awards": null, "user_review_count": 0}, {"business_operation_status": 1, "rating": null, "neighborhood": null, "image": null, "scorecard": null, "featured": false, "sample_categories": "Restaurants", "public_id": "mythos-pizzeria-marietta", "id": 627338904, "votes": null, "tagline": null, "has_video": false, "website": null, "offers": null, "latitude": 33.953414, "politanName": "Atlanta, GA Metro ", "phone_number": "7704255100", "tags": [{"primary": true, "id": 1722, "name": "Restaurants"}], "fax_number": null, "expansion": {"count": null, "uri": null}, "impression_id": "000b000000145e64b6af6a4faaa14896d44108d0a1", "profile": "http://www.citysearch.com/profile/627338904/marietta_ga/mythos_pizzeria.html", "address": {"city": "Marietta", "state": "GA", "street": "1000 Whitlock Ave NW", "postal_code": "30064"}, "capProviderId": null, "distance": null, "has_offers": false, "name": "Mythos Pizzeria", "longitude": -84.581304, "has_menu": false, "awards": null, "user_review_count": 0}, {"business_operation_status": 1, "rating": null, "neighborhood": null, "image": null, "scorecard": null, "featured": false, "sample_categories": "Restaurants", "public_id": "suniece-cafe-marietta", "id": 655897070, "votes": null, "tagline": null, "has_video": false, "website": null, "offers": null, "latitude": 33.972386, "politanName": "Atlanta, GA Metro ", "phone_number": "7704272005", "tags": [{"primary": true, "id": 1722, "name": "Restaurants"}], "fax_number": null, "expansion": {"count": null, "uri": null}, "impression_id": "000b000000693de9cd5e604e17b24c4ddd6a7b5e22", "profile": "http://www.citysearch.com/profile/655897070/marietta_ga/suniece_cafe.html", "address": {"city": "Marietta", "state": "GA", "street": "833 Campbell Hill St Nw", "postal_code": "30060"}, "capProviderId": null, "distance": null, "has_offers": false, "name": "Suniece Cafe", "longitude": -84.552023, "has_menu": false, "awards": null, "user_review_count": 0}], "histograms": [], "tag_ids": [1722], "uri": "http://api.citygridmedia.com:8080/search/places/v2/search/where?has_offers=false&type=restaurant&format=json&page=26&where=30062&rpp=50&histograms=false&publisher=10000009598&region_type=circle", "did_you_mean": "", "regions": [{"latitude": 34.001368, "default_radius": 5.22, "type": "postal_code", "name": "30062", "longitude": -84.466397}], "call_id": "000b0000009af6b3fa1eea4125b8b516fd5f47226c", "first_hit": 1251, "total_hits": 2160, "geo_ids": [26292], "page": 26, "last_hit": 1300}}