{"results": {"rpp": 50, "locations": [{"business_operation_status": 1, "rating": null, "neighborhood": null, "image": null, "scorecard": null, "featured": false, "sample_categories": "Restaurants", "public_id": "1848-house-marietta", "id": 816308800, "votes": null, "tagline": null, "has_video": false, "website": null, "offers": null, "latitude": 33.934909, "politanName": "Atlanta, GA Metro ", "phone_number": "7704281848", "tags": [{"primary": true, "id": 1722, "name": "Restaurants"}], "fax_number": null, "expansion": {"count": null, "uri": null}, "impression_id": "000b000000cf60cb1b169f4f3093fbc5c4b2d1beac", "profile": "http://www.citysearch.com/profile/816308800/marietta_ga/1848_house.html", "address": {"city": "Marietta", "state": "GA", "street": "780 S Cobb Dr SE", "postal_code": "30060"}, "capProviderId": null, "distance": null, "has_offers": false, "name": "1848 House", "longitude": -84.547956, "has_menu": false, "awards": null, "user_review_count": 1}, {"business_operation_status": 1, "rating": null, "neighborhood": null, "image": null, "scorecard": null, "featured": false, "sample_categories": "Restaurants, American Express, Discover, MasterCard, Visa", "public_id": "chilitos-kennesaw-2", "id": 605578100, "votes": null, "tagline": null, "has_video": false, "website": null, "offers": null, "latitude": 34.035364, "politanName": "Atlanta, GA Metro ", "phone_number": "6783546660", "tags": [{"primary": false, "id": 11333, "name": "American Express"}, {"primary": false, "id": 11349, "name": "Discover"}, {"primary": false, "id": 11361, "name": "MasterCard"}, {"primary": false, "id": 11382, "name": "Visa"}, {"primary": true, "id": 1722, "name": "Restaurants"}], "fax_number": null, "expansion": {"count": null, "uri": null}, "impression_id": "000b000000b95e1925e45e460e8cf4106c416a0d0f", "profile": "http://www.citysearch.com/profile/605578100/kennesaw_ga/chilitos.html", "address": {"city": "Kennesaw", "state": "GA", "street": "745 Chastain Rd Nw # 2020", "postal_code": "30144"}, "capProviderId": null, "distance": null, "has_offers": false, "name": "Chilitos", "longitude": -84.570141, "has_menu": true, "awards": null, "user_review_count": 0}, {"business_operation_status": 1, "rating": null, "neighborhood": null, "image": null, "scorecard": null, "featured": false, "sample_categories": "Restaurants", "public_id": "fade-fine-dining-marietta", "id": 610801124, "votes": null, "tagline": null, "has_video": false, "website": null, "offers": null, "latitude": 33.868607, "politanName": "Atlanta, GA Metro ", "phone_number": "7704310505", "tags": [{"primary": true, "id": 1722, "name": "Restaurants"}], "fax_number": null, "expansion": {"count": null, "uri": null}, "impression_id": "000b000000d064f8ed25424e6c860c4b6c45b93006", "profile": "http://www.citysearch.com/profile/610801124/marietta_ga/fade_fine_dining.html", "address": {"city": "Marietta", "state": "GA", "street": "3505 Austell Rd SW", "postal_code": "30008"}, "capProviderId": null, "distance": null, "has_offers": false, "name": "Fade Fine Dining", "longitude": -84.591958, "has_menu": false, "awards": null, "user_review_count": 0}, {"business_operation_status": 1, "rating": null, "neighborhood": null, "image": null, "scorecard": null, "featured": false, "sample_categories": "Restaurants", "public_id": "c-gs-deli-dallas", "id": 826657680, "votes": null, "tagline": null, "has_video": false, "website": null, "offers": null, "latitude": 33.956809, "politanName": "Atlanta, GA Metro ", "phone_number": "7705053500", "tags": [{"primary": true, "id": 1722, "name": "Restaurants"}], "fax_number": null, "expansion": {"count": null, "uri": null}, "impression_id": "000b000000293bd0a8e5c442e2a4c19c74d60b55bb", "profile": "http://www.citysearch.com/profile/826657680/dallas_ga/c_g_s_deli.html", "address": {"city": "Dallas", "state": "GA", "street": "4201 Dallas Acworth Hwy", "postal_code": "30132"}, "capProviderId": null, "distance": null, "has_offers": false, "name": "C & G's Deli", "longitude": -84.791704, "has_menu": false, "awards": null, "user_review_count": 0}, {"business_operation_status": 1, "rating": null, "neighborhood": null, "image": null, "scorecard": null, "featured": false, "sample_categories": "Restaurants", "public_id": "beyond-the-box-designs-inc-marietta", "id": 713390380, "votes": null, "tagline": null, "has_video": false, "website": "http://www.citysearch.com/profile/external/713390380/marietta_ga/beyond_the_box_designs_inc.html", "offers": null, "latitude": 33.950732, "politanName": "Atlanta, GA Metro ", "phone_number": "7704898198", "tags": [{"primary": true, "id": 1722, "name": "Restaurants"}], "fax_number": null, "expansion": {"count": null, "uri": null}, "impression_id": "000b0000001b5e54c4d3b14bf78c9f02e7cb8c0a0b", "profile": "http://www.citysearch.com/profile/713390380/marietta_ga/beyond_the_box_designs_inc.html", "address": {"city": "Marietta", "state": "GA", "street": "515 Roswell St Ne", "postal_code": "30060"}, "capProviderId": null, "distance": null, "has_offers": false, "name": "Beyond The Box Designs INC", "longitude": -84.537203, "has_menu": false, "awards": null, "user_review_count": 0}, {"business_operation_status": 1, "rating": null, "neighborhood": null, "image": null, "scorecard": null, "featured": false, "sample_categories": "Restaurants, Hamburgers", "public_id": "smashburger-kennesaw", "id": 739079670, "votes": null, "tagline": null, "has_video": false, "website": null, "offers": null, "latitude": 34.014321, "politanName": "Atlanta, GA Metro ", "phone_number": "7704274141", "tags": [{"primary": false, "id": 11270, "name": "Hamburgers"}, {"primary": true, "id": 1722, "name": "Restaurants"}], "fax_number": null, "expansion": {"count": null, "uri": null}, "impression_id": "000b000000503a71bea3be473e9a9f1a9880c742cf", "profile": "http://www.citysearch.com/profile/739079670/kennesaw_ga/smashburger.html", "address": {"city": "Kennesaw", "state": "GA", "street": "440 Ernest W Barrett Pkwy NW", "postal_code": "30144"}, "capProviderId": null, "distance": null, "has_offers": false, "name": "Smashburger", "longitude": -84.562111, "has_menu": false, "awards": null, "user_review_count": 0}, {"business_operation_status": 1, "rating": null, "neighborhood": null, "image": null, "scorecard": null, "featured": false, "sample_categories": "Restaurants, Carry Out", "public_id": "wing-street-acworth-3", "id": 764934400, "votes": null, "tagline": null, "has_video": false, "website": null, "offers": null, "latitude": 34.033755, "politanName": "Atlanta, GA Metro ", "phone_number": "7709660555", "tags": [{"primary": false, "id": 11247, "name": "Carry Out"}, {"primary": true, "id": 1722, "name": "Restaurants"}], "fax_number": null, "expansion": {"count": null, "uri": null}, "impression_id": "000b0000005068f53c5367412288e0f750f32bec78", "profile": "http://www.citysearch.com/profile/764934400/acworth_ga/wing_street.html", "address": {"city": "Acworth", "state": "GA", "street": "3265 Cobb Pkwy NW # 3", "postal_code": "30101"}, "capProviderId": null, "distance": null, "has_offers": false, "name": "Wing Street", "longitude": -84.677156, "has_menu": false, "awards": null, "user_review_count": 0}, {"business_operation_status": 1, "rating": null, "neighborhood": null, "image": null, "scorecard": null, "featured": false, "sample_categories": "Restaurants, Pizza, Carry Out", "public_id": "jets-pizza-marietta-2", "id": 766779210, "votes": null, "tagline": null, "has_video": false, "website": "http://www.citysearch.com/profile/external/766779210/marietta_ga/jet_s_pizza.html", "offers": null, "latitude": 33.980787, "politanName": "Atlanta, GA Metro ", "phone_number": "7705095774", "tags": [{"primary": false, "id": 1722, "name": "Restaurants"}, {"primary": false, "id": 11247, "name": "Carry Out"}, {"primary": true, "id": 11299, "name": "Pizza"}], "fax_number": null, "expansion": {"count": null, "uri": null}, "impression_id": "000b0000005a359ef0345c47928e08b720e5ef741e", "profile": "http://www.citysearch.com/profile/766779210/marietta_ga/jet_s_pizza.html", "address": {"city": "Marietta", "state": "GA", "street": "3101 Roswell Rd", "postal_code": "30062"}, "capProviderId": null, "distance": null, "has_offers": false, "name": "Jet's Pizza", "longitude": -84.464028, "has_menu": false, "awards": null, "user_review_count": 0}, {"business_operation_status": 1, "rating": null, "neighborhood": null, "image": null, "scorecard": null, "featured": false, "sample_categories": "Seafood Markets, Restaurants", "public_id": "cajun-gulf-seafood-marietta", "id": 775189770, "votes": null, "tagline": null, "has_video": false, "website": null, "offers": null, "latitude": 33.970105, "politanName": "Atlanta, GA Metro ", "phone_number": "7705753222", "tags": [{"primary": false, "id": 1722, "name": "Restaurants"}, {"primary": true, "id": 1719, "name": "Seafood Markets"}], "fax_number": null, "expansion": {"count": null, "uri": null}, "impression_id": "000b00000056caaa2ac8d14c0f851cdd562848c994", "profile": "http://www.citysearch.com/profile/775189770/marietta_ga/cajun_gulf_seafood.html", "address": {"city": "Marietta", "state": "GA", "street": "745 Cobb Pkwy N", "postal_code": "30062"}, "capProviderId": null, "distance": null, "has_offers": false, "name": "Cajun Gulf Seafood", "longitude": -84.5389, "has_menu": false, "awards": null, "user_review_count": 0}, {"business_operation_status": 1, "rating": null, "neighborhood": null, "image": null, "scorecard": null, "featured": false, "sample_categories": "Restaurants", "public_id": "amonos-restaurant-kennesaw", "id": 777767990, "votes": null, "tagline": null, "has_video": false, "website": null, "offers": null, "latitude": 34.014516, "politanName": "Atlanta, GA Metro ", "phone_number": "6783550535", "tags": [{"primary": true, "id": 1722, "name": "Restaurants"}], "fax_number": null, "expansion": {"count": null, "uri": null}, "impression_id": "000b000000c15dfbd55a9e4908ab72fa9d770bba6d", "profile": "http://www.citysearch.com/profile/777767990/kennesaw_ga/amono_s_restaurant.html", "address": {"city": "Kennesaw", "state": "GA", "street": "2700 Town Center Dr NW # A", "postal_code": "30144"}, "capProviderId": null, "distance": null, "has_offers": false, "name": "Amono's Restaurant", "longitude": -84.56447, "has_menu": false, "awards": null, "user_review_count": 0}, {"business_operation_status": 1, "rating": null, "neighborhood": null, "image": null, "scorecard": null, "featured": false, "sample_categories": "Restaurants", "public_id": "righteous-que-marietta", "id": 790722150, "votes": null, "tagline": null, "has_video": false, "website": null, "offers": null, "latitude": 33.976739, "politanName": "Atlanta, GA Metro ", "phone_number": "7709718111", "tags": [{"primary": true, "id": 1722, "name": "Restaurants"}], "fax_number": null, "expansion": {"count": null, "uri": null}, "impression_id": "000b0000006536fc77c9db4848bf39adf5e3047de9", "profile": "http://www.citysearch.com/profile/790722150/marietta_ga/righteous_que.html", "address": {"city": "Marietta", "state": "GA", "street": "1050 E Piedmont Rd", "postal_code": "30062"}, "capProviderId": null, "distance": null, "has_offers": false, "name": "Righteous Que", "longitude": -84.479676, "has_menu": false, "awards": null, "user_review_count": 0}, {"business_operation_status": 1, "rating": null, "neighborhood": null, "image": null, "scorecard": null, "featured": false, "sample_categories": "Restaurants", "public_id": "bikini-beach-kennesaw", "id": 672684390, "votes": null, "tagline": null, "has_video": false, "website": null, "offers": null, "latitude": 33.991946, "politanName": "Atlanta, GA Metro ", "phone_number": "7704268001", "tags": [{"primary": true, "id": 1722, "name": "Restaurants"}], "fax_number": null, "expansion": {"count": null, "uri": null}, "impression_id": "000b00000083496708ce77497d98b2fbb411d8519e", "profile": "http://www.citysearch.com/profile/672684390/kennesaw_ga/bikini_beach.html", "address": {"city": "Kennesaw", "state": "GA", "street": "1619 Collins Road Northwest", "postal_code": "30152"}, "capProviderId": null, "distance": null, "has_offers": false, "name": "Bikini Beach", "longitude": -84.59912, "has_menu": false, "awards": null, "user_review_count": 0}, {"business_operation_status": 0, "rating": null, "neighborhood": null, "image": null, "scorecard": null, "featured": false, "sample_categories": "Restaurants", "public_id": "daily-grind-marietta-2", "id": 672770880, "votes": null, "tagline": null, "has_video": false, "website": null, "offers": null, "latitude": 34.014064, "politanName": "Atlanta, GA Metro ", "phone_number": "7709715199", "tags": [{"primary": true, "id": 1722, "name": "Restaurants"}], "fax_number": null, "expansion": {"count": null, "uri": null}, "impression_id": "000b0000003374ba13f7d54401ab20d8a87ebdaedf", "profile": "http://www.citysearch.com/profile/672770880/marietta_ga/daily_grind.html", "address": {"city": "Marietta", "state": "GA", "street": "2595 Sandy Plains Rd", "postal_code": "30066"}, "capProviderId": null, "distance": null, "has_offers": false, "name": "Daily Grind", "longitude": -84.495766, "has_menu": true, "awards": null, "user_review_count": 0}, {"business_operation_status": 1, "rating": null, "neighborhood": null, "image": null, "scorecard": null, "featured": false, "sample_categories": "Restaurants", "public_id": "jc-flowers-bonsai-marietta", "id": 787129080, "votes": null, "tagline": null, "has_video": false, "website": null, "offers": null, "latitude": 33.952602, "politanName": "Atlanta, GA Metro ", "phone_number": "7705653912", "tags": [{"primary": true, "id": 1722, "name": "Restaurants"}], "fax_number": null, "expansion": {"count": null, "uri": null}, "impression_id": "000b000000c6a62fc299ec4dcebfe711fe63416a35", "profile": "http://www.citysearch.com/profile/787129080/marietta_ga/jc_flowers_bonsai.html", "address": {"city": "Marietta", "state": "GA", "street": "2754 Sandy Plains Rd # 116", "postal_code": "30066"}, "capProviderId": null, "distance": null, "has_offers": false, "name": "Jc Flowers & Bonsai", "longitude": -84.549933, "has_menu": false, "awards": null, "user_review_count": 0}, {"business_operation_status": 1, "rating": null, "neighborhood": null, "image": null, "scorecard": null, "featured": false, "sample_categories": "Restaurants, Carry Out, Hamburgers", "public_id": "mc-donalds-kennesaw-5", "id": 793282720, "votes": null, "tagline": null, "has_video": false, "website": "http://www.citysearch.com/profile/external/793282720/kennesaw_ga/mc_donald_s.html", "offers": null, "latitude": 34.023434, "politanName": "Atlanta, GA Metro ", "phone_number": "7704276918", "tags": [{"primary": false, "id": 11247, "name": "Carry Out"}, {"primary": false, "id": 11270, "name": "Hamburgers"}, {"primary": true, "id": 1722, "name": "Restaurants"}], "fax_number": null, "expansion": {"count": null, "uri": null}, "impression_id": "000b000000c1c2cece5e4a4e1297adf18b6ffd81a8", "profile": "http://www.citysearch.com/profile/793282720/kennesaw_ga/mc_donald_s.html", "address": {"city": "Kennesaw", "state": "GA", "street": "US 41 & Hwy 293", "postal_code": "30144"}, "capProviderId": null, "distance": null, "has_offers": false, "name": "Mc Donald's", "longitude": -84.61549, "has_menu": false, "awards": null, "user_review_count": 0}, {"business_operation_status": 1, "rating": null, "neighborhood": null, "image": null, "scorecard": null, "featured": false, "sample_categories": "Restaurants", "public_id": "cotton-gin-restaurant-hiram", "id": 812310620, "votes": null, "tagline": null, "has_video": false, "website": null, "offers": null, "latitude": 33.91311, "politanName": "Atlanta, GA Metro ", "phone_number": "7704392141", "tags": [{"primary": true, "id": 1722, "name": "Restaurants"}], "fax_number": null, "expansion": {"count": null, "uri": null}, "impression_id": "000b0000006ace1a4f128b466bbfd6a644ad871a7f", "profile": "http://www.citysearch.com/profile/812310620/hiram_ga/cotton_gin_restaurant.html", "address": {"city": "Hiram", "state": "GA", "street": "4971 Hiram Acworth Hwy", "postal_code": "30141"}, "capProviderId": null, "distance": null, "has_offers": false, "name": "Cotton Gin Restaurant", "longitude": -84.746498, "has_menu": false, "awards": null, "user_review_count": 0}, {"business_operation_status": 1, "rating": null, "neighborhood": null, "image": null, "scorecard": null, "featured": false, "sample_categories": "Restaurants", "public_id": "stars-strikes-dallas", "id": 704869870, "votes": null, "tagline": null, "has_video": false, "website": null, "offers": null, "latitude": 33.925416, "politanName": "Atlanta, GA Metro ", "phone_number": "6789655705", "tags": [{"primary": true, "id": 1722, "name": "Restaurants"}], "fax_number": null, "expansion": {"count": null, "uri": null}, "impression_id": "000b000000991f665a10364754a36fb609cc4c867b", "profile": "http://www.citysearch.com/profile/704869870/dallas_ga/stars_strikes.html", "address": {"city": "Dallas", "state": "GA", "street": "2400 Hiram Acworth Hwy", "postal_code": "30157"}, "capProviderId": null, "distance": null, "has_offers": false, "name": "Stars & Strikes", "longitude": -84.74616, "has_menu": false, "awards": null, "user_review_count": 0}, {"business_operation_status": 1, "rating": null, "neighborhood": null, "image": null, "scorecard": null, "featured": false, "sample_categories": "Restaurants, Pizza", "public_id": "cellinis-pizza-kennesaw", "id": 815588220, "votes": null, "tagline": null, "has_video": false, "website": null, "offers": null, "latitude": 33.975305, "politanName": "Atlanta, GA Metro ", "phone_number": "7704247746", "tags": [{"primary": false, "id": 1722, "name": "Restaurants"}, {"primary": true, "id": 11299, "name": "Pizza"}], "fax_number": null, "expansion": {"count": null, "uri": null}, "impression_id": "000b0000006542977b47114e8885a979a661b3278d", "profile": "http://www.citysearch.com/profile/815588220/kennesaw_ga/cellinis_pizza.html", "address": {"city": "Kennesaw", "state": "GA", "street": "5596 Karingway CT NW", "postal_code": "30152"}, "capProviderId": null, "distance": null, "has_offers": false, "name": "Cellinis Pizza", "longitude": -84.712638, "has_menu": false, "awards": null, "user_review_count": 0}, {"business_operation_status": 1, "rating": null, "neighborhood": null, "image": null, "scorecard": null, "featured": false, "sample_categories": "Restaurants", "public_id": "terry-burger-kennesaw", "id": 816406770, "votes": null, "tagline": null, "has_video": false, "website": null, "offers": null, "latitude": 33.992629, "politanName": "Atlanta, GA Metro ", "phone_number": "6782906981", "tags": [{"primary": true, "id": 1722, "name": "Restaurants"}], "fax_number": null, "expansion": {"count": null, "uri": null}, "impression_id": "000b000000ab3da157d29e4a69865422bdf66d661b", "profile": "http://www.citysearch.com/profile/816406770/kennesaw_ga/terry_burger.html", "address": {"city": "Kennesaw", "state": "GA", "street": "1595 Stoddard CT NW", "postal_code": "30152"}, "capProviderId": null, "distance": null, "has_offers": false, "name": "Terry Burger", "longitude": -84.660867, "has_menu": false, "awards": null, "user_review_count": 0}, {"business_operation_status": 1, "rating": null, "neighborhood": null, "image": null, "scorecard": null, "featured": false, "sample_categories": "Restaurants, Carry Out", "public_id": "burger-king-acworth-3", "id": 713505750, "votes": null, "tagline": null, "has_video": false, "website": "http://www.citysearch.com/profile/external/713505750/acworth_ga/burger_king.html", "offers": null, "latitude": 34.014321, "politanName": "Atlanta, GA Metro ", "phone_number": "6785811803", "tags": [{"primary": false, "id": 11247, "name": "Carry Out"}, {"primary": true, "id": 1722, "name": "Restaurants"}], "fax_number": null, "expansion": {"count": null, "uri": null}, "impression_id": "000b000000ad424313f5b4400ba4be66c703d412a1", "profile": "http://www.citysearch.com/profile/713505750/acworth_ga/burger_king.html", "address": {"city": "Acworth", "state": "GA", "street": "164 Ernest Barrett Pkwy NW", "postal_code": "30102"}, "capProviderId": null, "distance": null, "has_offers": false, "name": "Burger King", "longitude": -84.562111, "has_menu": false, "awards": null, "user_review_count": 0}, {"business_operation_status": 1, "rating": null, "neighborhood": null, "image": null, "scorecard": null, "featured": false, "sample_categories": "Restaurants, Bars & Clubs, Bars & Pubs", "public_id": "celic-firehouse-pub-marietta", "id": 713546520, "votes": null, "tagline": null, "has_video": false, "website": null, "offers": null, "latitude": 33.95185, "politanName": "Atlanta, GA Metro ", "phone_number": "6782906642", "tags": [{"primary": false, "id": 164, "name": "Bars & Clubs"}, {"primary": false, "id": 1686, "name": "Bars & Pubs"}, {"primary": true, "id": 1722, "name": "Restaurants"}], "fax_number": null, "expansion": {"count": null, "uri": null}, "impression_id": "000b000000ec65a720453f426dbbf6498a2018733b", "profile": "http://www.citysearch.com/profile/713546520/marietta_ga/celic_firehouse_pub.html", "address": {"city": "Marietta", "state": "GA", "street": "15 Atlanta St Se", "postal_code": "30060"}, "capProviderId": null, "distance": null, "has_offers": false, "name": "Celic Firehouse Pub", "longitude": -84.548701, "has_menu": false, "awards": null, "user_review_count": 0}, {"business_operation_status": 1, "rating": null, "neighborhood": null, "image": null, "scorecard": null, "featured": false, "sample_categories": "Restaurants", "public_id": "fodwl-play-cafe-kennesaw", "id": 713503570, "votes": null, "tagline": null, "has_video": false, "website": null, "offers": null, "latitude": 34.032508, "politanName": "Atlanta, GA Metro ", "phone_number": "7709669686", "tags": [{"primary": true, "id": 1722, "name": "Restaurants"}], "fax_number": null, "expansion": {"count": null, "uri": null}, "impression_id": "000b000000b6768576e87d4c07bda733243ab05098", "profile": "http://www.citysearch.com/profile/713503570/kennesaw_ga/fowl_play_cafe.html", "address": {"city": "Kennesaw", "state": "GA", "street": "3160 Cobb Pkwy NW", "postal_code": "30152"}, "capProviderId": null, "distance": null, "has_offers": false, "name": "Fowl Play Cafe", "longitude": -84.673299, "has_menu": false, "awards": null, "user_review_count": 0}, {"business_operation_status": 1, "rating": null, "neighborhood": null, "image": null, "scorecard": null, "featured": false, "sample_categories": "Restaurants", "public_id": "wings-101-smyrna", "id": 621748804, "votes": null, "tagline": null, "has_video": false, "website": null, "offers": null, "latitude": 33.894038, "politanName": "Atlanta, GA Metro ", "phone_number": "7709891520", "tags": [{"primary": true, "id": 1722, "name": "Restaurants"}], "fax_number": null, "expansion": {"count": null, "uri": null}, "impression_id": "000b000000eae67b08be1542ad9ef2d947ae0b2c0f", "profile": "http://www.citysearch.com/profile/621748804/smyrna_ga/wings_101.html", "address": {"city": "Smyrna", "state": "GA", "street": "998 Windy Hill Rd SE", "postal_code": "30080"}, "capProviderId": null, "distance": null, "has_offers": false, "name": "Wings 101", "longitude": -84.524382, "has_menu": false, "awards": null, "user_review_count": 0}, {"business_operation_status": 1, "rating": null, "neighborhood": null, "image": null, "scorecard": null, "featured": false, "sample_categories": "Restaurants, Delis And Delicatessens", "public_id": "shortys-subs-such-kennesaw", "id": 744805970, "votes": null, "tagline": null, "has_video": false, "website": null, "offers": null, "latitude": 33.999345, "politanName": "Atlanta, GA Metro ", "phone_number": "6789492867", "tags": [{"primary": false, "id": 1727, "name": "Delis And Delicatessens"}, {"primary": true, "id": 1722, "name": "Restaurants"}], "fax_number": null, "expansion": {"count": null, "uri": null}, "impression_id": "000b000000f86d6ff963444bde85bb92c23e12559b", "profile": "http://www.citysearch.com/profile/744805970/kennesaw_ga/shorty_s_subs_such.html", "address": {"city": "Kennesaw", "state": "GA", "street": "1200 Barrett Pkwy NW Ste 14", "postal_code": "30144"}, "capProviderId": null, "distance": null, "has_offers": false, "name": "Shorty's Subs & Such", "longitude": -84.586888, "has_menu": false, "awards": null, "user_review_count": 0}, {"business_operation_status": 0, "rating": null, "neighborhood": null, "image": null, "scorecard": null, "featured": false, "sample_categories": "Restaurants", "public_id": "taco-al-1000000-marietta", "id": 766781070, "votes": null, "tagline": null, "has_video": false, "website": null, "offers": null, "latitude": 33.902657, "politanName": "Atlanta, GA Metro ", "phone_number": "7707380000", "tags": [{"primary": true, "id": 1722, "name": "Restaurants"}], "fax_number": null, "expansion": {"count": null, "uri": null}, "impression_id": "000b0000007cffb4b6333844448ef808d6ce99bedf", "profile": "http://www.citysearch.com/profile/766781070/marietta_ga/taco_al_1000000.html", "address": {"city": "Marietta", "state": "GA", "street": "2084 Favor Rd SW", "postal_code": "30060"}, "capProviderId": null, "distance": null, "has_offers": false, "name": "Taco Al 1000000", "longitude": -84.564316, "has_menu": false, "awards": null, "user_review_count": 0}, {"business_operation_status": 1, "rating": null, "neighborhood": null, "image": null, "scorecard": null, "featured": false, "sample_categories": "Restaurants, Bars & Clubs", "public_id": "hollands-grill-kennesaw", "id": 766753250, "votes": null, "tagline": null, "has_video": false, "website": null, "offers": null, "latitude": 34.014045, "politanName": "Atlanta, GA Metro ", "phone_number": "7704261515", "tags": [{"primary": false, "id": 164, "name": "Bars & Clubs"}, {"primary": true, "id": 1722, "name": "Restaurants"}], "fax_number": null, "expansion": {"count": null, "uri": null}, "impression_id": "000b000000099da8f857cb4e618a092a654063edce", "profile": "http://www.citysearch.com/profile/766753250/kennesaw_ga/holland_s_grill.html", "address": {"city": "Kennesaw", "state": "GA", "street": "2615 Busbee Pkwy NW # 28", "postal_code": "30144"}, "capProviderId": null, "distance": null, "has_offers": false, "name": "Holland's Grill", "longitude": -84.56696, "has_menu": true, "awards": null, "user_review_count": 0}, {"business_operation_status": 1, "rating": null, "neighborhood": null, "image": null, "scorecard": null, "featured": false, "sample_categories": "Restaurants, Delis And Delicatessens, Carry Out", "public_id": "firehouse-subs-austell", "id": 773458950, "votes": null, "tagline": null, "has_video": false, "website": null, "offers": null, "latitude": 33.866955, "politanName": "Atlanta, GA Metro ", "phone_number": "7704396165", "tags": [{"primary": false, "id": 1727, "name": "Delis And Delicatessens"}, {"primary": false, "id": 11247, "name": "Carry Out"}, {"primary": true, "id": 1722, "name": "Restaurants"}], "fax_number": null, "expansion": {"count": null, "uri": null}, "impression_id": "000b000000b3c367e2a4e342489fd0e52bbd283d77", "profile": "http://www.citysearch.com/profile/773458950/austell_ga/firehouse_subs.html", "address": {"city": "Austell", "state": "GA", "street": "2860 E West Connector", "postal_code": "30106"}, "capProviderId": null, "distance": null, "has_offers": false, "name": "Firehouse Subs", "longitude": -84.626974, "has_menu": true, "awards": null, "user_review_count": 0}, {"business_operation_status": 1, "rating": null, "neighborhood": null, "image": null, "scorecard": null, "featured": false, "sample_categories": "Restaurants, Barbecue Restaurants", "public_id": "bar-be-que-heavern-marietta", "id": 787133740, "votes": null, "tagline": null, "has_video": false, "website": null, "offers": null, "latitude": 33.894508, "politanName": "Atlanta, GA Metro ", "phone_number": "7706530935", "tags": [{"primary": false, "id": 1724, "name": "Barbecue Restaurants"}, {"primary": true, "id": 1722, "name": "Restaurants"}], "fax_number": null, "expansion": {"count": null, "uri": null}, "impression_id": "000b000000cdae815614e64ea29d94006e3c3628c3", "profile": "http://www.citysearch.com/profile/787133740/marietta_ga/bar_be_que_heavern.html", "address": {"city": "Marietta", "state": "GA", "street": "186 Windy Hill Rd Sw", "postal_code": "30060"}, "capProviderId": null, "distance": null, "has_offers": false, "name": "Bar Be Que Heavern", "longitude": -84.555734, "has_menu": false, "awards": null, "user_review_count": 0}, {"business_operation_status": 1, "rating": 8.0, "neighborhood": null, "image": null, "scorecard": null, "featured": false, "sample_categories": "Restaurants, American Express, Discover, MasterCard, Visa", "public_id": "joyful-diner-marietta", "id": 2908308, "votes": null, "tagline": null, "has_video": false, "website": null, "offers": null, "latitude": 34.017069, "politanName": "Atlanta, GA Metro ", "phone_number": "7705656700", "tags": [{"primary": false, "id": 11333, "name": "American Express"}, {"primary": false, "id": 11349, "name": "Discover"}, {"primary": false, "id": 11361, "name": "MasterCard"}, {"primary": false, "id": 11382, "name": "Visa"}, {"primary": true, "id": 1722, "name": "Restaurants"}], "fax_number": null, "expansion": {"count": null, "uri": null}, "impression_id": "000b0000008e18241655a24721a1e643344a7bdf58", "profile": "http://www.citysearch.com/profile/2908308/marietta_ga/joyful_diner.html", "address": {"city": "Marietta", "state": "GA", "street": "2778 Sandy Plains Rd", "postal_code": "30066"}, "capProviderId": null, "distance": null, "has_offers": false, "name": "Joyful Diner", "longitude": -84.491613, "has_menu": false, "awards": null, "user_review_count": 1}, {"business_operation_status": 0, "rating": null, "neighborhood": null, "image": null, "scorecard": null, "featured": false, "sample_categories": "Coffeehouses, Restaurants", "public_id": "expresso-expresso-marietta", "id": 2908344, "votes": null, "tagline": null, "has_video": false, "website": null, "offers": null, "latitude": 34.018009, "politanName": "Atlanta, GA Metro ", "phone_number": "7066375366", "tags": [{"primary": false, "id": 1722, "name": "Restaurants"}, {"primary": true, "id": 1726, "name": "Coffeehouses"}], "fax_number": null, "expansion": {"count": null, "uri": null}, "impression_id": "000b000000e1fd5629100d41beb6d51fd155f4477c", "profile": "http://www.citysearch.com/profile/2908344/marietta_ga/expresso_expresso.html", "address": {"city": "Marietta", "state": "GA", "street": "1251 Morgan Chase Dr NE", "postal_code": "30066"}, "capProviderId": null, "distance": null, "has_offers": false, "name": "Expresso Expresso", "longitude": -84.515255, "has_menu": false, "awards": null, "user_review_count": 0}, {"business_operation_status": 1, "rating": null, "neighborhood": null, "image": null, "scorecard": null, "featured": false, "sample_categories": "Restaurants, American Express, MasterCard, Visa", "public_id": "buddhas-delight-marietta", "id": 2908307, "votes": null, "tagline": null, "has_video": false, "website": "http://www.citysearch.com/profile/external/2908307/marietta_ga/buddhas_delight.html", "offers": null, "latitude": 34.017093, "politanName": "Atlanta, GA Metro ", "phone_number": "7705651995", "tags": [{"primary": false, "id": 11333, "name": "American Express"}, {"primary": false, "id": 11361, "name": "MasterCard"}, {"primary": false, "id": 11382, "name": "Visa"}, {"primary": true, "id": 1722, "name": "Restaurants"}], "fax_number": null, "expansion": {"count": null, "uri": null}, "impression_id": "000b0000008ba0a9cc3dc74cb8b3540aa57fe8c8d6", "profile": "http://www.citysearch.com/profile/2908307/marietta_ga/buddhas_delight.html", "address": {"city": "Marietta", "state": "GA", "street": "2731 Sandy Plains Rd", "postal_code": "30066"}, "capProviderId": null, "distance": null, "has_offers": false, "name": "Buddhas Delight", "longitude": -84.492328, "has_menu": true, "awards": null, "user_review_count": 3}, {"business_operation_status": 1, "rating": null, "neighborhood": null, "image": null, "scorecard": null, "featured": false, "sample_categories": "Restaurants, Utility Contractors", "public_id": "optelian-marietta", "id": 2910548, "votes": null, "tagline": null, "has_video": false, "website": "http://www.citysearch.com/profile/external/2910548/marietta_ga/optelian.html", "offers": null, "latitude": 33.919788, "politanName": "Atlanta, GA Metro ", "phone_number": "7706909575", "tags": [{"primary": false, "id": 1722, "name": "Restaurants"}, {"primary": true, "id": 788, "name": "Utility Contractors"}], "fax_number": null, "expansion": {"count": null, "uri": null}, "impression_id": "000b00000077ab5c615929435f95b82ed4c634d3f5", "profile": "http://www.citysearch.com/profile/2910548/marietta_ga/optelian.html", "address": {"city": "Marietta", "state": "GA", "street": "2121 New Market Pkwy SE", "postal_code": "30067"}, "capProviderId": null, "distance": null, "has_offers": false, "name": "Optelian", "longitude": -84.49377, "has_menu": false, "awards": null, "user_review_count": 0}, {"business_operation_status": 1, "rating": null, "neighborhood": null, "image": null, "scorecard": null, "featured": false, "sample_categories": "Restaurants, Barbecue Restaurants", "public_id": "wings-grill-mableton", "id": 787135080, "votes": null, "tagline": null, "has_video": false, "website": null, "offers": null, "latitude": 33.823999, "politanName": "Atlanta, GA Metro ", "phone_number": "7706757267", "tags": [{"primary": false, "id": 1724, "name": "Barbecue Restaurants"}, {"primary": true, "id": 1722, "name": "Restaurants"}], "fax_number": null, "expansion": {"count": null, "uri": null}, "impression_id": "000b00000006cb1089310f497d899875373aed4cf2", "profile": "http://www.citysearch.com/profile/787135080/mableton_ga/wings_grill.html", "address": {"city": "Mableton", "state": "GA", "street": "5345 Floyd Rd Sw", "postal_code": "30126"}, "capProviderId": null, "distance": null, "has_offers": false, "name": "Wings & Grill", "longitude": -84.574687, "has_menu": false, "awards": null, "user_review_count": 0}, {"business_operation_status": 1, "rating": null, "neighborhood": null, "image": null, "scorecard": null, "featured": false, "sample_categories": "Restaurants", "public_id": "winggos-restaurant-marietta", "id": 814303450, "votes": null, "tagline": null, "has_video": false, "website": null, "offers": null, "latitude": 33.980787, "politanName": "Atlanta, GA Metro ", "phone_number": "7709778688", "tags": [{"primary": true, "id": 1722, "name": "Restaurants"}], "fax_number": null, "expansion": {"count": null, "uri": null}, "impression_id": "000b000000123899b917344c5ba4413a7c5cca1d81", "profile": "http://www.citysearch.com/profile/814303450/marietta_ga/winggos_restaurant.html", "address": {"city": "Marietta", "state": "GA", "street": "3101 Roswell Rd # M", "postal_code": "30062"}, "capProviderId": null, "distance": null, "has_offers": false, "name": "Winggos Restaurant", "longitude": -84.464028, "has_menu": false, "awards": null, "user_review_count": 0}, {"business_operation_status": 1, "rating": null, "neighborhood": null, "image": null, "scorecard": null, "featured": false, "sample_categories": "Restaurants, American Express, Discover, MasterCard, Shop Online", "public_id": "metro-kitchen-marietta", "id": 728110290, "votes": null, "tagline": null, "has_video": false, "website": "http://www.citysearch.com/profile/external/728110290/marietta_ga/metro_kitchen.html", "offers": null, "latitude": 33.926059, "politanName": "Atlanta, GA Metro ", "phone_number": "7709160102", "tags": [{"primary": false, "id": 11333, "name": "American Express"}, {"primary": false, "id": 11349, "name": "Discover"}, {"primary": false, "id": 11361, "name": "MasterCard"}, {"primary": false, "id": 11375, "name": "Shop Online"}, {"primary": false, "id": 11382, "name": "Visa"}, {"primary": true, "id": 1722, "name": "Restaurants"}], "fax_number": null, "expansion": {"count": null, "uri": null}, "impression_id": "000b0000002424897579e6444f93cc2975cfef7f77", "profile": "http://www.citysearch.com/profile/728110290/marietta_ga/metro_kitchen.html", "address": {"city": "Marietta", "state": "GA", "street": "4041 Kingston Ct Se # A", "postal_code": "30067"}, "capProviderId": null, "distance": null, "has_offers": false, "name": "Metro Kitchen", "longitude": -84.491207, "has_menu": false, "awards": null, "user_review_count": 0}, {"business_operation_status": 1, "rating": null, "neighborhood": null, "image": null, "scorecard": null, "featured": false, "sample_categories": "Restaurants", "public_id": "checkers-marietta-3", "id": 836194250, "votes": null, "tagline": null, "has_video": false, "website": null, "offers": null, "latitude": 33.950121, "politanName": "Atlanta, GA Metro ", "phone_number": "7704298398", "tags": [{"primary": true, "id": 1722, "name": "Restaurants"}], "fax_number": null, "expansion": {"count": null, "uri": null}, "impression_id": "000b000000b72eb8df62b249269e08bcf56d24bfd6", "profile": "http://www.citysearch.com/profile/836194250/marietta_ga/checkers.html", "address": {"city": "Marietta", "state": "GA", "street": "41 Cobb Pkwy S", "postal_code": "30060"}, "capProviderId": null, "distance": null, "has_offers": false, "name": "Checkers", "longitude": -84.519571, "has_menu": false, "awards": null, "user_review_count": 0}, {"business_operation_status": 1, "rating": null, "neighborhood": null, "image": null, "scorecard": null, "featured": false, "sample_categories": "Cafes", "public_id": "reveille-cafe-marietta-2", "id": 619600404, "votes": null, "tagline": null, "has_video": false, "website": null, "offers": null, "latitude": 34.023215, "politanName": "Atlanta, GA Metro ", "phone_number": "7709716800", "tags": [{"primary": true, "id": 6190, "name": "Cafes"}], "fax_number": null, "expansion": {"count": null, "uri": null}, "impression_id": "000b0000007854c60a1dd2446e9a7abe795584b233", "profile": "http://www.citysearch.com/profile/619600404/marietta_ga/reveille_cafe.html", "address": {"city": "Marietta", "state": "GA", "street": "2960 Sandy Plains Rd # 130", "postal_code": "30066"}, "capProviderId": null, "distance": null, "has_offers": false, "name": "Reveille Cafe", "longitude": -84.485512, "has_menu": false, "awards": null, "user_review_count": 0}, {"business_operation_status": 1, "rating": 9.0, "neighborhood": null, "image": null, "scorecard": null, "featured": false, "sample_categories": "Catering, Restaurants", "public_id": "jones-house-restaurant-catering-lithia-spgs", "id": 2948169, "votes": null, "tagline": null, "has_video": false, "website": null, "offers": null, "latitude": 33.789264, "politanName": "Atlanta, GA Metro ", "phone_number": "7709483287", "tags": [{"primary": false, "id": 1722, "name": "Restaurants"}, {"primary": true, "id": 1705, "name": "Catering"}], "fax_number": null, "expansion": {"count": null, "uri": null}, "impression_id": "000b00000007683cf29621410a8a218b0a9173a42a", "profile": "http://www.citysearch.com/profile/2948169/lithia_springs_ga/jones_house_restaurant_catering.html", "address": {"city": "Lithia Springs", "state": "GA", "street": "561 Thornton Rd", "postal_code": "30122"}, "capProviderId": null, "distance": null, "has_offers": false, "name": "Jones House Restaurant & Catering", "longitude": -84.62553, "has_menu": false, "awards": null, "user_review_count": 2}, {"business_operation_status": 1, "rating": null, "neighborhood": null, "image": null, "scorecard": null, "featured": false, "sample_categories": "Restaurants, Bars & Clubs, Bars & Pubs", "public_id": "stadium-bar-grill-marietta", "id": 647336140, "votes": null, "tagline": null, "has_video": false, "website": null, "offers": null, "latitude": 34.011742, "politanName": "Atlanta, GA Metro ", "phone_number": "7705092899", "tags": [{"primary": false, "id": 164, "name": "Bars & Clubs"}, {"primary": false, "id": 1686, "name": "Bars & Pubs"}, {"primary": true, "id": 1722, "name": "Restaurants"}], "fax_number": null, "expansion": {"count": null, "uri": null}, "impression_id": "000b000000566cbd653cab4736819ed1663df09d5b", "profile": "http://www.citysearch.com/profile/647336140/marietta_ga/stadium_bar_grill.html", "address": {"city": "Marietta", "state": "GA", "street": "2550 Sandy Plains Rd", "postal_code": "30066"}, "capProviderId": null, "distance": null, "has_offers": false, "name": "Stadium Bar & Grill", "longitude": -84.495056, "has_menu": false, "awards": null, "user_review_count": 0}, {"business_operation_status": 0, "rating": null, "neighborhood": null, "image": null, "scorecard": null, "featured": false, "sample_categories": "Restaurants", "public_id": "little-azio-kennesaw", "id": 672589690, "votes": null, "tagline": null, "has_video": false, "website": null, "offers": null, "latitude": 34.037182, "politanName": "Atlanta, GA Metro ", "phone_number": "6782131200", "tags": [{"primary": true, "id": 1722, "name": "Restaurants"}], "fax_number": null, "expansion": {"count": null, "uri": null}, "impression_id": "000b000000a6ce2d65e7e74af6bc07f9d61c5310f3", "profile": "http://www.citysearch.com/profile/672589690/kennesaw_ga/little_azio.html", "address": {"city": "Kennesaw", "state": "GA", "street": "600 Chastain Rd NW", "postal_code": "30144"}, "capProviderId": null, "distance": null, "has_offers": false, "name": "Little Azio", "longitude": -84.567518, "has_menu": false, "awards": null, "user_review_count": 0}, {"business_operation_status": 1, "rating": null, "neighborhood": null, "image": null, "scorecard": null, "featured": false, "sample_categories": "Restaurants", "public_id": "pizzahut-acworth", "id": 713588360, "votes": null, "tagline": null, "has_video": false, "website": null, "offers": null, "latitude": 34.060456, "politanName": "Atlanta, GA Metro ", "phone_number": "7709754306", "tags": [{"primary": true, "id": 1722, "name": "Restaurants"}], "fax_number": null, "expansion": {"count": null, "uri": null}, "impression_id": "000b000000a1074721c3a64d9c854563095e538eaa", "profile": "http://www.citysearch.com/profile/713588360/acworth_ga/pizzahut.html", "address": {"city": "Acworth", "state": "GA", "street": "3298 Cobb Pkwy NW", "postal_code": "30101"}, "capProviderId": null, "distance": null, "has_offers": false, "name": "Pizzahut", "longitude": -84.721428, "has_menu": false, "awards": null, "user_review_count": 0}, {"business_operation_status": 1, "rating": null, "neighborhood": null, "image": null, "scorecard": null, "featured": false, "sample_categories": "Restaurants", "public_id": "mrs-winners-dallas", "id": 728067290, "votes": null, "tagline": null, "has_video": false, "website": null, "offers": null, "latitude": 33.910855, "politanName": "Atlanta, GA Metro ", "phone_number": "7705057708", "tags": [{"primary": true, "id": 1722, "name": "Restaurants"}], "fax_number": null, "expansion": {"count": null, "uri": null}, "impression_id": "000b00000012037149040347f8b2eec9c3cf2d3880", "profile": "http://www.citysearch.com/profile/728067290/dallas_ga/mrs_winners.html", "address": {"city": "Dallas", "state": "GA", "street": "1195 Merchants Dr", "postal_code": "30132"}, "capProviderId": null, "distance": null, "has_offers": false, "name": "Mrs Winners", "longitude": -84.801564, "has_menu": false, "awards": null, "user_review_count": 0}, {"business_operation_status": 1, "rating": null, "neighborhood": null, "image": null, "scorecard": null, "featured": false, "sample_categories": "Restaurants, Barbecue Restaurants, Cajun & Creole", "public_id": "wow-cafe-wingery-kennesaw", "id": 732246340, "votes": null, "tagline": null, "has_video": false, "website": null, "offers": null, "latitude": 33.99449, "politanName": "Atlanta, GA Metro ", "phone_number": "7707958590", "tags": [{"primary": false, "id": 1724, "name": "Barbecue Restaurants"}, {"primary": false, "id": 11245, "name": "Cajun & Creole"}, {"primary": true, "id": 1722, "name": "Restaurants"}], "fax_number": null, "expansion": {"count": null, "uri": null}, "impression_id": "000b000000fa4101f9d8b646e5a2d8dd4ed838e43f", "profile": "http://www.citysearch.com/profile/732246340/kennesaw_ga/wow_cafe_wingery.html", "address": {"city": "Kennesaw", "state": "GA", "street": "1615 Ridenour Blvd NW # 207", "postal_code": "30152"}, "capProviderId": null, "distance": null, "has_offers": false, "name": "WOW Cafe & Wingery", "longitude": -84.592515, "has_menu": false, "awards": null, "user_review_count": 0}, {"business_operation_status": 1, "rating": null, "neighborhood": null, "image": null, "scorecard": null, "featured": false, "sample_categories": "Restaurants, Pizza", "public_id": "manhattan-pizza-marietta", "id": 624064324, "votes": null, "tagline": null, "has_video": false, "website": null, "offers": null, "latitude": 33.944967, "politanName": "Atlanta, GA Metro ", "phone_number": "6789092097", "tags": [{"primary": false, "id": 11299, "name": "Pizza"}, {"primary": true, "id": 1722, "name": "Restaurants"}], "fax_number": null, "expansion": {"count": null, "uri": null}, "impression_id": "000b0000007cbcc5d87f4f45a09d9b7bd3243aade2", "profile": "http://www.citysearch.com/profile/624064324/marietta_ga/manhattan_pizza.html", "address": {"city": "Marietta", "state": "GA", "street": "279 Powers Ferry Rd SE", "postal_code": "30067"}, "capProviderId": null, "distance": null, "has_offers": false, "name": "Manhattan Pizza", "longitude": -84.497588, "has_menu": false, "awards": null, "user_review_count": 0}, {"business_operation_status": 0, "rating": null, "neighborhood": null, "image": null, "scorecard": null, "featured": false, "sample_categories": "Coffeehouses", "public_id": "starbucks-dallas-8", "id": 627639330, "votes": null, "tagline": null, "has_video": false, "website": "http://www.citysearch.com/profile/external/627639330/dallas_ga/starbucks.html", "offers": null, "latitude": 33.985034, "politanName": "Atlanta, GA Metro ", "phone_number": "6785747173", "tags": [{"primary": true, "id": 1726, "name": "Coffeehouses"}], "fax_number": null, "expansion": {"count": null, "uri": null}, "impression_id": "000b0000008e022e413f854930ac02e5c0fae2926d", "profile": "http://www.citysearch.com/profile/627639330/dallas_ga/starbucks.html", "address": {"city": "Dallas", "state": "GA", "street": "8876 Dallas Acworth Hwy", "postal_code": "30132"}, "capProviderId": null, "distance": null, "has_offers": false, "name": "Starbucks", "longitude": -84.771736, "has_menu": true, "awards": null, "user_review_count": 1}, {"business_operation_status": 1, "rating": null, "neighborhood": null, "image": null, "scorecard": null, "featured": false, "sample_categories": "Frozen Yogurt Shops, Restaurants, Ice Cream Parlors, Discover, MasterCard", "public_id": "freshens-kennesaw", "id": 2955857, "votes": null, "tagline": null, "has_video": false, "website": "http://www.citysearch.com/profile/external/2955857/kennesaw_ga/freshens.html", "offers": null, "latitude": 34.019128, "politanName": "Atlanta, GA Metro ", "phone_number": "7704241171", "tags": [{"primary": false, "id": 1722, "name": "Restaurants"}, {"primary": false, "id": 1730, "name": "Ice Cream Parlors"}, {"primary": false, "id": 11349, "name": "Discover"}, {"primary": false, "id": 11361, "name": "MasterCard"}, {"primary": false, "id": 11382, "name": "Visa"}, {"primary": true, "id": 1729, "name": "Frozen Yogurt Shops"}], "fax_number": null, "expansion": {"count": null, "uri": null}, "impression_id": "000b00000047bc9508ca714569a20eead9baf31798", "profile": "http://www.citysearch.com/profile/2955857/kennesaw_ga/freshens.html", "address": {"city": "Kennesaw", "state": "GA", "street": "400 Ernest W Barrett Pkwy NW", "postal_code": "30144"}, "capProviderId": null, "distance": null, "has_offers": false, "name": "Freshens", "longitude": -84.563608, "has_menu": true, "awards": null, "user_review_count": 0}, {"business_operation_status": 1, "rating": null, "neighborhood": null, "image": null, "scorecard": null, "featured": false, "sample_categories": "Restaurants, Delis And Delicatessens, Sandwich Shops, Carry Out, Soups", "public_id": "subway-kennesaw-5", "id": 43860432, "votes": null, "tagline": null, "has_video": false, "website": "http://www.citysearch.com/profile/external/43860432/kennesaw_ga/subway.html", "offers": null, "latitude": 33.992292, "politanName": "Atlanta, GA Metro ", "phone_number": "7704298722", "tags": [{"primary": false, "id": 1727, "name": "Delis And Delicatessens"}, {"primary": false, "id": 1736, "name": "Sandwich Shops"}, {"primary": false, "id": 11247, "name": "Carry Out"}, {"primary": false, "id": 11311, "name": "Soups"}, {"primary": false, "id": 11333, "name": "American Express"}, {"primary": false, "id": 11349, "name": "Discover"}, {"primary": false, "id": 11361, "name": "MasterCard"}, {"primary": false, "id": 11382, "name": "Visa"}, {"primary": true, "id": 1722, "name": "Restaurants"}], "fax_number": null, "expansion": {"count": null, "uri": null}, "impression_id": "000b000000f813dac9f7124737b5e90650e0120523", "profile": "http://www.citysearch.com/profile/43860432/kennesaw_ga/subway.html", "address": {"city": "Kennesaw", "state": "GA", "street": "1605 Collins Rd NW 500", "postal_code": "30152"}, "capProviderId": null, "distance": null, "has_offers": false, "name": "Subway", "longitude": -84.598483, "has_menu": true, "awards": null, "user_review_count": 0}, {"business_operation_status": 1, "rating": null, "neighborhood": null, "image": null, "scorecard": null, "featured": false, "sample_categories": "Bakeries, Restaurants", "public_id": "mountain-biscuits-llc-marietta", "id": 638789660, "votes": null, "tagline": null, "has_video": false, "website": null, "offers": null, "latitude": 33.983382, "politanName": "Atlanta, GA Metro ", "phone_number": "7704193311", "tags": [{"primary": false, "id": 1685, "name": "Bakeries"}, {"primary": true, "id": 1722, "name": "Restaurants"}], "fax_number": null, "expansion": {"count": null, "uri": null}, "impression_id": "000b00000060d3a2ef573a41fdb3fec2e585c44288", "profile": "http://www.citysearch.com/profile/638789660/marietta_ga/mountain_biscuits_llc.html", "address": {"city": "Marietta", "state": "GA", "street": "1718 Old 41 Hwy Nw", "postal_code": "30060"}, "capProviderId": null, "distance": null, "has_offers": false, "name": "Mountain Biscuits Llc", "longitude": -84.570123, "has_menu": false, "awards": null, "user_review_count": 0}, {"business_operation_status": 1, "rating": null, "neighborhood": null, "image": null, "scorecard": null, "featured": false, "sample_categories": "Restaurants, Traditional American, Carry Out, American Express, Discover", "public_id": "arbys-marietta-13", "id": 682479030, "votes": null, "tagline": null, "has_video": false, "website": "http://www.citysearch.com/profile/external/682479030/marietta_ga/arby_s.html", "offers": null, "latitude": 34.01427, "politanName": "Atlanta, GA Metro ", "phone_number": "7709730642", "tags": [{"primary": false, "id": 11190, "name": "Traditional American"}, {"primary": false, "id": 11247, "name": "Carry Out"}, {"primary": false, "id": 11333, "name": "American Express"}, {"primary": false, "id": 11349, "name": "Discover"}, {"primary": false, "id": 11361, "name": "MasterCard"}, {"primary": false, "id": 11382, "name": "Visa"}, {"primary": true, "id": 1722, "name": "Restaurants"}], "fax_number": null, "expansion": {"count": null, "uri": null}, "impression_id": "000b0000004a3bf68aece9423c8ea50ce88586ee18", "profile": "http://www.citysearch.com/profile/682479030/marietta_ga/arby_s.html", "address": {"city": "Marietta", "state": "GA", "street": "2626 Sandy Plains Rd", "postal_code": "30066"}, "capProviderId": null, "distance": null, "has_offers": false, "name": "Arby's", "longitude": -84.494182, "has_menu": true, "awards": null, "user_review_count": 0}, {"business_operation_status": 1, "rating": null, "neighborhood": null, "image": null, "scorecard": null, "featured": false, "sample_categories": "Restaurants", "public_id": "masse-grill-bar-kennesaw", "id": 839969040, "votes": null, "tagline": null, "has_video": false, "website": null, "offers": null, "latitude": 34.020439, "politanName": "Atlanta, GA Metro ", "phone_number": "7704263095", "tags": [{"primary": true, "id": 1722, "name": "Restaurants"}], "fax_number": null, "expansion": {"count": null, "uri": null}, "impression_id": "000b000000561b49e3258a4ea993936488b9fe8019", "profile": "http://www.citysearch.com/profile/839969040/kennesaw_ga/masse_grill_bar.html", "address": {"city": "Kennesaw", "state": "GA", "street": "2975 Ring Rd NW", "postal_code": "30144"}, "capProviderId": null, "distance": null, "has_offers": false, "name": "Masse Grill & Bar", "longitude": -84.566579, "has_menu": false, "awards": null, "user_review_count": 0}], "histograms": [], "tag_ids": [1722], "uri": "http://api.citygridmedia.com:8080/search/places/v2/search/where?has_offers=false&type=restaurant&format=json&page=27&where=30064&rpp=50&histograms=false&publisher=10000009598&region_type=circle", "did_you_mean": "", "regions": [{"latitude": 33.938860999999996, "default_radius": 5.31, "type": "postal_code", "name": "30064", "longitude": -84.614086}], "call_id": "000b000000de77bae9c254487da878d9a31d86cffd", "first_hit": 1301, "total_hits": 1588, "geo_ids": [26293], "page": 27, "last_hit": 1350}}