{"results": {"rpp": 50, "locations": [{"business_operation_status": 1, "rating": null, "neighborhood": null, "image": "http://o1.aolcdn.com/dims-shared/dims3/PATCH/resize/600x450/http://hss-prod.hss.aol.com/hss/storage/patch/b843a26fc44a1b9659257f0e05a16427", "scorecard": null, "featured": false, "sample_categories": "Restaurants, Barbecue Restaurants", "public_id": "wing-fish-georgia-marietta", "id": 633013910, "votes": null, "tagline": null, "has_video": false, "website": null, "offers": null, "latitude": 33.936645, "politanName": "Atlanta, GA Metro ", "phone_number": "7704273339", "tags": [{"primary": false, "id": 1724, "name": "Barbecue Restaurants"}, {"primary": true, "id": 1722, "name": "Restaurants"}], "fax_number": null, "expansion": {"count": null, "uri": null}, "impression_id": "000b0000007ab322597dc44119a6d70a5135964bb8", "profile": "http://www.citysearch.com/profile/633013910/marietta_ga/wing_fish_georgia.html", "address": {"city": "Marietta", "state": "GA", "street": "690 Powder Springs St", "postal_code": "30064"}, "capProviderId": null, "distance": null, "has_offers": false, "name": "Wing & Fish Georgia", "longitude": -84.555916, "has_menu": false, "awards": null, "user_review_count": 0}, {"business_operation_status": 1, "rating": null, "neighborhood": null, "image": "http://o2.aolcdn.com/dims-shared/dims3/PATCH/resize/600x450/http://hss-prod.hss.aol.com/hss/storage/patch/dc41ba81151e25f28394cc96b0823444", "scorecard": null, "featured": false, "sample_categories": "Restaurants", "public_id": "taste-of-chicago-marietta", "id": 2906509, "votes": null, "tagline": null, "has_video": false, "website": null, "offers": null, "latitude": 33.937398, "politanName": "Atlanta, GA Metro ", "phone_number": "7705907174", "tags": [{"primary": true, "id": 1722, "name": "Restaurants"}], "fax_number": null, "expansion": {"count": null, "uri": null}, "impression_id": "000b0000001c4c1b2cc1d54767b755f9622a1fe627", "profile": "http://www.citysearch.com/profile/2906509/marietta_ga/taste_of_chicago.html", "address": {"city": "Marietta", "state": "GA", "street": "678 Powder Springs St SE", "postal_code": "30064"}, "capProviderId": null, "distance": null, "has_offers": false, "name": "Taste Of Chicago", "longitude": -84.555073, "has_menu": false, "awards": null, "user_review_count": 0}, {"business_operation_status": 1, "rating": 7.0, "neighborhood": null, "image": "http://o3.aolcdn.com/dims-shared/dims3/PATCH/resize/600x450/http://hss-prod.hss.aol.com/hss/storage/patch/302525e1cdcd680199892c394e4f8d", "scorecard": null, "featured": false, "sample_categories": "Restaurants, Traditional American, American Express, Discover, MasterCard", "public_id": "piccadilly-cafeteria-smyrna", "id": 2922407, "votes": null, "tagline": null, "has_video": false, "website": "http://www.citysearch.com/profile/external/2922407/smyrna_ga/piccadilly_cafeteria.html", "offers": null, "latitude": 33.885856, "politanName": "Atlanta, GA Metro ", "phone_number": "7704356707", "tags": [{"primary": false, "id": 11190, "name": "Traditional American"}, {"primary": false, "id": 11333, "name": "American Express"}, {"primary": false, "id": 11349, "name": "Discover"}, {"primary": false, "id": 11361, "name": "MasterCard"}, {"primary": false, "id": 11382, "name": "Visa"}, {"primary": true, "id": 1722, "name": "Restaurants"}], "fax_number": null, "expansion": {"count": null, "uri": null}, "impression_id": "000b0000000f2d7e01d22648d09f54d82443d74834", "profile": "http://www.citysearch.com/profile/2922407/smyrna_ga/piccadilly_cafeteria.html", "address": {"city": "Smyrna", "state": "GA", "street": "2781 S Cobb Dr SE", "postal_code": "30080"}, "capProviderId": null, "distance": null, "has_offers": false, "name": "Piccadilly Cafeteria", "longitude": -84.534268, "has_menu": false, "awards": null, "user_review_count": 2}, {"business_operation_status": 1, "rating": null, "neighborhood": null, "image": "http://o3.aolcdn.com/dims-shared/dims3/PATCH/resize/600x450/http://hss-prod.hss.aol.com/hss/storage/patch/311290373fbf55fe0c8d07ea67ad48b6", "scorecard": null, "featured": false, "sample_categories": "Restaurants", "public_id": "san-luis-restaurant-marietta", "id": 2901674, "votes": null, "tagline": null, "has_video": false, "website": null, "offers": null, "latitude": 33.94125, "politanName": "Atlanta, GA Metro ", "phone_number": "7707959888", "tags": [{"primary": true, "id": 1722, "name": "Restaurants"}], "fax_number": null, "expansion": {"count": null, "uri": null}, "impression_id": "000b0000009a3011f20b5c47a4ad4a7434729c7e77", "profile": "http://www.citysearch.com/profile/2901674/marietta_ga/san_luis_restaurant.html", "address": {"city": "Marietta", "state": "GA", "street": "951 S Marietta Pkwy SE", "postal_code": "30060"}, "capProviderId": null, "distance": null, "has_offers": false, "name": "San Luis Restaurant", "longitude": -84.523286, "has_menu": false, "awards": null, "user_review_count": 0}, {"business_operation_status": 1, "rating": null, "neighborhood": null, "image": "http://o2.aolcdn.com/dims-shared/dims3/PATCH/resize/600x450/http://hss-prod.hss.aol.com/hss/storage/patch/5d5d3a90d7e9fe625c137d62d018af49", "scorecard": null, "featured": false, "sample_categories": "Barbecue Restaurants, Restaurants", "public_id": "williamson-bros-sauce-marietta", "id": 621925020, "votes": null, "tagline": null, "has_video": false, "website": "http://www.citysearch.com/profile/external/621925020/marietta_ga/williamson_bros_sauce.html", "offers": null, "latitude": 33.948472, "politanName": "Atlanta, GA Metro ", "phone_number": "7704999797", "tags": [{"primary": false, "id": 1722, "name": "Restaurants"}, {"primary": true, "id": 1724, "name": "Barbecue Restaurants"}], "fax_number": null, "expansion": {"count": null, "uri": null}, "impression_id": "000b000000b02ed3b6abcc4f37a345a1fdae2f3e3c", "profile": "http://www.citysearch.com/profile/621925020/marietta_ga/williamson_bros_sauce.html", "address": {"city": "Marietta", "state": "GA", "street": "136 Dodd St Se", "postal_code": "30060"}, "capProviderId": null, "distance": null, "has_offers": false, "name": "Williamson Bros Sauce", "longitude": -84.524195, "has_menu": false, "awards": null, "user_review_count": 0}, {"business_operation_status": 1, "rating": 2.0, "neighborhood": null, "image": "http://o1.aolcdn.com/dims-shared/dims3/PATCH/resize/600x450/http://hss-prod.hss.aol.com/hss/storage/patch/ee9e9a47c5fed9343138174f1d111ba5", "scorecard": null, "featured": false, "sample_categories": "Restaurants, Chinese, American Express, MasterCard, Visa", "public_id": "china-kitchen-marietta", "id": 2910510, "votes": null, "tagline": null, "has_video": false, "website": null, "offers": null, "latitude": 33.939938, "politanName": "Atlanta, GA Metro ", "phone_number": "7704299020", "tags": [{"primary": false, "id": 11252, "name": "Chinese"}, {"primary": false, "id": 11333, "name": "American Express"}, {"primary": false, "id": 11361, "name": "MasterCard"}, {"primary": false, "id": 11382, "name": "Visa"}, {"primary": true, "id": 1722, "name": "Restaurants"}], "fax_number": null, "expansion": {"count": null, "uri": null}, "impression_id": "000b000000abe3f9efdd4949639c008c349463adfe", "profile": "http://www.citysearch.com/profile/2910510/marietta_ga/china_kitchen.html", "address": {"city": "Marietta", "state": "GA", "street": "470 Franklin Rd SE Ste 102", "postal_code": "30067"}, "capProviderId": null, "distance": null, "has_offers": false, "name": "China Kitchen", "longitude": -84.508824, "has_menu": true, "awards": null, "user_review_count": 2}, {"business_operation_status": 1, "rating": null, "neighborhood": null, "image": "http://o3.aolcdn.com/dims-shared/dims3/PATCH/resize/600x450/http://hss-prod.hss.aol.com/hss/storage/patch/c02d74be8ca6e319a21fff9efe7880a", "scorecard": null, "featured": false, "sample_categories": "Restaurants, Traditional American, Carry Out, American Express, Discover", "public_id": "checkers-drivein-restaurant-smyrna-3", "id": 682489830, "votes": null, "tagline": null, "has_video": false, "website": "http://www.citysearch.com/profile/external/682489830/smyrna_ga/checkers_drive_in_restaurant.html", "offers": null, "latitude": 33.894141, "politanName": "Atlanta, GA Metro ", "phone_number": "7704362455", "tags": [{"primary": false, "id": 11190, "name": "Traditional American"}, {"primary": false, "id": 11247, "name": "Carry Out"}, {"primary": false, "id": 11333, "name": "American Express"}, {"primary": false, "id": 11349, "name": "Discover"}, {"primary": false, "id": 11361, "name": "MasterCard"}, {"primary": false, "id": 11382, "name": "Visa"}, {"primary": true, "id": 1722, "name": "Restaurants"}], "fax_number": null, "expansion": {"count": null, "uri": null}, "impression_id": "000b000000f246bac0d4cb472ca96aef5ed106330b", "profile": "http://www.citysearch.com/profile/682489830/smyrna_ga/checkers_drive_in_restaurant.html", "address": {"city": "Smyrna", "state": "GA", "street": "2401 S Cobb Dr Se", "postal_code": "30080"}, "capProviderId": null, "distance": null, "has_offers": false, "name": "Checkers Drive-In Restaurant", "longitude": -84.538455, "has_menu": true, "awards": null, "user_review_count": 0}, {"business_operation_status": 1, "rating": null, "neighborhood": null, "image": "http://o5.aolcdn.com/dims-shared/dims3/PATCH/resize/600x450/http://hss-prod.hss.aol.com/hss/storage/patch/d9e67ce7e77ee299a6dd4f772674ce67", "scorecard": null, "featured": false, "sample_categories": "Restaurants, Mexican", "public_id": "julias-taqueria-marietta", "id": 45556667, "votes": null, "tagline": null, "has_video": false, "website": null, "offers": null, "latitude": 33.951285, "politanName": "Atlanta, GA Metro ", "phone_number": "7704211598", "tags": [{"primary": false, "id": 11208, "name": "Mexican"}, {"primary": true, "id": 1722, "name": "Restaurants"}], "fax_number": null, "expansion": {"count": null, "uri": null}, "impression_id": "000b0000005e58d62066d2461caf8199c8128cd876", "profile": "http://www.citysearch.com/profile/45556667/marietta_ga/julia_s_taqueria.html", "address": {"city": "Marietta", "state": "GA", "street": "737 Roswell St NE", "postal_code": "30060"}, "capProviderId": null, "distance": null, "has_offers": false, "name": "Julia's Taqueria", "longitude": -84.530697, "has_menu": false, "awards": null, "user_review_count": 0}, {"business_operation_status": 1, "rating": 3.0, "neighborhood": null, "image": null, "scorecard": null, "featured": false, "sample_categories": "Restaurants", "public_id": "loco-willys-marietta", "id": 655809500, "votes": null, "tagline": null, "has_video": false, "website": null, "offers": null, "latitude": 33.952594, "politanName": "Atlanta, GA Metro ", "phone_number": "7704990077", "tags": [{"primary": true, "id": 1722, "name": "Restaurants"}], "fax_number": null, "expansion": {"count": null, "uri": null}, "impression_id": "000b000000955c5e61de13429ebdd9ca2da1059c36", "profile": "http://www.citysearch.com/profile/655809500/marietta_ga/loco_willy_s.html", "address": {"city": "Marietta", "state": "GA", "street": "800 Whitlock Ave Nw", "postal_code": "30064"}, "capProviderId": null, "distance": null, "has_offers": false, "name": "Loco Willy's", "longitude": -84.575881, "has_menu": false, "awards": null, "user_review_count": 2}, {"business_operation_status": 1, "rating": 2.0, "neighborhood": null, "image": null, "scorecard": null, "featured": false, "sample_categories": "Restaurants, Asian Fusion, Asian", "public_id": "zyng-marietta", "id": 43857180, "votes": null, "tagline": null, "has_video": false, "website": null, "offers": null, "latitude": 33.952164, "politanName": "Atlanta, GA Metro ", "phone_number": "7704198808", "tags": [{"primary": false, "id": 1722, "name": "Restaurants"}, {"primary": false, "id": 11235, "name": "Asian"}, {"primary": true, "id": 12838, "name": "Asian Fusion"}], "fax_number": null, "expansion": {"count": null, "uri": null}, "impression_id": "000b0000006ba348308e2f4575ba08b467ec91532a", "profile": "http://www.citysearch.com/profile/43857180/marietta_ga/zyng.html", "address": {"city": "Marietta", "state": "GA", "street": "3625 Dallas Hwy SW Ste 690", "postal_code": "30064"}, "capProviderId": null, "distance": null, "has_offers": false, "name": "Zyng", "longitude": -84.657799, "has_menu": false, "awards": null, "user_review_count": 2}, {"business_operation_status": 0, "rating": 2.0, "neighborhood": null, "image": "http://o5.aolcdn.com/dims-shared/dims3/PATCH/resize/600x450/http://hss-prod.hss.aol.com/hss/storage/patch/b11e4de092f7716a4a31448533d2462a", "scorecard": null, "featured": false, "sample_categories": "Restaurants, Barbecue Restaurants", "public_id": "old-ephraims-restaurant-marietta", "id": 621888180, "votes": null, "tagline": null, "has_video": false, "website": "http://www.citysearch.com/profile/external/621888180/marietta_ga/old_ephraims_restaurant.html", "offers": null, "latitude": 33.952302, "politanName": "Atlanta, GA Metro ", "phone_number": "7704250073", "tags": [{"primary": false, "id": 1724, "name": "Barbecue Restaurants"}, {"primary": true, "id": 1722, "name": "Restaurants"}], "fax_number": null, "expansion": {"count": null, "uri": null}, "impression_id": "000b000000958e4671727b49a48a0c426c1f02e2b7", "profile": "http://www.citysearch.com/profile/621888180/marietta_ga/old_ephraims_restaurant.html", "address": {"city": "Marietta", "state": "GA", "street": "70 S Park Sq Ne", "postal_code": "30060"}, "capProviderId": null, "distance": null, "has_offers": false, "name": "Old Ephraims Restaurant", "longitude": -84.549841, "has_menu": false, "awards": null, "user_review_count": 1}, {"business_operation_status": 1, "rating": null, "neighborhood": null, "image": "http://o2.aolcdn.com/dims-shared/dims3/PATCH/resize/600x450/http://hss-prod.hss.aol.com/hss/storage/patch/96381892250247c1cd345e3740952900", "scorecard": null, "featured": false, "sample_categories": "Franchising, Bakeries, Restaurants, Delis And Delicatessens, Restaurant Management", "public_id": "atlanta-bread-co-intl-inc-smyrna", "id": 2919105, "votes": null, "tagline": null, "has_video": false, "website": "http://www.citysearch.com/profile/external/2919105/smyrna_ga/atlanta_bread_co_intl_inc.html", "offers": null, "latitude": 33.894465, "politanName": "Atlanta, GA Metro ", "phone_number": "7704320933", "tags": [{"primary": false, "id": 1639, "name": "Franchising"}, {"primary": false, "id": 1685, "name": "Bakeries"}, {"primary": false, "id": 1722, "name": "Restaurants"}, {"primary": false, "id": 1727, "name": "Delis And Delicatessens"}, {"primary": false, "id": 11247, "name": "Carry Out"}, {"primary": true, "id": 11122, "name": "Restaurant Management"}], "fax_number": null, "expansion": {"count": null, "uri": null}, "impression_id": "000b000000fcf7400456f240458c6705c6ea1bef2f", "profile": "http://www.citysearch.com/profile/2919105/smyrna_ga/atlanta_bread_co_intl_inc.html", "address": {"city": "Smyrna", "state": "GA", "street": "1955 Lake Park Dr SE Ste 400", "postal_code": "30080"}, "capProviderId": null, "distance": null, "has_offers": false, "name": "Atlanta Bread Co Intl Inc", "longitude": -84.485609, "has_menu": true, "awards": null, "user_review_count": 1}, {"business_operation_status": 1, "rating": null, "neighborhood": null, "image": "http://o4.aolcdn.com/dims-shared/dims3/PATCH/resize/600x450/http://hss-prod.hss.aol.com/hss/storage/patch/9aa1779e8e0b913f4367e768b7ecfced", "scorecard": null, "featured": false, "sample_categories": "Restaurants", "public_id": "cafe-copper-top-atlanta", "id": 601369895, "votes": null, "tagline": null, "has_video": false, "website": "http://www.citysearch.com/profile/external/601369895/atlanta_ga/cafe_copper_top.html", "offers": null, "latitude": 33.877346, "politanName": "Atlanta, GA Metro ", "phone_number": "7709555076", "tags": [{"primary": true, "id": 1722, "name": "Restaurants"}], "fax_number": null, "expansion": {"count": null, "uri": null}, "impression_id": "000b000000ca2d842281a6465b9ea9c2a9a9ef3ef2", "profile": "http://www.citysearch.com/profile/601369895/atlanta_ga/cafe_copper_top.html", "address": {"city": "Atlanta", "state": "GA", "street": "3100 Cumberland Blvd Se # 180", "postal_code": "30339"}, "capProviderId": null, "distance": null, "has_offers": false, "name": "Cafe Copper Top", "longitude": -84.465229, "has_menu": false, "awards": null, "user_review_count": 0}, {"business_operation_status": 1, "rating": null, "neighborhood": null, "image": "http://o5.aolcdn.com/dims-shared/dims3/PATCH/resize/600x450/http://hss-prod.hss.aol.com/hss/storage/patch/2d29d59abce2a7f4ce3700dca5556aef", "scorecard": null, "featured": false, "sample_categories": "Restaurants, Carry Out, Hamburgers", "public_id": "wendys-atlanta-29", "id": 713357300, "votes": null, "tagline": null, "has_video": false, "website": "http://www.citysearch.com/profile/external/713357300/atlanta_ga/wendy_s.html", "offers": null, "latitude": 33.885111, "politanName": "Atlanta, GA Metro ", "phone_number": "7709524553", "tags": [{"primary": false, "id": 11247, "name": "Carry Out"}, {"primary": false, "id": 11270, "name": "Hamburgers"}, {"primary": true, "id": 1722, "name": "Restaurants"}], "fax_number": null, "expansion": {"count": null, "uri": null}, "impression_id": "000b000000475641369cdc4148a03bf5a3ef1819d5", "profile": "http://www.citysearch.com/profile/713357300/atlanta_ga/wendy_s.html", "address": {"city": "Atlanta", "state": "GA", "street": "2808 Spring Rd Se", "postal_code": "30339"}, "capProviderId": null, "distance": null, "has_offers": false, "name": "Wendy's", "longitude": -84.472637, "has_menu": true, "awards": null, "user_review_count": 0}, {"business_operation_status": 1, "rating": null, "neighborhood": null, "image": "http://o2.aolcdn.com/dims-shared/dims3/PATCH/resize/600x450/http://hss-prod.hss.aol.com/hss/storage/patch/ad5e079f95ff2b9ce92d4a47f8bea319", "scorecard": null, "featured": false, "sample_categories": "Restaurants, Pizza, Carry Out", "public_id": "little-caesars-pizza-smyrna-2", "id": 642189790, "votes": null, "tagline": null, "has_video": false, "website": "http://www.citysearch.com/profile/external/642189790/smyrna_ga/little_caesars_pizza.html", "offers": null, "latitude": 33.873676, "politanName": "Atlanta, GA Metro ", "phone_number": "7703333334", "tags": [{"primary": false, "id": 1722, "name": "Restaurants"}, {"primary": false, "id": 11247, "name": "Carry Out"}, {"primary": true, "id": 11299, "name": "Pizza"}], "fax_number": null, "expansion": {"count": null, "uri": null}, "impression_id": "000b000000d8a2b49c822d4098bfba4812af9cff95", "profile": "http://www.citysearch.com/profile/642189790/smyrna_ga/little_caesars_pizza.html", "address": {"city": "Smyrna", "state": "GA", "street": "3315 S Cobb Dr Se", "postal_code": "30080"}, "capProviderId": null, "distance": null, "has_offers": false, "name": "Little Caesars Pizza", "longitude": -84.52868, "has_menu": true, "awards": null, "user_review_count": 0}, {"business_operation_status": 1, "rating": null, "neighborhood": null, "image": "http://o1.aolcdn.com/dims-shared/dims3/PATCH/resize/600x450/http://hss-prod.hss.aol.com/hss/storage/patch/8f06130d7a0d260a45b4f9ad6073d686", "scorecard": null, "featured": false, "sample_categories": "Restaurants, Mexican", "public_id": "el-tejanito-mexican-grill-marietta-2", "id": 682513710, "votes": null, "tagline": null, "has_video": false, "website": null, "offers": null, "latitude": 33.908921, "politanName": "Atlanta, GA Metro ", "phone_number": "7704360303", "tags": [{"primary": false, "id": 11208, "name": "Mexican"}, {"primary": true, "id": 1722, "name": "Restaurants"}], "fax_number": null, "expansion": {"count": null, "uri": null}, "impression_id": "000b000000488c202f1c02479d8ba7ca99f3c36d00", "profile": "http://www.citysearch.com/profile/682513710/marietta_ga/el_tejanito_mexican_grill.html", "address": {"city": "Marietta", "state": "GA", "street": "1815 S Cobb Dr Se # 107", "postal_code": "30060"}, "capProviderId": null, "distance": null, "has_offers": false, "name": "El Tejanito Mexican Grill", "longitude": -84.544065, "has_menu": false, "awards": null, "user_review_count": 0}, {"business_operation_status": 1, "rating": null, "neighborhood": null, "image": "http://o3.aolcdn.com/dims-shared/dims3/PATCH/resize/600x450/http://hss-prod.hss.aol.com/hss/storage/patch/fe2a44167f2e42b6bd5515f1b6809720", "scorecard": null, "featured": false, "sample_categories": "Restaurants, American Express, Discover, MasterCard, Visa", "public_id": "martins-restaurant-marietta", "id": 2906492, "votes": null, "tagline": null, "has_video": false, "website": "http://www.citysearch.com/profile/external/2906492/marietta_ga/martin_s_restaurant.html", "offers": null, "latitude": 33.922948, "politanName": "Atlanta, GA Metro ", "phone_number": "7704251495", "tags": [{"primary": false, "id": 11333, "name": "American Express"}, {"primary": false, "id": 11349, "name": "Discover"}, {"primary": false, "id": 11361, "name": "MasterCard"}, {"primary": false, "id": 11382, "name": "Visa"}, {"primary": true, "id": 1722, "name": "Restaurants"}], "fax_number": null, "expansion": {"count": null, "uri": null}, "impression_id": "000b000000d8b62e17fc7c4f869e1c6691be9b8bbb", "profile": "http://www.citysearch.com/profile/2906492/marietta_ga/martin_s_restaurant.html", "address": {"city": "Marietta", "state": "GA", "street": "1215 Powder Springs Rd SW", "postal_code": "30064"}, "capProviderId": null, "distance": null, "has_offers": false, "name": "Martin's Restaurant", "longitude": -84.576821, "has_menu": false, "awards": null, "user_review_count": 0}, {"business_operation_status": 1, "rating": null, "neighborhood": null, "image": "http://o1.aolcdn.com/dims-shared/dims3/PATCH/resize/600x450/http://hss-prod.hss.aol.com/hss/storage/patch/b62dbd58c78d53df00b78f731a10bc88", "scorecard": null, "featured": false, "sample_categories": "Bakeries, Restaurants, Gift Baskets", "public_id": "cornerstone-cake-co-marietta", "id": 3027938, "votes": null, "tagline": null, "has_video": false, "website": "http://www.citysearch.com/profile/external/3027938/marietta_ga/cornerstone_cake_co.html", "offers": null, "latitude": 33.944038, "politanName": "Atlanta, GA Metro ", "phone_number": "7702182549", "tags": [{"primary": false, "id": 1722, "name": "Restaurants"}, {"primary": false, "id": 12321, "name": "Gift Baskets"}, {"primary": true, "id": 1685, "name": "Bakeries"}], "fax_number": null, "expansion": {"count": null, "uri": null}, "impression_id": "000b0000003ad020825a5546c9a11a70b9e413337c", "profile": "http://www.citysearch.com/profile/3027938/marietta_ga/cornerstone_cake_co.html", "address": {"city": "Marietta", "state": "GA", "street": "330 Franklin Rd SE Ste A", "postal_code": "30067"}, "capProviderId": null, "distance": null, "has_offers": false, "name": "Cornerstone Cake Co", "longitude": -84.512153, "has_menu": false, "awards": null, "user_review_count": 0}, {"business_operation_status": 1, "rating": null, "neighborhood": null, "image": "http://o3.aolcdn.com/dims-shared/dims3/PATCH/resize/600x450/http://hss-prod.hss.aol.com/hss/storage/patch/fa1b7cb3007490d3bb7a7d1bb26641da", "scorecard": null, "featured": false, "sample_categories": "Restaurants, Pizza, Carry Out", "public_id": "little-caesars-pizza-marietta-11", "id": 631963010, "votes": null, "tagline": null, "has_video": false, "website": "http://www.citysearch.com/profile/external/631963010/marietta_ga/little_caesars_pizza.html", "offers": null, "latitude": 33.969856, "politanName": "Atlanta, GA Metro ", "phone_number": "7709715210", "tags": [{"primary": false, "id": 1722, "name": "Restaurants"}, {"primary": false, "id": 11247, "name": "Carry Out"}, {"primary": true, "id": 11299, "name": "Pizza"}], "fax_number": null, "expansion": {"count": null, "uri": null}, "impression_id": "000b000000642dc5e738354b45837e62b1e6f027c2", "profile": "http://www.citysearch.com/profile/631963010/marietta_ga/little_caesars_pizza.html", "address": {"city": "Marietta", "state": "GA", "street": "2200 Roswell Rd", "postal_code": "30062"}, "capProviderId": null, "distance": null, "has_offers": false, "name": "Little Caesars Pizza", "longitude": -84.488427, "has_menu": true, "awards": null, "user_review_count": 0}, {"business_operation_status": 1, "rating": null, "neighborhood": null, "image": "http://o3.aolcdn.com/dims-shared/dims3/PATCH/resize/600x450/http://hss-prod.hss.aol.com/hss/storage/patch/d1a60a7c653912b4ea1a438560d0bb88", "scorecard": null, "featured": false, "sample_categories": "Restaurants, Ice Cream Parlors, Mexican", "public_id": "don-chilitos-marietta", "id": 766774450, "votes": null, "tagline": null, "has_video": false, "website": null, "offers": null, "latitude": 33.90796, "politanName": "Atlanta, GA Metro ", "phone_number": "7709531006", "tags": [{"primary": false, "id": 1730, "name": "Ice Cream Parlors"}, {"primary": false, "id": 11208, "name": "Mexican"}, {"primary": true, "id": 1722, "name": "Restaurants"}], "fax_number": null, "expansion": {"count": null, "uri": null}, "impression_id": "000b0000003f7ece6e4ec14f1e9b1b078ce5d690e3", "profile": "http://www.citysearch.com/profile/766774450/marietta_ga/don_chilito_s.html", "address": {"city": "Marietta", "state": "GA", "street": "1853 Terrell Mill Rd SE", "postal_code": "30067"}, "capProviderId": null, "distance": null, "has_offers": false, "name": "Don Chilito's", "longitude": -84.48792, "has_menu": false, "awards": null, "user_review_count": 0}, {"business_operation_status": 1, "rating": 8.0, "neighborhood": null, "image": "http://o1.aolcdn.com/dims-shared/dims3/PATCH/resize/600x450/http://hss-prod.hss.aol.com/hss/storage/patch/693d89665e0cb37a0d8cbb121229dbcc", "scorecard": null, "featured": false, "sample_categories": "Restaurants, Chinese, American Express, MasterCard, Visa", "public_id": "china-house-marietta", "id": 2905981, "votes": null, "tagline": null, "has_video": false, "website": null, "offers": null, "latitude": 33.976739, "politanName": "Atlanta, GA Metro ", "phone_number": "7705796623", "tags": [{"primary": false, "id": 11252, "name": "Chinese"}, {"primary": false, "id": 11333, "name": "American Express"}, {"primary": false, "id": 11361, "name": "MasterCard"}, {"primary": false, "id": 11382, "name": "Visa"}, {"primary": true, "id": 1722, "name": "Restaurants"}], "fax_number": null, "expansion": {"count": null, "uri": null}, "impression_id": "000b0000001aef2d20be284e5781a6c6de61b2b77b", "profile": "http://www.citysearch.com/profile/2905981/marietta_ga/china_house.html", "address": {"city": "Marietta", "state": "GA", "street": "1050 E Piedmont Rd Ste V", "postal_code": "30062"}, "capProviderId": null, "distance": null, "has_offers": false, "name": "China House", "longitude": -84.479676, "has_menu": true, "awards": null, "user_review_count": 1}, {"business_operation_status": 1, "rating": null, "neighborhood": null, "image": "http://o3.aolcdn.com/dims-shared/dims3/PATCH/resize/600x450/http://hss-prod.hss.aol.com/hss/storage/patch/896e4cbc0fff3f60b2b1e989a2a6dade", "scorecard": null, "featured": false, "sample_categories": "Restaurants, Bars & Clubs, Bars & Pubs", "public_id": "texano-bar-grill-marietta", "id": 732177110, "votes": null, "tagline": null, "has_video": false, "website": null, "offers": null, "latitude": 33.928458, "politanName": "Atlanta, GA Metro ", "phone_number": "7709525139", "tags": [{"primary": false, "id": 164, "name": "Bars & Clubs"}, {"primary": false, "id": 1686, "name": "Bars & Pubs"}, {"primary": true, "id": 1722, "name": "Restaurants"}], "fax_number": null, "expansion": {"count": null, "uri": null}, "impression_id": "000b000000e529586a78d24f62ba64a59e2374e2f6", "profile": "http://www.citysearch.com/profile/732177110/marietta_ga/texano_bar_grill.html", "address": {"city": "Marietta", "state": "GA", "street": "1033 Franklin Rd SE # 13", "postal_code": "30067"}, "capProviderId": null, "distance": null, "has_offers": false, "name": "Texano Bar & Grill", "longitude": -84.492995, "has_menu": false, "awards": null, "user_review_count": 0}, {"business_operation_status": 1, "rating": null, "neighborhood": null, "image": "http://o4.aolcdn.com/dims-shared/dims3/PATCH/resize/600x450/http://hss-prod.hss.aol.com/hss/storage/patch/fe89341c6143cbe6fc246b7c4d19e718", "scorecard": null, "featured": false, "sample_categories": "Health Food Stores, Restaurants, Ice Cream Parlors, Health Food Stores", "public_id": "smoothie-king-marietta-2", "id": 45008960, "votes": null, "tagline": null, "has_video": false, "website": "http://www.citysearch.com/profile/external/45008960/marietta_ga/smoothie_king.html", "offers": null, "latitude": 34.041936, "politanName": "Atlanta, GA Metro ", "phone_number": "6784451287", "tags": [{"primary": false, "id": 1722, "name": "Restaurants"}, {"primary": false, "id": 1730, "name": "Ice Cream Parlors"}, {"primary": false, "id": 17570, "name": "Health Food Stores"}, {"primary": true, "id": 1716, "name": "Health Food Stores"}], "fax_number": null, "expansion": {"count": null, "uri": null}, "impression_id": "000b000000591a2975d59d4266846ee8378a58985e", "profile": "http://www.citysearch.com/profile/45008960/marietta_ga/smoothie_king.html", "address": {"city": "Marietta", "state": "GA", "street": "2525 Shallowford Rd 600", "postal_code": "30066"}, "capProviderId": null, "distance": null, "has_offers": false, "name": "Smoothie King", "longitude": -84.477524, "has_menu": true, "awards": null, "user_review_count": 0}, {"business_operation_status": 1, "rating": null, "neighborhood": null, "image": "http://o2.aolcdn.com/dims-shared/dims3/PATCH/resize/600x450/http://hss-prod.hss.aol.com/hss/storage/patch/e802bd295b1d47e92acb88ec4495bf9c", "scorecard": null, "featured": false, "sample_categories": "Restaurants, Mexican", "public_id": "taqueria-mi-pueblito-marietta", "id": 43854124, "votes": null, "tagline": null, "has_video": false, "website": null, "offers": null, "latitude": 33.928458, "politanName": "Atlanta, GA Metro ", "phone_number": "7709551133", "tags": [{"primary": false, "id": 11208, "name": "Mexican"}, {"primary": true, "id": 1722, "name": "Restaurants"}], "fax_number": null, "expansion": {"count": null, "uri": null}, "impression_id": "000b000000760ab8f2a4744a42b0ec83e22447bf0b", "profile": "http://www.citysearch.com/profile/43854124/marietta_ga/taqueria_mi_pueblito.html", "address": {"city": "Marietta", "state": "GA", "street": "1033 Franklin Rd SE", "postal_code": "30067"}, "capProviderId": null, "distance": null, "has_offers": false, "name": "Taqueria Mi Pueblito", "longitude": -84.492995, "has_menu": false, "awards": null, "user_review_count": 0}, {"business_operation_status": 1, "rating": 6.0, "neighborhood": null, "image": "http://o2.aolcdn.com/dims-shared/dims3/PATCH/resize/600x450/http://hss-prod.hss.aol.com/hss/storage/patch/17b105b41eeab27057f5e185320f836e", "scorecard": null, "featured": false, "sample_categories": "Restaurants, Pizza, MasterCard, Visa", "public_id": "pizza-k-marietta", "id": 2910557, "votes": null, "tagline": null, "has_video": false, "website": "http://www.citysearch.com/profile/external/2910557/marietta_ga/pizza_k.html", "offers": null, "latitude": 33.902653, "politanName": "Atlanta, GA Metro ", "phone_number": "7709331999", "tags": [{"primary": false, "id": 1722, "name": "Restaurants"}, {"primary": false, "id": 11361, "name": "MasterCard"}, {"primary": false, "id": 11382, "name": "Visa"}, {"primary": true, "id": 11299, "name": "Pizza"}], "fax_number": null, "expansion": {"count": null, "uri": null}, "impression_id": "000b000000c2153ee4ee9f4e0d975fb9060c9ce4ca", "profile": "http://www.citysearch.com/profile/2910557/marietta_ga/pizza_k.html", "address": {"city": "Marietta", "state": "GA", "street": "2468 Windy Hill Rd SE Ste 800", "postal_code": "30067"}, "capProviderId": null, "distance": null, "has_offers": false, "name": "Pizza K", "longitude": -84.481601, "has_menu": true, "awards": null, "user_review_count": 4}, {"business_operation_status": 1, "rating": null, "neighborhood": null, "image": "http://o3.aolcdn.com/dims-shared/dims3/PATCH/resize/600x450/http://hss-prod.hss.aol.com/hss/storage/patch/8bb21d05c1106fe5dc3169590c967350", "scorecard": null, "featured": false, "sample_categories": "Restaurants, Traditional American, MasterCard, Visa", "public_id": "huddle-house-marietta", "id": 2900953, "votes": null, "tagline": null, "has_video": false, "website": "http://www.citysearch.com/profile/external/2900953/marietta_ga/huddle_house.html", "offers": null, "latitude": 33.943063, "politanName": "Atlanta, GA Metro ", "phone_number": "7704243784", "tags": [{"primary": false, "id": 11190, "name": "Traditional American"}, {"primary": false, "id": 11361, "name": "MasterCard"}, {"primary": false, "id": 11382, "name": "Visa"}, {"primary": true, "id": 1722, "name": "Restaurants"}], "fax_number": null, "expansion": {"count": null, "uri": null}, "impression_id": "000b000000cf79db6648ae4ed98389d8a79bc5d4cd", "profile": "http://www.citysearch.com/profile/2900953/marietta_ga/huddle_house.html", "address": {"city": "Marietta", "state": "GA", "street": "430 S Marietta Pkwy SE", "postal_code": "30060"}, "capProviderId": null, "distance": null, "has_offers": false, "name": "Huddle House", "longitude": -84.540341, "has_menu": true, "awards": null, "user_review_count": 0}, {"business_operation_status": 1, "rating": null, "neighborhood": null, "image": "http://o1.aolcdn.com/dims-shared/dims3/PATCH/resize/600x450/http://hss-prod.hss.aol.com/hss/storage/patch/4088e61d27b4a6ee2cea17477d976ede", "scorecard": null, "featured": false, "sample_categories": "Restaurants, Mexican", "public_id": "taco-loco-marietta-2", "id": 621933330, "votes": null, "tagline": null, "has_video": false, "website": null, "offers": null, "latitude": 33.938267, "politanName": "Atlanta, GA Metro ", "phone_number": "6784025838", "tags": [{"primary": false, "id": 11208, "name": "Mexican"}, {"primary": true, "id": 1722, "name": "Restaurants"}], "fax_number": null, "expansion": {"count": null, "uri": null}, "impression_id": "000b000000b806edd459d34a3d97c8be3ce742d1e9", "profile": "http://www.citysearch.com/profile/621933330/marietta_ga/taco_loco.html", "address": {"city": "Marietta", "state": "GA", "street": "601 Powder Springs St", "postal_code": "30064"}, "capProviderId": null, "distance": null, "has_offers": false, "name": "Taco Loco", "longitude": -84.553758, "has_menu": true, "awards": null, "user_review_count": 1}, {"business_operation_status": 0, "rating": null, "neighborhood": null, "image": "http://o3.aolcdn.com/dims-shared/dims3/PATCH/resize/600x450/http://hss-prod.hss.aol.com/hss/storage/patch/3cdbdfffc62c030f1857f026d82f0bc9", "scorecard": null, "featured": false, "sample_categories": "Ice Cream Parlors", "public_id": "southern-ice-cream-specialties-marietta", "id": 632998180, "votes": null, "tagline": null, "has_video": false, "website": "http://www.citysearch.com/profile/external/632998180/marietta_ga/southern_ice_cream_specialties.html", "offers": null, "latitude": 33.978127, "politanName": "Atlanta, GA Metro ", "phone_number": "7704190209", "tags": [{"primary": true, "id": 1730, "name": "Ice Cream Parlors"}], "fax_number": null, "expansion": {"count": null, "uri": null}, "impression_id": "000b000000b91e82aeef9246a3b60f8fc89d2857b7", "profile": "http://www.citysearch.com/profile/632998180/marietta_ga/southern_ice_cream_specialties.html", "address": {"city": "Marietta", "state": "GA", "street": "1095 Marietta Industrial Dr", "postal_code": "30062"}, "capProviderId": null, "distance": null, "has_offers": false, "name": "Southern Ice Cream Specialties", "longitude": -84.538728, "has_menu": false, "awards": null, "user_review_count": 0}, {"business_operation_status": 1, "rating": null, "neighborhood": null, "image": "http://o4.aolcdn.com/dims-shared/dims3/PATCH/resize/600x450/http://hss-prod.hss.aol.com/hss/storage/patch/f020e7c3f214aed1cac877fd4b1f798f", "scorecard": null, "featured": false, "sample_categories": "Restaurants", "public_id": "stevi-bs-pizza-marietta-2", "id": 672604550, "votes": null, "tagline": null, "has_video": false, "website": "http://www.citysearch.com/profile/external/672604550/marietta_ga/stevi_b_s_pizza.html", "offers": null, "latitude": 33.908275, "politanName": "Atlanta, GA Metro ", "phone_number": "6783840052", "tags": [{"primary": true, "id": 1722, "name": "Restaurants"}], "fax_number": null, "expansion": {"count": null, "uri": null}, "impression_id": "000b000000383e575e7bb04436b346b87cca466f98", "profile": "http://www.citysearch.com/profile/672604550/marietta_ga/stevi_b_s_pizza.html", "address": {"city": "Marietta", "state": "GA", "street": "2667 Powder Springs Road", "postal_code": "30064"}, "capProviderId": null, "distance": null, "has_offers": false, "name": "Stevi B's Pizza", "longitude": -84.600952, "has_menu": false, "awards": null, "user_review_count": 0}, {"business_operation_status": 1, "rating": null, "neighborhood": null, "image": "http://o2.aolcdn.com/dims-shared/dims3/PATCH/resize/600x450/http://hss-prod.hss.aol.com/hss/storage/patch/2cf0415ec8433e2ce05f200b003cd177", "scorecard": null, "featured": false, "sample_categories": "Restaurants, Vanities, American Express, Discover, MasterCard", "public_id": "m-j-home-cooking-marietta", "id": 43853558, "votes": null, "tagline": null, "has_video": false, "website": null, "offers": null, "latitude": 33.903742, "politanName": "Atlanta, GA Metro ", "phone_number": "7709199259", "tags": [{"primary": false, "id": 26280, "name": "Vanities"}, {"primary": false, "id": 11333, "name": "American Express"}, {"primary": false, "id": 11349, "name": "Discover"}, {"primary": false, "id": 11361, "name": "MasterCard"}, {"primary": false, "id": 11382, "name": "Visa"}, {"primary": true, "id": 1722, "name": "Restaurants"}], "fax_number": null, "expansion": {"count": null, "uri": null}, "impression_id": "000b000000999412c1a34b497aaf4935c0ccb9b8da", "profile": "http://www.citysearch.com/profile/43853558/marietta_ga/m_j_home_cooking.html", "address": {"city": "Marietta", "state": "GA", "street": "1750 Powder Springs Rd SW # 320", "postal_code": "30064"}, "capProviderId": null, "distance": null, "has_offers": false, "name": "M & J Home Cooking", "longitude": -84.606517, "has_menu": false, "awards": null, "user_review_count": 0}, {"business_operation_status": 1, "rating": null, "neighborhood": null, "image": "http://o2.aolcdn.com/dims-shared/dims3/PATCH/resize/600x450/http://hss-prod.hss.aol.com/hss/storage/patch/e1e44a52395d41109854f9462768ce85", "scorecard": null, "featured": false, "sample_categories": "Restaurants, Barbecue Restaurants, American Express, Discover, MasterCard", "public_id": "wings-bbq-smyrna-2", "id": 45555728, "votes": null, "tagline": null, "has_video": false, "website": "http://www.citysearch.com/profile/external/45555728/smyrna_ga/wings_bbq.html", "offers": null, "latitude": 33.895716, "politanName": "Atlanta, GA Metro ", "phone_number": "7709888283", "tags": [{"primary": false, "id": 1724, "name": "Barbecue Restaurants"}, {"primary": false, "id": 11333, "name": "American Express"}, {"primary": false, "id": 11349, "name": "Discover"}, {"primary": false, "id": 11361, "name": "MasterCard"}, {"primary": false, "id": 11382, "name": "Visa"}, {"primary": true, "id": 1722, "name": "Restaurants"}], "fax_number": null, "expansion": {"count": null, "uri": null}, "impression_id": "000b000000f937f8e4067a4bd08691b8d2b8bd182c", "profile": "http://www.citysearch.com/profile/45555728/smyrna_ga/wings_bbq.html", "address": {"city": "Smyrna", "state": "GA", "street": "2331 Cobb Pkwy SE", "postal_code": "30080"}, "capProviderId": null, "distance": null, "has_offers": false, "name": "Wings & Bbq", "longitude": -84.480732, "has_menu": true, "awards": null, "user_review_count": 2}, {"business_operation_status": 1, "rating": null, "neighborhood": null, "image": "http://o4.aolcdn.com/dims-shared/dims3/PATCH/resize/600x450/http://hss-prod.hss.aol.com/hss/storage/patch/9fce2cc8503d44ca8754319369fa6ff8", "scorecard": null, "featured": false, "sample_categories": "Restaurants, Diners, Traditional American, Carry Out", "public_id": "waffle-house-marietta-2", "id": 601298083, "votes": null, "tagline": null, "has_video": false, "website": "http://www.citysearch.com/profile/external/601298083/marietta_ga/waffle_house.html", "offers": null, "latitude": 33.951934, "politanName": "Atlanta, GA Metro ", "phone_number": "6783547741", "tags": [{"primary": false, "id": 1732, "name": "Diners"}, {"primary": false, "id": 11190, "name": "Traditional American"}, {"primary": false, "id": 11247, "name": "Carry Out"}, {"primary": true, "id": 1722, "name": "Restaurants"}], "fax_number": null, "expansion": {"count": null, "uri": null}, "impression_id": "000b00000044dbece60e8040bebe85eebdf3723590", "profile": "http://www.citysearch.com/profile/601298083/marietta_ga/waffle_house.html", "address": {"city": "Marietta", "state": "GA", "street": "650 Whitlock Ave Nw", "postal_code": "30064"}, "capProviderId": null, "distance": null, "has_offers": false, "name": "Waffle House", "longitude": -84.571232, "has_menu": true, "awards": null, "user_review_count": 1}, {"business_operation_status": 1, "rating": null, "neighborhood": null, "image": "http://o5.aolcdn.com/dims-shared/dims3/PATCH/resize/600x450/http://hss-prod.hss.aol.com/hss/storage/patch/44f94ae2dc3ec59a6d20bddf5c387248", "scorecard": null, "featured": false, "sample_categories": "Restaurants, Mexican", "public_id": "tortilla-el-maisal-marietta", "id": 45988475, "votes": null, "tagline": null, "has_video": false, "website": null, "offers": null, "latitude": 33.978487, "politanName": "Atlanta, GA Metro ", "phone_number": "7704190546", "tags": [{"primary": false, "id": 11208, "name": "Mexican"}, {"primary": true, "id": 1722, "name": "Restaurants"}], "fax_number": null, "expansion": {"count": null, "uri": null}, "impression_id": "000b000000a443424817504fdfa2e7db9e16fb6304", "profile": "http://www.citysearch.com/profile/45988475/marietta_ga/tortilla_el_maisal.html", "address": {"city": "Marietta", "state": "GA", "street": "1092 Marietta Industrial Dr", "postal_code": "30062"}, "capProviderId": null, "distance": null, "has_offers": false, "name": "Tortilla El Maisal", "longitude": -84.538597, "has_menu": false, "awards": null, "user_review_count": 0}, {"business_operation_status": 1, "rating": null, "neighborhood": null, "image": "http://o3.aolcdn.com/dims-shared/dims3/PATCH/resize/600x450/http://hss-prod.hss.aol.com/hss/storage/patch/2ce9ceefabf6ad41ebd346a50e0eaf1e", "scorecard": null, "featured": false, "sample_categories": "Restaurants", "public_id": "starlight-cafe-marietta", "id": 672361670, "votes": null, "tagline": null, "has_video": false, "website": null, "offers": null, "latitude": 33.952296, "politanName": "Atlanta, GA Metro ", "phone_number": "7704194668", "tags": [{"primary": true, "id": 1722, "name": "Restaurants"}], "fax_number": null, "expansion": {"count": null, "uri": null}, "impression_id": "000b00000019aad21db00c4168ab744cc291e00e57", "profile": "http://www.citysearch.com/profile/672361670/marietta_ga/starlight_cafe.html", "address": {"city": "Marietta", "state": "GA", "street": "166 Roswell Street", "postal_code": "30060"}, "capProviderId": null, "distance": null, "has_offers": false, "name": "Starlight Cafe", "longitude": -84.548467, "has_menu": false, "awards": null, "user_review_count": 0}, {"business_operation_status": 1, "rating": null, "neighborhood": null, "image": "http://o2.aolcdn.com/dims-shared/dims3/PATCH/resize/600x450/http://hss-prod.hss.aol.com/hss/storage/patch/c50aa460df688e8c7b4dfdbfb3c55554", "scorecard": null, "featured": false, "sample_categories": "Restaurants, Carry Out, Hamburgers, American Express, Discover", "public_id": "fatburger-marietta-2", "id": 601299076, "votes": null, "tagline": null, "has_video": false, "website": "http://www.citysearch.com/profile/external/601299076/marietta_ga/fatburger.html", "offers": null, "latitude": 33.900638, "politanName": "Atlanta, GA Metro ", "phone_number": "6784535100", "tags": [{"primary": false, "id": 11247, "name": "Carry Out"}, {"primary": false, "id": 11270, "name": "Hamburgers"}, {"primary": false, "id": 11333, "name": "American Express"}, {"primary": false, "id": 11349, "name": "Discover"}, {"primary": false, "id": 11361, "name": "MasterCard"}, {"primary": false, "id": 11382, "name": "Visa"}, {"primary": true, "id": 1722, "name": "Restaurants"}], "fax_number": null, "expansion": {"count": null, "uri": null}, "impression_id": "000b00000042e03171d57f4e93a32578e40c546812", "profile": "http://www.citysearch.com/profile/601299076/marietta_ga/fatburger.html", "address": {"city": "Marietta", "state": "GA", "street": "2580 Windy Hill Rd Se", "postal_code": "30067"}, "capProviderId": null, "distance": null, "has_offers": false, "name": "Fatburger", "longitude": -84.477994, "has_menu": true, "awards": null, "user_review_count": 0}, {"business_operation_status": 1, "rating": null, "neighborhood": null, "image": "http://o3.aolcdn.com/dims-shared/dims3/PATCH/resize/600x450/http://hss-prod.hss.aol.com/hss/storage/patch/f86f2b3c888f83bb32e3b1e925ea25e1", "scorecard": null, "featured": false, "sample_categories": "Restaurants, Catering, Mexican", "public_id": "monterrey-mexican-restaurant-marietta", "id": 642190950, "votes": null, "tagline": null, "has_video": false, "website": null, "offers": null, "latitude": 33.919221, "politanName": "Atlanta, GA Metro ", "phone_number": "6789962898", "tags": [{"primary": false, "id": 1705, "name": "Catering"}, {"primary": false, "id": 11208, "name": "Mexican"}, {"primary": true, "id": 1722, "name": "Restaurants"}], "fax_number": null, "expansion": {"count": null, "uri": null}, "impression_id": "000b000000624983c6a6714a63babb67a716a0ded5", "profile": "http://www.citysearch.com/profile/642190950/marietta_ga/monterrey_mexican_restaurant.html", "address": {"city": "Marietta", "state": "GA", "street": "1368 Atlanta Rd Se # 120", "postal_code": "30060"}, "capProviderId": null, "distance": null, "has_offers": false, "name": "Monterrey Mexican Restaurant", "longitude": -84.542534, "has_menu": true, "awards": null, "user_review_count": 0}, {"business_operation_status": 1, "rating": null, "neighborhood": null, "image": "http://images.citysearch.net/assets/imgdb/merchant/2015/3/18/0/zKAXTjbf208.jpeg", "scorecard": null, "featured": false, "sample_categories": "Restaurants, Steakhouse", "public_id": "longhorn-steakhouse-kennesaw-2", "id": 620224794, "votes": null, "tagline": null, "has_video": false, "website": null, "offers": null, "latitude": 34.014304, "politanName": "Atlanta, GA Metro ", "phone_number": "7704211101", "tags": [{"primary": false, "id": 11316, "name": "Steakhouse"}, {"primary": true, "id": 1722, "name": "Restaurants"}], "fax_number": null, "expansion": {"count": null, "uri": null}, "impression_id": "000b000000e82ed3fb1d8b4bf3b7f768a2229bbdcb", "profile": "http://www.citysearch.com/profile/620224794/kennesaw_ga/longhorn_steakhouse.html", "address": {"city": "Kennesaw", "state": "GA", "street": "2700 Town Center Drive Suite 7", "postal_code": "30144"}, "capProviderId": null, "distance": null, "has_offers": false, "name": "LongHorn Steakhouse", "longitude": -84.564103, "has_menu": false, "awards": null, "user_review_count": 0}, {"business_operation_status": 1, "rating": null, "neighborhood": null, "image": "http://o1.aolcdn.com/dims-shared/dims3/PATCH/resize/600x450/http://hss-prod.hss.aol.com/hss/storage/patch/697aea21aae902224a018db122138b15", "scorecard": null, "featured": false, "sample_categories": "Restaurants, Diners, Cuban", "public_id": "cuban-diner-marietta", "id": 621875780, "votes": null, "tagline": null, "has_video": false, "website": "http://www.citysearch.com/profile/external/621875780/marietta_ga/cuban_diner.html", "offers": null, "latitude": 33.951107, "politanName": "Atlanta, GA Metro ", "phone_number": "7705092576", "tags": [{"primary": false, "id": 1732, "name": "Diners"}, {"primary": false, "id": 11192, "name": "Cuban"}, {"primary": true, "id": 1722, "name": "Restaurants"}], "fax_number": null, "expansion": {"count": null, "uri": null}, "impression_id": "000b00000037e3852f2b41440392d26ac21fdc85d0", "profile": "http://www.citysearch.com/profile/621875780/marietta_ga/cuban_diner.html", "address": {"city": "Marietta", "state": "GA", "street": "1484 Roswell Rd", "postal_code": "30062"}, "capProviderId": null, "distance": null, "has_offers": false, "name": "Cuban Diner", "longitude": -84.508501, "has_menu": true, "awards": null, "user_review_count": 1}, {"business_operation_status": 1, "rating": null, "neighborhood": null, "image": "http://o5.aolcdn.com/dims-shared/dims3/PATCH/resize/600x450/http://hss-prod.hss.aol.com/hss/storage/patch/8457d71a14b60f1e452ad9f6a7eade5d", "scorecard": null, "featured": false, "sample_categories": "Restaurants, Delis And Delicatessens", "public_id": "wings-cafe-deli-smyrna", "id": 627650400, "votes": null, "tagline": null, "has_video": false, "website": null, "offers": null, "latitude": 33.87498, "politanName": "Atlanta, GA Metro ", "phone_number": "7703195605", "tags": [{"primary": false, "id": 1727, "name": "Delis And Delicatessens"}, {"primary": true, "id": 1722, "name": "Restaurants"}], "fax_number": null, "expansion": {"count": null, "uri": null}, "impression_id": "000b00000096203a8ac0914d9e8ea6597fc64f5fbf", "profile": "http://www.citysearch.com/profile/627650400/smyrna_ga/wings_cafe_deli.html", "address": {"city": "Smyrna", "state": "GA", "street": "821 Concord Rd Se", "postal_code": "30080"}, "capProviderId": null, "distance": null, "has_offers": false, "name": "Wings Cafe & Deli", "longitude": -84.529694, "has_menu": false, "awards": null, "user_review_count": 0}, {"business_operation_status": 1, "rating": null, "neighborhood": null, "image": "http://o3.aolcdn.com/dims-shared/dims3/PATCH/resize/600x450/http://hss-prod.hss.aol.com/hss/storage/patch/68039d3fe959e72a929f836a642a2f84", "scorecard": null, "featured": false, "sample_categories": "Restaurants, Diners", "public_id": "divine-diner-marietta", "id": 647350040, "votes": null, "tagline": null, "has_video": false, "website": null, "offers": null, "latitude": 33.997727, "politanName": "Atlanta, GA Metro ", "phone_number": "7704210225", "tags": [{"primary": false, "id": 1732, "name": "Diners"}, {"primary": true, "id": 1722, "name": "Restaurants"}], "fax_number": null, "expansion": {"count": null, "uri": null}, "impression_id": "000b00000077b091999895461fbef90c0f5376b0aa", "profile": "http://www.citysearch.com/profile/647350040/marietta_ga/divine_diner.html", "address": {"city": "Marietta", "state": "GA", "street": "1951 Canton Rd", "postal_code": "30066"}, "capProviderId": null, "distance": null, "has_offers": false, "name": "Divine Diner", "longitude": -84.525055, "has_menu": false, "awards": null, "user_review_count": 0}, {"business_operation_status": 1, "rating": null, "neighborhood": null, "image": "http://o2.aolcdn.com/dims-shared/dims3/PATCH/resize/600x450/http://hss-prod.hss.aol.com/hss/storage/patch/24bd66836917b12a6f00937a9e8c18d4", "scorecard": null, "featured": false, "sample_categories": "Restaurants, Delis And Delicatessens", "public_id": "american-deli-marietta-2", "id": 601298748, "votes": null, "tagline": null, "has_video": false, "website": "http://www.citysearch.com/profile/external/601298748/marietta_ga/american_deli.html", "offers": null, "latitude": 33.922406, "politanName": "Atlanta, GA Metro ", "phone_number": "7709524311", "tags": [{"primary": false, "id": 1727, "name": "Delis And Delicatessens"}, {"primary": true, "id": 1722, "name": "Restaurants"}], "fax_number": null, "expansion": {"count": null, "uri": null}, "impression_id": "000b00000014d5e6fc2dd7434f903ed6bc19a9a3e7", "profile": "http://www.citysearch.com/profile/601298748/marietta_ga/american_deli.html", "address": {"city": "Marietta", "state": "GA", "street": "1230 Powers Ferry Rd Se", "postal_code": "30067"}, "capProviderId": null, "distance": null, "has_offers": false, "name": "American Deli", "longitude": -84.46818, "has_menu": true, "awards": null, "user_review_count": 0}, {"business_operation_status": 1, "rating": 6.0, "neighborhood": null, "image": "http://o3.aolcdn.com/dims-shared/dims3/PATCH/resize/600x450/http://hss-prod.hss.aol.com/hss/storage/patch/98a52a931f1ff76d70970d179ae8c36c", "scorecard": null, "featured": false, "sample_categories": "Restaurants", "public_id": "winstons-food-spirits-marietta", "id": 33570851, "votes": null, "tagline": null, "has_video": false, "website": null, "offers": null, "latitude": 33.993785, "politanName": "Atlanta, GA Metro ", "phone_number": "6785601923", "tags": [{"primary": true, "id": 1722, "name": "Restaurants"}], "fax_number": null, "expansion": {"count": null, "uri": null}, "impression_id": "000b000000bd68b4b460b84c75ab51c4a695e6cd94", "profile": "http://www.citysearch.com/profile/33570851/marietta_ga/winston_s_food_spirits.html", "address": {"city": "Marietta", "state": "GA", "street": "1860 Sandy Plains Rd 101", "postal_code": "30066"}, "capProviderId": null, "distance": null, "has_offers": false, "name": "Winston's Food & Spirits", "longitude": -84.509472, "has_menu": true, "awards": null, "user_review_count": 3}, {"business_operation_status": 1, "rating": null, "neighborhood": null, "image": "http://o1.aolcdn.com/dims-shared/dims3/PATCH/resize/600x450/http://hss-prod.hss.aol.com/hss/storage/patch/32747be73bc8f662d96d7dcf50a0e731", "scorecard": null, "featured": false, "sample_categories": "Restaurants, Mexican, American Express, Discover, MasterCard", "public_id": "los-bravos-mexican-restaurant-marietta-3", "id": 682238140, "votes": null, "tagline": null, "has_video": false, "website": "http://www.citysearch.com/profile/external/682238140/marietta_ga/los_bravos_mexican_restaurant.html", "offers": null, "latitude": 33.967272, "politanName": "Atlanta, GA Metro ", "phone_number": "7705658919", "tags": [{"primary": false, "id": 11208, "name": "Mexican"}, {"primary": false, "id": 11333, "name": "American Express"}, {"primary": false, "id": 11349, "name": "Discover"}, {"primary": false, "id": 11361, "name": "MasterCard"}, {"primary": false, "id": 11382, "name": "Visa"}, {"primary": true, "id": 1722, "name": "Restaurants"}], "fax_number": null, "expansion": {"count": null, "uri": null}, "impression_id": "000b0000001a5ecd1f4c2f419bacb33713d17ce17e", "profile": "http://www.citysearch.com/profile/682238140/marietta_ga/los_bravos_mexican_restaurant.html", "address": {"city": "Marietta", "state": "GA", "street": "2125 Roswell Rd # 40", "postal_code": "30062"}, "capProviderId": null, "distance": null, "has_offers": false, "name": "Los Bravos Mexican Restaurant", "longitude": -84.491705, "has_menu": true, "awards": null, "user_review_count": 4}, {"business_operation_status": 1, "rating": null, "neighborhood": null, "image": "http://o2.aolcdn.com/dims-shared/dims3/PATCH/resize/600x450/http://hss-prod.hss.aol.com/hss/storage/patch/7c46ad71757f775e746022c36c4f7c8d", "scorecard": null, "featured": false, "sample_categories": "Ice Cream Parlors, Restaurants", "public_id": "paleteria-michoacana-ice-cream-marietta", "id": 605546720, "votes": null, "tagline": null, "has_video": false, "website": null, "offers": null, "latitude": 33.951285, "politanName": "Atlanta, GA Metro ", "phone_number": "7704228893", "tags": [{"primary": false, "id": 1722, "name": "Restaurants"}, {"primary": true, "id": 1730, "name": "Ice Cream Parlors"}], "fax_number": null, "expansion": {"count": null, "uri": null}, "impression_id": "000b000000c7f1f93adee94f10bd44514b99bc23be", "profile": "http://www.citysearch.com/profile/605546720/marietta_ga/paleteria_michoacana_ice_cream.html", "address": {"city": "Marietta", "state": "GA", "street": "737 Roswell St Ne # 202", "postal_code": "30060"}, "capProviderId": null, "distance": null, "has_offers": false, "name": "Paleteria Michoacana Ice Cream", "longitude": -84.530697, "has_menu": false, "awards": null, "user_review_count": 0}, {"business_operation_status": 1, "rating": null, "neighborhood": null, "image": "http://o5.aolcdn.com/dims-shared/dims3/PATCH/resize/600x450/http://hss-prod.hss.aol.com/hss/storage/patch/be9163b412684e4d7292d5e85d2c8eb3", "scorecard": null, "featured": false, "sample_categories": "Bakeries, Restaurants", "public_id": "la-suprema-bakery-marietta-5", "id": 2901457, "votes": null, "tagline": null, "has_video": false, "website": "http://www.citysearch.com/profile/external/2901457/marietta_ga/la_suprema_bakery.html", "offers": null, "latitude": 33.894925, "politanName": "Atlanta, GA Metro ", "phone_number": "7704352488", "tags": [{"primary": false, "id": 1722, "name": "Restaurants"}, {"primary": true, "id": 1685, "name": "Bakeries"}], "fax_number": null, "expansion": {"count": null, "uri": null}, "impression_id": "000b000000dc127d41a4134e68af613b242682593c", "profile": "http://www.citysearch.com/profile/2901457/marietta_ga/la_suprema_bakery.html", "address": {"city": "Marietta", "state": "GA", "street": "461 Windy Hill Rd SE", "postal_code": "30060"}, "capProviderId": null, "distance": null, "has_offers": false, "name": "La Suprema Bakery", "longitude": -84.544183, "has_menu": false, "awards": null, "user_review_count": 1}, {"business_operation_status": 1, "rating": null, "neighborhood": null, "image": "http://o1.aolcdn.com/dims-shared/dims3/PATCH/resize/600x450/http://hss-prod.hss.aol.com/hss/storage/patch/c69a9e2acbd155d66cda64fb0906ea28", "scorecard": null, "featured": false, "sample_categories": "Restaurants, Asian, American Express, Discover, MasterCard", "public_id": "three-colors-asian-kitchen-marietta", "id": 43841447, "votes": null, "tagline": null, "has_video": false, "website": null, "offers": null, "latitude": 33.948318, "politanName": "Atlanta, GA Metro ", "phone_number": "7709771688", "tags": [{"primary": false, "id": 11235, "name": "Asian"}, {"primary": false, "id": 11333, "name": "American Express"}, {"primary": false, "id": 11349, "name": "Discover"}, {"primary": false, "id": 11361, "name": "MasterCard"}, {"primary": false, "id": 11382, "name": "Visa"}, {"primary": true, "id": 1722, "name": "Restaurants"}], "fax_number": null, "expansion": {"count": null, "uri": null}, "impression_id": "000b0000008bb01d03b5914f5ba30b9c399502cba9", "profile": "http://www.citysearch.com/profile/43841447/marietta_ga/three_colors_asian_kitchen.html", "address": {"city": "Marietta", "state": "GA", "street": "2060 Lower Roswell Rd Ste 160", "postal_code": "30068"}, "capProviderId": null, "distance": null, "has_offers": false, "name": "Three Colors Asian Kitchen", "longitude": -84.492511, "has_menu": false, "awards": null, "user_review_count": 1}, {"business_operation_status": 1, "rating": null, "neighborhood": null, "image": "http://o3.aolcdn.com/dims-shared/dims3/PATCH/resize/600x450/http://hss-prod.hss.aol.com/hss/storage/patch/593ece405800787b05619d2ee7182d5d", "scorecard": null, "featured": false, "sample_categories": "Restaurants", "public_id": "shivan-chaat-corner-marietta", "id": 45992347, "votes": null, "tagline": null, "has_video": false, "website": null, "offers": null, "latitude": 33.951935, "politanName": "Atlanta, GA Metro ", "phone_number": "7709717872", "tags": [{"primary": true, "id": 1722, "name": "Restaurants"}], "fax_number": null, "expansion": {"count": null, "uri": null}, "impression_id": "000b0000002eac3d44f76d4f50ab5134304796fdbc", "profile": "http://www.citysearch.com/profile/45992347/marietta_ga/shivan_chaat_corner.html", "address": {"city": "Marietta", "state": "GA", "street": "1826 Lower Roswell Rd", "postal_code": "30068"}, "capProviderId": null, "distance": null, "has_offers": false, "name": "Shivan Chaat Corner", "longitude": -84.498837, "has_menu": false, "awards": null, "user_review_count": 0}, {"business_operation_status": 1, "rating": null, "neighborhood": null, "image": "http://o1.aolcdn.com/dims-shared/dims3/PATCH/resize/600x450/http://hss-prod.hss.aol.com/hss/storage/patch/4c55cd64b18d2e28ed7e6fa75811d99f", "scorecard": null, "featured": false, "sample_categories": "Restaurants, Traditional American, Fast Food, Carry Out", "public_id": "arbys-marietta", "id": 45556664, "votes": null, "tagline": null, "has_video": false, "website": "http://www.citysearch.com/profile/external/45556664/marietta_ga/arby_s.html", "offers": null, "latitude": 33.9485, "politanName": "Atlanta, GA Metro ", "phone_number": "7704224484", "tags": [{"primary": false, "id": 11190, "name": "Traditional American"}, {"primary": false, "id": 11199, "name": "Fast Food"}, {"primary": false, "id": 11247, "name": "Carry Out"}, {"primary": true, "id": 1722, "name": "Restaurants"}], "fax_number": null, "expansion": {"count": null, "uri": null}, "impression_id": "000b00000080d7fca8c2a0496fb2270eb7cc3cb53b", "profile": "http://www.citysearch.com/profile/45556664/marietta_ga/arby_s.html", "address": {"city": "Marietta", "state": "GA", "street": "155 Cobb Pkwy S", "postal_code": "30060"}, "capProviderId": null, "distance": null, "has_offers": false, "name": "Arby's", "longitude": -84.518323, "has_menu": true, "awards": null, "user_review_count": 0}, {"business_operation_status": 1, "rating": null, "neighborhood": null, "image": "http://o4.aolcdn.com/dims-shared/dims3/PATCH/resize/600x450/http://hss-prod.hss.aol.com/hss/storage/patch/314ebc6d41e6bd615dc374aac92efa1b", "scorecard": null, "featured": false, "sample_categories": "Restaurants, Japanese", "public_id": "little-tokyo-kennesaw", "id": 45560568, "votes": null, "tagline": null, "has_video": false, "website": null, "offers": null, "latitude": 34.017369, "politanName": "Atlanta, GA Metro ", "phone_number": "7709198890", "tags": [{"primary": false, "id": 11202, "name": "Japanese"}, {"primary": true, "id": 1722, "name": "Restaurants"}], "fax_number": null, "expansion": {"count": null, "uri": null}, "impression_id": "000b000000f962f807995c4ddcb8ebcf4cd94cd41f", "profile": "http://www.citysearch.com/profile/45560568/kennesaw_ga/little_tokyo.html", "address": {"city": "Kennesaw", "state": "GA", "street": "400 Ernest W Barrett Pkwy NW # 122", "postal_code": "30144"}, "capProviderId": null, "distance": null, "has_offers": false, "name": "Little Tokyo", "longitude": -84.564255, "has_menu": true, "awards": null, "user_review_count": 1}, {"business_operation_status": 1, "rating": null, "neighborhood": null, "image": "http://o5.aolcdn.com/dims-shared/dims3/PATCH/resize/600x450/http://hss-prod.hss.aol.com/hss/storage/patch/36011e9689161e45908947e76d6ed59", "scorecard": null, "featured": false, "sample_categories": "Restaurants, Pizza, Carry Out", "public_id": "little-caesars-pizza-marietta-7", "id": 621906130, "votes": null, "tagline": null, "has_video": false, "website": "http://www.citysearch.com/profile/external/621906130/marietta_ga/little_caesars_pizza.html", "offers": null, "latitude": 33.898517, "politanName": "Atlanta, GA Metro ", "phone_number": "7704440455", "tags": [{"primary": false, "id": 1722, "name": "Restaurants"}, {"primary": false, "id": 11247, "name": "Carry Out"}, {"primary": true, "id": 11299, "name": "Pizza"}], "fax_number": null, "expansion": {"count": null, "uri": null}, "impression_id": "000b000000d016839719a845169fb5713354512350", "profile": "http://www.citysearch.com/profile/621906130/marietta_ga/little_caesars_pizza.html", "address": {"city": "Marietta", "state": "GA", "street": "2270 Austell Rd Sw", "postal_code": "30008"}, "capProviderId": null, "distance": null, "has_offers": false, "name": "Little Caesars Pizza", "longitude": -84.573839, "has_menu": true, "awards": null, "user_review_count": 0}], "histograms": [], "tag_ids": [1722], "uri": "http://api.citygridmedia.com:8080/search/places/v2/search/where?has_offers=false&type=restaurant&format=json&page=10&where=30069&rpp=50&histograms=false&publisher=10000009598&region_type=circle", "did_you_mean": "", "regions": [{"latitude": 33.911972, "default_radius": 1.53, "type": "postal_code", "name": "30069", "longitude": -84.51369799999999}], "call_id": "000b000000b528a33c5237448b8cfc65990279f3c6", "first_hit": 451, "total_hits": 1411, "geo_ids": [26297], "page": 10, "last_hit": 500}}