{"results": {"rpp": 50, "locations": [{"business_operation_status": 1, "rating": null, "neighborhood": null, "image": "http://o3.aolcdn.com/dims-shared/dims3/PATCH/resize/600x450/http://hss-prod.hss.aol.com/hss/storage/patch/593ece405800787b05619d2ee7182d5d", "scorecard": null, "featured": false, "sample_categories": "Restaurants", "public_id": "shivan-chaat-corner-marietta", "id": 45992347, "votes": null, "tagline": null, "has_video": false, "website": null, "offers": null, "latitude": 33.951935, "politanName": "Atlanta, GA Metro ", "phone_number": "7709717872", "tags": [{"primary": true, "id": 1722, "name": "Restaurants"}], "fax_number": null, "expansion": {"count": null, "uri": null}, "impression_id": "000b000000875a39748c254e59a32542a3aa88f753", "profile": "http://www.citysearch.com/profile/45992347/marietta_ga/shivan_chaat_corner.html", "address": {"city": "Marietta", "state": "GA", "street": "1826 Lower Roswell Rd", "postal_code": "30068"}, "capProviderId": null, "distance": null, "has_offers": false, "name": "Shivan Chaat Corner", "longitude": -84.498837, "has_menu": false, "awards": null, "user_review_count": 0}, {"business_operation_status": 1, "rating": null, "neighborhood": null, "image": "http://o5.aolcdn.com/dims-shared/dims3/PATCH/resize/600x450/http://hss-prod.hss.aol.com/hss/storage/patch/1c6bc7031ab2c94f0339ed6d88b00edb", "scorecard": null, "featured": false, "sample_categories": "Restaurants, Carry Out, Chinese", "public_id": "panda-express-atlanta-2", "id": 653563810, "votes": null, "tagline": null, "has_video": false, "website": "http://www.citysearch.com/profile/external/653563810/atlanta_ga/panda_express.html", "offers": null, "latitude": 33.908106, "politanName": "Atlanta, GA Metro ", "phone_number": "4043037367", "tags": [{"primary": false, "id": 11247, "name": "Carry Out"}, {"primary": false, "id": 11252, "name": "Chinese"}, {"primary": true, "id": 1722, "name": "Restaurants"}], "fax_number": null, "expansion": {"count": null, "uri": null}, "impression_id": "000b000000b32430777dda4a518294c280e90bdf46", "profile": "http://www.citysearch.com/profile/653563810/atlanta_ga/panda_express.html", "address": {"city": "Atlanta", "state": "GA", "street": "5620 Roswell Rd # 120", "postal_code": "30342"}, "capProviderId": null, "distance": null, "has_offers": false, "name": "Panda Express", "longitude": -84.378735, "has_menu": true, "awards": null, "user_review_count": 0}, {"business_operation_status": 1, "rating": null, "neighborhood": null, "image": "http://o3.aolcdn.com/dims-shared/dims3/PATCH/resize/600x450/http://hss-prod.hss.aol.com/hss/storage/patch/81167a7d7853022987e2fb8b7de431d0", "scorecard": null, "featured": false, "sample_categories": "Restaurants, Sandwich Shops, Pizza, Carry Out, Food Delivery", "public_id": "dominos-pizza-atlanta-19", "id": 682465550, "votes": null, "tagline": null, "has_video": false, "website": "http://www.citysearch.com/profile/external/682465550/atlanta_ga/domino_s_pizza.html", "offers": null, "latitude": 33.922019, "politanName": "Atlanta, GA Metro ", "phone_number": "4042563030", "tags": [{"primary": false, "id": 1722, "name": "Restaurants"}, {"primary": false, "id": 1736, "name": "Sandwich Shops"}, {"primary": false, "id": 11247, "name": "Carry Out"}, {"primary": false, "id": 11267, "name": "Food Delivery"}, {"primary": false, "id": 11361, "name": "MasterCard"}, {"primary": false, "id": 11375, "name": "Shop Online"}, {"primary": false, "id": 11382, "name": "Visa"}, {"primary": true, "id": 11299, "name": "Pizza"}], "fax_number": null, "expansion": {"count": null, "uri": null}, "impression_id": "000b00000079f15b326b994d6f919aa3e9a14772d1", "profile": "http://www.citysearch.com/profile/682465550/atlanta_ga/domino_s_pizza.html", "address": {"city": "Atlanta", "state": "GA", "street": "6130 Roswell Rd", "postal_code": "30328"}, "capProviderId": null, "distance": null, "has_offers": false, "name": "Domino's Pizza", "longitude": -84.379173, "has_menu": true, "awards": null, "user_review_count": 1}, {"business_operation_status": 1, "rating": null, "neighborhood": null, "image": "http://o4.aolcdn.com/dims-shared/dims3/PATCH/resize/600x450/http://hss-prod.hss.aol.com/hss/storage/patch/4aaedd32d86a9e514281d9d609061c31", "scorecard": null, "featured": false, "sample_categories": "Restaurants", "public_id": "rising-roll-express-atlanta", "id": 622032860, "votes": null, "tagline": null, "has_video": false, "website": "http://www.citysearch.com/profile/external/622032860/atlanta_ga/rising_roll_express.html", "offers": null, "latitude": 33.910208, "politanName": "Atlanta, GA Metro ", "phone_number": "7709161385", "tags": [{"primary": true, "id": 1722, "name": "Restaurants"}], "fax_number": null, "expansion": {"count": null, "uri": null}, "impression_id": "000b000000360779264d2f449db8c5d29c1bb1b857", "profile": "http://www.citysearch.com/profile/622032860/atlanta_ga/rising_roll_express.html", "address": {"city": "Atlanta", "state": "GA", "street": "5665 New Northside Dr Nw", "postal_code": "30328"}, "capProviderId": null, "distance": null, "has_offers": false, "name": "Rising Roll Express", "longitude": -84.431573, "has_menu": true, "awards": null, "user_review_count": 0}, {"business_operation_status": 1, "rating": null, "neighborhood": null, "image": "http://o2.aolcdn.com/dims-shared/dims3/PATCH/resize/600x450/http://hss-prod.hss.aol.com/hss/storage/patch/a8a01a6fdbc82ba517dbf8a298b8c6db", "scorecard": null, "featured": false, "sample_categories": "Restaurants, Cafes", "public_id": "sandys-cafe-atlanta", "id": 41195139, "votes": null, "tagline": null, "has_video": false, "website": null, "offers": null, "latitude": 33.915853, "politanName": "Atlanta, GA Metro ", "phone_number": "7705228122", "tags": [{"primary": false, "id": 6190, "name": "Cafes"}, {"primary": true, "id": 1722, "name": "Restaurants"}], "fax_number": null, "expansion": {"count": null, "uri": null}, "impression_id": "000b000000c4545625954d4d199fa3d338a28438d6", "profile": "http://www.citysearch.com/profile/41195139/atlanta_ga/sandy_s_cafe.html", "address": {"city": "Atlanta", "state": "GA", "street": "2 Concourse Pkwy NE", "postal_code": "30328"}, "capProviderId": null, "distance": null, "has_offers": false, "name": "Sandy's Cafe", "longitude": -84.352705, "has_menu": false, "awards": null, "user_review_count": 0}, {"business_operation_status": 1, "rating": null, "neighborhood": null, "image": "http://o4.aolcdn.com/dims-shared/dims3/PATCH/resize/600x450/http://hss-prod.hss.aol.com/hss/storage/patch/787d939918d6d59aa4190a514590d602", "scorecard": null, "featured": false, "sample_categories": "Coffeehouses, Restaurants", "public_id": "starbucks-atlanta-13", "id": 601369435, "votes": null, "tagline": null, "has_video": false, "website": "http://www.citysearch.com/profile/external/601369435/atlanta_ga/starbucks.html", "offers": null, "latitude": 33.864781, "politanName": "Atlanta, GA Metro ", "phone_number": "7704388221", "tags": [{"primary": false, "id": 1722, "name": "Restaurants"}, {"primary": true, "id": 1726, "name": "Coffeehouses"}], "fax_number": null, "expansion": {"count": null, "uri": null}, "impression_id": "000b0000003e62ca4ad60c48d0b5ad99ef7fbab429", "profile": "http://www.citysearch.com/profile/601369435/atlanta_ga/starbucks.html", "address": {"city": "Atlanta", "state": "GA", "street": "2495 Cumberland Pkwy Se", "postal_code": "30339"}, "capProviderId": null, "distance": null, "has_offers": false, "name": "Starbucks", "longitude": -84.477348, "has_menu": true, "awards": null, "user_review_count": 0}, {"business_operation_status": 1, "rating": null, "neighborhood": null, "image": "http://o2.aolcdn.com/dims-shared/dims3/PATCH/resize/600x450/http://hss-prod.hss.aol.com/hss/storage/patch/c5cd8af2f779628c47004159c3231fe2", "scorecard": null, "featured": false, "sample_categories": "Restaurants, Mexican, Carry Out", "public_id": "taco-bell-marietta-2", "id": 627699670, "votes": null, "tagline": null, "has_video": false, "website": "http://www.citysearch.com/profile/external/627699670/marietta_ga/taco_bell.html", "offers": null, "latitude": 33.968631, "politanName": "Atlanta, GA Metro ", "phone_number": "7705652051", "tags": [{"primary": false, "id": 11208, "name": "Mexican"}, {"primary": false, "id": 11247, "name": "Carry Out"}, {"primary": true, "id": 1722, "name": "Restaurants"}], "fax_number": null, "expansion": {"count": null, "uri": null}, "impression_id": "000b0000008689ef7e0ba2405c998b0b6289cdb347", "profile": "http://www.citysearch.com/profile/627699670/marietta_ga/taco_bell.html", "address": {"city": "Marietta", "state": "GA", "street": "2169 Roswell Rd", "postal_code": "30062"}, "capProviderId": null, "distance": null, "has_offers": false, "name": "Taco Bell", "longitude": -84.489815, "has_menu": true, "awards": null, "user_review_count": 0}, {"business_operation_status": 1, "rating": null, "neighborhood": null, "image": "http://images.citysearch.net/assets/imgdb/merchant/2015/3/18/0/zKAXTjbf208.jpeg", "scorecard": null, "featured": false, "sample_categories": "Restaurants, Steakhouse", "public_id": "longhorn-steakhouse-atlanta-8", "id": 793344000, "votes": null, "tagline": null, "has_video": false, "website": "http://www.citysearch.com/profile/external/793344000/atlanta_ga/longhorn_steakhouse.html", "offers": null, "latitude": 33.883097, "politanName": "Atlanta, GA Metro ", "phone_number": "7709521112", "tags": [{"primary": false, "id": 11316, "name": "Steakhouse"}, {"primary": true, "id": 1722, "name": "Restaurants"}], "fax_number": null, "expansion": {"count": null, "uri": null}, "impression_id": "000b000000205473fa6f4e49b2a47b647e7ab421f8", "profile": "http://www.citysearch.com/profile/793344000/atlanta_ga/longhorn_steakhouse.html", "address": {"city": "Atlanta", "state": "GA", "street": "2955 Cobb Parkway Suite 810", "postal_code": "30339"}, "capProviderId": null, "distance": null, "has_offers": false, "name": "LongHorn Steakhouse", "longitude": -84.461656, "has_menu": true, "awards": null, "user_review_count": 0}, {"business_operation_status": 1, "rating": null, "neighborhood": null, "image": "http://o5.aolcdn.com/dims-shared/dims3/PATCH/resize/600x450/http://hss-prod.hss.aol.com/hss/storage/patch/3c8abaa99c081c0ba7fcf10fa3a26678", "scorecard": null, "featured": false, "sample_categories": "Restaurants, Fast Food, Carry Out, Hamburgers, American Express", "public_id": "wendys-marietta-14", "id": 601298374, "votes": null, "tagline": null, "has_video": false, "website": "http://www.citysearch.com/profile/external/601298374/marietta_ga/wendy_s.html", "offers": null, "latitude": 34.013315, "politanName": "Atlanta, GA Metro ", "phone_number": "6782908083", "tags": [{"primary": false, "id": 11199, "name": "Fast Food"}, {"primary": false, "id": 11247, "name": "Carry Out"}, {"primary": false, "id": 11270, "name": "Hamburgers"}, {"primary": false, "id": 11333, "name": "American Express"}, {"primary": false, "id": 11349, "name": "Discover"}, {"primary": false, "id": 11361, "name": "MasterCard"}, {"primary": false, "id": 11382, "name": "Visa"}, {"primary": true, "id": 1722, "name": "Restaurants"}], "fax_number": null, "expansion": {"count": null, "uri": null}, "impression_id": "000b000000be89e01c4aad47008938e8f6517ead1d", "profile": "http://www.citysearch.com/profile/601298374/marietta_ga/wendy_s.html", "address": {"city": "Marietta", "state": "GA", "street": "2525 Barrett Creek Blvd", "postal_code": "30066"}, "capProviderId": null, "distance": null, "has_offers": false, "name": "Wendy's", "longitude": -84.554839, "has_menu": true, "awards": null, "user_review_count": 0}, {"business_operation_status": 1, "rating": null, "neighborhood": null, "image": "http://o1.aolcdn.com/dims-shared/dims3/PATCH/resize/600x450/http://hss-prod.hss.aol.com/hss/storage/patch/badfabe78c252af90087f76e0484f0c9", "scorecard": null, "featured": false, "sample_categories": "Restaurants, Food Service Management", "public_id": "overlook-ii-cafe-atlanta", "id": 33571177, "votes": null, "tagline": null, "has_video": false, "website": null, "offers": null, "latitude": 33.86736, "politanName": "Atlanta, GA Metro ", "phone_number": "7704317474", "tags": [{"primary": false, "id": 11120, "name": "Food Service Management"}, {"primary": true, "id": 1722, "name": "Restaurants"}], "fax_number": null, "expansion": {"count": null, "uri": null}, "impression_id": "000b000000e31ea9614a3045f3915c23d9942a532e", "profile": "http://www.citysearch.com/profile/33571177/atlanta_ga/overlook_ii_cafe.html", "address": {"city": "Atlanta", "state": "GA", "street": "2839 Paces Ferry Rd SE Ste 100", "postal_code": "30339"}, "capProviderId": null, "distance": null, "has_offers": false, "name": "Overlook Ii Cafe", "longitude": -84.471824, "has_menu": false, "awards": null, "user_review_count": 1}, {"business_operation_status": 1, "rating": null, "neighborhood": null, "image": "http://o4.aolcdn.com/dims-shared/dims3/PATCH/resize/600x450/http://hss-prod.hss.aol.com/hss/storage/patch/25e6479d3e4c495f1c2fe1f60ed4c49c", "scorecard": null, "featured": false, "sample_categories": "Restaurants, Ice Cream Parlors", "public_id": "romas-italian-ice-and-gelato-marietta", "id": 672283750, "votes": null, "tagline": null, "has_video": false, "website": "http://www.citysearch.com/profile/external/672283750/marietta_ga/roma_s_italian_ice_and_gelato.html", "offers": null, "latitude": 33.976739, "politanName": "Atlanta, GA Metro ", "phone_number": "7703210954", "tags": [{"primary": false, "id": 1730, "name": "Ice Cream Parlors"}, {"primary": true, "id": 1722, "name": "Restaurants"}], "fax_number": null, "expansion": {"count": null, "uri": null}, "impression_id": "000b0000004f680a1cd3b2413d93b6da606b40bb7e", "profile": "http://www.citysearch.com/profile/672283750/marietta_ga/roma_s_italian_ice_and_gelato.html", "address": {"city": "Marietta", "state": "GA", "street": "1050 E Piedmont Rd", "postal_code": "30062"}, "capProviderId": null, "distance": null, "has_offers": false, "name": "Roma's Italian Ice and Gelato", "longitude": -84.479676, "has_menu": false, "awards": null, "user_review_count": 0}, {"business_operation_status": 1, "rating": 7.0, "neighborhood": null, "image": "http://o1.aolcdn.com/dims-shared/dims3/PATCH/resize/600x450/http://hss-prod.hss.aol.com/hss/storage/patch/56357952cd6cc3848feb82607ebd8073", "scorecard": null, "featured": false, "sample_categories": "Restaurants, Delis And Delicatessens", "public_id": "qubies-subs-marietta", "id": 2901644, "votes": null, "tagline": null, "has_video": false, "website": null, "offers": null, "latitude": 33.974022, "politanName": "Atlanta, GA Metro ", "phone_number": "7704250948", "tags": [{"primary": false, "id": 1727, "name": "Delis And Delicatessens"}, {"primary": true, "id": 1722, "name": "Restaurants"}], "fax_number": null, "expansion": {"count": null, "uri": null}, "impression_id": "000b0000001b14567092844a9e952d99f04ae86a1f", "profile": "http://www.citysearch.com/profile/2901644/marietta_ga/qubie_s_subs.html", "address": {"city": "Marietta", "state": "GA", "street": "1355 Church Street Ext NE Ste A", "postal_code": "30060"}, "capProviderId": null, "distance": null, "has_offers": false, "name": "Qubie's Subs", "longitude": -84.552831, "has_menu": false, "awards": null, "user_review_count": 2}, {"business_operation_status": 1, "rating": null, "neighborhood": null, "image": "http://o4.aolcdn.com/dims-shared/dims3/PATCH/resize/600x450/http://hss-prod.hss.aol.com/hss/storage/patch/bc02cc686e4efdd2f3391f2edd5ada2d", "scorecard": null, "featured": false, "sample_categories": "Restaurants", "public_id": "la-carreta-tienda-hispana-marietta", "id": 2904533, "votes": null, "tagline": null, "has_video": false, "website": "http://www.citysearch.com/profile/external/2904533/marietta_ga/la_carreta_tienda_hispana.html", "offers": null, "latitude": 33.950815, "politanName": "Atlanta, GA Metro ", "phone_number": "7705792963", "tags": [{"primary": true, "id": 1722, "name": "Restaurants"}], "fax_number": null, "expansion": {"count": null, "uri": null}, "impression_id": "000b00000045e25aff23f4416690cfbbce57f65790", "profile": "http://www.citysearch.com/profile/2904533/marietta_ga/la_carreta_tienda_hispana.html", "address": {"city": "Marietta", "state": "GA", "street": "1288 Roswell Rd", "postal_code": "30062"}, "capProviderId": null, "distance": null, "has_offers": false, "name": "La Carreta Tienda Hispana", "longitude": -84.514776, "has_menu": false, "awards": null, "user_review_count": 0}, {"business_operation_status": 1, "rating": null, "neighborhood": null, "image": "http://o4.aolcdn.com/dims-shared/dims3/PATCH/resize/600x450/http://hss-prod.hss.aol.com/hss/storage/patch/9a83d78ea7d61d999a8c7dd75f7ff239", "scorecard": null, "featured": false, "sample_categories": "Restaurants, Convenience Stores", "public_id": "presto-restaurant-marietta", "id": 33571992, "votes": null, "tagline": null, "has_video": false, "website": "http://www.citysearch.com/profile/external/33571992/marietta_ga/presto_restaurant.html", "offers": null, "latitude": 33.951248, "politanName": "Atlanta, GA Metro ", "phone_number": "7709731285", "tags": [{"primary": false, "id": 1714, "name": "Convenience Stores"}, {"primary": true, "id": 1722, "name": "Restaurants"}], "fax_number": null, "expansion": {"count": null, "uri": null}, "impression_id": "000b000000b8d7ff621f3940bdbb6e3bcb3aabdd35", "profile": "http://www.citysearch.com/profile/33571992/marietta_ga/presto_restaurant.html", "address": {"city": "Marietta", "state": "GA", "street": "1392 Roswell Rd", "postal_code": "30062"}, "capProviderId": null, "distance": null, "has_offers": false, "name": "Presto Restaurant", "longitude": -84.508172, "has_menu": true, "awards": null, "user_review_count": 0}, {"business_operation_status": 1, "rating": null, "neighborhood": null, "image": "http://o4.aolcdn.com/dims-shared/dims3/PATCH/resize/600x450/http://hss-prod.hss.aol.com/hss/storage/patch/2a2139506162df8fa89012540f9b4292", "scorecard": null, "featured": false, "sample_categories": "Restaurants", "public_id": "riveredge-cafe-atlanta", "id": 682419820, "votes": null, "tagline": null, "has_video": false, "website": null, "offers": null, "latitude": 33.90798, "politanName": "Atlanta, GA Metro ", "phone_number": "7706902200", "tags": [{"primary": true, "id": 1722, "name": "Restaurants"}], "fax_number": null, "expansion": {"count": null, "uri": null}, "impression_id": "000b0000002982482de48b43a5b955d65eab1a207a", "profile": "http://www.citysearch.com/profile/682419820/atlanta_ga/riveredge_cafe.html", "address": {"city": "Atlanta", "state": "GA", "street": "1500 Riveredge Pkwy NW", "postal_code": "30328"}, "capProviderId": null, "distance": null, "has_offers": false, "name": "Riveredge Cafe", "longitude": -84.435677, "has_menu": false, "awards": null, "user_review_count": 0}, {"business_operation_status": 1, "rating": null, "neighborhood": null, "image": "http://o3.aolcdn.com/dims-shared/dims3/PATCH/resize/600x450/http://hss-prod.hss.aol.com/hss/storage/patch/9c4ba1b0ac8e942290073bf34c64cc60", "scorecard": null, "featured": false, "sample_categories": "Restaurants", "public_id": "sandy-springs-cafe-atlanta", "id": 3020315, "votes": null, "tagline": null, "has_video": false, "website": "http://www.citysearch.com/profile/external/3020315/atlanta_ga/sandy_springs_cafe.html", "offers": null, "latitude": 33.92033, "politanName": "Atlanta, GA Metro ", "phone_number": "4042523288", "tags": [{"primary": true, "id": 1722, "name": "Restaurants"}], "fax_number": null, "expansion": {"count": null, "uri": null}, "impression_id": "000b0000000cc91be901de4a8eb4a78435e2fd098d", "profile": "http://www.citysearch.com/profile/3020315/atlanta_ga/sandy_springs_cafe.html", "address": {"city": "Atlanta", "state": "GA", "street": "6065 Roswell Rd NE Ste 100", "postal_code": "30328"}, "capProviderId": null, "distance": null, "has_offers": false, "name": "Sandy Springs Cafe", "longitude": -84.3779, "has_menu": false, "awards": null, "user_review_count": 0}, {"business_operation_status": 1, "rating": null, "neighborhood": null, "image": "http://o5.aolcdn.com/dims-shared/dims3/PATCH/resize/600x450/http://hss-prod.hss.aol.com/hss/storage/patch/3035f50af9385fbee91ea13423902b22", "scorecard": null, "featured": false, "sample_categories": "Restaurants, Seafood", "public_id": "nori-nori-japanese-seafood-atlanta", "id": 622165050, "votes": null, "tagline": null, "has_video": false, "website": "http://www.citysearch.com/profile/external/622165050/atlanta_ga/nori_nori_japanese_seafood.html", "offers": null, "latitude": 33.93801, "politanName": "Atlanta, GA Metro ", "phone_number": "4042571288", "tags": [{"primary": false, "id": 11228, "name": "Seafood"}, {"primary": true, "id": 1722, "name": "Restaurants"}], "fax_number": null, "expansion": {"count": null, "uri": null}, "impression_id": "000b000000e311c3eb668a42ffbb5174be2d23e26a", "profile": "http://www.citysearch.com/profile/622165050/atlanta_ga/nori_nori_japanese_seafood.html", "address": {"city": "Atlanta", "state": "GA", "street": "6690 Roswell Rd Ne", "postal_code": "30328"}, "capProviderId": null, "distance": null, "has_offers": false, "name": "Nori Nori Japanese Seafood", "longitude": -84.379678, "has_menu": false, "awards": null, "user_review_count": 1}, {"business_operation_status": 1, "rating": 9.0, "neighborhood": null, "image": "http://o1.aolcdn.com/dims-shared/dims3/PATCH/resize/600x450/http://hss-prod.hss.aol.com/hss/storage/patch/bfcfd4db30d5274511bd930cfc7ca212", "scorecard": null, "featured": false, "sample_categories": "Restaurants, Mexican, American Express, Discover, MasterCard", "public_id": "el-rodeo-mexican-restaurant-marietta", "id": 2907343, "votes": null, "tagline": null, "has_video": false, "website": "http://www.citysearch.com/profile/external/2907343/marietta_ga/el_rodeo_mexican_restaurant.html", "offers": null, "latitude": 34.017967, "politanName": "Atlanta, GA Metro ", "phone_number": "7704291072", "tags": [{"primary": false, "id": 11208, "name": "Mexican"}, {"primary": false, "id": 11333, "name": "American Express"}, {"primary": false, "id": 11349, "name": "Discover"}, {"primary": false, "id": 11361, "name": "MasterCard"}, {"primary": false, "id": 11382, "name": "Visa"}, {"primary": true, "id": 1722, "name": "Restaurants"}], "fax_number": null, "expansion": {"count": null, "uri": null}, "impression_id": "000b000000970f548a261648ce872f94b536bb8bb3", "profile": "http://www.citysearch.com/profile/2907343/marietta_ga/el_rodeo_mexican_restaurant.html", "address": {"city": "Marietta", "state": "GA", "street": "2719 Canton Rd", "postal_code": "30066"}, "capProviderId": null, "distance": null, "has_offers": false, "name": "El Rodeo Mexican Restaurant", "longitude": -84.527728, "has_menu": true, "awards": null, "user_review_count": 5}, {"business_operation_status": 1, "rating": null, "neighborhood": null, "image": "http://o1.aolcdn.com/dims-shared/dims3/PATCH/resize/600x450/http://hss-prod.hss.aol.com/hss/storage/patch/bf68d1e28758f5c5c91b0785cfcd9f0e", "scorecard": null, "featured": false, "sample_categories": "Restaurants, Delis And Delicatessens, Sandwich Shops, Carry Out", "public_id": "subway-marietta-18", "id": 632907390, "votes": null, "tagline": null, "has_video": false, "website": "http://www.citysearch.com/profile/external/632907390/marietta_ga/subway.html", "offers": null, "latitude": 33.946054, "politanName": "Atlanta, GA Metro ", "phone_number": "7704231986", "tags": [{"primary": false, "id": 1727, "name": "Delis And Delicatessens"}, {"primary": false, "id": 1736, "name": "Sandwich Shops"}, {"primary": false, "id": 11247, "name": "Carry Out"}, {"primary": true, "id": 1722, "name": "Restaurants"}], "fax_number": null, "expansion": {"count": null, "uri": null}, "impression_id": "000b0000006ea98252bf514ca3b8aab79038c16dc0", "profile": "http://www.citysearch.com/profile/632907390/marietta_ga/subway.html", "address": {"city": "Marietta", "state": "GA", "street": "210 Cobb Pkwy S", "postal_code": "30060"}, "capProviderId": null, "distance": null, "has_offers": false, "name": "Subway", "longitude": -84.522037, "has_menu": true, "awards": null, "user_review_count": 0}, {"business_operation_status": 1, "rating": null, "neighborhood": null, "image": "http://o2.aolcdn.com/dims-shared/dims3/PATCH/resize/600x450/http://hss-prod.hss.aol.com/hss/storage/patch/bc7c8904a5898122d986133562a77af0", "scorecard": null, "featured": false, "sample_categories": "Restaurants, Barbecue Restaurants", "public_id": "cafe-wings-marietta", "id": 655840550, "votes": null, "tagline": null, "has_video": false, "website": null, "offers": null, "latitude": 33.933132, "politanName": "Atlanta, GA Metro ", "phone_number": "7705909656", "tags": [{"primary": false, "id": 1724, "name": "Barbecue Restaurants"}, {"primary": true, "id": 1722, "name": "Restaurants"}], "fax_number": null, "expansion": {"count": null, "uri": null}, "impression_id": "000b000000e493388299e14590a235cd33e606da32", "profile": "http://www.citysearch.com/profile/655840550/marietta_ga/cafe_wings.html", "address": {"city": "Marietta", "state": "GA", "street": "803 Powder Springs St # 2", "postal_code": "30064"}, "capProviderId": null, "distance": null, "has_offers": false, "name": "Cafe Wings", "longitude": -84.559871, "has_menu": false, "awards": null, "user_review_count": 0}, {"business_operation_status": 1, "rating": null, "neighborhood": null, "image": "http://o4.aolcdn.com/dims-shared/dims3/PATCH/resize/600x450/http://hss-prod.hss.aol.com/hss/storage/patch/5ba6b292b3630233faeacbce51d6ec01", "scorecard": null, "featured": false, "sample_categories": "Restaurants, Seafood, American Express, Discover, MasterCard", "public_id": "c-s-seafood-oyster-bar-atlanta-2", "id": 682653130, "votes": null, "tagline": null, "has_video": false, "website": "http://www.citysearch.com/profile/external/682653130/atlanta_ga/c_s_seafood_oyster_bar.html", "offers": null, "latitude": 33.872656, "politanName": "Atlanta, GA Metro ", "phone_number": "7702720999", "tags": [{"primary": false, "id": 11228, "name": "Seafood"}, {"primary": false, "id": 11333, "name": "American Express"}, {"primary": false, "id": 11349, "name": "Discover"}, {"primary": false, "id": 11361, "name": "MasterCard"}, {"primary": false, "id": 11382, "name": "Visa"}, {"primary": true, "id": 1722, "name": "Restaurants"}], "fax_number": null, "expansion": {"count": null, "uri": null}, "impression_id": "000b00000049b757c9a9eb4602a459daeaac634b64", "profile": "http://www.citysearch.com/profile/682653130/atlanta_ga/c_s_seafood_oyster_bar.html", "address": {"city": "Atlanta", "state": "GA", "street": "3300 Cobb Pkwy Se # 3240", "postal_code": "30339"}, "capProviderId": null, "distance": null, "has_offers": false, "name": "C & S Seafood & Oyster Bar", "longitude": -84.457545, "has_menu": true, "awards": null, "user_review_count": 1}, {"business_operation_status": 1, "rating": null, "neighborhood": null, "image": "http://o4.aolcdn.com/dims-shared/dims3/PATCH/resize/600x450/http://hss-prod.hss.aol.com/hss/storage/patch/51c1d50d54050122b0d0f5c7c4bd1da8", "scorecard": null, "featured": false, "sample_categories": "Restaurants", "public_id": "ajs-famous-seafood-po-boys-marietta", "id": 766802810, "votes": null, "tagline": null, "has_video": false, "website": null, "offers": null, "latitude": 33.968758, "politanName": "Atlanta, GA Metro ", "phone_number": "6789990767", "tags": [{"primary": true, "id": 1722, "name": "Restaurants"}], "fax_number": null, "expansion": {"count": null, "uri": null}, "impression_id": "000b00000087679c417b334a9897b454243087ba4c", "profile": "http://www.citysearch.com/profile/766802810/marietta_ga/aj_s_famous_seafood_po_boy_s.html", "address": {"city": "Marietta", "state": "GA", "street": "2100 Roswell Rd # 2148", "postal_code": "30062"}, "capProviderId": null, "distance": null, "has_offers": false, "name": "Aj's Famous Seafood & PO Boy's", "longitude": -84.488447, "has_menu": false, "awards": null, "user_review_count": 0}, {"business_operation_status": 1, "rating": null, "neighborhood": null, "image": "http://o2.aolcdn.com/dims-shared/dims3/PATCH/resize/600x450/http://hss-prod.hss.aol.com/hss/storage/patch/9d9f834a82e7d7bc534eb3e658d95ef9", "scorecard": null, "featured": false, "sample_categories": "Restaurants, Delis And Delicatessens, Sandwich Shops, Carry Out, MasterCard", "public_id": "blimpie-subs-salads-marietta", "id": 621898970, "votes": null, "tagline": null, "has_video": false, "website": "http://www.citysearch.com/profile/external/621898970/marietta_ga/blimpie_subs_salads.html", "offers": null, "latitude": 33.952288, "politanName": "Atlanta, GA Metro ", "phone_number": "7704212447", "tags": [{"primary": false, "id": 1727, "name": "Delis And Delicatessens"}, {"primary": false, "id": 1736, "name": "Sandwich Shops"}, {"primary": false, "id": 11247, "name": "Carry Out"}, {"primary": false, "id": 11361, "name": "MasterCard"}, {"primary": false, "id": 11382, "name": "Visa"}, {"primary": true, "id": 1722, "name": "Restaurants"}], "fax_number": null, "expansion": {"count": null, "uri": null}, "impression_id": "000b0000002fe220cedecb45c7ac2156ac674c6389", "profile": "http://www.citysearch.com/profile/621898970/marietta_ga/blimpie_subs_salads.html", "address": {"city": "Marietta", "state": "GA", "street": "30 S Park Sq Ne", "postal_code": "30060"}, "capProviderId": null, "distance": null, "has_offers": false, "name": "Blimpie Subs & Salads", "longitude": -84.550109, "has_menu": true, "awards": null, "user_review_count": 0}, {"business_operation_status": 1, "rating": null, "neighborhood": null, "image": "http://o4.aolcdn.com/dims-shared/dims3/PATCH/resize/600x450/http://hss-prod.hss.aol.com/hss/storage/patch/c4996465233f4fa2574ba15b4b6bda9c", "scorecard": null, "featured": false, "sample_categories": "Restaurants", "public_id": "one-tower-creek-cafe-atlanta", "id": 622109820, "votes": null, "tagline": null, "has_video": false, "website": null, "offers": null, "latitude": 33.891687, "politanName": "Atlanta, GA Metro ", "phone_number": "7706440206", "tags": [{"primary": true, "id": 1722, "name": "Restaurants"}], "fax_number": null, "expansion": {"count": null, "uri": null}, "impression_id": "000b000000bc7564adbf9f48929b012bd8b3735993", "profile": "http://www.citysearch.com/profile/622109820/atlanta_ga/one_tower_creek_cafe.html", "address": {"city": "Atlanta", "state": "GA", "street": "3101 Towercreek Pkwy Se", "postal_code": "30339"}, "capProviderId": null, "distance": null, "has_offers": false, "name": "One Tower Creek Cafe", "longitude": -84.454958, "has_menu": false, "awards": null, "user_review_count": 0}, {"business_operation_status": 1, "rating": null, "neighborhood": null, "image": "http://o5.aolcdn.com/dims-shared/dims3/PATCH/resize/600x450/http://hss-prod.hss.aol.com/hss/storage/patch/c63971b0f99594b532ecc5c440d3effc", "scorecard": null, "featured": false, "sample_categories": "Restaurants, Traditional American, American Express, Discover, MasterCard", "public_id": "roasters-atlanta", "id": 43875048, "votes": null, "tagline": null, "has_video": false, "website": "http://www.citysearch.com/profile/external/43875048/atlanta_ga/roasters.html", "offers": null, "latitude": 33.926054, "politanName": "Atlanta, GA Metro ", "phone_number": "6787011100", "tags": [{"primary": false, "id": 11190, "name": "Traditional American"}, {"primary": false, "id": 11333, "name": "American Express"}, {"primary": false, "id": 11349, "name": "Discover"}, {"primary": false, "id": 11361, "name": "MasterCard"}, {"primary": false, "id": 11382, "name": "Visa"}, {"primary": true, "id": 1722, "name": "Restaurants"}], "fax_number": null, "expansion": {"count": null, "uri": null}, "impression_id": "000b000000917ebdf10a064b4797e711a10320e0c7", "profile": "http://www.citysearch.com/profile/43875048/atlanta_ga/roasters.html", "address": {"city": "Atlanta", "state": "GA", "street": "6225 Roswell Rd NE", "postal_code": "30328"}, "capProviderId": null, "distance": null, "has_offers": false, "name": "Roasters", "longitude": -84.377982, "has_menu": true, "awards": null, "user_review_count": 0}, {"business_operation_status": 1, "rating": null, "neighborhood": null, "image": "http://o4.aolcdn.com/dims-shared/dims3/PATCH/resize/600x450/http://hss-prod.hss.aol.com/hss/storage/patch/e345f09b883a2c2d7a961d4e85553999", "scorecard": null, "featured": false, "sample_categories": "Doughnut Shops, Restaurants, Coffeehouses", "public_id": "dunkin-donuts-marietta-7", "id": 44774184, "votes": null, "tagline": null, "has_video": false, "website": "http://www.citysearch.com/profile/external/44774184/marietta_ga/dunkin_donuts.html", "offers": null, "latitude": 33.942999, "politanName": "Atlanta, GA Metro ", "phone_number": "7704235947", "tags": [{"primary": false, "id": 1722, "name": "Restaurants"}, {"primary": false, "id": 1726, "name": "Coffeehouses"}, {"primary": true, "id": 1734, "name": "Doughnut Shops"}], "fax_number": null, "expansion": {"count": null, "uri": null}, "impression_id": "000b000000d1a1f21adf2548c4a6a93eaeac566489", "profile": "http://www.citysearch.com/profile/44774184/marietta_ga/dunkin_donuts.html", "address": {"city": "Marietta", "state": "GA", "street": "670 S Marietta Pkwy SE", "postal_code": "30060"}, "capProviderId": null, "distance": null, "has_offers": false, "name": "Dunkin' Donuts", "longitude": -84.533601, "has_menu": false, "awards": null, "user_review_count": 1}, {"business_operation_status": 1, "rating": null, "neighborhood": null, "image": "http://o5.aolcdn.com/dims-shared/dims3/PATCH/resize/600x450/http://hss-prod.hss.aol.com/hss/storage/patch/2385854e4751470a85bfe77f7a71ba66", "scorecard": null, "featured": false, "sample_categories": "Restaurants, Pizza, Carry Out", "public_id": "little-caesars-pizza-marietta-5", "id": 601297143, "votes": null, "tagline": null, "has_video": false, "website": "http://www.citysearch.com/profile/external/601297143/marietta_ga/little_caesars_pizza.html", "offers": null, "latitude": 33.943278, "politanName": "Atlanta, GA Metro ", "phone_number": "6783313008", "tags": [{"primary": false, "id": 1722, "name": "Restaurants"}, {"primary": false, "id": 11247, "name": "Carry Out"}, {"primary": true, "id": 11299, "name": "Pizza"}], "fax_number": null, "expansion": {"count": null, "uri": null}, "impression_id": "000b000000ad44794400e846a7914e82e1d84c180b", "profile": "http://www.citysearch.com/profile/601297143/marietta_ga/little_caesars_pizza.html", "address": {"city": "Marietta", "state": "GA", "street": "603 S Marietta Pkwy Se", "postal_code": "30060"}, "capProviderId": null, "distance": null, "has_offers": false, "name": "Little Caesars Pizza", "longitude": -84.534205, "has_menu": true, "awards": null, "user_review_count": 0}, {"business_operation_status": 1, "rating": null, "neighborhood": null, "image": "http://o1.aolcdn.com/dims-shared/dims3/PATCH/resize/600x450/http://hss-prod.hss.aol.com/hss/storage/patch/3b241454f03f469c2cfcb0191c902518", "scorecard": null, "featured": false, "sample_categories": "Restaurants, Chinese, American Express, Discover, MasterCard", "public_id": "new-china-roswell", "id": 35974121, "votes": null, "tagline": null, "has_video": false, "website": null, "offers": null, "latitude": 34.005286, "politanName": "Atlanta, GA Metro ", "phone_number": "6783527996", "tags": [{"primary": false, "id": 11252, "name": "Chinese"}, {"primary": false, "id": 11333, "name": "American Express"}, {"primary": false, "id": 11349, "name": "Discover"}, {"primary": false, "id": 11361, "name": "MasterCard"}, {"primary": false, "id": 11382, "name": "Visa"}, {"primary": true, "id": 1722, "name": "Restaurants"}], "fax_number": null, "expansion": {"count": null, "uri": null}, "impression_id": "000b0000007b7586f35c874203943be8c27a223029", "profile": "http://www.citysearch.com/profile/35974121/roswell_ga/new_china.html", "address": {"city": "Roswell", "state": "GA", "street": "920 Marietta Hwy", "postal_code": "30075"}, "capProviderId": null, "distance": null, "has_offers": false, "name": "New China", "longitude": -84.389879, "has_menu": true, "awards": null, "user_review_count": 0}, {"business_operation_status": 1, "rating": 10.0, "neighborhood": null, "image": "http://o3.aolcdn.com/dims-shared/dims3/PATCH/resize/600x450/http://hss-prod.hss.aol.com/hss/storage/patch/6a3cfbc73b0c341026e6fb4c5f059487", "scorecard": null, "featured": false, "sample_categories": "Sandwich Shops, Restaurants, Soups", "public_id": "my-friends-place-marietta-3", "id": 37646814, "votes": null, "tagline": null, "has_video": false, "website": "http://www.citysearch.com/profile/external/37646814/marietta_ga/my_friend_s_place.html", "offers": null, "latitude": 33.980251, "politanName": "Atlanta, GA Metro ", "phone_number": "7709710124", "tags": [{"primary": false, "id": 1722, "name": "Restaurants"}, {"primary": false, "id": 11311, "name": "Soups"}, {"primary": true, "id": 1736, "name": "Sandwich Shops"}], "fax_number": null, "expansion": {"count": null, "uri": null}, "impression_id": "000b000000932077ae7dd9496d85004628e4d967d8", "profile": "http://www.citysearch.com/profile/37646814/marietta_ga/my_friend_s_place.html", "address": {"city": "Marietta", "state": "GA", "street": "1205 Johnson Ferry Pl", "postal_code": "30068"}, "capProviderId": null, "distance": null, "has_offers": false, "name": "My Friend's Place", "longitude": -84.421661, "has_menu": true, "awards": null, "user_review_count": 2}, {"business_operation_status": 1, "rating": null, "neighborhood": null, "image": "http://images.citysearch.net/assets/imgdb2/reinvent/profile/2013/5/13/11/rlDUzBkE.jpg", "scorecard": null, "featured": false, "sample_categories": "Restaurants, Bars & Pubs, Breakfast, New American, Brunch", "public_id": "the-mill-kitchen-and-bar-roswell-2", "id": 773070100, "votes": null, "tagline": null, "has_video": false, "website": "http://www.citysearch.com/profile/external/773070100/roswell_ga/the_mill_kitchen_and_bar.html", "offers": null, "latitude": 34.023791, "politanName": "Atlanta, GA Metro ", "phone_number": "7708179347", "tags": [{"primary": false, "id": 1686, "name": "Bars & Pubs"}, {"primary": false, "id": 11047, "name": "Breakfast"}, {"primary": false, "id": 11189, "name": "New American"}, {"primary": false, "id": 11240, "name": "Brunch"}, {"primary": false, "id": 11312, "name": "Southern"}, {"primary": true, "id": 1722, "name": "Restaurants"}], "fax_number": null, "expansion": {"count": null, "uri": null}, "impression_id": "000b000000b4e2a218c9344950b61e9bc98708adca", "profile": "http://www.citysearch.com/profile/773070100/roswell_ga/the_mill_kitchen_and_bar.html", "address": {"city": "Roswell", "state": "GA", "street": "90 Mimosa Boulevard", "postal_code": "30075"}, "capProviderId": null, "distance": null, "has_offers": false, "name": "The Mill Kitchen and Bar", "longitude": -84.363181, "has_menu": false, "awards": null, "user_review_count": 0}, {"business_operation_status": 1, "rating": 10.0, "neighborhood": null, "image": "http://o1.aolcdn.com/dims-shared/dims3/PATCH/resize/600x450/http://hss-prod.hss.aol.com/hss/storage/patch/83c74a5e9a1998d6ee249ff562ecca73", "scorecard": null, "featured": false, "sample_categories": "Restaurants, Chinese, MasterCard, Visa", "public_id": "china-great-wall-marietta", "id": 33571519, "votes": null, "tagline": null, "has_video": false, "website": null, "offers": null, "latitude": 33.995879, "politanName": "Atlanta, GA Metro ", "phone_number": "7705781488", "tags": [{"primary": false, "id": 11252, "name": "Chinese"}, {"primary": false, "id": 11361, "name": "MasterCard"}, {"primary": false, "id": 11382, "name": "Visa"}, {"primary": true, "id": 1722, "name": "Restaurants"}], "fax_number": null, "expansion": {"count": null, "uri": null}, "impression_id": "000b000000be4405ea650c4dcdac926c7691b5c65f", "profile": "http://www.citysearch.com/profile/33571519/marietta_ga/china_great_wall.html", "address": {"city": "Marietta", "state": "GA", "street": "1860 Sandy Plains Rd", "postal_code": "30066"}, "capProviderId": null, "distance": null, "has_offers": false, "name": "China Great Wall", "longitude": -84.507715, "has_menu": true, "awards": null, "user_review_count": 5}, {"business_operation_status": 1, "rating": null, "neighborhood": null, "image": "http://o5.aolcdn.com/dims-shared/dims3/PATCH/resize/600x450/http://hss-prod.hss.aol.com/hss/storage/patch/3bd6308761f8a10904a305efdf58f2dc", "scorecard": null, "featured": false, "sample_categories": "Barbecue Restaurants, Catering, Restaurants, Carry Out", "public_id": "georgia-rib-co-marietta", "id": 604380192, "votes": null, "tagline": null, "has_video": false, "website": null, "offers": null, "latitude": 33.965359, "politanName": "Atlanta, GA Metro ", "phone_number": "7709737427", "tags": [{"primary": false, "id": 1705, "name": "Catering"}, {"primary": false, "id": 1722, "name": "Restaurants"}, {"primary": false, "id": 11247, "name": "Carry Out"}, {"primary": true, "id": 1724, "name": "Barbecue Restaurants"}], "fax_number": null, "expansion": {"count": null, "uri": null}, "impression_id": "000b000000d4ce81ac2152490fa04f33046075c212", "profile": "http://www.citysearch.com/profile/604380192/marietta_ga/georgia_rib_co.html", "address": {"city": "Marietta", "state": "GA", "street": "4930 Davidson Rd SE", "postal_code": "30068"}, "capProviderId": null, "distance": null, "has_offers": false, "name": "Georgia Rib Co", "longitude": -84.406436, "has_menu": true, "awards": null, "user_review_count": 0}, {"business_operation_status": 1, "rating": null, "neighborhood": null, "image": "http://o1.aolcdn.com/dims-shared/dims3/PATCH/resize/600x450/http://hss-prod.hss.aol.com/hss/storage/patch/bd16f336459823c191e5a0721670a4f9", "scorecard": null, "featured": false, "sample_categories": "Restaurants, Fraternal Organizations", "public_id": "fresh-to-order-atlanta", "id": 682548280, "votes": null, "tagline": null, "has_video": false, "website": "http://www.citysearch.com/profile/external/682548280/atlanta_ga/fresh_to_order.html", "offers": null, "latitude": 33.881746, "politanName": "Atlanta, GA Metro ", "phone_number": "6785641400", "tags": [{"primary": false, "id": 588, "name": "Fraternal Organizations"}, {"primary": true, "id": 1722, "name": "Restaurants"}], "fax_number": null, "expansion": {"count": null, "uri": null}, "impression_id": "000b00000015dc3f27188e48c19f0eab488d2570b2", "profile": "http://www.citysearch.com/profile/682548280/atlanta_ga/fresh_to_order.html", "address": {"city": "Atlanta", "state": "GA", "street": "1000 Cumberland Mall Se", "postal_code": "30339"}, "capProviderId": null, "distance": null, "has_offers": false, "name": "Fresh To Order", "longitude": -84.470079, "has_menu": false, "awards": null, "user_review_count": 0}, {"business_operation_status": 1, "rating": null, "neighborhood": null, "image": "http://o1.aolcdn.com/dims-shared/dims3/PATCH/resize/600x450/http://hss-prod.hss.aol.com/hss/storage/patch/e3ab0a4cf8e586e7467eac318d75788", "scorecard": null, "featured": false, "sample_categories": "Restaurants, Chinese", "public_id": "china-palace-restaurant-marietta", "id": 2901683, "votes": null, "tagline": null, "has_video": false, "website": "http://www.citysearch.com/profile/external/2901683/marietta_ga/china_palace_restaurant.html", "offers": null, "latitude": 33.906772, "politanName": "Atlanta, GA Metro ", "phone_number": "7709889888", "tags": [{"primary": false, "id": 11252, "name": "Chinese"}, {"primary": true, "id": 1722, "name": "Restaurants"}], "fax_number": null, "expansion": {"count": null, "uri": null}, "impression_id": "000b000000a4b5c779cd6244cd85c936e344a5e821", "profile": "http://www.citysearch.com/profile/2901683/marietta_ga/china_palace_restaurant.html", "address": {"city": "Marietta", "state": "GA", "street": "1869 Cobb Pkwy S Ste 100", "postal_code": "30060"}, "capProviderId": null, "distance": null, "has_offers": false, "name": "China Palace Restaurant", "longitude": -84.490975, "has_menu": true, "awards": null, "user_review_count": 6}, {"business_operation_status": 1, "rating": null, "neighborhood": null, "image": "http://o3.aolcdn.com/dims-shared/dims3/PATCH/resize/600x450/http://hss-prod.hss.aol.com/hss/storage/patch/d0444e81ddebad51848a7df877ba2dd7", "scorecard": null, "featured": false, "sample_categories": "Delis And Delicatessens, Restaurants", "public_id": "tower-news-stand-atlanta", "id": 3020372, "votes": null, "tagline": null, "has_video": false, "website": null, "offers": null, "latitude": 33.916975, "politanName": "Atlanta, GA Metro ", "phone_number": "7703967315", "tags": [{"primary": false, "id": 1722, "name": "Restaurants"}, {"primary": true, "id": 1727, "name": "Delis And Delicatessens"}], "fax_number": null, "expansion": {"count": null, "uri": null}, "impression_id": "000b0000002f60fbd0bc6b42ada215414e73c2c8cf", "profile": "http://www.citysearch.com/profile/3020372/atlanta_ga/tower_news_stand.html", "address": {"city": "Atlanta", "state": "GA", "street": "6 Concourse Pkwy NE Ste 100", "postal_code": "30328"}, "capProviderId": null, "distance": null, "has_offers": false, "name": "Tower News Stand", "longitude": -84.356182, "has_menu": false, "awards": null, "user_review_count": 0}, {"business_operation_status": 1, "rating": null, "neighborhood": null, "image": "http://images.citysearch.net/assets/imgdb2/reinvent/profile/2012/9/20/12/xjUHSfgb.jpg", "scorecard": null, "featured": false, "sample_categories": "Restaurants", "public_id": "blu-sushi-grill-and-seafood-bar-smyrna", "id": 672332180, "votes": null, "tagline": null, "has_video": false, "website": null, "offers": null, "latitude": 33.887146, "politanName": "Atlanta, GA Metro ", "phone_number": "7704379900", "tags": [{"primary": true, "id": 1722, "name": "Restaurants"}], "fax_number": null, "expansion": {"count": null, "uri": null}, "impression_id": "000b000000e9a96a7e6eca49b09a6674e84fca998b", "profile": "http://www.citysearch.com/profile/672332180/smyrna_ga/blu_sushi_grill_and_seafood_bar.html", "address": {"city": "Smyrna", "state": "GA", "street": "2700 Cobb Pky SE", "postal_code": "30080"}, "capProviderId": null, "distance": null, "has_offers": false, "name": "Blu Sushi Grill and Seafood Bar", "longitude": -84.47315, "has_menu": false, "awards": null, "user_review_count": 0}, {"business_operation_status": 1, "rating": null, "neighborhood": null, "image": "http://o3.aolcdn.com/dims-shared/dims3/PATCH/resize/600x450/http://hss-prod.hss.aol.com/hss/storage/patch/d7bdb42111249cc76eba8d08a3376657", "scorecard": null, "featured": false, "sample_categories": "Restaurants, Chinese", "public_id": "china-sun-express-atlanta", "id": 3030517, "votes": null, "tagline": null, "has_video": false, "website": null, "offers": null, "latitude": 33.884135, "politanName": "Atlanta, GA Metro ", "phone_number": "7705412228", "tags": [{"primary": false, "id": 11252, "name": "Chinese"}, {"primary": true, "id": 1722, "name": "Restaurants"}], "fax_number": null, "expansion": {"count": null, "uri": null}, "impression_id": "000b0000000e2943418ea5403eb282eaa3b72e4518", "profile": "http://www.citysearch.com/profile/3030517/atlanta_ga/china_sun_express.html", "address": {"city": "Atlanta", "state": "GA", "street": "1 Galleria Pkwy SE Ste 1D12", "postal_code": "30339"}, "capProviderId": null, "distance": null, "has_offers": false, "name": "China Sun Express", "longitude": -84.46371, "has_menu": false, "awards": null, "user_review_count": 1}, {"business_operation_status": 1, "rating": null, "neighborhood": null, "image": "http://o5.aolcdn.com/dims-shared/dims3/PATCH/resize/600x450/http://hss-prod.hss.aol.com/hss/storage/patch/d68d1636e1d0a6424723d2a76081d207", "scorecard": null, "featured": false, "sample_categories": "Restaurants, Japanese, Asian", "public_id": "sushi-express-marietta", "id": 621946940, "votes": null, "tagline": null, "has_video": false, "website": null, "offers": null, "latitude": 34.013539, "politanName": "Atlanta, GA Metro ", "phone_number": "6785940733", "tags": [{"primary": false, "id": 11202, "name": "Japanese"}, {"primary": false, "id": 11235, "name": "Asian"}, {"primary": true, "id": 1722, "name": "Restaurants"}], "fax_number": null, "expansion": {"count": null, "uri": null}, "impression_id": "000b0000000a60eb007a5643c8a20dfe8747ec47c5", "profile": "http://www.citysearch.com/profile/621946940/marietta_ga/sushi_express.html", "address": {"city": "Marietta", "state": "GA", "street": "125 Barrett Pkwy", "postal_code": "30066"}, "capProviderId": null, "distance": null, "has_offers": false, "name": "Sushi Express", "longitude": -84.552923, "has_menu": false, "awards": null, "user_review_count": 0}, {"business_operation_status": 1, "rating": null, "neighborhood": null, "image": "http://o1.aolcdn.com/dims-shared/dims3/PATCH/resize/600x450/http://hss-prod.hss.aol.com/hss/storage/patch/5a043fcd87408894f766c4ed51a43828", "scorecard": null, "featured": false, "sample_categories": "Restaurants, Indian", "public_id": "calypso-island-cuisine-marietta-2", "id": 713326280, "votes": null, "tagline": null, "has_video": false, "website": null, "offers": null, "latitude": 33.933132, "politanName": "Atlanta, GA Metro ", "phone_number": "6787975470", "tags": [{"primary": false, "id": 11277, "name": "Indian"}, {"primary": true, "id": 1722, "name": "Restaurants"}], "fax_number": null, "expansion": {"count": null, "uri": null}, "impression_id": "000b0000000274814c95ae430e90ea04c13ac04d52", "profile": "http://www.citysearch.com/profile/713326280/marietta_ga/calypso_island_cuisine.html", "address": {"city": "Marietta", "state": "GA", "street": "803 Powder Springs St # 1", "postal_code": "30064"}, "capProviderId": null, "distance": null, "has_offers": false, "name": "Calypso Island Cuisine", "longitude": -84.559871, "has_menu": false, "awards": null, "user_review_count": 2}, {"business_operation_status": 1, "rating": 8.0, "neighborhood": null, "image": "http://cf.restaurantimages.menuism.com/b1jTYo0vur36xBeJe7bPyt-lunch-basket-80x80.jpg", "scorecard": null, "featured": false, "sample_categories": "Sandwich Shops, Restaurants, Soups", "public_id": "lunch-basket-inc-marietta", "id": 2901690, "votes": null, "tagline": null, "has_video": false, "website": null, "offers": null, "latitude": 33.966845, "politanName": "Atlanta, GA Metro ", "phone_number": "7704282841", "tags": [{"primary": false, "id": 1722, "name": "Restaurants"}, {"primary": false, "id": 11311, "name": "Soups"}, {"primary": true, "id": 1736, "name": "Sandwich Shops"}], "fax_number": null, "expansion": {"count": null, "uri": null}, "impression_id": "000b00000016406f7427bc417991a7371a53b1f116", "profile": "http://www.citysearch.com/profile/2901690/marietta_ga/lunch_basket_inc.html", "address": {"city": "Marietta", "state": "GA", "street": "627 Cherokee St NE Ste 10", "postal_code": "30060"}, "capProviderId": null, "distance": null, "has_offers": false, "name": "Lunch Basket Inc", "longitude": -84.548223, "has_menu": true, "awards": null, "user_review_count": 3}, {"business_operation_status": 1, "rating": null, "neighborhood": null, "image": "http://cf.restaurantimages.menuism.com/bKMF0MpgOr4lLzeJe4axZe-il-forno-80x80.jpg", "scorecard": null, "featured": false, "sample_categories": "Restaurants, Pizza, American Express, Discover, MasterCard", "public_id": "il-forno-ny-pizza-pasta-atlanta", "id": 43880032, "votes": null, "tagline": null, "has_video": false, "website": "http://www.citysearch.com/profile/external/43880032/sandy_springs_ga/il_forno_ny_pizza_pasta.html", "offers": null, "latitude": 33.909899, "politanName": "Atlanta, GA Metro ", "phone_number": "4042558486", "tags": [{"primary": false, "id": 1722, "name": "Restaurants"}, {"primary": false, "id": 11333, "name": "American Express"}, {"primary": false, "id": 11349, "name": "Discover"}, {"primary": false, "id": 11361, "name": "MasterCard"}, {"primary": false, "id": 11382, "name": "Visa"}, {"primary": true, "id": 11299, "name": "Pizza"}], "fax_number": null, "expansion": {"count": null, "uri": null}, "impression_id": "000b0000008ce9a2f9aa124406ae50db77f85e0249", "profile": "http://www.citysearch.com/profile/43880032/sandy_springs_ga/il_forno_ny_pizza_pasta.html", "address": {"city": "Sandy Springs", "state": "GA", "street": "5680 Roswell Road", "postal_code": "30342"}, "capProviderId": null, "distance": null, "has_offers": false, "name": "Il Forno Ny Pizza & Pasta", "longitude": -84.379123, "has_menu": true, "awards": null, "user_review_count": 0}, {"business_operation_status": 1, "rating": null, "neighborhood": null, "image": "http://o5.aolcdn.com/dims-shared/dims3/PATCH/resize/600x450/http://hss-prod.hss.aol.com/hss/storage/patch/6dccf7409c32d4b66ace2ffe9b650581", "scorecard": null, "featured": false, "sample_categories": "Frozen Yogurt Shops, Ice Cream Parlors", "public_id": "pinkberry-marietta", "id": 604224652, "votes": null, "tagline": null, "has_video": false, "website": null, "offers": null, "latitude": 33.980282, "politanName": "Atlanta, GA Metro ", "phone_number": "7709779770", "tags": [{"primary": false, "id": 1730, "name": "Ice Cream Parlors"}, {"primary": true, "id": 1729, "name": "Frozen Yogurt Shops"}], "fax_number": null, "expansion": {"count": null, "uri": null}, "impression_id": "000b0000000f70c0659beb4ef09e5f31cbe729a29f", "profile": "http://www.citysearch.com/profile/604224652/marietta_ga/pinkberry.html", "address": {"city": "Marietta", "state": "GA", "street": "1281 Johnson Ferry Rd., #108", "postal_code": "30068"}, "capProviderId": null, "distance": null, "has_offers": false, "name": "Pinkberry", "longitude": -84.423967, "has_menu": false, "awards": null, "user_review_count": 0}, {"business_operation_status": 1, "rating": null, "neighborhood": null, "image": "http://o4.aolcdn.com/dims-shared/dims3/PATCH/resize/600x450/http://hss-prod.hss.aol.com/hss/storage/patch/885709e17932b0447996ca825700433f", "scorecard": null, "featured": false, "sample_categories": "Restaurants, Mexican, Carry Out", "public_id": "chipotle-mexican-grill-marietta", "id": 655843800, "votes": null, "tagline": null, "has_video": false, "website": "http://www.citysearch.com/profile/external/655843800/marietta_ga/chipotle_mexican_grill.html", "offers": null, "latitude": 33.980282, "politanName": "Atlanta, GA Metro ", "phone_number": "6782791604", "tags": [{"primary": false, "id": 11208, "name": "Mexican"}, {"primary": false, "id": 11247, "name": "Carry Out"}, {"primary": true, "id": 1722, "name": "Restaurants"}], "fax_number": null, "expansion": {"count": null, "uri": null}, "impression_id": "000b000000d0c58f9bcf5b4316b6691d7b1d44c94f", "profile": "http://www.citysearch.com/profile/655843800/marietta_ga/chipotle_mexican_grill.html", "address": {"city": "Marietta", "state": "GA", "street": "1281 Johnson Ferry Rd", "postal_code": "30068"}, "capProviderId": null, "distance": null, "has_offers": false, "name": "Chipotle Mexican Grill", "longitude": -84.423967, "has_menu": false, "awards": null, "user_review_count": 0}, {"business_operation_status": 1, "rating": null, "neighborhood": null, "image": "http://o4.aolcdn.com/dims-shared/dims3/PATCH/resize/600x450/http://hss-prod.hss.aol.com/hss/storage/patch/6a094d0add903b9fe65e6afd2514fd9f", "scorecard": null, "featured": false, "sample_categories": "Coffeehouses, Coffee & Tea Shops, Restaurants", "public_id": "concourse-coffee-station-atlanta-2", "id": 37652534, "votes": null, "tagline": null, "has_video": false, "website": null, "offers": null, "latitude": 33.916903, "politanName": "Atlanta, GA Metro ", "phone_number": "6784430538", "tags": [{"primary": false, "id": 1711, "name": "Coffee & Tea Shops"}, {"primary": false, "id": 1722, "name": "Restaurants"}, {"primary": true, "id": 1726, "name": "Coffeehouses"}], "fax_number": null, "expansion": {"count": null, "uri": null}, "impression_id": "000b000000942a86965b5f4214a6c140683b79c590", "profile": "http://www.citysearch.com/profile/37652534/atlanta_ga/concourse_coffee_station.html", "address": {"city": "Atlanta", "state": "GA", "street": "5 Concourse Pkwy NE Ste 135", "postal_code": "30328"}, "capProviderId": null, "distance": null, "has_offers": false, "name": "Concourse Coffee Station", "longitude": -84.354615, "has_menu": false, "awards": null, "user_review_count": 0}, {"business_operation_status": 1, "rating": null, "neighborhood": null, "image": "http://o2.aolcdn.com/dims-shared/dims3/PATCH/resize/600x450/http://hss-prod.hss.aol.com/hss/storage/patch/5a9c5175342bd9ddddda659a536300e0", "scorecard": null, "featured": false, "sample_categories": "Restaurants", "public_id": "table-main-roswell", "id": 764866890, "votes": null, "tagline": null, "has_video": false, "website": "http://www.citysearch.com/profile/external/764866890/roswell_ga/table_main.html", "offers": null, "latitude": 34.026538, "politanName": "Atlanta, GA Metro ", "phone_number": "6788695178", "tags": [{"primary": true, "id": 1722, "name": "Restaurants"}], "fax_number": null, "expansion": {"count": null, "uri": null}, "impression_id": "000b000000991ebda326be47f891bac2cccf307970", "profile": "http://www.citysearch.com/profile/764866890/roswell_ga/table_main.html", "address": {"city": "Roswell", "state": "GA", "street": "1028 Canton St", "postal_code": "30075"}, "capProviderId": null, "distance": null, "has_offers": false, "name": "Table & Main", "longitude": -84.361914, "has_menu": false, "awards": null, "user_review_count": 0}, {"business_operation_status": 1, "rating": 6.0, "neighborhood": null, "image": null, "scorecard": null, "featured": false, "sample_categories": "Restaurants, Traditional American, American Express, MasterCard, Visa", "public_id": "nicks-marietta", "id": 41480106, "votes": null, "tagline": null, "has_video": false, "website": "http://www.citysearch.com/profile/external/41480106/marietta_ga/nick_s.html", "offers": null, "latitude": 33.951281, "politanName": "Atlanta, GA Metro ", "phone_number": "6783551088", "tags": [{"primary": false, "id": 11190, "name": "Traditional American"}, {"primary": false, "id": 11333, "name": "American Express"}, {"primary": false, "id": 11361, "name": "MasterCard"}, {"primary": false, "id": 11382, "name": "Visa"}, {"primary": true, "id": 1722, "name": "Restaurants"}], "fax_number": null, "expansion": {"count": null, "uri": null}, "impression_id": "000b00000093e876e80e43451183efab82bb9412a0", "profile": "http://www.citysearch.com/profile/41480106/marietta_ga/nick_s.html", "address": {"city": "Marietta", "state": "GA", "street": "645 Whitlock Ave SW", "postal_code": "30064"}, "capProviderId": null, "distance": null, "has_offers": false, "name": "Nick's", "longitude": -84.571275, "has_menu": true, "awards": null, "user_review_count": 3}, {"business_operation_status": 1, "rating": 4.0, "neighborhood": null, "image": null, "scorecard": null, "featured": false, "sample_categories": "Restaurants, Delis And Delicatessens, Sandwich Shops, Carry Out, Soups", "public_id": "subway-marietta-25", "id": 44474389, "votes": null, "tagline": null, "has_video": false, "website": "http://www.citysearch.com/profile/external/44474389/marietta_ga/subway.html", "offers": null, "latitude": 33.943622, "politanName": "Atlanta, GA Metro ", "phone_number": "6785812644", "tags": [{"primary": false, "id": 1727, "name": "Delis And Delicatessens"}, {"primary": false, "id": 1736, "name": "Sandwich Shops"}, {"primary": false, "id": 11247, "name": "Carry Out"}, {"primary": false, "id": 11311, "name": "Soups"}, {"primary": false, "id": 11361, "name": "MasterCard"}, {"primary": false, "id": 11382, "name": "Visa"}, {"primary": true, "id": 1722, "name": "Restaurants"}], "fax_number": null, "expansion": {"count": null, "uri": null}, "impression_id": "000b00000020ef88081eca462f86274e0be3899509", "profile": "http://www.citysearch.com/profile/44474389/marietta_ga/subway.html", "address": {"city": "Marietta", "state": "GA", "street": "603 S Marietta Pkwy SE 100", "postal_code": "30060"}, "capProviderId": null, "distance": null, "has_offers": false, "name": "Subway", "longitude": -84.533742, "has_menu": true, "awards": null, "user_review_count": 1}, {"business_operation_status": 1, "rating": 2.0, "neighborhood": null, "image": null, "scorecard": null, "featured": false, "sample_categories": "Juice & Smoothie Shops, Health Food Stores, Restaurants", "public_id": "planet-smoothie-atlanta-9", "id": 33571922, "votes": null, "tagline": null, "has_video": false, "website": "http://www.citysearch.com/profile/external/33571922/atlanta_ga/planet_smoothie.html", "offers": null, "latitude": 33.879854, "politanName": "Atlanta, GA Metro ", "phone_number": "7709558006", "tags": [{"primary": false, "id": 1716, "name": "Health Food Stores"}, {"primary": false, "id": 1722, "name": "Restaurants"}, {"primary": true, "id": 1735, "name": "Juice & Smoothie Shops"}], "fax_number": null, "expansion": {"count": null, "uri": null}, "impression_id": "000b0000001148c7485b86421280cfbbcfc18d6b9e", "profile": "http://www.citysearch.com/profile/33571922/atlanta_ga/planet_smoothie.html", "address": {"city": "Atlanta", "state": "GA", "street": "2980 Cobb Pkwy Ste 136", "postal_code": "30339"}, "capProviderId": null, "distance": null, "has_offers": false, "name": "Planet Smoothie", "longitude": -84.461999, "has_menu": true, "awards": null, "user_review_count": 1}, {"business_operation_status": 1, "rating": 6.0, "neighborhood": null, "image": null, "scorecard": null, "featured": false, "sample_categories": "Restaurants, Mexican, American Express, Discover, MasterCard", "public_id": "los-bravos-mexican-restaurant-marietta-2", "id": 2904682, "votes": null, "tagline": null, "has_video": false, "website": null, "offers": null, "latitude": 33.966617, "politanName": "Atlanta, GA Metro ", "phone_number": "7705658919", "tags": [{"primary": false, "id": 11208, "name": "Mexican"}, {"primary": false, "id": 11333, "name": "American Express"}, {"primary": false, "id": 11349, "name": "Discover"}, {"primary": false, "id": 11361, "name": "MasterCard"}, {"primary": false, "id": 11382, "name": "Visa"}, {"primary": true, "id": 1722, "name": "Restaurants"}], "fax_number": null, "expansion": {"count": null, "uri": null}, "impression_id": "000b000000c06672be465a42779ac79607addf37ea", "profile": "http://www.citysearch.com/profile/2904682/marietta_ga/los_bravos_mexican_restaurant.html", "address": {"city": "Marietta", "state": "GA", "street": "2155 Roswell Rd", "postal_code": "30062"}, "capProviderId": null, "distance": null, "has_offers": false, "name": "Los Bravos Mexican Restaurant", "longitude": -84.491321, "has_menu": false, "awards": null, "user_review_count": 1}, {"business_operation_status": 1, "rating": 4.0, "neighborhood": null, "image": null, "scorecard": null, "featured": false, "sample_categories": "Restaurants", "public_id": "golden-buddha-chinese-restaurant-atlanta", "id": 41421327, "votes": null, "tagline": null, "has_video": false, "website": null, "offers": null, "latitude": 33.954521, "politanName": "Atlanta, GA Metro ", "phone_number": "4045869899", "tags": [{"primary": true, "id": 1722, "name": "Restaurants"}], "fax_number": null, "expansion": {"count": null, "uri": null}, "impression_id": "000b0000005e7405357ed44d1a90c655376150f54a", "profile": "http://www.citysearch.com/profile/41421327/atlanta_ga/golden_buddha_chinese_restaurant.html", "address": {"city": "Atlanta", "state": "GA", "street": "120 NW Marietta Street Glenn Building", "postal_code": "30303"}, "capProviderId": null, "distance": null, "has_offers": false, "name": "Golden Buddha Chinese Restaurant", "longitude": -84.47962, "has_menu": false, "awards": null, "user_review_count": 1}], "histograms": [], "tag_ids": [1722], "uri": "http://api.citygridmedia.com:8080/search/places/v2/search/where?has_offers=false&type=restaurant&format=json&page=21&where=30067&rpp=50&histograms=false&publisher=10000009598&region_type=circle", "did_you_mean": "", "regions": [{"latitude": 33.930575, "default_radius": 3.78, "type": "postal_code", "name": "30067", "longitude": -84.463162}], "call_id": "000b000000fe90aee66b3e49b5a69cce84bdd35f23", "first_hit": 1001, "total_hits": 1972, "geo_ids": [26295], "page": 21, "last_hit": 1050}}