{"results": {"rpp": 50, "locations": [{"business_operation_status": 1, "rating": null, "neighborhood": null, "image": null, "scorecard": null, "featured": false, "sample_categories": "Restaurants, Mexican, Carry Out", "public_id": "del-taco-kennesaw", "id": 754767850, "votes": null, "tagline": null, "has_video": false, "website": "http://www.citysearch.com/profile/external/754767850/kennesaw_ga/del_taco.html", "offers": null, "latitude": 34.035364, "politanName": "Atlanta, GA Metro ", "phone_number": "7707925980", "tags": [{"primary": false, "id": 11208, "name": "Mexican"}, {"primary": false, "id": 11247, "name": "Carry Out"}, {"primary": true, "id": 1722, "name": "Restaurants"}], "fax_number": null, "expansion": {"count": null, "uri": null}, "impression_id": "000b00000070d832fceb98429e8ab140e56e4977a9", "profile": "http://www.citysearch.com/profile/754767850/kennesaw_ga/del_taco.html", "address": {"city": "Kennesaw", "state": "GA", "street": "745 Chastain Rd NW", "postal_code": "30144"}, "capProviderId": null, "distance": null, "has_offers": false, "name": "Del Taco", "longitude": -84.570141, "has_menu": false, "awards": null, "user_review_count": 0}, {"business_operation_status": 1, "rating": null, "neighborhood": null, "image": null, "scorecard": null, "featured": false, "sample_categories": "Restaurants, Bars & Clubs, Bars & Pubs", "public_id": "boomers-bar-grill-smyrna", "id": 764862000, "votes": null, "tagline": null, "has_video": false, "website": null, "offers": null, "latitude": 33.899075, "politanName": "Atlanta, GA Metro ", "phone_number": "7709569555", "tags": [{"primary": false, "id": 164, "name": "Bars & Clubs"}, {"primary": false, "id": 1686, "name": "Bars & Pubs"}, {"primary": true, "id": 1722, "name": "Restaurants"}], "fax_number": null, "expansion": {"count": null, "uri": null}, "impression_id": "000b0000008285fa54ca054339bf7050e98ebadff5", "profile": "http://www.citysearch.com/profile/764862000/smyrna_ga/boomer_s_bar_grill.html", "address": {"city": "Smyrna", "state": "GA", "street": "2105 S Cobb Dr SE", "postal_code": "30080"}, "capProviderId": null, "distance": null, "has_offers": false, "name": "Boomer's Bar & Grill", "longitude": -84.54028, "has_menu": false, "awards": null, "user_review_count": 0}, {"business_operation_status": 0, "rating": null, "neighborhood": null, "image": null, "scorecard": null, "featured": false, "sample_categories": "Restaurants, Delis And Delicatessens", "public_id": "cajuns-cookin-po-boys-marietta", "id": 787117810, "votes": null, "tagline": null, "has_video": false, "website": null, "offers": null, "latitude": 33.991982, "politanName": "Atlanta, GA Metro ", "phone_number": "6783326262", "tags": [{"primary": false, "id": 1727, "name": "Delis And Delicatessens"}, {"primary": true, "id": 1722, "name": "Restaurants"}], "fax_number": null, "expansion": {"count": null, "uri": null}, "impression_id": "000b000000c0a4955640ac46c886ac333a766569f9", "profile": "http://www.citysearch.com/profile/787117810/marietta_ga/cajun_s_cookin_po_boys.html", "address": {"city": "Marietta", "state": "GA", "street": "1199 Sandra Dr", "postal_code": "30062"}, "capProviderId": null, "distance": null, "has_offers": false, "name": "Cajun's Cookin' Po Boys", "longitude": -84.516441, "has_menu": false, "awards": null, "user_review_count": 0}, {"business_operation_status": 1, "rating": null, "neighborhood": null, "image": null, "scorecard": null, "featured": false, "sample_categories": "Restaurants, Traditional American, Carry Out, American Express, MasterCard", "public_id": "ruby-tuesday-kennesaw", "id": 2955306, "votes": null, "tagline": null, "has_video": false, "website": "http://www.citysearch.com/profile/external/2955306/kennesaw_ga/ruby_tuesday.html", "offers": null, "latitude": 34.019128, "politanName": "Atlanta, GA Metro ", "phone_number": "7704268061", "tags": [{"primary": false, "id": 11190, "name": "Traditional American"}, {"primary": false, "id": 11247, "name": "Carry Out"}, {"primary": false, "id": 11333, "name": "American Express"}, {"primary": false, "id": 11361, "name": "MasterCard"}, {"primary": false, "id": 11375, "name": "Shop Online"}, {"primary": false, "id": 11382, "name": "Visa"}, {"primary": true, "id": 1722, "name": "Restaurants"}], "fax_number": null, "expansion": {"count": null, "uri": null}, "impression_id": "000b0000004f1fec541bca42df946d9aa775015e96", "profile": "http://www.citysearch.com/profile/2955306/kennesaw_ga/ruby_tuesday.html", "address": {"city": "Kennesaw", "state": "GA", "street": "400 Ernest W Barrett Pkwy NW Ste 2612", "postal_code": "30144"}, "capProviderId": null, "distance": null, "has_offers": false, "name": "Ruby Tuesday", "longitude": -84.563608, "has_menu": true, "awards": null, "user_review_count": 0}, {"business_operation_status": 1, "rating": null, "neighborhood": null, "image": null, "scorecard": null, "featured": false, "sample_categories": "Restaurants, Mexican", "public_id": "taqueria-la-avelita-marietta", "id": 793328060, "votes": null, "tagline": null, "has_video": false, "website": null, "offers": null, "latitude": 33.934292, "politanName": "Atlanta, GA Metro ", "phone_number": "7707944551", "tags": [{"primary": false, "id": 11208, "name": "Mexican"}, {"primary": true, "id": 1722, "name": "Restaurants"}], "fax_number": null, "expansion": {"count": null, "uri": null}, "impression_id": "000b000000284b15e1a51645ca805c516fb2a43380", "profile": "http://www.citysearch.com/profile/793328060/marietta_ga/taqueria_la_avelita.html", "address": {"city": "Marietta", "state": "GA", "street": "739 Franklin Rd Se # C", "postal_code": "30067"}, "capProviderId": null, "distance": null, "has_offers": false, "name": "Taqueria La Avelita", "longitude": -84.502546, "has_menu": false, "awards": null, "user_review_count": 0}, {"business_operation_status": 1, "rating": 6.0, "neighborhood": null, "image": null, "scorecard": null, "featured": false, "sample_categories": "Restaurants, Chinese, American Express, Discover, MasterCard", "public_id": "house-of-ming-marietta", "id": 2904716, "votes": null, "tagline": null, "has_video": false, "website": null, "offers": null, "latitude": 33.980787, "politanName": "Atlanta, GA Metro ", "phone_number": "7709777538", "tags": [{"primary": false, "id": 11252, "name": "Chinese"}, {"primary": false, "id": 11333, "name": "American Express"}, {"primary": false, "id": 11349, "name": "Discover"}, {"primary": false, "id": 11361, "name": "MasterCard"}, {"primary": false, "id": 11382, "name": "Visa"}, {"primary": true, "id": 1722, "name": "Restaurants"}], "fax_number": null, "expansion": {"count": null, "uri": null}, "impression_id": "000b0000001e16558a74154270a2c9975233aacb37", "profile": "http://www.citysearch.com/profile/2904716/marietta_ga/house_of_ming.html", "address": {"city": "Marietta", "state": "GA", "street": "3101 Roswell Rd Ste F2", "postal_code": "30062"}, "capProviderId": null, "distance": null, "has_offers": false, "name": "House Of Ming", "longitude": -84.464028, "has_menu": false, "awards": null, "user_review_count": 1}, {"business_operation_status": 1, "rating": null, "neighborhood": null, "image": null, "scorecard": null, "featured": false, "sample_categories": "Restaurants, Carry Out, Hamburgers", "public_id": "mc-donalds-austell-3", "id": 742217920, "votes": null, "tagline": null, "has_video": false, "website": "http://www.citysearch.com/profile/external/742217920/austell_ga/mc_donald_s.html", "offers": null, "latitude": 33.866346, "politanName": "Atlanta, GA Metro ", "phone_number": "7702221927", "tags": [{"primary": false, "id": 11247, "name": "Carry Out"}, {"primary": false, "id": 11270, "name": "Hamburgers"}, {"primary": true, "id": 1722, "name": "Restaurants"}], "fax_number": null, "expansion": {"count": null, "uri": null}, "impression_id": "000b000000208ed05ca19a40b8bfdddafda4ff15e7", "profile": "http://www.citysearch.com/profile/742217920/austell_ga/mc_donald_s.html", "address": {"city": "Austell", "state": "GA", "street": "E West Connector & Marathon", "postal_code": "30106"}, "capProviderId": null, "distance": null, "has_offers": false, "name": "Mc Donald's", "longitude": -84.626708, "has_menu": false, "awards": null, "user_review_count": 0}, {"business_operation_status": 1, "rating": 8.0, "neighborhood": null, "image": null, "scorecard": null, "featured": false, "sample_categories": "Restaurants, Mexican", "public_id": "el-dorado-restaurant-marietta", "id": 2901664, "votes": null, "tagline": null, "has_video": false, "website": null, "offers": null, "latitude": 33.902097, "politanName": "Atlanta, GA Metro ", "phone_number": "7704347772", "tags": [{"primary": false, "id": 1722, "name": "Restaurants"}, {"primary": true, "id": 11208, "name": "Mexican"}], "fax_number": null, "expansion": {"count": null, "uri": null}, "impression_id": "000b000000cdf7f66d796040c5a7bfa063f063b5c3", "profile": "http://www.citysearch.com/profile/2901664/marietta_ga/el_dorado_restaurant.html", "address": {"city": "Marietta", "state": "GA", "street": "325 Pat Mell Rd SE", "postal_code": "30060"}, "capProviderId": null, "distance": null, "has_offers": false, "name": "El Dorado Restaurant", "longitude": -84.546463, "has_menu": true, "awards": null, "user_review_count": 0}, {"business_operation_status": 1, "rating": null, "neighborhood": null, "image": null, "scorecard": null, "featured": false, "sample_categories": "Grocery Stores, Restaurants", "public_id": "genji-express-marietta", "id": 836645200, "votes": null, "tagline": null, "has_video": false, "website": null, "offers": null, "latitude": 33.948194, "politanName": "Atlanta, GA Metro ", "phone_number": "7705784400", "tags": [{"primary": false, "id": 1722, "name": "Restaurants"}, {"primary": true, "id": 1713, "name": "Grocery Stores"}], "fax_number": null, "expansion": {"count": null, "uri": null}, "impression_id": "000b000000b9e92de616114f2aafb751d2996cdd65", "profile": "http://www.citysearch.com/profile/836645200/marietta_ga/genji_express.html", "address": {"city": "Marietta", "state": "GA", "street": "70 Powers Ferry Rd SE", "postal_code": "30067"}, "capProviderId": null, "distance": null, "has_offers": false, "name": "Genji Express", "longitude": -84.513268, "has_menu": true, "awards": null, "user_review_count": 0}, {"business_operation_status": 1, "rating": null, "neighborhood": null, "image": null, "scorecard": null, "featured": false, "sample_categories": "Restaurants", "public_id": "valindas-cozy-kitchen-austell-2", "id": 814424400, "votes": null, "tagline": null, "has_video": false, "website": null, "offers": null, "latitude": 33.834562, "politanName": "Atlanta, GA Metro ", "phone_number": "7709440410", "tags": [{"primary": true, "id": 1722, "name": "Restaurants"}], "fax_number": null, "expansion": {"count": null, "uri": null}, "impression_id": "000b0000005da61db424034ed3ac8dd7afdf0b1120", "profile": "http://www.citysearch.com/profile/814424400/austell_ga/valinda_s_cozy_kitchen.html", "address": {"city": "Austell", "state": "GA", "street": "2075 Warren Dr", "postal_code": "30106"}, "capProviderId": null, "distance": null, "has_offers": false, "name": "Valinda's Cozy Kitchen", "longitude": -84.61502, "has_menu": false, "awards": null, "user_review_count": 0}, {"business_operation_status": 1, "rating": null, "neighborhood": null, "image": null, "scorecard": null, "featured": false, "sample_categories": "Restaurants, Pizza, Carry Out", "public_id": "little-caesars-pizza-austell", "id": 817405370, "votes": null, "tagline": null, "has_video": false, "website": null, "offers": null, "latitude": 33.836659, "politanName": "Atlanta, GA Metro ", "phone_number": "7709485001", "tags": [{"primary": false, "id": 1722, "name": "Restaurants"}, {"primary": false, "id": 11247, "name": "Carry Out"}, {"primary": true, "id": 11299, "name": "Pizza"}], "fax_number": null, "expansion": {"count": null, "uri": null}, "impression_id": "000b000000d3ca49874a224f03aa084eb08e460ef6", "profile": "http://www.citysearch.com/profile/817405370/austell_ga/little_caesars_pizza.html", "address": {"city": "Austell", "state": "GA", "street": "3753 Austell Rd", "postal_code": "30106"}, "capProviderId": null, "distance": null, "has_offers": false, "name": "Little Caesars Pizza", "longitude": -84.611909, "has_menu": false, "awards": null, "user_review_count": 0}, {"business_operation_status": 1, "rating": null, "neighborhood": null, "image": null, "scorecard": null, "featured": false, "sample_categories": "Restaurants, Carry Out, Hamburgers", "public_id": "wendys-kennesaw-4", "id": 775183780, "votes": null, "tagline": null, "has_video": false, "website": null, "offers": null, "latitude": 34.018974, "politanName": "Atlanta, GA Metro ", "phone_number": "7704273990", "tags": [{"primary": false, "id": 11247, "name": "Carry Out"}, {"primary": false, "id": 11270, "name": "Hamburgers"}, {"primary": true, "id": 1722, "name": "Restaurants"}], "fax_number": null, "expansion": {"count": null, "uri": null}, "impression_id": "000b000000cacb3616d6434132a4e4713677e95397", "profile": "http://www.citysearch.com/profile/775183780/kennesaw_ga/wendy_s.html", "address": {"city": "Kennesaw", "state": "GA", "street": "400 Ernest W Barrett Pkwy NW", "postal_code": "30144"}, "capProviderId": null, "distance": null, "has_offers": false, "name": "Wendy's", "longitude": -84.563564, "has_menu": true, "awards": null, "user_review_count": 0}, {"business_operation_status": 1, "rating": null, "neighborhood": null, "image": null, "scorecard": null, "featured": false, "sample_categories": "Restaurants, Caribbean", "public_id": "theos-caribbean-grill-marietta", "id": 777756870, "votes": null, "tagline": null, "has_video": false, "website": null, "offers": null, "latitude": 34.020818, "politanName": "Atlanta, GA Metro ", "phone_number": "6785810107", "tags": [{"primary": false, "id": 11195, "name": "Caribbean"}, {"primary": true, "id": 1722, "name": "Restaurants"}], "fax_number": null, "expansion": {"count": null, "uri": null}, "impression_id": "000b0000002db27a91940e42dbaf6765e210a71025", "profile": "http://www.citysearch.com/profile/777756870/marietta_ga/theo_s_caribbean_grill.html", "address": {"city": "Marietta", "state": "GA", "street": "2821 Chastain Meadows Pkwy 230", "postal_code": "30066"}, "capProviderId": null, "distance": null, "has_offers": false, "name": "Theo's Caribbean Grill", "longitude": -84.55554, "has_menu": false, "awards": null, "user_review_count": 0}, {"business_operation_status": 1, "rating": null, "neighborhood": null, "image": null, "scorecard": null, "featured": false, "sample_categories": "Ice Cream Parlors", "public_id": "marble-slab-creamery-kennesaw", "id": 829114200, "votes": null, "tagline": null, "has_video": false, "website": "http://www.citysearch.com/profile/external/829114200/kennesaw_ga/marble_slab_creamery.html", "offers": null, "latitude": 34.012738, "politanName": "Atlanta, GA Metro ", "phone_number": "6783555424", "tags": [{"primary": true, "id": 1730, "name": "Ice Cream Parlors"}], "fax_number": null, "expansion": {"count": null, "uri": null}, "impression_id": "000b0000004c0f57d267874f7ab7440ebf4275eb2a", "profile": "http://www.citysearch.com/profile/829114200/kennesaw_ga/marble_slab_creamery.html", "address": {"city": "Kennesaw", "state": "GA", "street": "440 Ernest W Barrett Pkwy NW", "postal_code": "30144"}, "capProviderId": null, "distance": null, "has_offers": false, "name": "Marble Slab Creamery", "longitude": -84.5643, "has_menu": true, "awards": null, "user_review_count": 0}, {"business_operation_status": 1, "rating": null, "neighborhood": null, "image": null, "scorecard": null, "featured": false, "sample_categories": "Restaurants, Pizza", "public_id": "pizza-n-beyond-kennesaw", "id": 798806950, "votes": null, "tagline": null, "has_video": false, "website": "http://www.citysearch.com/profile/external/798806950/kennesaw_ga/pizza_n_beyond.html", "offers": null, "latitude": 34.018008, "politanName": "Atlanta, GA Metro ", "phone_number": "7706756108", "tags": [{"primary": false, "id": 1722, "name": "Restaurants"}, {"primary": true, "id": 11299, "name": "Pizza"}], "fax_number": null, "expansion": {"count": null, "uri": null}, "impression_id": "000b00000067dc2c7f8e874bd999b2a0ce2963af58", "profile": "http://www.citysearch.com/profile/798806950/kennesaw_ga/pizza_n_beyond.html", "address": {"city": "Kennesaw", "state": "GA", "street": "2655 Cobb Pkwy NW", "postal_code": "30152"}, "capProviderId": null, "distance": null, "has_offers": false, "name": "Pizza N Beyond", "longitude": -84.619527, "has_menu": true, "awards": null, "user_review_count": 1}, {"business_operation_status": 1, "rating": null, "neighborhood": null, "image": null, "scorecard": null, "featured": false, "sample_categories": "Doughnut Shops, Coffeehouses", "public_id": "dunkin-donuts-marietta-6", "id": 627683600, "votes": null, "tagline": null, "has_video": false, "website": "http://www.citysearch.com/profile/external/627683600/marietta_ga/dunkin_donuts.html", "offers": null, "latitude": 34.016918, "politanName": "Atlanta, GA Metro ", "phone_number": "7709772722", "tags": [{"primary": false, "id": 1726, "name": "Coffeehouses"}, {"primary": true, "id": 1734, "name": "Doughnut Shops"}], "fax_number": null, "expansion": {"count": null, "uri": null}, "impression_id": "000b000000999bc9fb6fd940afb7b33a579cc85168", "profile": "http://www.citysearch.com/profile/627683600/marietta_ga/dunkin_donuts.html", "address": {"city": "Marietta", "state": "GA", "street": "2765 Sandy Plains Rd", "postal_code": "30066"}, "capProviderId": null, "distance": null, "has_offers": false, "name": "Dunkin' Donuts", "longitude": -84.492855, "has_menu": true, "awards": null, "user_review_count": 0}, {"business_operation_status": 1, "rating": null, "neighborhood": null, "image": null, "scorecard": null, "featured": false, "sample_categories": "Restaurants, Barbecue Restaurants", "public_id": "wingstop-kennesaw", "id": 762816620, "votes": null, "tagline": null, "has_video": false, "website": "http://www.citysearch.com/profile/external/762816620/kennesaw_ga/wingstop.html", "offers": null, "latitude": 34.030476, "politanName": "Atlanta, GA Metro ", "phone_number": "7704289464", "tags": [{"primary": false, "id": 1724, "name": "Barbecue Restaurants"}, {"primary": true, "id": 1722, "name": "Restaurants"}], "fax_number": null, "expansion": {"count": null, "uri": null}, "impression_id": "000b000000eca63bedf3c743f585f72a824764413d", "profile": "http://www.citysearch.com/profile/762816620/kennesaw_ga/wingstop.html", "address": {"city": "Kennesaw", "state": "GA", "street": "1133 Chastain Rd NW # 300", "postal_code": "30144"}, "capProviderId": null, "distance": null, "has_offers": false, "name": "Wingstop", "longitude": -84.58315, "has_menu": false, "awards": null, "user_review_count": 0}, {"business_operation_status": 1, "rating": null, "neighborhood": null, "image": null, "scorecard": null, "featured": false, "sample_categories": "Restaurants, Mexican", "public_id": "la-paz-restaurant-kennesaw", "id": 775214130, "votes": null, "tagline": null, "has_video": false, "website": null, "offers": null, "latitude": 34.048726, "politanName": "Atlanta, GA Metro ", "phone_number": "7704053220", "tags": [{"primary": false, "id": 11208, "name": "Mexican"}, {"primary": true, "id": 1722, "name": "Restaurants"}], "fax_number": null, "expansion": {"count": null, "uri": null}, "impression_id": "000b00000028e303816c6e4be98fad6f70cd99fc51", "profile": "http://www.citysearch.com/profile/775214130/kennesaw_ga/la_paz_restaurant.html", "address": {"city": "Kennesaw", "state": "GA", "street": "1275 Shiloh Rd NW # 2950", "postal_code": "30144"}, "capProviderId": null, "distance": null, "has_offers": false, "name": "La Paz Restaurant", "longitude": -84.58852, "has_menu": false, "awards": null, "user_review_count": 0}, {"business_operation_status": 1, "rating": null, "neighborhood": null, "image": null, "scorecard": null, "featured": false, "sample_categories": "Restaurants, Bars & Clubs", "public_id": "highlands-grill-kennesaw-3", "id": 775224210, "votes": null, "tagline": null, "has_video": false, "website": null, "offers": null, "latitude": 34.013172, "politanName": "Atlanta, GA Metro ", "phone_number": "7704261515", "tags": [{"primary": false, "id": 164, "name": "Bars & Clubs"}, {"primary": true, "id": 1722, "name": "Restaurants"}], "fax_number": null, "expansion": {"count": null, "uri": null}, "impression_id": "000b00000095f37cdbed0a4b98846dce2484bc5f1d", "profile": "http://www.citysearch.com/profile/775224210/kennesaw_ga/highlands_grill.html", "address": {"city": "Kennesaw", "state": "GA", "street": "2615 George Busbee Pky NW # 28", "postal_code": "30144"}, "capProviderId": null, "distance": null, "has_offers": false, "name": "Highlands Grill", "longitude": -84.567215, "has_menu": false, "awards": null, "user_review_count": 0}, {"business_operation_status": 1, "rating": null, "neighborhood": null, "image": null, "scorecard": null, "featured": false, "sample_categories": "Juice & Smoothie Shops, Restaurants, Ice Cream Parlors, Carry Out", "public_id": "orange-julius-kennesaw", "id": 777716120, "votes": null, "tagline": null, "has_video": false, "website": "http://www.citysearch.com/profile/external/777716120/kennesaw_ga/orange_julius.html", "offers": null, "latitude": 34.014009, "politanName": "Atlanta, GA Metro ", "phone_number": "7704281468", "tags": [{"primary": false, "id": 1722, "name": "Restaurants"}, {"primary": false, "id": 1730, "name": "Ice Cream Parlors"}, {"primary": false, "id": 11247, "name": "Carry Out"}, {"primary": true, "id": 1735, "name": "Juice & Smoothie Shops"}], "fax_number": null, "expansion": {"count": null, "uri": null}, "impression_id": "000b0000001ffd12308c8a42c2b223356c34733972", "profile": "http://www.citysearch.com/profile/777716120/kennesaw_ga/orange_julius.html", "address": {"city": "Kennesaw", "state": "GA", "street": "400 Ernest W Barrett Pkwy NW", "postal_code": "30144"}, "capProviderId": null, "distance": null, "has_offers": false, "name": "Orange Julius", "longitude": -84.561425, "has_menu": true, "awards": null, "user_review_count": 0}, {"business_operation_status": 0, "rating": null, "neighborhood": null, "image": null, "scorecard": null, "featured": false, "sample_categories": "Restaurants, Delis And Delicatessens, Sandwich Shops, Carry Out", "public_id": "quiznos-kennesaw", "id": 648900450, "votes": null, "tagline": null, "has_video": false, "website": null, "offers": null, "latitude": 34.030476, "politanName": "Atlanta, GA Metro ", "phone_number": "7705147844", "tags": [{"primary": false, "id": 1727, "name": "Delis And Delicatessens"}, {"primary": false, "id": 1736, "name": "Sandwich Shops"}, {"primary": false, "id": 11247, "name": "Carry Out"}, {"primary": true, "id": 1722, "name": "Restaurants"}], "fax_number": null, "expansion": {"count": null, "uri": null}, "impression_id": "000b0000009fab396647e94b9aa89b92a8b5d73f8f", "profile": "http://www.citysearch.com/profile/648900450/kennesaw_ga/quiznos.html", "address": {"city": "Kennesaw", "state": "GA", "street": "1133 Chastain Rd NW Ste C", "postal_code": "30144"}, "capProviderId": null, "distance": null, "has_offers": false, "name": "Quiznos", "longitude": -84.58315, "has_menu": true, "awards": null, "user_review_count": 0}, {"business_operation_status": 1, "rating": null, "neighborhood": null, "image": null, "scorecard": null, "featured": false, "sample_categories": "Restaurants", "public_id": "crossroads-neighborhood-grille-dallas", "id": 790624770, "votes": null, "tagline": null, "has_video": false, "website": null, "offers": null, "latitude": 34.022077, "politanName": "Atlanta, GA Metro ", "phone_number": "7709757712", "tags": [{"primary": true, "id": 1722, "name": "Restaurants"}], "fax_number": null, "expansion": {"count": null, "uri": null}, "impression_id": "000b0000007bdb6407514a43fc88af23ea407705eb", "profile": "http://www.citysearch.com/profile/790624770/dallas_ga/crossroads_neighborhood_grille.html", "address": {"city": "Dallas", "state": "GA", "street": "1305 Cedarcrest Rd", "postal_code": "30132"}, "capProviderId": null, "distance": null, "has_offers": false, "name": "Crossroads Neighborhood Grille", "longitude": -84.771962, "has_menu": false, "awards": null, "user_review_count": 0}, {"business_operation_status": 1, "rating": null, "neighborhood": null, "image": null, "scorecard": null, "featured": false, "sample_categories": "Restaurants, Jamaican", "public_id": "country-style-jamaican-rstrnt-marietta", "id": 790653840, "votes": null, "tagline": null, "has_video": false, "website": null, "offers": null, "latitude": 34.03261, "politanName": "Atlanta, GA Metro ", "phone_number": "7704258444", "tags": [{"primary": false, "id": 11193, "name": "Jamaican"}, {"primary": true, "id": 1722, "name": "Restaurants"}], "fax_number": null, "expansion": {"count": null, "uri": null}, "impression_id": "000b000000b94324b3277b4f579413e176cebafce4", "profile": "http://www.citysearch.com/profile/790653840/marietta_ga/country_style_jamaican_rstrnt.html", "address": {"city": "Marietta", "state": "GA", "street": "3349 Canton Rd # 201", "postal_code": "30066"}, "capProviderId": null, "distance": null, "has_offers": false, "name": "Country Style Jamaican Rstrnt", "longitude": -84.528907, "has_menu": false, "awards": null, "user_review_count": 0}, {"business_operation_status": 1, "rating": null, "neighborhood": null, "image": null, "scorecard": null, "featured": false, "sample_categories": "Restaurants", "public_id": "peppers-grill-bar-marietta", "id": 672240030, "votes": null, "tagline": null, "has_video": false, "website": null, "offers": null, "latitude": 33.865697, "politanName": "Atlanta, GA Metro ", "phone_number": "7704368181", "tags": [{"primary": true, "id": 1722, "name": "Restaurants"}], "fax_number": null, "expansion": {"count": null, "uri": null}, "impression_id": "000b00000032dab8a54bfe406da64238ceba286fea", "profile": "http://www.citysearch.com/profile/672240030/marietta_ga/pepper_s_grill_bar.html", "address": {"city": "Marietta", "state": "GA", "street": "3565 Austell Road SW", "postal_code": "30008"}, "capProviderId": null, "distance": null, "has_offers": false, "name": "Pepper's Grill & Bar", "longitude": -84.592502, "has_menu": false, "awards": null, "user_review_count": 1}, {"business_operation_status": 1, "rating": null, "neighborhood": null, "image": null, "scorecard": null, "featured": false, "sample_categories": "Restaurants, Asian, Chinese", "public_id": "chinese-restaurant-marietta", "id": 682576220, "votes": null, "tagline": null, "has_video": false, "website": "http://www.citysearch.com/profile/external/682576220/marietta_ga/chinese_restaurant.html", "offers": null, "latitude": 33.968527, "politanName": "Atlanta, GA Metro ", "phone_number": "7703218202", "tags": [{"primary": false, "id": 11235, "name": "Asian"}, {"primary": false, "id": 11252, "name": "Chinese"}, {"primary": true, "id": 1722, "name": "Restaurants"}], "fax_number": null, "expansion": {"count": null, "uri": null}, "impression_id": "000b0000003f6a05ad99124036b9372b9e4266b5f9", "profile": "http://www.citysearch.com/profile/682576220/marietta_ga/chinese_restaurant.html", "address": {"city": "Marietta", "state": "GA", "street": "2145 Roswell Rd", "postal_code": "30062"}, "capProviderId": null, "distance": null, "has_offers": false, "name": "Chinese Restaurant", "longitude": -84.491622, "has_menu": false, "awards": null, "user_review_count": 0}, {"business_operation_status": 1, "rating": null, "neighborhood": null, "image": null, "scorecard": null, "featured": false, "sample_categories": "Restaurants", "public_id": "philly-connection-marietta-4", "id": 805419070, "votes": null, "tagline": null, "has_video": false, "website": null, "offers": null, "latitude": 34.011742, "politanName": "Atlanta, GA Metro ", "phone_number": "7705799288", "tags": [{"primary": true, "id": 1722, "name": "Restaurants"}], "fax_number": null, "expansion": {"count": null, "uri": null}, "impression_id": "000b000000d78009f5cd2a4b04bd10023fd2d5fe1e", "profile": "http://www.citysearch.com/profile/805419070/marietta_ga/philly_connection.html", "address": {"city": "Marietta", "state": "GA", "street": "2550 Sandy Plains Rd # 215", "postal_code": "30066"}, "capProviderId": null, "distance": null, "has_offers": false, "name": "Philly Connection", "longitude": -84.495056, "has_menu": true, "awards": null, "user_review_count": 0}, {"business_operation_status": 1, "rating": null, "neighborhood": null, "image": null, "scorecard": null, "featured": false, "sample_categories": "Restaurants, Cafes", "public_id": "dsc-solutions-llc-marietta", "id": 764892180, "votes": null, "tagline": null, "has_video": false, "website": null, "offers": null, "latitude": 34.014183, "politanName": "Atlanta, GA Metro ", "phone_number": "7709776915", "tags": [{"primary": false, "id": 6190, "name": "Cafes"}, {"primary": true, "id": 1722, "name": "Restaurants"}], "fax_number": null, "expansion": {"count": null, "uri": null}, "impression_id": "000b000000a98712e8582d41b2bc453a165184fa22", "profile": "http://www.citysearch.com/profile/764892180/marietta_ga/dsc_solutions_llc.html", "address": {"city": "Marietta", "state": "GA", "street": "2595 Sandy Plains Rd # 1", "postal_code": "30066"}, "capProviderId": null, "distance": null, "has_offers": false, "name": "DSC Solutions Llc", "longitude": -84.495373, "has_menu": false, "awards": null, "user_review_count": 0}, {"business_operation_status": 1, "rating": null, "neighborhood": null, "image": null, "scorecard": null, "featured": false, "sample_categories": "Restaurants, Carry Out", "public_id": "ryans-grill-buffet-bakery-marietta", "id": 764837190, "votes": null, "tagline": null, "has_video": false, "website": null, "offers": null, "latitude": 34.010977, "politanName": "Atlanta, GA Metro ", "phone_number": "7704250277", "tags": [{"primary": false, "id": 11247, "name": "Carry Out"}, {"primary": true, "id": 1722, "name": "Restaurants"}], "fax_number": null, "expansion": {"count": null, "uri": null}, "impression_id": "000b0000000ceca6662da14d659d7262f1548df886", "profile": "http://www.citysearch.com/profile/764837190/marietta_ga/ryan_s_grill_buffet_bakery.html", "address": {"city": "Marietta", "state": "GA", "street": "2418 Canton Rd", "postal_code": "30066"}, "capProviderId": null, "distance": null, "has_offers": false, "name": "Ryan's Grill Buffet & Bakery", "longitude": -84.526734, "has_menu": false, "awards": null, "user_review_count": 0}, {"business_operation_status": 1, "rating": null, "neighborhood": null, "image": null, "scorecard": null, "featured": false, "sample_categories": "Restaurants, Luaus, Mexican", "public_id": "taco-mac-kennesaw", "id": 766794950, "votes": null, "tagline": null, "has_video": false, "website": null, "offers": null, "latitude": 34.014045, "politanName": "Atlanta, GA Metro ", "phone_number": "7704261515", "tags": [{"primary": false, "id": 1722, "name": "Restaurants"}, {"primary": false, "id": 11208, "name": "Mexican"}, {"primary": true, "id": 11285, "name": "Luaus"}], "fax_number": null, "expansion": {"count": null, "uri": null}, "impression_id": "000b0000003d5c89d60a6f43abac3ed6ac516e1d6a", "profile": "http://www.citysearch.com/profile/766794950/kennesaw_ga/taco_mac.html", "address": {"city": "Kennesaw", "state": "GA", "street": "2615 Busbee Pkwy NW # 28", "postal_code": "30144"}, "capProviderId": null, "distance": null, "has_offers": false, "name": "Taco Mac", "longitude": -84.56696, "has_menu": false, "awards": null, "user_review_count": 0}, {"business_operation_status": 1, "rating": null, "neighborhood": null, "image": null, "scorecard": null, "featured": false, "sample_categories": "Restaurants", "public_id": "sunrise-biscuit-co-marietta", "id": 808765260, "votes": null, "tagline": null, "has_video": false, "website": null, "offers": null, "latitude": 34.048278, "politanName": "Atlanta, GA Metro ", "phone_number": "7705169556", "tags": [{"primary": true, "id": 1722, "name": "Restaurants"}], "fax_number": null, "expansion": {"count": null, "uri": null}, "impression_id": "000b000000b596408807ef413b8c5497d5b9d645a9", "profile": "http://www.citysearch.com/profile/808765260/marietta_ga/sunrise_biscuit_co.html", "address": {"city": "Marietta", "state": "GA", "street": "4017 Canton Rd", "postal_code": "30066"}, "capProviderId": null, "distance": null, "has_offers": false, "name": "Sunrise Biscuit Co", "longitude": -84.52851, "has_menu": false, "awards": null, "user_review_count": 0}, {"business_operation_status": 1, "rating": null, "neighborhood": null, "image": null, "scorecard": null, "featured": false, "sample_categories": "Restaurants, Pizza", "public_id": "gondolier-pizza-1-kennesaw", "id": 809188170, "votes": null, "tagline": null, "has_video": false, "website": null, "offers": null, "latitude": 34.007674, "politanName": "Atlanta, GA Metro ", "phone_number": "7704199979", "tags": [{"primary": false, "id": 1722, "name": "Restaurants"}, {"primary": true, "id": 11299, "name": "Pizza"}], "fax_number": null, "expansion": {"count": null, "uri": null}, "impression_id": "000b0000007a22383ec2dd421aaa42259d67af6097", "profile": "http://www.citysearch.com/profile/809188170/kennesaw_ga/gondolier_pizza_1.html", "address": {"city": "Kennesaw", "state": "GA", "street": "740 Ernest W Barrett Pkwy NW", "postal_code": "30144"}, "capProviderId": null, "distance": null, "has_offers": false, "name": "Gondolier Pizza 1", "longitude": -84.571702, "has_menu": false, "awards": null, "user_review_count": 0}, {"business_operation_status": 1, "rating": null, "neighborhood": null, "image": null, "scorecard": null, "featured": false, "sample_categories": "Restaurants, Japanese", "public_id": "access-japan-inc-marietta", "id": 775202150, "votes": null, "tagline": null, "has_video": false, "website": null, "offers": null, "latitude": 33.959931, "politanName": "Atlanta, GA Metro ", "phone_number": "7709714847", "tags": [{"primary": false, "id": 11202, "name": "Japanese"}, {"primary": true, "id": 1722, "name": "Restaurants"}], "fax_number": null, "expansion": {"count": null, "uri": null}, "impression_id": "000b000000a4fcea1513534c358a0eb6984da9107d", "profile": "http://www.citysearch.com/profile/775202150/marietta_ga/access_japan_inc.html", "address": {"city": "Marietta", "state": "GA", "street": "360 Willow Glen Dr", "postal_code": "30068"}, "capProviderId": null, "distance": null, "has_offers": false, "name": "Access Japan Inc", "longitude": -84.485385, "has_menu": false, "awards": null, "user_review_count": 0}, {"business_operation_status": 1, "rating": null, "neighborhood": null, "image": null, "scorecard": null, "featured": false, "sample_categories": "Restaurants", "public_id": "baileys-diner-powder", "id": 823022250, "votes": null, "tagline": null, "has_video": false, "website": null, "offers": null, "latitude": 33.85832, "politanName": "Atlanta, GA Metro ", "phone_number": "6783841220", "tags": [{"primary": true, "id": 1722, "name": "Restaurants"}], "fax_number": null, "expansion": {"count": null, "uri": null}, "impression_id": "000b000000464944e4785d4fd5abd7c65e094b2bb0", "profile": "http://www.citysearch.com/profile/823022250/powder_springs_ga/bailey_s_diner.html", "address": {"city": "Powder Springs", "state": "GA", "street": "4093 Marietta St", "postal_code": "30127"}, "capProviderId": null, "distance": null, "has_offers": false, "name": "Bailey's Diner", "longitude": -84.67366, "has_menu": false, "awards": null, "user_review_count": 0}, {"business_operation_status": 1, "rating": null, "neighborhood": null, "image": null, "scorecard": null, "featured": false, "sample_categories": "Restaurants", "public_id": "kds-cafe-inc-powder", "id": 828806350, "votes": null, "tagline": null, "has_video": false, "website": null, "offers": null, "latitude": 33.842913, "politanName": "Atlanta, GA Metro ", "phone_number": "7709434912", "tags": [{"primary": true, "id": 1722, "name": "Restaurants"}], "fax_number": null, "expansion": {"count": null, "uri": null}, "impression_id": "000b0000005c29e39bbaa0420ca76af20dc92428dd", "profile": "http://www.citysearch.com/profile/828806350/powder_springs_ga/kds_cafe_inc.html", "address": {"city": "Powder Springs", "state": "GA", "street": "4565 Ridgeview Dr", "postal_code": "30127"}, "capProviderId": null, "distance": null, "has_offers": false, "name": "Kds Cafe Inc", "longitude": -84.721382, "has_menu": false, "awards": null, "user_review_count": 0}, {"business_operation_status": 1, "rating": null, "neighborhood": null, "image": null, "scorecard": null, "featured": false, "sample_categories": "Restaurants", "public_id": "el-tapatio-mableton", "id": 832623600, "votes": null, "tagline": null, "has_video": false, "website": null, "offers": null, "latitude": 33.823999, "politanName": "Atlanta, GA Metro ", "phone_number": "7707458920", "tags": [{"primary": true, "id": 1722, "name": "Restaurants"}], "fax_number": null, "expansion": {"count": null, "uri": null}, "impression_id": "000b000000005d298416f34781b8785c23adcb0884", "profile": "http://www.citysearch.com/profile/832623600/mableton_ga/el_tapatio.html", "address": {"city": "Mableton", "state": "GA", "street": "5345 Floyd Rd Sw", "postal_code": "30126"}, "capProviderId": null, "distance": null, "has_offers": false, "name": "El Tapatio", "longitude": -84.574687, "has_menu": true, "awards": null, "user_review_count": 0}, {"business_operation_status": 1, "rating": null, "neighborhood": null, "image": null, "scorecard": null, "featured": false, "sample_categories": "Restaurants", "public_id": "brikishani-enterprises-llc-marietta", "id": 732135290, "votes": null, "tagline": null, "has_video": false, "website": null, "offers": null, "latitude": 33.875537, "politanName": "Atlanta, GA Metro ", "phone_number": "6787990175", "tags": [{"primary": true, "id": 1722, "name": "Restaurants"}], "fax_number": null, "expansion": {"count": null, "uri": null}, "impression_id": "000b00000009340ecc97df40f5832398482c6a491d", "profile": "http://www.citysearch.com/profile/732135290/marietta_ga/brikishani_enterprises_llc.html", "address": {"city": "Marietta", "state": "GA", "street": "1727 Silverchase Dr SW", "postal_code": "30008"}, "capProviderId": null, "distance": null, "has_offers": false, "name": "Brikishani Enterprises LLC", "longitude": -84.605105, "has_menu": false, "awards": null, "user_review_count": 0}, {"business_operation_status": 1, "rating": null, "neighborhood": null, "image": null, "scorecard": null, "featured": false, "sample_categories": "Restaurants, Greek, Middle Eastern, Family Style Dining, Mediterranean", "public_id": "milos-greek-taverna-marietta", "id": 798213230, "votes": null, "tagline": null, "has_video": false, "website": null, "offers": null, "latitude": 33.953276, "politanName": "Atlanta, GA Metro ", "phone_number": "6789033148", "tags": [{"primary": false, "id": 1722, "name": "Restaurants"}, {"primary": false, "id": 11215, "name": "Middle Eastern"}, {"primary": false, "id": 11262, "name": "Family Style Dining"}, {"primary": false, "id": 11289, "name": "Mediterranean"}, {"primary": true, "id": 11268, "name": "Greek"}], "fax_number": "6789033149", "expansion": {"count": null, "uri": null}, "impression_id": "000b0000008f3c4c407f9a459aad6ca6e70ba1a326", "profile": "http://www.citysearch.com/profile/798213230/marietta_ga/milos_greek_taverna.html", "address": {"city": "Marietta", "state": "GA", "street": "26 Mill St NE", "postal_code": "30060"}, "capProviderId": null, "distance": null, "has_offers": false, "name": "Milos Greek Taverna", "longitude": -84.551885, "has_menu": false, "awards": null, "user_review_count": 0}, {"business_operation_status": 1, "rating": null, "neighborhood": null, "image": null, "scorecard": null, "featured": false, "sample_categories": "Restaurants", "public_id": "underwood-enterprises-inc-mableton", "id": 732242390, "votes": null, "tagline": null, "has_video": false, "website": null, "offers": null, "latitude": 33.835202, "politanName": "Atlanta, GA Metro ", "phone_number": "7708238349", "tags": [{"primary": true, "id": 1722, "name": "Restaurants"}], "fax_number": null, "expansion": {"count": null, "uri": null}, "impression_id": "000b00000024f9a482842f4429a99f17ea89aede28", "profile": "http://www.citysearch.com/profile/732242390/mableton_ga/underwood_enterprises_inc.html", "address": {"city": "Mableton", "state": "GA", "street": "4870 Floyd Rd SW # 30", "postal_code": "30126"}, "capProviderId": null, "distance": null, "has_offers": false, "name": "Underwood Enterprises Inc", "longitude": -84.576887, "has_menu": false, "awards": null, "user_review_count": 0}, {"business_operation_status": 1, "rating": null, "neighborhood": null, "image": null, "scorecard": null, "featured": false, "sample_categories": "Restaurants", "public_id": "pegasus-foods-inc-powder", "id": 732186320, "votes": null, "tagline": null, "has_video": false, "website": null, "offers": null, "latitude": 33.906794, "politanName": "Atlanta, GA Metro ", "phone_number": "7704391489", "tags": [{"primary": true, "id": 1722, "name": "Restaurants"}], "fax_number": null, "expansion": {"count": null, "uri": null}, "impression_id": "000b0000001d5228be6307430fad36816c13dcac58", "profile": "http://www.citysearch.com/profile/732186320/powder_springs_ga/pegasus_foods_inc.html", "address": {"city": "Powder Springs", "state": "GA", "street": "3640 Velma Dr", "postal_code": "30127"}, "capProviderId": null, "distance": null, "has_offers": false, "name": "Pegasus Foods Inc", "longitude": -84.660285, "has_menu": false, "awards": null, "user_review_count": 0}, {"business_operation_status": 1, "rating": null, "neighborhood": null, "image": null, "scorecard": null, "featured": false, "sample_categories": "Coffeehouses", "public_id": "volcanica-coffee-inc-coral", "id": 732048930, "votes": null, "tagline": null, "has_video": false, "website": null, "offers": "Free Shipping", "latitude": 33.988892, "politanName": "Atlanta, GA Metro ", "phone_number": "8774547031", "tags": [{"primary": true, "id": 1726, "name": "Coffeehouses"}], "fax_number": null, "expansion": {"count": null, "uri": null}, "impression_id": "000b000000629f4c85a8e042e4a6844ae14711c447", "profile": "http://www.citysearch.com/profile/732048930/atlanta_ga/volcanica_coffee_inc.html", "address": {"city": "Atlanta", "state": "GA", "street": "1831-C West Oak Parkway", "postal_code": "30062"}, "capProviderId": null, "distance": null, "has_offers": true, "name": "Volcanica Coffee Inc", "longitude": -84.525273, "has_menu": false, "awards": null, "user_review_count": 0}, {"business_operation_status": 1, "rating": null, "neighborhood": null, "image": null, "scorecard": null, "featured": false, "sample_categories": "Restaurants, Traditional American, Carry Out", "public_id": "waffle-house-dallas-13", "id": 762818180, "votes": null, "tagline": null, "has_video": false, "website": "http://www.citysearch.com/profile/external/762818180/dallas_ga/waffle_house.html", "offers": null, "latitude": 34.008816, "politanName": "Atlanta, GA Metro ", "phone_number": "7705295696", "tags": [{"primary": false, "id": 11190, "name": "Traditional American"}, {"primary": false, "id": 11247, "name": "Carry Out"}, {"primary": true, "id": 1722, "name": "Restaurants"}], "fax_number": null, "expansion": {"count": null, "uri": null}, "impression_id": "000b000000ff2af4c3f4e24d1787ab806c675323ab", "profile": "http://www.citysearch.com/profile/762818180/dallas_ga/waffle_house.html", "address": {"city": "Dallas", "state": "GA", "street": "8624 Dallas Acworth Hwy", "postal_code": "30132"}, "capProviderId": null, "distance": null, "has_offers": false, "name": "Waffle House", "longitude": -84.755752, "has_menu": false, "awards": null, "user_review_count": 0}, {"business_operation_status": 1, "rating": null, "neighborhood": null, "image": null, "scorecard": null, "featured": false, "sample_categories": "Health Food Stores, Restaurants", "public_id": "planet-smoothie-marietta", "id": 36642521, "votes": null, "tagline": null, "has_video": false, "website": "http://www.citysearch.com/profile/external/36642521/marietta_ga/planet_smoothie.html", "offers": null, "latitude": 33.969856, "politanName": "Atlanta, GA Metro ", "phone_number": "6785604001", "tags": [{"primary": false, "id": 1722, "name": "Restaurants"}, {"primary": true, "id": 1716, "name": "Health Food Stores"}], "fax_number": null, "expansion": {"count": null, "uri": null}, "impression_id": "000b000000a9d295340f694be695b93943b781b9d4", "profile": "http://www.citysearch.com/profile/36642521/marietta_ga/planet_smoothie.html", "address": {"city": "Marietta", "state": "GA", "street": "2200 Roswell Rd", "postal_code": "30062"}, "capProviderId": null, "distance": null, "has_offers": false, "name": "Planet Smoothie", "longitude": -84.488427, "has_menu": true, "awards": null, "user_review_count": 0}, {"business_operation_status": 1, "rating": null, "neighborhood": null, "image": null, "scorecard": null, "featured": false, "sample_categories": "Restaurants", "public_id": "royal-waffle-king-marietta", "id": 775234230, "votes": null, "tagline": null, "has_video": false, "website": "http://www.citysearch.com/profile/external/775234230/marietta_ga/royal_waffle_king.html", "offers": null, "latitude": 33.987292, "politanName": "Atlanta, GA Metro ", "phone_number": "7704423800", "tags": [{"primary": true, "id": 1722, "name": "Restaurants"}], "fax_number": null, "expansion": {"count": null, "uri": null}, "impression_id": "000b000000ee94ced093ca4912a46c0def72020e7d", "profile": "http://www.citysearch.com/profile/775234230/marietta_ga/royal_waffle_king.html", "address": {"city": "Marietta", "state": "GA", "street": "1459 Field Park Cir", "postal_code": "30066"}, "capProviderId": null, "distance": null, "has_offers": false, "name": "Royal Waffle King", "longitude": -84.563324, "has_menu": true, "awards": null, "user_review_count": 0}, {"business_operation_status": 1, "rating": null, "neighborhood": null, "image": null, "scorecard": null, "featured": false, "sample_categories": "Restaurants, New American, Carry Out, Cooking, Soul", "public_id": "chads-place-marietta", "id": 753259210, "votes": null, "tagline": null, "has_video": false, "website": null, "offers": null, "latitude": 33.964105, "politanName": "Atlanta, GA Metro ", "phone_number": "7704278226", "tags": [{"primary": false, "id": 11189, "name": "New American"}, {"primary": false, "id": 11247, "name": "Carry Out"}, {"primary": false, "id": 11254, "name": "Cooking"}, {"primary": false, "id": 15140, "name": "Soul"}, {"primary": true, "id": 1722, "name": "Restaurants"}], "fax_number": null, "expansion": {"count": null, "uri": null}, "impression_id": "000b0000004353c8ecde864e32984d770174ef1ca2", "profile": "http://www.citysearch.com/profile/753259210/marietta_ga/chad_s_place.html", "address": {"city": "Marietta", "state": "GA", "street": "531 Roselane St NW Suite 520 NW", "postal_code": "30060"}, "capProviderId": null, "distance": null, "has_offers": false, "name": "Chad's Place", "longitude": -84.557337, "has_menu": false, "awards": null, "user_review_count": 0}, {"business_operation_status": 1, "rating": null, "neighborhood": null, "image": null, "scorecard": null, "featured": false, "sample_categories": "Ice Cream Parlors", "public_id": "brusters-real-ice-cream-powder", "id": 777624710, "votes": null, "tagline": null, "has_video": false, "website": null, "offers": null, "latitude": 33.859024, "politanName": "Atlanta, GA Metro ", "phone_number": "7702227558", "tags": [{"primary": true, "id": 1730, "name": "Ice Cream Parlors"}], "fax_number": null, "expansion": {"count": null, "uri": null}, "impression_id": "000b00000060d075ec7063482c82d74f7dae1733c8", "profile": "http://www.citysearch.com/profile/777624710/powder_springs_ga/bruster_s_real_ice_cream.html", "address": {"city": "Powder Springs", "state": "GA", "street": "3861 Siniard St", "postal_code": "30127"}, "capProviderId": null, "distance": null, "has_offers": false, "name": "Bruster's Real Ice Cream", "longitude": -84.672325, "has_menu": false, "awards": null, "user_review_count": 0}, {"business_operation_status": 1, "rating": null, "neighborhood": null, "image": null, "scorecard": null, "featured": false, "sample_categories": "Bars & Clubs, Restaurants, Pizza", "public_id": "cedarcrest-pizza-shack-dallas-2", "id": 779690830, "votes": null, "tagline": null, "has_video": false, "website": "http://www.citysearch.com/profile/external/779690830/dallas_ga/pizza_shack.html", "offers": null, "latitude": 34.029654, "politanName": "Atlanta, GA Metro ", "phone_number": "6785744124", "tags": [{"primary": false, "id": 164, "name": "Bars & Clubs"}, {"primary": false, "id": 1722, "name": "Restaurants"}, {"primary": true, "id": 11299, "name": "Pizza"}], "fax_number": null, "expansion": {"count": null, "uri": null}, "impression_id": "000b000000f524392ff98341218e96631a9950f7e6", "profile": "http://www.citysearch.com/profile/779690830/dallas_ga/pizza_shack.html", "address": {"city": "Dallas", "state": "GA", "street": "80 Seven Hills Blvd 111", "postal_code": "30132"}, "capProviderId": null, "distance": null, "has_offers": false, "name": "Pizza Shack", "longitude": -84.778758, "has_menu": false, "awards": null, "user_review_count": 0}, {"business_operation_status": 1, "rating": null, "neighborhood": null, "image": null, "scorecard": null, "featured": false, "sample_categories": "Seafood Markets, Restaurants, Cajun & Creole", "public_id": "cajun-crawfish-seafood-marietta", "id": 764847750, "votes": null, "tagline": null, "has_video": false, "website": null, "offers": null, "latitude": 33.894433, "politanName": "Atlanta, GA Metro ", "phone_number": "7703190345", "tags": [{"primary": false, "id": 1722, "name": "Restaurants"}, {"primary": false, "id": 11245, "name": "Cajun & Creole"}, {"primary": true, "id": 1719, "name": "Seafood Markets"}], "fax_number": null, "expansion": {"count": null, "uri": null}, "impression_id": "000b00000079823775de0d4b9f90f211b85651f786", "profile": "http://www.citysearch.com/profile/764847750/marietta_ga/cajun_crawfish_seafood.html", "address": {"city": "Marietta", "state": "GA", "street": "234 Windy Hill Rd SE", "postal_code": "30060"}, "capProviderId": null, "distance": null, "has_offers": false, "name": "Cajun Crawfish & Seafood", "longitude": -84.552798, "has_menu": false, "awards": null, "user_review_count": 0}, {"business_operation_status": 1, "rating": null, "neighborhood": null, "image": null, "scorecard": null, "featured": false, "sample_categories": "Restaurants, Mexican", "public_id": "jalapeno-joes-dallas", "id": 775226210, "votes": null, "tagline": null, "has_video": false, "website": null, "offers": null, "latitude": 34.010309, "politanName": "Atlanta, GA Metro ", "phone_number": "6789092382", "tags": [{"primary": false, "id": 11208, "name": "Mexican"}, {"primary": true, "id": 1722, "name": "Restaurants"}], "fax_number": null, "expansion": {"count": null, "uri": null}, "impression_id": "000b000000044b31722edd4716a7b07e1a49d79550", "profile": "http://www.citysearch.com/profile/775226210/dallas_ga/jalapeno_joe_s.html", "address": {"city": "Dallas", "state": "GA", "street": "8876 Dallas Acworth Hwy", "postal_code": "30132"}, "capProviderId": null, "distance": null, "has_offers": false, "name": "Jalapeno Joe's", "longitude": -84.753348, "has_menu": false, "awards": null, "user_review_count": 0}, {"business_operation_status": 1, "rating": null, "neighborhood": null, "image": null, "scorecard": null, "featured": false, "sample_categories": "Restaurants", "public_id": "rahims-seafood-inc-powder", "id": 806264920, "votes": null, "tagline": null, "has_video": false, "website": null, "offers": null, "latitude": 33.822061, "politanName": "Atlanta, GA Metro ", "phone_number": "7709435544", "tags": [{"primary": true, "id": 1722, "name": "Restaurants"}], "fax_number": null, "expansion": {"count": null, "uri": null}, "impression_id": "000b000000624572d903654913b5fdee234f8703a6", "profile": "http://www.citysearch.com/profile/806264920/powder_springs_ga/rahim_s_seafood_inc.html", "address": {"city": "Powder Springs", "state": "GA", "street": "4123 Sweetsprings Ter SW", "postal_code": "30127"}, "capProviderId": null, "distance": null, "has_offers": false, "name": "Rahim's Seafood Inc", "longitude": -84.676431, "has_menu": false, "awards": null, "user_review_count": 0}, {"business_operation_status": 1, "rating": null, "neighborhood": null, "image": null, "scorecard": null, "featured": false, "sample_categories": "Restaurants, Pizza, Carry Out", "public_id": "pizza-hut-kennesaw-3", "id": 790675460, "votes": null, "tagline": null, "has_video": false, "website": null, "offers": null, "latitude": 33.99979, "politanName": "Atlanta, GA Metro ", "phone_number": "7704248863", "tags": [{"primary": false, "id": 1722, "name": "Restaurants"}, {"primary": false, "id": 11247, "name": "Carry Out"}, {"primary": true, "id": 11299, "name": "Pizza"}], "fax_number": null, "expansion": {"count": null, "uri": null}, "impression_id": "000b000000684d84254c9c47c4b5388501f38271c4", "profile": "http://www.citysearch.com/profile/790675460/kennesaw_ga/pizza_hut.html", "address": {"city": "Kennesaw", "state": "GA", "street": "1906 Cobb Pkwy NW", "postal_code": "30152"}, "capProviderId": null, "distance": null, "has_offers": false, "name": "Pizza Hut", "longitude": -84.588641, "has_menu": false, "awards": null, "user_review_count": 0}], "histograms": [], "tag_ids": [1722], "uri": "http://api.citygridmedia.com:8080/search/places/v2/search/where?has_offers=false&type=restaurant&format=json&page=22&where=30064&rpp=50&histograms=false&publisher=10000009598&region_type=circle", "did_you_mean": "", "regions": [{"latitude": 33.938860999999996, "default_radius": 5.31, "type": "postal_code", "name": "30064", "longitude": -84.614086}], "call_id": "000b00000092217e34695341b598f5c66e6650d62c", "first_hit": 1051, "total_hits": 1588, "geo_ids": [26293], "page": 22, "last_hit": 1100}}