{"results": {"rpp": 50, "locations": [{"business_operation_status": 1, "rating": null, "neighborhood": null, "image": null, "scorecard": null, "featured": false, "sample_categories": "Restaurants", "public_id": "brusters-kennesaw", "id": 821944740, "votes": null, "tagline": null, "has_video": false, "website": null, "offers": null, "latitude": 34.023434, "politanName": "Atlanta, GA Metro ", "phone_number": "7704939014", "tags": [{"primary": true, "id": 1722, "name": "Restaurants"}], "fax_number": null, "expansion": {"count": null, "uri": null}, "impression_id": "000b000000e50b7f280fa048d79160c4516b4feb17", "profile": "http://www.citysearch.com/profile/821944740/kennesaw_ga/brusters.html", "address": {"city": "Kennesaw", "state": "GA", "street": "101 Riverwalk CT", "postal_code": "30144"}, "capProviderId": null, "distance": null, "has_offers": false, "name": "Brusters", "longitude": -84.61549, "has_menu": false, "awards": null, "user_review_count": 0}, {"business_operation_status": 1, "rating": null, "neighborhood": null, "image": null, "scorecard": null, "featured": false, "sample_categories": "Restaurants", "public_id": "beef-o-bradys-dallas", "id": 834307060, "votes": null, "tagline": null, "has_video": false, "website": "http://www.citysearch.com/profile/external/834307060/dallas_ga/beef_o_brady_s.html", "offers": null, "latitude": 33.957866, "politanName": "Atlanta, GA Metro ", "phone_number": "6783838247", "tags": [{"primary": true, "id": 1722, "name": "Restaurants"}], "fax_number": null, "expansion": {"count": null, "uri": null}, "impression_id": "000b0000000849187718954a4891e25684a76c5c57", "profile": "http://www.citysearch.com/profile/834307060/dallas_ga/beef_o_brady_s.html", "address": {"city": "Dallas", "state": "GA", "street": "55 E Paulding Dr", "postal_code": "30157"}, "capProviderId": null, "distance": null, "has_offers": false, "name": "Beef 'o' Brady's", "longitude": -84.787071, "has_menu": true, "awards": null, "user_review_count": 0}, {"business_operation_status": 0, "rating": null, "neighborhood": null, "image": null, "scorecard": null, "featured": false, "sample_categories": "Restaurants, Delis And Delicatessens, Sandwich Shops, Carry Out", "public_id": "subway-dallas-171", "id": 764874110, "votes": null, "tagline": null, "has_video": false, "website": null, "offers": null, "latitude": 33.958443, "politanName": "Atlanta, GA Metro ", "phone_number": "7709477033", "tags": [{"primary": false, "id": 1727, "name": "Delis And Delicatessens"}, {"primary": false, "id": 1736, "name": "Sandwich Shops"}, {"primary": false, "id": 11247, "name": "Carry Out"}, {"primary": true, "id": 1722, "name": "Restaurants"}], "fax_number": null, "expansion": {"count": null, "uri": null}, "impression_id": "000b000000f99ddc59244e4b7797de516875178d52", "profile": "http://www.citysearch.com/profile/764874110/dallas_ga/subway.html", "address": {"city": "Dallas", "state": "GA", "street": "33 E Paulding Dr", "postal_code": "30157"}, "capProviderId": null, "distance": null, "has_offers": false, "name": "SUBWAY", "longitude": -84.788935, "has_menu": true, "awards": null, "user_review_count": 0}, {"business_operation_status": 1, "rating": null, "neighborhood": null, "image": null, "scorecard": null, "featured": false, "sample_categories": "Restaurants, Fast Food, Carry Out, American Express, MasterCard", "public_id": "popeyes-chicken-biscuits-marietta-2", "id": 45112943, "votes": null, "tagline": null, "has_video": false, "website": "http://www.citysearch.com/profile/external/45112943/marietta_ga/popeye_s_chicken_biscuits.html", "offers": null, "latitude": 33.9485, "politanName": "Atlanta, GA Metro ", "phone_number": "7704208800", "tags": [{"primary": false, "id": 11199, "name": "Fast Food"}, {"primary": false, "id": 11247, "name": "Carry Out"}, {"primary": false, "id": 11333, "name": "American Express"}, {"primary": false, "id": 11361, "name": "MasterCard"}, {"primary": false, "id": 11382, "name": "Visa"}, {"primary": false, "id": 12839, "name": "Chicken"}, {"primary": true, "id": 1722, "name": "Restaurants"}], "fax_number": null, "expansion": {"count": null, "uri": null}, "impression_id": "000b000000f1b4d797b2b3438d83072ee7451f6dbb", "profile": "http://www.citysearch.com/profile/45112943/marietta_ga/popeye_s_chicken_biscuits.html", "address": {"city": "Marietta", "state": "GA", "street": "155 Cobb Pkwy S", "postal_code": "30060"}, "capProviderId": null, "distance": null, "has_offers": false, "name": "Popeye's Chicken & Biscuits", "longitude": -84.518323, "has_menu": true, "awards": null, "user_review_count": 0}, {"business_operation_status": 1, "rating": null, "neighborhood": null, "image": null, "scorecard": null, "featured": false, "sample_categories": "Seafood Markets, Restaurants, Seafood", "public_id": "dallas-seafood-co-dallas", "id": 772188920, "votes": null, "tagline": null, "has_video": false, "website": null, "offers": null, "latitude": 33.911206, "politanName": "Atlanta, GA Metro ", "phone_number": "7705057313", "tags": [{"primary": false, "id": 1722, "name": "Restaurants"}, {"primary": false, "id": 11228, "name": "Seafood"}, {"primary": true, "id": 1719, "name": "Seafood Markets"}], "fax_number": null, "expansion": {"count": null, "uri": null}, "impression_id": "000b000000eb7c8dd7d8274471aa80576fe435efe2", "profile": "http://www.citysearch.com/profile/772188920/dallas_ga/dallas_seafood_co.html", "address": {"city": "Dallas", "state": "GA", "street": "1195 Merchants Dr", "postal_code": "30132"}, "capProviderId": null, "distance": null, "has_offers": false, "name": "Dallas Seafood Co", "longitude": -84.801304, "has_menu": false, "awards": null, "user_review_count": 0}, {"business_operation_status": 1, "rating": null, "neighborhood": null, "image": null, "scorecard": null, "featured": false, "sample_categories": "Pasta Manufacturers, Restaurants, Wholesale Foods, Italian Food Products, $", "public_id": "costas-pasta-kennesaw", "id": 2957371, "votes": null, "tagline": null, "has_video": false, "website": "http://www.citysearch.com/profile/external/2957371/kennesaw_ga/costas_pasta.html", "offers": null, "latitude": 34.002327, "politanName": "Atlanta, GA Metro ", "phone_number": "7705148814", "tags": [{"primary": false, "id": 2373, "name": "Pasta Manufacturers"}, {"primary": false, "id": 1722, "name": "Restaurants"}, {"primary": false, "id": 5693, "name": "Wholesale Foods"}, {"primary": false, "id": 11154, "name": "Italian Food Products"}, {"primary": false, "id": 11231, "name": "$"}, {"primary": false, "id": 11279, "name": "Italian"}], "fax_number": null, "expansion": {"count": null, "uri": null}, "impression_id": "000b000000cc7906ae291a431ea40dcf407dd9166f", "profile": "http://www.citysearch.com/profile/2957371/kennesaw_ga/costas_pasta.html", "address": {"city": "Kennesaw", "state": "GA", "street": "2045 Attic Pkwy NW", "postal_code": "30152"}, "capProviderId": null, "distance": null, "has_offers": false, "name": "Costas Pasta", "longitude": -84.604376, "has_menu": false, "awards": null, "user_review_count": 0}, {"business_operation_status": 1, "rating": null, "neighborhood": null, "image": null, "scorecard": null, "featured": false, "sample_categories": "Restaurants, Pizza", "public_id": "brothers-pizza-kennesaw", "id": 793255470, "votes": null, "tagline": null, "has_video": false, "website": null, "offers": null, "latitude": 34.020417, "politanName": "Atlanta, GA Metro ", "phone_number": "6784016215", "tags": [{"primary": false, "id": 11299, "name": "Pizza"}, {"primary": true, "id": 1722, "name": "Restaurants"}], "fax_number": null, "expansion": {"count": null, "uri": null}, "impression_id": "000b0000005043a2e621a747009d346fb4817f3edc", "profile": "http://www.citysearch.com/profile/793255470/kennesaw_ga/brothers_pizza.html", "address": {"city": "Kennesaw", "state": "GA", "street": "2740 Summers St NW", "postal_code": "30144"}, "capProviderId": null, "distance": null, "has_offers": false, "name": "Brothers Pizza", "longitude": -84.614273, "has_menu": false, "awards": null, "user_review_count": 0}, {"business_operation_status": 1, "rating": null, "neighborhood": null, "image": null, "scorecard": null, "featured": false, "sample_categories": "Restaurants, Carry Out", "public_id": "atlanta-bread-co-smyrna-2", "id": 805222070, "votes": null, "tagline": null, "has_video": false, "website": null, "offers": null, "latitude": 33.923686, "politanName": "Atlanta, GA Metro ", "phone_number": "6785030710", "tags": [{"primary": false, "id": 11247, "name": "Carry Out"}, {"primary": true, "id": 1722, "name": "Restaurants"}], "fax_number": null, "expansion": {"count": null, "uri": null}, "impression_id": "000b0000000a9c0860b23d420494bc089c1eb959fa", "profile": "http://www.citysearch.com/profile/805222070/smyrna_ga/atlanta_bread_co.html", "address": {"city": "Smyrna", "state": "GA", "street": "2160 Kingston CT SE", "postal_code": "30080"}, "capProviderId": null, "distance": null, "has_offers": false, "name": "Atlanta Bread Co", "longitude": -84.488921, "has_menu": false, "awards": null, "user_review_count": 0}, {"business_operation_status": 1, "rating": null, "neighborhood": null, "image": null, "scorecard": null, "featured": false, "sample_categories": "Restaurants", "public_id": "soba-asian-bistro-marietta-2", "id": 809491560, "votes": null, "tagline": null, "has_video": false, "website": null, "offers": null, "latitude": 33.977233, "politanName": "Atlanta, GA Metro ", "phone_number": "7709711888", "tags": [{"primary": true, "id": 1722, "name": "Restaurants"}], "fax_number": null, "expansion": {"count": null, "uri": null}, "impression_id": "000b000000db982139ebe34e179b3493ce35bce626", "profile": "http://www.citysearch.com/profile/809491560/marietta_ga/soba_asian_bistro.html", "address": {"city": "Marietta", "state": "GA", "street": "1060 E Piedmont Rd", "postal_code": "30062"}, "capProviderId": null, "distance": null, "has_offers": false, "name": "Soba Asian Bistro", "longitude": -84.479764, "has_menu": false, "awards": null, "user_review_count": 0}, {"business_operation_status": 1, "rating": null, "neighborhood": null, "image": null, "scorecard": null, "featured": false, "sample_categories": "Luaus", "public_id": "osaka-restaurant-marietta", "id": 811134240, "votes": null, "tagline": null, "has_video": false, "website": null, "offers": null, "latitude": 34.03695, "politanName": "Atlanta, GA Metro ", "phone_number": "7705161416", "tags": [{"primary": true, "id": 11285, "name": "Luaus"}], "fax_number": null, "expansion": {"count": null, "uri": null}, "impression_id": "000b00000016f7fcf3ef9c4d3d8c12067bf9674f11", "profile": "http://www.citysearch.com/profile/811134240/marietta_ga/osaka_restaurant.html", "address": {"city": "Marietta", "state": "GA", "street": "2652 Thornberry Pl", "postal_code": "30066"}, "capProviderId": null, "distance": null, "has_offers": false, "name": "Osaka Restaurant", "longitude": -84.476707, "has_menu": false, "awards": null, "user_review_count": 0}, {"business_operation_status": 1, "rating": null, "neighborhood": null, "image": null, "scorecard": null, "featured": false, "sample_categories": "Restaurants", "public_id": "barkers-hot-charcaol-broiled-marietta", "id": 817747590, "votes": null, "tagline": null, "has_video": false, "website": null, "offers": null, "latitude": 33.964344, "politanName": "Atlanta, GA Metro ", "phone_number": "7705140806", "tags": [{"primary": true, "id": 1722, "name": "Restaurants"}], "fax_number": null, "expansion": {"count": null, "uri": null}, "impression_id": "000b000000501807e3f8fd42589e152bac32fd5c9f", "profile": "http://www.citysearch.com/profile/817747590/marietta_ga/barkers_hot_charcaol_broiled.html", "address": {"city": "Marietta", "state": "GA", "street": "84 Radium St NW", "postal_code": "30060"}, "capProviderId": null, "distance": null, "has_offers": false, "name": "Barkers Hot Charcaol Broiled", "longitude": -84.554127, "has_menu": false, "awards": null, "user_review_count": 0}, {"business_operation_status": 1, "rating": null, "neighborhood": null, "image": null, "scorecard": null, "featured": false, "sample_categories": "Restaurants", "public_id": "hong-kong-kennesaw", "id": 838053690, "votes": null, "tagline": null, "has_video": false, "website": null, "offers": null, "latitude": 34.02334, "politanName": "Atlanta, GA Metro ", "phone_number": "7704256212", "tags": [{"primary": true, "id": 1722, "name": "Restaurants"}], "fax_number": null, "expansion": {"count": null, "uri": null}, "impression_id": "000b0000004a36cd492436446d9a5122bbcc1cb79f", "profile": "http://www.citysearch.com/profile/838053690/kennesaw_ga/hong_kong.html", "address": {"city": "Kennesaw", "state": "GA", "street": "2774 Cobb Pkwy NW # 104", "postal_code": "30152"}, "capProviderId": null, "distance": null, "has_offers": false, "name": "Hong Kong", "longitude": -84.624608, "has_menu": false, "awards": null, "user_review_count": 0}, {"business_operation_status": 1, "rating": null, "neighborhood": null, "image": null, "scorecard": null, "featured": false, "sample_categories": "Restaurants, Carry Out, Chicken", "public_id": "popeyes-llc-hiram", "id": 764836250, "votes": null, "tagline": null, "has_video": false, "website": "http://www.citysearch.com/profile/external/764836250/hiram_ga/popeyes_llc.html", "offers": null, "latitude": 33.887197, "politanName": "Atlanta, GA Metro ", "phone_number": "6785679227", "tags": [{"primary": false, "id": 11247, "name": "Carry Out"}, {"primary": false, "id": 12839, "name": "Chicken"}, {"primary": true, "id": 1722, "name": "Restaurants"}], "fax_number": null, "expansion": {"count": null, "uri": null}, "impression_id": "000b000000043453bca0774e1f9d5398deda412997", "profile": "http://www.citysearch.com/profile/764836250/hiram_ga/popeyes_llc.html", "address": {"city": "Hiram", "state": "GA", "street": "5329 Wendy Bagwell Pkwy", "postal_code": "30141"}, "capProviderId": null, "distance": null, "has_offers": false, "name": "Popeyes LLC", "longitude": -84.739777, "has_menu": false, "awards": null, "user_review_count": 0}, {"business_operation_status": 1, "rating": null, "neighborhood": null, "image": null, "scorecard": null, "featured": false, "sample_categories": "Ice Cream Parlors", "public_id": "talenti-gelato-marietta", "id": 766766740, "votes": null, "tagline": null, "has_video": false, "website": null, "offers": null, "latitude": 33.977334, "politanName": "Atlanta, GA Metro ", "phone_number": "7704990442", "tags": [{"primary": true, "id": 1730, "name": "Ice Cream Parlors"}], "fax_number": null, "expansion": {"count": null, "uri": null}, "impression_id": "000b000000328919c087c14e4d818cfbe70a8f886a", "profile": "http://www.citysearch.com/profile/766766740/marietta_ga/talenti_gelato.html", "address": {"city": "Marietta", "state": "GA", "street": "1058 King Industrial Dr", "postal_code": "30062"}, "capProviderId": null, "distance": null, "has_offers": false, "name": "Talenti Gelato", "longitude": -84.539884, "has_menu": false, "awards": null, "user_review_count": 0}, {"business_operation_status": 1, "rating": null, "neighborhood": null, "image": null, "scorecard": null, "featured": false, "sample_categories": "Restaurants, Delis And Delicatessens", "public_id": "planet-sub-marietta", "id": 770774340, "votes": null, "tagline": null, "has_video": false, "website": null, "offers": null, "latitude": 34.013859, "politanName": "Atlanta, GA Metro ", "phone_number": "7705750206", "tags": [{"primary": false, "id": 1727, "name": "Delis And Delicatessens"}, {"primary": true, "id": 1722, "name": "Restaurants"}], "fax_number": null, "expansion": {"count": null, "uri": null}, "impression_id": "000b0000008ffa0d2b57a940689696d81664aaee61", "profile": "http://www.citysearch.com/profile/770774340/marietta_ga/planet_sub.html", "address": {"city": "Marietta", "state": "GA", "street": "125 Barrett Pkwy", "postal_code": "30066"}, "capProviderId": null, "distance": null, "has_offers": false, "name": "Planet Sub", "longitude": -84.554543, "has_menu": false, "awards": null, "user_review_count": 0}, {"business_operation_status": 1, "rating": 9.0, "neighborhood": null, "image": null, "scorecard": null, "featured": false, "sample_categories": "Restaurants, Greek", "public_id": "bobs-kebobs-kennesaw", "id": 41612270, "votes": null, "tagline": null, "has_video": false, "website": null, "offers": null, "latitude": 33.999764, "politanName": "Atlanta, GA Metro ", "phone_number": "7704224362", "tags": [{"primary": false, "id": 1722, "name": "Restaurants"}, {"primary": true, "id": 11268, "name": "Greek"}], "fax_number": null, "expansion": {"count": null, "uri": null}, "impression_id": "000b000000868ab8ff688b4277bfd5170fb2433335", "profile": "http://www.citysearch.com/profile/41612270/kennesaw_ga/bob_s_kebobs.html", "address": {"city": "Kennesaw", "state": "GA", "street": "1200 Earnest Barrett Pkwy", "postal_code": "30144"}, "capProviderId": null, "distance": null, "has_offers": false, "name": "Bob's Kebobs", "longitude": -84.585396, "has_menu": false, "awards": null, "user_review_count": 0}, {"business_operation_status": 1, "rating": null, "neighborhood": null, "image": null, "scorecard": null, "featured": false, "sample_categories": "Restaurants", "public_id": "el-furte-svc-marietta", "id": 781244500, "votes": null, "tagline": null, "has_video": false, "website": null, "offers": null, "latitude": 33.919221, "politanName": "Atlanta, GA Metro ", "phone_number": "6784241349", "tags": [{"primary": true, "id": 1722, "name": "Restaurants"}], "fax_number": null, "expansion": {"count": null, "uri": null}, "impression_id": "000b000000b6be32b076d34b4091c0a0b25beb6520", "profile": "http://www.citysearch.com/profile/781244500/marietta_ga/el_furte_svc.html", "address": {"city": "Marietta", "state": "GA", "street": "1368 Atlanta Rd Se", "postal_code": "30060"}, "capProviderId": null, "distance": null, "has_offers": false, "name": "El Furte SVC", "longitude": -84.542534, "has_menu": false, "awards": null, "user_review_count": 0}, {"business_operation_status": 1, "rating": null, "neighborhood": null, "image": null, "scorecard": null, "featured": false, "sample_categories": "Restaurants", "public_id": "las-tortas-locas-marietta", "id": 43851541, "votes": null, "tagline": null, "has_video": false, "website": null, "offers": null, "latitude": 33.902096, "politanName": "Atlanta, GA Metro ", "phone_number": "7708030303", "tags": [{"primary": true, "id": 1722, "name": "Restaurants"}], "fax_number": null, "expansion": {"count": null, "uri": null}, "impression_id": "000b0000003914b247b07b4e69a7c05c10b24656c5", "profile": "http://www.citysearch.com/profile/43851541/marietta_ga/las_tortas_locas.html", "address": {"city": "Marietta", "state": "GA", "street": "345 Pat Mell Rd SE", "postal_code": "30060"}, "capProviderId": null, "distance": null, "has_offers": false, "name": "Las Tortas Locas", "longitude": -84.546397, "has_menu": false, "awards": null, "user_review_count": 0}, {"business_operation_status": 1, "rating": null, "neighborhood": null, "image": null, "scorecard": null, "featured": false, "sample_categories": "Restaurants", "public_id": "chiquitas-cafe-marietta", "id": 805405700, "votes": null, "tagline": null, "has_video": false, "website": null, "offers": null, "latitude": 33.957696, "politanName": "Atlanta, GA Metro ", "phone_number": "7704997349", "tags": [{"primary": true, "id": 1722, "name": "Restaurants"}], "fax_number": null, "expansion": {"count": null, "uri": null}, "impression_id": "000b0000003a7d145c320a4f7bb638ec37994e7ce4", "profile": "http://www.citysearch.com/profile/805405700/marietta_ga/chiquitas_cafe.html", "address": {"city": "Marietta", "state": "GA", "street": "270 Cobb Pkwy N", "postal_code": "30062"}, "capProviderId": null, "distance": null, "has_offers": false, "name": "Chiquitas Cafe", "longitude": -84.525109, "has_menu": false, "awards": null, "user_review_count": 0}, {"business_operation_status": 1, "rating": null, "neighborhood": null, "image": null, "scorecard": null, "featured": false, "sample_categories": "Coffeehouses", "public_id": "coffeeamcom-woodstock", "id": 810900540, "votes": null, "tagline": null, "has_video": false, "website": null, "offers": null, "latitude": 34.080772, "politanName": "Atlanta, GA Metro ", "phone_number": "6784943575", "tags": [{"primary": true, "id": 1726, "name": "Coffeehouses"}], "fax_number": null, "expansion": {"count": null, "uri": null}, "impression_id": "000b000000a48e056c616a4c3c8ddae106c733a863", "profile": "http://www.citysearch.com/profile/810900540/woodstock_ga/coffeeam_com.html", "address": {"city": "Woodstock", "state": "GA", "street": "100 Londonderry CT", "postal_code": "30188"}, "capProviderId": null, "distance": null, "has_offers": false, "name": "COFFEEAM.COM", "longitude": -84.501362, "has_menu": false, "awards": null, "user_review_count": 0}, {"business_operation_status": 1, "rating": null, "neighborhood": null, "image": null, "scorecard": null, "featured": false, "sample_categories": "Restaurants", "public_id": "swiss-alpine-bakery-marietta", "id": 814198400, "votes": null, "tagline": null, "has_video": false, "website": null, "offers": null, "latitude": 33.977034, "politanName": "Atlanta, GA Metro ", "phone_number": "7706431100", "tags": [{"primary": true, "id": 1722, "name": "Restaurants"}], "fax_number": null, "expansion": {"count": null, "uri": null}, "impression_id": "000b000000bd8b6d7154f2493da9afda87ab3d6832", "profile": "http://www.citysearch.com/profile/814198400/marietta_ga/swiss_alpine_bakery.html", "address": {"city": "Marietta", "state": "GA", "street": "2460 Sheila Ln", "postal_code": "30062"}, "capProviderId": null, "distance": null, "has_offers": false, "name": "Swiss Alpine Bakery", "longitude": -84.475931, "has_menu": false, "awards": null, "user_review_count": 0}, {"business_operation_status": 1, "rating": null, "neighborhood": null, "image": null, "scorecard": null, "featured": false, "sample_categories": "Restaurants", "public_id": "picoso-taco-factory-marietta", "id": 815654770, "votes": null, "tagline": null, "has_video": false, "website": null, "offers": null, "latitude": 33.950031, "politanName": "Atlanta, GA Metro ", "phone_number": "7707928406", "tags": [{"primary": true, "id": 1722, "name": "Restaurants"}], "fax_number": null, "expansion": {"count": null, "uri": null}, "impression_id": "000b000000c171c7596fdc4d0bb2ec3b3ecac8c5fe", "profile": "http://www.citysearch.com/profile/815654770/marietta_ga/picoso_taco_factory.html", "address": {"city": "Marietta", "state": "GA", "street": "50 Cobb Pkwy S", "postal_code": "30060"}, "capProviderId": null, "distance": null, "has_offers": false, "name": "Picoso Taco Factory", "longitude": -84.520799, "has_menu": false, "awards": null, "user_review_count": 0}, {"business_operation_status": 1, "rating": null, "neighborhood": null, "image": null, "scorecard": null, "featured": false, "sample_categories": "Restaurants", "public_id": "soups-on-marietta", "id": 822863480, "votes": null, "tagline": null, "has_video": false, "website": null, "offers": null, "latitude": 33.952258, "politanName": "Atlanta, GA Metro ", "phone_number": "7704297687", "tags": [{"primary": true, "id": 1722, "name": "Restaurants"}], "fax_number": null, "expansion": {"count": null, "uri": null}, "impression_id": "000b000000d1ffab27a99e42cd90a24a4ecf7e4c4c", "profile": "http://www.citysearch.com/profile/822863480/marietta_ga/soup_s_on.html", "address": {"city": "Marietta", "state": "GA", "street": "154 Roswell St SE", "postal_code": "30060"}, "capProviderId": null, "distance": null, "has_offers": false, "name": "Soup's On", "longitude": -84.54874, "has_menu": false, "awards": null, "user_review_count": 0}, {"business_operation_status": 1, "rating": null, "neighborhood": null, "image": null, "scorecard": null, "featured": false, "sample_categories": "Restaurants", "public_id": "zackbys-endless-chicken-llc-austell", "id": 837841690, "votes": null, "tagline": null, "has_video": false, "website": null, "offers": null, "latitude": 33.867601, "politanName": "Atlanta, GA Metro ", "phone_number": "7702221550", "tags": [{"primary": true, "id": 1722, "name": "Restaurants"}], "fax_number": null, "expansion": {"count": null, "uri": null}, "impression_id": "000b000000e1580a9fd05940c0ac1db9bce8931ae4", "profile": "http://www.citysearch.com/profile/837841690/austell_ga/zackby_s_endless_chicken_llc.html", "address": {"city": "Austell", "state": "GA", "street": "2603 E West Connector", "postal_code": "30106"}, "capProviderId": null, "distance": null, "has_offers": false, "name": "Zackby's Endless Chicken LLC", "longitude": -84.631045, "has_menu": false, "awards": null, "user_review_count": 0}, {"business_operation_status": 1, "rating": null, "neighborhood": null, "image": null, "scorecard": null, "featured": false, "sample_categories": "Restaurants", "public_id": "savory-corner-kennesaw-2", "id": 839498940, "votes": null, "tagline": null, "has_video": false, "website": null, "offers": null, "latitude": 34.006214, "politanName": "Atlanta, GA Metro ", "phone_number": "7703295419", "tags": [{"primary": true, "id": 1722, "name": "Restaurants"}], "fax_number": null, "expansion": {"count": null, "uri": null}, "impression_id": "000b000000c6f17f94a5394f01ad299be75ffe17e7", "profile": "http://www.citysearch.com/profile/839498940/kennesaw_ga/savory_corner.html", "address": {"city": "Kennesaw", "state": "GA", "street": "2120 Barrett Park Dr NW", "postal_code": "30144"}, "capProviderId": null, "distance": null, "has_offers": false, "name": "Savory Corner", "longitude": -84.595772, "has_menu": false, "awards": null, "user_review_count": 0}, {"business_operation_status": 1, "rating": null, "neighborhood": null, "image": null, "scorecard": null, "featured": false, "sample_categories": "Catering, Restaurants, Pizza, Carry Out, Food Delivery", "public_id": "pizza-hut-mableton-2", "id": 835803370, "votes": null, "tagline": null, "has_video": false, "website": "http://www.citysearch.com/profile/external/835803370/mableton_ga/pizza_hut.html", "offers": null, "latitude": 33.833318, "politanName": "Atlanta, GA Metro ", "phone_number": "7707397739", "tags": [{"primary": false, "id": 1705, "name": "Catering"}, {"primary": false, "id": 1722, "name": "Restaurants"}, {"primary": false, "id": 11247, "name": "Carry Out"}, {"primary": false, "id": 11267, "name": "Food Delivery"}, {"primary": true, "id": 11299, "name": "Pizza"}], "fax_number": null, "expansion": {"count": null, "uri": null}, "impression_id": "000b0000005bc8bf0ae81b4e9eb87ea6dbab836734", "profile": "http://www.citysearch.com/profile/835803370/mableton_ga/pizza_hut.html", "address": {"city": "Mableton", "state": "GA", "street": "5005 Floyd Rd SW 910", "postal_code": "30126"}, "capProviderId": null, "distance": null, "has_offers": false, "name": "Pizza Hut", "longitude": -84.575479, "has_menu": true, "awards": null, "user_review_count": 0}, {"business_operation_status": 1, "rating": null, "neighborhood": null, "image": null, "scorecard": null, "featured": false, "sample_categories": "Restaurants", "public_id": "american-wing-co-kennesaw", "id": 839999600, "votes": null, "tagline": null, "has_video": false, "website": null, "offers": null, "latitude": 34.017369, "politanName": "Atlanta, GA Metro ", "phone_number": "7706357648", "tags": [{"primary": true, "id": 1722, "name": "Restaurants"}], "fax_number": null, "expansion": {"count": null, "uri": null}, "impression_id": "000b000000c674f16596e94aa3a85833c9414b2fe7", "profile": "http://www.citysearch.com/profile/839999600/kennesaw_ga/american_wing_co.html", "address": {"city": "Kennesaw", "state": "GA", "street": "400 Ernest W Barrett Pkwy NW", "postal_code": "30144"}, "capProviderId": null, "distance": null, "has_offers": false, "name": "American Wing Co", "longitude": -84.564255, "has_menu": false, "awards": null, "user_review_count": 0}, {"business_operation_status": 1, "rating": null, "neighborhood": null, "image": null, "scorecard": null, "featured": false, "sample_categories": "Ice Cream Parlors, Restaurants", "public_id": "brusters-real-ice-cream-kennesaw-3", "id": 764842490, "votes": null, "tagline": null, "has_video": false, "website": "http://www.citysearch.com/profile/external/764842490/kennesaw_ga/bruster_s_real_ice_cream.html", "offers": null, "latitude": 34.022576, "politanName": "Atlanta, GA Metro ", "phone_number": "7706930780", "tags": [{"primary": false, "id": 1722, "name": "Restaurants"}, {"primary": true, "id": 1730, "name": "Ice Cream Parlors"}], "fax_number": null, "expansion": {"count": null, "uri": null}, "impression_id": "000b000000898233133415414e817dad1a091f399b", "profile": "http://www.citysearch.com/profile/764842490/kennesaw_ga/bruster_s_real_ice_cream.html", "address": {"city": "Kennesaw", "state": "GA", "street": "2770 Cobb Pkwy NW", "postal_code": "30152"}, "capProviderId": null, "distance": null, "has_offers": false, "name": "Bruster's Real Ice Cream", "longitude": -84.626397, "has_menu": false, "awards": null, "user_review_count": 0}, {"business_operation_status": 1, "rating": null, "neighborhood": null, "image": null, "scorecard": null, "featured": false, "sample_categories": "Restaurants, Delis And Delicatessens, Sandwich Shops", "public_id": "blimpie-subs-sandwiches-kennesaw", "id": 43863262, "votes": null, "tagline": null, "has_video": false, "website": null, "offers": null, "latitude": 34.031732, "politanName": "Atlanta, GA Metro ", "phone_number": "7704291173", "tags": [{"primary": false, "id": 1727, "name": "Delis And Delicatessens"}, {"primary": false, "id": 1736, "name": "Sandwich Shops"}, {"primary": true, "id": 1722, "name": "Restaurants"}], "fax_number": null, "expansion": {"count": null, "uri": null}, "impression_id": "000b0000000935a3aa6c404524bc15d3cc81c35a67", "profile": "http://www.citysearch.com/profile/43863262/kennesaw_ga/blimpie_subs_sandwiches.html", "address": {"city": "Kennesaw", "state": "GA", "street": "1025 Chastain Rd NW", "postal_code": "30144"}, "capProviderId": null, "distance": null, "has_offers": false, "name": "Blimpie Subs & Sandwiches", "longitude": -84.580243, "has_menu": true, "awards": null, "user_review_count": 0}, {"business_operation_status": 1, "rating": null, "neighborhood": null, "image": null, "scorecard": null, "featured": false, "sample_categories": "Restaurants, Mexican", "public_id": "maria-ponita-mexican-club-marietta", "id": 45556505, "votes": null, "tagline": null, "has_video": false, "website": null, "offers": null, "latitude": 33.921568, "politanName": "Atlanta, GA Metro ", "phone_number": "6782132254", "tags": [{"primary": false, "id": 11208, "name": "Mexican"}, {"primary": true, "id": 1722, "name": "Restaurants"}], "fax_number": null, "expansion": {"count": null, "uri": null}, "impression_id": "000b0000003369bd508d0a475992964046a67ec1ac", "profile": "http://www.citysearch.com/profile/45556505/marietta_ga/maria_ponita_mexican_club.html", "address": {"city": "Marietta", "state": "GA", "street": "1177 Bellemeade Dr SW", "postal_code": "30008"}, "capProviderId": null, "distance": null, "has_offers": false, "name": "Maria Ponita Mexican Club", "longitude": -84.574372, "has_menu": false, "awards": null, "user_review_count": 1}, {"business_operation_status": 1, "rating": null, "neighborhood": null, "image": null, "scorecard": null, "featured": false, "sample_categories": "Restaurants, Barbecue Restaurants", "public_id": "smokin-js-bbq-marietta", "id": 809243680, "votes": null, "tagline": null, "has_video": false, "website": "http://www.citysearch.com/profile/external/809243680/marietta_ga/smokin_js_bbq.html", "offers": null, "latitude": 33.969959, "politanName": "Atlanta, GA Metro ", "phone_number": "7709731003", "tags": [{"primary": false, "id": 1724, "name": "Barbecue Restaurants"}, {"primary": true, "id": 1722, "name": "Restaurants"}], "fax_number": null, "expansion": {"count": null, "uri": null}, "impression_id": "000b0000000f5ddbb33ef443638818dea268145c64", "profile": "http://www.citysearch.com/profile/809243680/marietta_ga/smokin_js_bbq.html", "address": {"city": "Marietta", "state": "GA", "street": "2145 Roswell Rd", "postal_code": "30062"}, "capProviderId": null, "distance": null, "has_offers": false, "name": "Smokin Js BBQ", "longitude": -84.490616, "has_menu": true, "awards": null, "user_review_count": 0}, {"business_operation_status": 1, "rating": null, "neighborhood": null, "image": null, "scorecard": null, "featured": false, "sample_categories": "Restaurants", "public_id": "nathans-hotdog-kennesaw", "id": 812541450, "votes": null, "tagline": null, "has_video": false, "website": null, "offers": null, "latitude": 34.033088, "politanName": "Atlanta, GA Metro ", "phone_number": "7704255554", "tags": [{"primary": true, "id": 1722, "name": "Restaurants"}], "fax_number": null, "expansion": {"count": null, "uri": null}, "impression_id": "000b000000fbf69bcbac33401d800c1dcb5d36a5a6", "profile": "http://www.citysearch.com/profile/812541450/kennesaw_ga/nathans_hotdog.html", "address": {"city": "Kennesaw", "state": "GA", "street": "2430 George Busbee Pkwy NW", "postal_code": "30144"}, "capProviderId": null, "distance": null, "has_offers": false, "name": "Nathans Hotdog", "longitude": -84.568648, "has_menu": false, "awards": null, "user_review_count": 0}, {"business_operation_status": 1, "rating": null, "neighborhood": null, "image": null, "scorecard": null, "featured": false, "sample_categories": "Restaurants", "public_id": "party-q-marietta", "id": 618063354, "votes": null, "tagline": null, "has_video": false, "website": null, "offers": null, "latitude": 34.020818, "politanName": "Atlanta, GA Metro ", "phone_number": "6786977808", "tags": [{"primary": true, "id": 1722, "name": "Restaurants"}], "fax_number": null, "expansion": {"count": null, "uri": null}, "impression_id": "000b00000095d90752d86244368421c5e9401fc301", "profile": "http://www.citysearch.com/profile/618063354/marietta_ga/party_q.html", "address": {"city": "Marietta", "state": "GA", "street": "2821 Chastain Meadows Pkwy", "postal_code": "30066"}, "capProviderId": null, "distance": null, "has_offers": false, "name": "Party Q", "longitude": -84.55554, "has_menu": false, "awards": null, "user_review_count": 0}, {"business_operation_status": 0, "rating": 8.0, "neighborhood": null, "image": null, "scorecard": null, "featured": false, "sample_categories": "Catering, Restaurants, Food Delivery", "public_id": "old-hickory-barbeque-mableton", "id": 33652110, "votes": null, "tagline": null, "has_video": false, "website": null, "offers": null, "latitude": 33.816965, "politanName": "Atlanta, GA Metro ", "phone_number": "7709489451", "tags": [{"primary": false, "id": 1722, "name": "Restaurants"}, {"primary": false, "id": 11267, "name": "Food Delivery"}, {"primary": true, "id": 1705, "name": "Catering"}], "fax_number": null, "expansion": {"count": null, "uri": null}, "impression_id": "000b000000b3bb932f1cef4830aa4fcedf247bc2f2", "profile": "http://www.citysearch.com/profile/33652110/mableton_ga/old_hickory_barbeque.html", "address": {"city": "Mableton", "state": "GA", "street": "499 Veterans Memorial Hwy SW", "postal_code": "30126"}, "capProviderId": null, "distance": null, "has_offers": false, "name": "Old Hickory Barbeque", "longitude": -84.568558, "has_menu": false, "awards": null, "user_review_count": 0}, {"business_operation_status": 0, "rating": null, "neighborhood": null, "image": null, "scorecard": null, "featured": false, "sample_categories": "Restaurants, Cafes", "public_id": "m-j-lmmnz-austell", "id": 627697230, "votes": null, "tagline": null, "has_video": false, "website": null, "offers": null, "latitude": 33.842327, "politanName": "Atlanta, GA Metro ", "phone_number": "7702760280", "tags": [{"primary": false, "id": 6190, "name": "Cafes"}, {"primary": true, "id": 1722, "name": "Restaurants"}], "fax_number": null, "expansion": {"count": null, "uri": null}, "impression_id": "000b000000f5bf7cab0dd44fe58f6fb04a2ba1ab0c", "profile": "http://www.citysearch.com/profile/627697230/austell_ga/m_j_lmmnz.html", "address": {"city": "Austell", "state": "GA", "street": "4629 Rodney Pl", "postal_code": "30106"}, "capProviderId": null, "distance": null, "has_offers": false, "name": "M J Lmmnz", "longitude": -84.613105, "has_menu": false, "awards": null, "user_review_count": 0}, {"business_operation_status": 1, "rating": 8.0, "neighborhood": null, "image": null, "scorecard": null, "featured": false, "sample_categories": "Restaurants", "public_id": "olgas-porch-marietta", "id": 44772180, "votes": null, "tagline": null, "has_video": false, "website": null, "offers": null, "latitude": 33.980787, "politanName": "Atlanta, GA Metro ", "phone_number": "7709774622", "tags": [{"primary": true, "id": 1722, "name": "Restaurants"}], "fax_number": null, "expansion": {"count": null, "uri": null}, "impression_id": "000b0000008902df57cc4b4a959a83b7582d9e1955", "profile": "http://www.citysearch.com/profile/44772180/marietta_ga/olgas_porch.html", "address": {"city": "Marietta", "state": "GA", "street": "3101 Roswell Rd", "postal_code": "30062"}, "capProviderId": null, "distance": null, "has_offers": false, "name": "Olgas Porch", "longitude": -84.464028, "has_menu": false, "awards": null, "user_review_count": 1}, {"business_operation_status": 1, "rating": null, "neighborhood": null, "image": null, "scorecard": null, "featured": false, "sample_categories": "Restaurants, Vegetarian", "public_id": "loving-hut-ii-vegetarian-kennesaw", "id": 655872850, "votes": null, "tagline": null, "has_video": false, "website": null, "offers": null, "latitude": 34.014516, "politanName": "Atlanta, GA Metro ", "phone_number": "7704290666", "tags": [{"primary": false, "id": 11230, "name": "Vegetarian"}, {"primary": true, "id": 1722, "name": "Restaurants"}], "fax_number": null, "expansion": {"count": null, "uri": null}, "impression_id": "000b0000007978045df23541a8b0becaae823603e5", "profile": "http://www.citysearch.com/profile/655872850/kennesaw_ga/loving_hut_ii_vegetarian.html", "address": {"city": "Kennesaw", "state": "GA", "street": "2700 Town Center Dr Nw", "postal_code": "30144"}, "capProviderId": null, "distance": null, "has_offers": false, "name": "Loving Hut Ii Vegetarian", "longitude": -84.56447, "has_menu": false, "awards": null, "user_review_count": 0}, {"business_operation_status": 1, "rating": null, "neighborhood": null, "image": null, "scorecard": null, "featured": false, "sample_categories": "Restaurants", "public_id": "obs-bbq-catfish-ribs-mableton", "id": 672612400, "votes": null, "tagline": null, "has_video": false, "website": null, "offers": null, "latitude": 33.816965, "politanName": "Atlanta, GA Metro ", "phone_number": null, "tags": [{"primary": true, "id": 1722, "name": "Restaurants"}], "fax_number": null, "expansion": {"count": null, "uri": null}, "impression_id": "000b000000bb66d8e34cfb4642b1554e5d63de0594", "profile": "http://www.citysearch.com/profile/672612400/mableton_ga/o_b_s_bbq_catfish_ribs.html", "address": {"city": "Mableton", "state": "GA", "street": "499 Veterans Memorial Hwy SW", "postal_code": "30126"}, "capProviderId": null, "distance": null, "has_offers": false, "name": "O.B.'s BBQ Catfish & Ribs", "longitude": -84.568558, "has_menu": false, "awards": null, "user_review_count": 0}, {"business_operation_status": 1, "rating": null, "neighborhood": null, "image": null, "scorecard": null, "featured": false, "sample_categories": "Restaurants", "public_id": "butler-creek-powder", "id": 732131820, "votes": null, "tagline": null, "has_video": false, "website": null, "offers": null, "latitude": 33.916043, "politanName": "Atlanta, GA Metro ", "phone_number": "7709436777", "tags": [{"primary": true, "id": 1722, "name": "Restaurants"}], "fax_number": null, "expansion": {"count": null, "uri": null}, "impression_id": "000b00000024be5eb9e7db4aed942c29326cfe6534", "profile": "http://www.citysearch.com/profile/732131820/powder_springs_ga/butler_creek.html", "address": {"city": "Powder Springs", "state": "GA", "street": "1518 Haven Crest Dr", "postal_code": "30127"}, "capProviderId": null, "distance": null, "has_offers": false, "name": "Butler Creek", "longitude": -84.707895, "has_menu": false, "awards": null, "user_review_count": 0}, {"business_operation_status": 0, "rating": null, "neighborhood": null, "image": null, "scorecard": null, "featured": false, "sample_categories": "Restaurants", "public_id": "scooters-kennesaw", "id": 632003970, "votes": null, "tagline": null, "has_video": false, "website": null, "offers": null, "latitude": 34.004435, "politanName": "Atlanta, GA Metro ", "phone_number": "7709179909", "tags": [{"primary": true, "id": 1722, "name": "Restaurants"}], "fax_number": null, "expansion": {"count": null, "uri": null}, "impression_id": "000b000000f41c11097aed4f1eb6c0068687a9a169", "profile": "http://www.citysearch.com/profile/632003970/kennesaw_ga/scooter_s.html", "address": {"city": "Kennesaw", "state": "GA", "street": "3161 Cobb Pkwy Nw", "postal_code": "30152"}, "capProviderId": null, "distance": null, "has_offers": false, "name": "Scooter's", "longitude": -84.612627, "has_menu": false, "awards": null, "user_review_count": 0}, {"business_operation_status": 1, "rating": null, "neighborhood": null, "image": null, "scorecard": null, "featured": false, "sample_categories": "Restaurants, Ice Cream Parlors, Carry Out", "public_id": "dairy-queen-kennesaw-2", "id": 764857120, "votes": null, "tagline": null, "has_video": false, "website": null, "offers": null, "latitude": 34.023434, "politanName": "Atlanta, GA Metro ", "phone_number": "7704281468", "tags": [{"primary": false, "id": 1730, "name": "Ice Cream Parlors"}, {"primary": false, "id": 11247, "name": "Carry Out"}, {"primary": true, "id": 1722, "name": "Restaurants"}], "fax_number": null, "expansion": {"count": null, "uri": null}, "impression_id": "000b000000889635a656094a8fbd5f924525042cc5", "profile": "http://www.citysearch.com/profile/764857120/kennesaw_ga/dairy_queen.html", "address": {"city": "Kennesaw", "state": "GA", "street": "400 E W Barr Pkwy NW # 205", "postal_code": "30144"}, "capProviderId": null, "distance": null, "has_offers": false, "name": "Dairy Queen", "longitude": -84.61549, "has_menu": false, "awards": null, "user_review_count": 0}, {"business_operation_status": 1, "rating": null, "neighborhood": null, "image": null, "scorecard": null, "featured": false, "sample_categories": "Restaurants", "public_id": "el-vaquero-marietta", "id": 764884030, "votes": null, "tagline": null, "has_video": false, "website": null, "offers": null, "latitude": 33.919221, "politanName": "Atlanta, GA Metro ", "phone_number": "7704338558", "tags": [{"primary": true, "id": 1722, "name": "Restaurants"}], "fax_number": null, "expansion": {"count": null, "uri": null}, "impression_id": "000b00000072e3fd1145e3440f8bedcae3ab022923", "profile": "http://www.citysearch.com/profile/764884030/marietta_ga/el_vaquero.html", "address": {"city": "Marietta", "state": "GA", "street": "1368 Atlanta Rd SE", "postal_code": "30060"}, "capProviderId": null, "distance": null, "has_offers": false, "name": "El Vaquero", "longitude": -84.542534, "has_menu": false, "awards": null, "user_review_count": 0}, {"business_operation_status": 1, "rating": null, "neighborhood": null, "image": null, "scorecard": null, "featured": false, "sample_categories": "Restaurants", "public_id": "tme-enterprises-i-ltd-marietta-2", "id": 787135780, "votes": null, "tagline": null, "has_video": false, "website": null, "offers": null, "latitude": 33.968654, "politanName": "Atlanta, GA Metro ", "phone_number": "7705652051", "tags": [{"primary": true, "id": 1722, "name": "Restaurants"}], "fax_number": null, "expansion": {"count": null, "uri": null}, "impression_id": "000b00000062cf96eb177e47cc8c37e32e036b6df6", "profile": "http://www.citysearch.com/profile/787135780/marietta_ga/tme_enterprises_i_ltd.html", "address": {"city": "Marietta", "state": "GA", "street": "2169 Roswell Rd", "postal_code": "30062"}, "capProviderId": null, "distance": null, "has_offers": false, "name": "Tme Enterprises I LTD", "longitude": -84.48981, "has_menu": false, "awards": null, "user_review_count": 0}, {"business_operation_status": 1, "rating": 7.0, "neighborhood": null, "image": null, "scorecard": null, "featured": false, "sample_categories": "Restaurants, Family-Friendly Dining", "public_id": "fowl-play-cafe-kennesaw", "id": 2957534, "votes": null, "tagline": null, "has_video": false, "website": null, "offers": null, "latitude": 34.004435, "politanName": "Atlanta, GA Metro ", "phone_number": "7709669686", "tags": [{"primary": false, "id": 11263, "name": "Family-Friendly Dining"}, {"primary": true, "id": 1722, "name": "Restaurants"}], "fax_number": null, "expansion": {"count": null, "uri": null}, "impression_id": "000b0000006080150459a34d17addff42652922567", "profile": "http://www.citysearch.com/profile/2957534/kennesaw_ga/fowl_play_cafe.html", "address": {"city": "Kennesaw", "state": "GA", "street": "3161 Cobb Pkwy NW Ste 410", "postal_code": "30152"}, "capProviderId": null, "distance": null, "has_offers": false, "name": "Fowl Play Cafe", "longitude": -84.612627, "has_menu": false, "awards": null, "user_review_count": 0}, {"business_operation_status": 1, "rating": null, "neighborhood": null, "image": null, "scorecard": null, "featured": false, "sample_categories": "Restaurants, Pizza", "public_id": "pizza-di-luna-kennesaw", "id": 764902740, "votes": null, "tagline": null, "has_video": false, "website": null, "offers": null, "latitude": 34.033249, "politanName": "Atlanta, GA Metro ", "phone_number": "6787660449", "tags": [{"primary": false, "id": 11299, "name": "Pizza"}, {"primary": true, "id": 1722, "name": "Restaurants"}], "fax_number": null, "expansion": {"count": null, "uri": null}, "impression_id": "000b000000727dab875dc64057b17e85e3cdcf0685", "profile": "http://www.citysearch.com/profile/764902740/kennesaw_ga/pizza_di_luna.html", "address": {"city": "Kennesaw", "state": "GA", "street": "2516 George Busbee Pkwy NW", "postal_code": "30144"}, "capProviderId": null, "distance": null, "has_offers": false, "name": "Pizza Di Luna", "longitude": -84.568705, "has_menu": true, "awards": null, "user_review_count": 0}, {"business_operation_status": 1, "rating": null, "neighborhood": null, "image": null, "scorecard": null, "featured": false, "sample_categories": "Ice Cream Parlors, Frozen Yogurt Shops", "public_id": "baskinrobbins-mableton", "id": 764906520, "votes": null, "tagline": null, "has_video": false, "website": null, "offers": null, "latitude": 33.83335, "politanName": "Atlanta, GA Metro ", "phone_number": "7707329319", "tags": [{"primary": false, "id": 1729, "name": "Frozen Yogurt Shops"}, {"primary": true, "id": 1730, "name": "Ice Cream Parlors"}], "fax_number": null, "expansion": {"count": null, "uri": null}, "impression_id": "000b000000157ea21e38214982b7c23b00ffa63015", "profile": "http://www.citysearch.com/profile/764906520/mableton_ga/baskin_robbins.html", "address": {"city": "Mableton", "state": "GA", "street": "5005 Floyd Rd SW", "postal_code": "30126"}, "capProviderId": null, "distance": null, "has_offers": false, "name": "Baskin-Robbins", "longitude": -84.575544, "has_menu": false, "awards": null, "user_review_count": 0}, {"business_operation_status": 1, "rating": null, "neighborhood": null, "image": null, "scorecard": null, "featured": false, "sample_categories": "Restaurants, Pizza", "public_id": "chicago-pizza-sports-grille-kennesaw", "id": 764831640, "votes": null, "tagline": null, "has_video": false, "website": null, "offers": null, "latitude": 34.034708, "politanName": "Atlanta, GA Metro ", "phone_number": "6787970006", "tags": [{"primary": false, "id": 1722, "name": "Restaurants"}, {"primary": true, "id": 11299, "name": "Pizza"}], "fax_number": null, "expansion": {"count": null, "uri": null}, "impression_id": "000b000000d28ede093d714b39b5dbb5ec448ea748", "profile": "http://www.citysearch.com/profile/764831640/kennesaw_ga/chicago_pizza_sports_grille.html", "address": {"city": "Kennesaw", "state": "GA", "street": "3405 Busbee Dr NW", "postal_code": "30144"}, "capProviderId": null, "distance": null, "has_offers": false, "name": "Chicago Pizza & Sports Grille", "longitude": -84.575423, "has_menu": false, "awards": null, "user_review_count": 0}, {"business_operation_status": 1, "rating": null, "neighborhood": null, "image": null, "scorecard": null, "featured": false, "sample_categories": "Restaurants, Japanese", "public_id": "mt-fuji-marietta", "id": 779710710, "votes": null, "tagline": null, "has_video": false, "website": null, "offers": null, "latitude": 33.947797, "politanName": "Atlanta, GA Metro ", "phone_number": "7704280955", "tags": [{"primary": false, "id": 11202, "name": "Japanese"}, {"primary": true, "id": 1722, "name": "Restaurants"}], "fax_number": null, "expansion": {"count": null, "uri": null}, "impression_id": "000b00000097b15fd4756b4e9d8a68fd891f7b4b2a", "profile": "http://www.citysearch.com/profile/779710710/marietta_ga/mt_fuji.html", "address": {"city": "Marietta", "state": "GA", "street": "180 Cobb Pkwy S # 26", "postal_code": "30060"}, "capProviderId": null, "distance": null, "has_offers": false, "name": "Mt Fuji", "longitude": -84.519997, "has_menu": false, "awards": null, "user_review_count": 4}, {"business_operation_status": 1, "rating": null, "neighborhood": null, "image": null, "scorecard": null, "featured": false, "sample_categories": "Restaurants, Pizza, Carry Out, American Express, Discover", "public_id": "papa-johns-pizza-powder-2", "id": 707383910, "votes": null, "tagline": null, "has_video": false, "website": null, "offers": null, "latitude": 33.940822, "politanName": "Atlanta, GA Metro ", "phone_number": "7705141444", "tags": [{"primary": false, "id": 1722, "name": "Restaurants"}, {"primary": false, "id": 11247, "name": "Carry Out"}, {"primary": false, "id": 11333, "name": "American Express"}, {"primary": false, "id": 11349, "name": "Discover"}, {"primary": false, "id": 11361, "name": "MasterCard"}, {"primary": false, "id": 11382, "name": "Visa"}, {"primary": true, "id": 11299, "name": "Pizza"}], "fax_number": null, "expansion": {"count": null, "uri": null}, "impression_id": "000b000000f94b631d198d4b7dbf635374ba235e55", "profile": "http://www.citysearch.com/profile/707383910/powder_springs_ga/papa_john_s_pizza.html", "address": {"city": "Powder Springs", "state": "GA", "street": "5100 Dallas Hwy Ste 330", "postal_code": "30127"}, "capProviderId": null, "distance": null, "has_offers": false, "name": "Papa John's Pizza", "longitude": -84.703029, "has_menu": false, "awards": null, "user_review_count": 0}, {"business_operation_status": 1, "rating": null, "neighborhood": null, "image": null, "scorecard": null, "featured": false, "sample_categories": "Restaurants, Pizza, Carry Out", "public_id": "papa-johns-pizza-austell-3", "id": 713391930, "votes": null, "tagline": null, "has_video": false, "website": "http://www.citysearch.com/profile/external/713391930/austell_ga/papa_john_s_pizza.html", "offers": null, "latitude": 33.851685, "politanName": "Atlanta, GA Metro ", "phone_number": "7707458809", "tags": [{"primary": false, "id": 1722, "name": "Restaurants"}, {"primary": false, "id": 11247, "name": "Carry Out"}, {"primary": true, "id": 11299, "name": "Pizza"}], "fax_number": null, "expansion": {"count": null, "uri": null}, "impression_id": "000b000000aad00c9862c64d44962726151ca8f9cf", "profile": "http://www.citysearch.com/profile/713391930/austell_ga/papa_john_s_pizza.html", "address": {"city": "Austell", "state": "GA", "street": "4180 Austell Rd", "postal_code": "30106"}, "capProviderId": null, "distance": null, "has_offers": false, "name": "Papa John's Pizza", "longitude": -84.606222, "has_menu": false, "awards": null, "user_review_count": 0}], "histograms": [], "tag_ids": [1722], "uri": "http://api.citygridmedia.com:8080/search/places/v2/search/where?has_offers=false&type=restaurant&format=json&page=28&where=30064&rpp=50&histograms=false&publisher=10000009598&region_type=circle", "did_you_mean": "", "regions": [{"latitude": 33.938860999999996, "default_radius": 5.31, "type": "postal_code", "name": "30064", "longitude": -84.614086}], "call_id": "000b0000003845e1668f44492bb7bb16092185d218", "first_hit": 1351, "total_hits": 1588, "geo_ids": [26293], "page": 28, "last_hit": 1400}}