{"results": {"rpp": 50, "locations": [{"business_operation_status": 1, "rating": null, "neighborhood": null, "image": null, "scorecard": null, "featured": false, "sample_categories": "Restaurants", "public_id": "asian-grill-marietta", "id": 813218910, "votes": null, "tagline": null, "has_video": false, "website": null, "offers": null, "latitude": 33.948939, "politanName": "Atlanta, GA Metro ", "phone_number": "6785602037", "tags": [{"primary": true, "id": 1722, "name": "Restaurants"}], "fax_number": null, "expansion": {"count": null, "uri": null}, "impression_id": "000b000000d9bc0612a0394e7aaaf612fa73211f71", "profile": "http://www.citysearch.com/profile/813218910/marietta_ga/asian_grill.html", "address": {"city": "Marietta", "state": "GA", "street": "279 Powers Ferry Rd SE # F", "postal_code": "30067"}, "capProviderId": null, "distance": null, "has_offers": false, "name": "Asian Grill", "longitude": -84.503582, "has_menu": false, "awards": null, "user_review_count": 0}, {"business_operation_status": 1, "rating": null, "neighborhood": null, "image": null, "scorecard": null, "featured": false, "sample_categories": "Restaurants", "public_id": "vuelve-a-la-vida-marietta", "id": 814278210, "votes": null, "tagline": null, "has_video": false, "website": null, "offers": null, "latitude": 33.904786, "politanName": "Atlanta, GA Metro ", "phone_number": "7708019450", "tags": [{"primary": true, "id": 1722, "name": "Restaurants"}], "fax_number": null, "expansion": {"count": null, "uri": null}, "impression_id": "000b0000007ba744ecf9754e67aafc83174a7ad575", "profile": "http://www.citysearch.com/profile/814278210/marietta_ga/vuelve_a_la_vida.html", "address": {"city": "Marietta", "state": "GA", "street": "1991 S Cobb Dr SE", "postal_code": "30060"}, "capProviderId": null, "distance": null, "has_offers": false, "name": "Vuelve A La Vida", "longitude": -84.542421, "has_menu": true, "awards": null, "user_review_count": 0}, {"business_operation_status": 1, "rating": null, "neighborhood": null, "image": null, "scorecard": null, "featured": false, "sample_categories": "Restaurants, Office Building Operators", "public_id": "river-edge1-cafe-atlanta", "id": 3020701, "votes": null, "tagline": null, "has_video": false, "website": null, "offers": null, "latitude": 33.906954, "politanName": "Atlanta, GA Metro ", "phone_number": "7709527787", "tags": [{"primary": false, "id": 1722, "name": "Restaurants"}, {"primary": true, "id": 3787, "name": "Office Building Operators"}], "fax_number": null, "expansion": {"count": null, "uri": null}, "impression_id": "000b00000077a9dbd005d643fa94842f8816ec2d29", "profile": "http://www.citysearch.com/profile/3020701/atlanta_ga/river_edge1_cafe.html", "address": {"city": "Atlanta", "state": "GA", "street": "5500 Interstate North Pkwy NW", "postal_code": "30328"}, "capProviderId": null, "distance": null, "has_offers": false, "name": "River Edge1 Cafe", "longitude": -84.434288, "has_menu": false, "awards": null, "user_review_count": 0}, {"business_operation_status": 1, "rating": null, "neighborhood": null, "image": null, "scorecard": null, "featured": false, "sample_categories": "Restaurants, Bars & Clubs", "public_id": "ronnie-johns-beach-cafe-marietta", "id": 732176830, "votes": null, "tagline": null, "has_video": false, "website": "http://www.citysearch.com/profile/external/732176830/marietta_ga/ronnie_johns_beach_cafe.html", "offers": null, "latitude": 33.997727, "politanName": "Atlanta, GA Metro ", "phone_number": "7703565251", "tags": [{"primary": false, "id": 164, "name": "Bars & Clubs"}, {"primary": true, "id": 1722, "name": "Restaurants"}], "fax_number": null, "expansion": {"count": null, "uri": null}, "impression_id": "000b000000aed05fcb0396413b8fcdf68ed479e7b3", "profile": "http://www.citysearch.com/profile/732176830/marietta_ga/ronnie_johns_beach_cafe.html", "address": {"city": "Marietta", "state": "GA", "street": "1951 Canton Rd # 330", "postal_code": "30066"}, "capProviderId": null, "distance": null, "has_offers": false, "name": "Ronnie Johns Beach Cafe", "longitude": -84.525055, "has_menu": false, "awards": null, "user_review_count": 0}, {"business_operation_status": 1, "rating": null, "neighborhood": null, "image": null, "scorecard": null, "featured": false, "sample_categories": "Restaurants", "public_id": "z-bar-ranch-restaurants-l-atlanta", "id": 732234960, "votes": null, "tagline": null, "has_video": false, "website": null, "offers": null, "latitude": 33.936187, "politanName": "Atlanta, GA Metro ", "phone_number": "4048432561", "tags": [{"primary": true, "id": 1722, "name": "Restaurants"}], "fax_number": null, "expansion": {"count": null, "uri": null}, "impression_id": "000b000000f2589be40eb44a0ba422fe64aff94237", "profile": "http://www.citysearch.com/profile/732234960/atlanta_ga/z_bar_ranch_restaurants_l.html", "address": {"city": "Atlanta", "state": "GA", "street": "340 Seamarsh Ct NW", "postal_code": "30328"}, "capProviderId": null, "distance": null, "has_offers": false, "name": "Z Bar Ranch Restaurants L", "longitude": -84.399923, "has_menu": false, "awards": null, "user_review_count": 0}, {"business_operation_status": 1, "rating": null, "neighborhood": null, "image": null, "scorecard": null, "featured": false, "sample_categories": "Restaurants, Asian", "public_id": "r-rice-wok-grill-sushi-sandy", "id": 732238920, "votes": null, "tagline": null, "has_video": false, "website": "http://www.citysearch.com/profile/external/732238920/sandy_springs_ga/r_rice_wok_grill_sushi.html", "offers": null, "latitude": 33.920748, "politanName": "Atlanta, GA Metro ", "phone_number": "7708048155", "tags": [{"primary": false, "id": 11235, "name": "Asian"}, {"primary": true, "id": 1722, "name": "Restaurants"}], "fax_number": null, "expansion": {"count": null, "uri": null}, "impression_id": "000b0000002b34e75365514ad98ddae70c0ffa509c", "profile": "http://www.citysearch.com/profile/732238920/sandy_springs_ga/r_rice_wok_grill_sushi.html", "address": {"city": "Sandy Springs", "state": "GA", "street": "1140 Hammond Dr NE # K120", "postal_code": "30328"}, "capProviderId": null, "distance": null, "has_offers": false, "name": "R Rice Wok Grill Sushi", "longitude": -84.349479, "has_menu": false, "awards": null, "user_review_count": 0}, {"business_operation_status": 1, "rating": null, "neighborhood": null, "image": null, "scorecard": null, "featured": false, "sample_categories": "Restaurants", "public_id": "buen-provecho-restaurant-llc-marietta", "id": 626498024, "votes": null, "tagline": null, "has_video": false, "website": "http://www.citysearch.com/profile/external/626498024/marietta_ga/buen_provecho_restaurant_llc.html", "offers": null, "latitude": 33.902637, "politanName": "Atlanta, GA Metro ", "phone_number": "7707123188", "tags": [{"primary": true, "id": 1722, "name": "Restaurants"}], "fax_number": null, "expansion": {"count": null, "uri": null}, "impression_id": "000b0000007936729a90c8412181a028c1b54815d1", "profile": "http://www.citysearch.com/profile/626498024/marietta_ga/buen_provecho_restaurant_llc.html", "address": {"city": "Marietta", "state": "GA", "street": "2468 Windy Hill Rd SE Ste 600", "postal_code": "30067"}, "capProviderId": null, "distance": null, "has_offers": false, "name": "Buen Provecho Restaurant LLC", "longitude": -84.48176, "has_menu": false, "awards": null, "user_review_count": 0}, {"business_operation_status": 1, "rating": null, "neighborhood": null, "image": null, "scorecard": null, "featured": false, "sample_categories": "Restaurants, Asian", "public_id": "genghis-grill-atlanta-2", "id": 748273600, "votes": null, "tagline": null, "has_video": false, "website": null, "offers": null, "latitude": 33.929652, "politanName": "Atlanta, GA Metro ", "phone_number": "7705128272", "tags": [{"primary": false, "id": 11235, "name": "Asian"}, {"primary": true, "id": 1722, "name": "Restaurants"}], "fax_number": null, "expansion": {"count": null, "uri": null}, "impression_id": "000b0000000a5c72dd405449fdac92766fbb993c13", "profile": "http://www.citysearch.com/profile/748273600/atlanta_ga/genghis_grill.html", "address": {"city": "Atlanta", "state": "GA", "street": "1165 Perimeter Ctr W", "postal_code": "30338"}, "capProviderId": null, "distance": null, "has_offers": false, "name": "Genghis Grill", "longitude": -84.347706, "has_menu": false, "awards": null, "user_review_count": 0}, {"business_operation_status": 1, "rating": null, "neighborhood": null, "image": null, "scorecard": null, "featured": false, "sample_categories": "Restaurants, Chinese", "public_id": "canton-cook-sandy", "id": 748331290, "votes": null, "tagline": null, "has_video": false, "website": "http://www.citysearch.com/profile/external/748331290/sandy_springs_ga/canton_cook.html", "offers": null, "latitude": 33.937491, "politanName": "Atlanta, GA Metro ", "phone_number": "4042558000", "tags": [{"primary": false, "id": 11252, "name": "Chinese"}, {"primary": true, "id": 1722, "name": "Restaurants"}], "fax_number": null, "expansion": {"count": null, "uri": null}, "impression_id": "000b0000000b6e5d4b7ae54f5c80cb4617344a2f2f", "profile": "http://www.citysearch.com/profile/748331290/sandy_springs_ga/canton_cook.html", "address": {"city": "Sandy Springs", "state": "GA", "street": "6690 Roswell Rd NE", "postal_code": "30328"}, "capProviderId": null, "distance": null, "has_offers": false, "name": "Canton Cook", "longitude": -84.378317, "has_menu": false, "awards": null, "user_review_count": 0}, {"business_operation_status": 1, "rating": null, "neighborhood": null, "image": null, "scorecard": null, "featured": false, "sample_categories": "Restaurants, Caribbean", "public_id": "island-vibes-llc-smyrna", "id": 751350600, "votes": null, "tagline": null, "has_video": false, "website": "http://www.citysearch.com/profile/external/751350600/smyrna_ga/island_vibes_llc.html", "offers": null, "latitude": 33.901234, "politanName": "Atlanta, GA Metro ", "phone_number": "7702721956", "tags": [{"primary": false, "id": 11195, "name": "Caribbean"}, {"primary": true, "id": 1722, "name": "Restaurants"}], "fax_number": null, "expansion": {"count": null, "uri": null}, "impression_id": "000b0000001ffef32d7d744be08d71fa35674de886", "profile": "http://www.citysearch.com/profile/751350600/smyrna_ga/island_vibes_llc.html", "address": {"city": "Smyrna", "state": "GA", "street": "2092 Cobb Pkwy SE", "postal_code": "30080"}, "capProviderId": null, "distance": null, "has_offers": false, "name": "Island Vibes LLC", "longitude": -84.488366, "has_menu": false, "awards": null, "user_review_count": 1}, {"business_operation_status": 1, "rating": null, "neighborhood": null, "image": null, "scorecard": null, "featured": false, "sample_categories": "Restaurants", "public_id": "tappan-street-restaurant-group-atlanta", "id": 745611400, "votes": null, "tagline": null, "has_video": false, "website": null, "offers": null, "latitude": 33.907706, "politanName": "Atlanta, GA Metro ", "phone_number": "4042522399", "tags": [{"primary": true, "id": 1722, "name": "Restaurants"}], "fax_number": null, "expansion": {"count": null, "uri": null}, "impression_id": "000b000000a0bebef0aadf475b9861b7e97f9483ec", "profile": "http://www.citysearch.com/profile/745611400/atlanta_ga/tappan_street_restaurant_group.html", "address": {"city": "Atlanta", "state": "GA", "street": "5600 Roswell Rd", "postal_code": "30342"}, "capProviderId": null, "distance": null, "has_offers": false, "name": "Tappan Street Restaurant Group", "longitude": -84.378787, "has_menu": false, "awards": null, "user_review_count": 0}, {"business_operation_status": 1, "rating": null, "neighborhood": null, "image": null, "scorecard": null, "featured": false, "sample_categories": "Restaurants", "public_id": "sweet-tomatoes-atlanta-2", "id": 748244070, "votes": null, "tagline": null, "has_video": false, "website": null, "offers": null, "latitude": 33.927101, "politanName": "Atlanta, GA Metro ", "phone_number": "7709130112", "tags": [{"primary": true, "id": 1722, "name": "Restaurants"}], "fax_number": null, "expansion": {"count": null, "uri": null}, "impression_id": "000b0000002350331ac61a4a1eb4bfe7e2f1f018b6", "profile": "http://www.citysearch.com/profile/748244070/atlanta_ga/sweet_tomatoes.html", "address": {"city": "Atlanta", "state": "GA", "street": "6340 Peachtree Dunwoody Rd NE", "postal_code": "30328"}, "capProviderId": null, "distance": null, "has_offers": false, "name": "Sweet Tomatoes", "longitude": -84.351662, "has_menu": false, "awards": null, "user_review_count": 0}, {"business_operation_status": 1, "rating": null, "neighborhood": null, "image": null, "scorecard": null, "featured": false, "sample_categories": "Restaurants, Bars & Clubs, Bars & Pubs", "public_id": "prime-time-sports-bar-grill-atlanta", "id": 764876470, "votes": null, "tagline": null, "has_video": false, "website": null, "offers": null, "latitude": 33.91426, "politanName": "Atlanta, GA Metro ", "phone_number": "4042552380", "tags": [{"primary": false, "id": 164, "name": "Bars & Clubs"}, {"primary": false, "id": 1686, "name": "Bars & Pubs"}, {"primary": true, "id": 1722, "name": "Restaurants"}], "fax_number": null, "expansion": {"count": null, "uri": null}, "impression_id": "000b0000001aac975f9a0d4b9da48933a855e2fff5", "profile": "http://www.citysearch.com/profile/764876470/atlanta_ga/prime_time_sports_bar_grill.html", "address": {"city": "Atlanta", "state": "GA", "street": "5825 Roswell Rd NE", "postal_code": "30328"}, "capProviderId": null, "distance": null, "has_offers": false, "name": "Prime Time Sports Bar & Grill", "longitude": -84.379139, "has_menu": false, "awards": null, "user_review_count": 0}, {"business_operation_status": 1, "rating": null, "neighborhood": null, "image": null, "scorecard": null, "featured": false, "sample_categories": "Restaurants, Barbecue Restaurants, Carry Out, Pizza", "public_id": "wing-street-marietta", "id": 764937850, "votes": null, "tagline": null, "has_video": false, "website": "http://www.citysearch.com/profile/external/764937850/marietta_ga/wing_street.html", "offers": null, "latitude": 34.012753, "politanName": "Atlanta, GA Metro ", "phone_number": "7705784200", "tags": [{"primary": false, "id": 1724, "name": "Barbecue Restaurants"}, {"primary": false, "id": 11247, "name": "Carry Out"}, {"primary": false, "id": 11299, "name": "Pizza"}, {"primary": true, "id": 1722, "name": "Restaurants"}], "fax_number": null, "expansion": {"count": null, "uri": null}, "impression_id": "000b0000005a93068072aa4c858958537b3c5bf6a9", "profile": "http://www.citysearch.com/profile/764937850/marietta_ga/wing_street.html", "address": {"city": "Marietta", "state": "GA", "street": "2565 E Piedmont Rd", "postal_code": "30062"}, "capProviderId": null, "distance": null, "has_offers": false, "name": "Wing Street", "longitude": -84.494027, "has_menu": false, "awards": null, "user_review_count": 0}, {"business_operation_status": 1, "rating": null, "neighborhood": null, "image": null, "scorecard": null, "featured": false, "sample_categories": "Restaurants, Traditional American, Carry Out", "public_id": "arbys-atlanta-19", "id": 764928840, "votes": null, "tagline": null, "has_video": false, "website": "http://www.citysearch.com/profile/external/764928840/atlanta_ga/arby_s.html", "offers": null, "latitude": 33.919456, "politanName": "Atlanta, GA Metro ", "phone_number": "4042564900", "tags": [{"primary": false, "id": 11190, "name": "Traditional American"}, {"primary": false, "id": 11247, "name": "Carry Out"}, {"primary": true, "id": 1722, "name": "Restaurants"}], "fax_number": null, "expansion": {"count": null, "uri": null}, "impression_id": "000b00000046c84e9cb3984745a3454398e7742fe5", "profile": "http://www.citysearch.com/profile/764928840/atlanta_ga/arby_s.html", "address": {"city": "Atlanta", "state": "GA", "street": "5995 Barfield Rd NE", "postal_code": "30328"}, "capProviderId": null, "distance": null, "has_offers": false, "name": "Arby's", "longitude": -84.35912, "has_menu": false, "awards": null, "user_review_count": 0}, {"business_operation_status": 1, "rating": null, "neighborhood": null, "image": null, "scorecard": null, "featured": false, "sample_categories": "Restaurants, Delis And Delicatessens", "public_id": "zoes-kitchen-marietta", "id": 764935770, "votes": null, "tagline": null, "has_video": false, "website": "http://www.citysearch.com/profile/external/764935770/marietta_ga/zoes_kitchen.html", "offers": null, "latitude": 33.985652, "politanName": "Atlanta, GA Metro ", "phone_number": "7705095743", "tags": [{"primary": false, "id": 1727, "name": "Delis And Delicatessens"}, {"primary": true, "id": 1722, "name": "Restaurants"}], "fax_number": null, "expansion": {"count": null, "uri": null}, "impression_id": "000b000000718cbe3408f34e9ab406777986a5d754", "profile": "http://www.citysearch.com/profile/764935770/marietta_ga/zoes_kitchen.html", "address": {"city": "Marietta", "state": "GA", "street": "4400 Upper Roswell Rd", "postal_code": "30062"}, "capProviderId": null, "distance": null, "has_offers": false, "name": "Zoes Kitchen", "longitude": -84.423277, "has_menu": false, "awards": null, "user_review_count": 0}, {"business_operation_status": 1, "rating": null, "neighborhood": null, "image": null, "scorecard": null, "featured": false, "sample_categories": "Restaurants, Traditional American", "public_id": "red-eyed-mule-marietta", "id": 655819920, "votes": null, "tagline": null, "has_video": false, "website": "http://www.citysearch.com/profile/external/655819920/marietta_ga/red_eyed_mule.html", "offers": null, "latitude": 33.974961, "politanName": "Atlanta, GA Metro ", "phone_number": "6788094546", "tags": [{"primary": false, "id": 11190, "name": "Traditional American"}, {"primary": true, "id": 1722, "name": "Restaurants"}], "fax_number": null, "expansion": {"count": null, "uri": null}, "impression_id": "000b0000001d707da2ee8245499ad56c34bb4b5e23", "profile": "http://www.citysearch.com/profile/655819920/marietta_ga/red_eyed_mule.html", "address": {"city": "Marietta", "state": "GA", "street": "1405 Church Street Ext Ne", "postal_code": "30060"}, "capProviderId": null, "distance": null, "has_offers": false, "name": "Red Eyed Mule", "longitude": -84.552997, "has_menu": true, "awards": null, "user_review_count": 0}, {"business_operation_status": 0, "rating": null, "neighborhood": null, "image": null, "scorecard": null, "featured": false, "sample_categories": "Restaurants", "public_id": "montana-waffle-co-marietta", "id": 775224500, "votes": null, "tagline": null, "has_video": false, "website": null, "offers": null, "latitude": 33.972274, "politanName": "Atlanta, GA Metro ", "phone_number": "7702182707", "tags": [{"primary": true, "id": 1722, "name": "Restaurants"}], "fax_number": null, "expansion": {"count": null, "uri": null}, "impression_id": "000b0000007dd5fc6a39844d40a7eb518ae236bf8e", "profile": "http://www.citysearch.com/profile/775224500/marietta_ga/montana_waffle_co.html", "address": {"city": "Marietta", "state": "GA", "street": "140 Vann St NE", "postal_code": "30060"}, "capProviderId": null, "distance": null, "has_offers": false, "name": "Montana Waffle Co", "longitude": -84.548786, "has_menu": false, "awards": null, "user_review_count": 0}, {"business_operation_status": 1, "rating": null, "neighborhood": null, "image": null, "scorecard": null, "featured": false, "sample_categories": "Restaurants", "public_id": "rheas-4-sandy", "id": 777634420, "votes": null, "tagline": null, "has_video": false, "website": null, "offers": null, "latitude": 34.002189, "politanName": "Atlanta, GA Metro ", "phone_number": "7709981115", "tags": [{"primary": true, "id": 1722, "name": "Restaurants"}], "fax_number": null, "expansion": {"count": null, "uri": null}, "impression_id": "000b00000053ad3d565b514c6cad5326be38bdd14a", "profile": "http://www.citysearch.com/profile/777634420/sandy_springs_ga/rhea_s_4.html", "address": {"city": "Sandy Springs", "state": "GA", "street": "8897 Roswell Rd", "postal_code": "30350"}, "capProviderId": null, "distance": null, "has_offers": false, "name": "Rhea's #4", "longitude": -84.350419, "has_menu": false, "awards": null, "user_review_count": 0}, {"business_operation_status": 0, "rating": null, "neighborhood": null, "image": null, "scorecard": null, "featured": false, "sample_categories": "Ice Cream Parlors", "public_id": "la-michoacana-helados-marietta", "id": 779703880, "votes": null, "tagline": null, "has_video": false, "website": null, "offers": null, "latitude": 33.904406, "politanName": "Atlanta, GA Metro ", "phone_number": "4049179790", "tags": [{"primary": true, "id": 1730, "name": "Ice Cream Parlors"}], "fax_number": null, "expansion": {"count": null, "uri": null}, "impression_id": "000b000000f4140b27177d4cd28bc5d80bf7b7265a", "profile": "http://www.citysearch.com/profile/779703880/marietta_ga/la_michoacana_helados.html", "address": {"city": "Marietta", "state": "GA", "street": "334 Dink Ln Se", "postal_code": "30060"}, "capProviderId": null, "distance": null, "has_offers": false, "name": "La Michoacana Helados", "longitude": -84.542831, "has_menu": false, "awards": null, "user_review_count": 0}, {"business_operation_status": 1, "rating": null, "neighborhood": null, "image": null, "scorecard": null, "featured": false, "sample_categories": "Restaurants, Chinese", "public_id": "china-moon-marietta", "id": 777713620, "votes": null, "tagline": null, "has_video": false, "website": null, "offers": null, "latitude": 33.952602, "politanName": "Atlanta, GA Metro ", "phone_number": "6782752350", "tags": [{"primary": false, "id": 11252, "name": "Chinese"}, {"primary": true, "id": 1722, "name": "Restaurants"}], "fax_number": null, "expansion": {"count": null, "uri": null}, "impression_id": "000b00000009c72757f3554fa987178d8eff160c79", "profile": "http://www.citysearch.com/profile/777713620/marietta_ga/china_moon.html", "address": {"city": "Marietta", "state": "GA", "street": "3960 Mary Eliza Trce NW", "postal_code": "30064"}, "capProviderId": null, "distance": null, "has_offers": false, "name": "China Moon", "longitude": -84.549933, "has_menu": false, "awards": null, "user_review_count": 0}, {"business_operation_status": 1, "rating": null, "neighborhood": null, "image": null, "scorecard": null, "featured": false, "sample_categories": "Restaurants", "public_id": "mocha-delites-marietta-2", "id": 777723340, "votes": null, "tagline": null, "has_video": false, "website": null, "offers": null, "latitude": 33.929888, "politanName": "Atlanta, GA Metro ", "phone_number": "7709568835", "tags": [{"primary": true, "id": 1722, "name": "Restaurants"}], "fax_number": null, "expansion": {"count": null, "uri": null}, "impression_id": "000b0000009fecc89632144ed0b2ab0c7e8031f9a4", "profile": "http://www.citysearch.com/profile/777723340/marietta_ga/mocha_delites.html", "address": {"city": "Marietta", "state": "GA", "street": "2944 Chipmunk Trl Se", "postal_code": "30067"}, "capProviderId": null, "distance": null, "has_offers": false, "name": "Mocha Delites", "longitude": -84.472516, "has_menu": false, "awards": null, "user_review_count": 0}, {"business_operation_status": 1, "rating": null, "neighborhood": null, "image": null, "scorecard": null, "featured": false, "sample_categories": "Restaurants, Mexican", "public_id": "jumping-beans-marietta", "id": 681338130, "votes": null, "tagline": null, "has_video": false, "website": null, "offers": null, "latitude": 33.951322, "politanName": "Atlanta, GA Metro ", "phone_number": "7704209092", "tags": [{"primary": false, "id": 11208, "name": "Mexican"}, {"primary": true, "id": 1722, "name": "Restaurants"}], "fax_number": null, "expansion": {"count": null, "uri": null}, "impression_id": "000b00000068184a46f5e4455da345ee81c0c506bb", "profile": "http://www.citysearch.com/profile/681338130/marietta_ga/jumping_beans.html", "address": {"city": "Marietta", "state": "GA", "street": "749 Roswell St NE", "postal_code": "30060"}, "capProviderId": null, "distance": null, "has_offers": false, "name": "Jumping Beans", "longitude": -84.530069, "has_menu": false, "awards": null, "user_review_count": 0}, {"business_operation_status": 1, "rating": null, "neighborhood": null, "image": null, "scorecard": null, "featured": false, "sample_categories": "Restaurants, Bars & Clubs, American Express, Discover, MasterCard", "public_id": "hemingways-marietta", "id": 682627370, "votes": null, "tagline": null, "has_video": false, "website": "http://www.citysearch.com/profile/external/682627370/marietta_ga/hemingway_s.html", "offers": null, "latitude": 33.952683, "politanName": "Atlanta, GA Metro ", "phone_number": "7704275445", "tags": [{"primary": false, "id": 164, "name": "Bars & Clubs"}, {"primary": false, "id": 11333, "name": "American Express"}, {"primary": false, "id": 11349, "name": "Discover"}, {"primary": false, "id": 11361, "name": "MasterCard"}, {"primary": false, "id": 11382, "name": "Visa"}, {"primary": true, "id": 1722, "name": "Restaurants"}], "fax_number": null, "expansion": {"count": null, "uri": null}, "impression_id": "000b000000a87c3e359c3e459e9ecb6db871249e8a", "profile": "http://www.citysearch.com/profile/682627370/marietta_ga/hemingway_s.html", "address": {"city": "Marietta", "state": "GA", "street": "29 W Park Sq Ne", "postal_code": "30060"}, "capProviderId": null, "distance": null, "has_offers": false, "name": "Hemingway's", "longitude": -84.550462, "has_menu": true, "awards": null, "user_review_count": 12}, {"business_operation_status": 1, "rating": null, "neighborhood": null, "image": null, "scorecard": null, "featured": false, "sample_categories": "Restaurants, Cajun & Creole", "public_id": "cajun-operating-co-atlanta", "id": 790784630, "votes": null, "tagline": null, "has_video": false, "website": "http://www.citysearch.com/profile/external/790784630/atlanta_ga/cajun_operating_co.html", "offers": null, "latitude": 33.920616, "politanName": "Atlanta, GA Metro ", "phone_number": "7703929716", "tags": [{"primary": false, "id": 11245, "name": "Cajun & Creole"}, {"primary": true, "id": 1722, "name": "Restaurants"}], "fax_number": null, "expansion": {"count": null, "uri": null}, "impression_id": "000b0000001088a5b221264eadbddb909b200c4471", "profile": "http://www.citysearch.com/profile/790784630/atlanta_ga/cajun_operating_co.html", "address": {"city": "Atlanta", "state": "GA", "street": "980 Hammond Dr # 1100", "postal_code": "30328"}, "capProviderId": null, "distance": null, "has_offers": false, "name": "Cajun Operating Co", "longitude": -84.355812, "has_menu": false, "awards": null, "user_review_count": 0}, {"business_operation_status": 0, "rating": null, "neighborhood": null, "image": null, "scorecard": null, "featured": false, "sample_categories": "Restaurants, Bars & Pubs, Delis And Delicatessens, American Express, Discover", "public_id": "locos-grill-pub-atlanta-4", "id": 698743130, "votes": null, "tagline": null, "has_video": false, "website": null, "offers": null, "latitude": 33.917875, "politanName": "Atlanta, GA Metro ", "phone_number": "7709139333", "tags": [{"primary": false, "id": 1686, "name": "Bars & Pubs"}, {"primary": false, "id": 1727, "name": "Delis And Delicatessens"}, {"primary": false, "id": 11333, "name": "American Express"}, {"primary": false, "id": 11349, "name": "Discover"}, {"primary": false, "id": 11361, "name": "MasterCard"}, {"primary": false, "id": 11382, "name": "Visa"}, {"primary": true, "id": 1722, "name": "Restaurants"}], "fax_number": null, "expansion": {"count": null, "uri": null}, "impression_id": "000b0000003dd578d5550d4f149a0ce74e3cd1e912", "profile": "http://www.citysearch.com/profile/698743130/atlanta_ga/locos_grill_pub.html", "address": {"city": "Atlanta", "state": "GA", "street": "8550 Roswell Rd", "postal_code": "30328"}, "capProviderId": null, "distance": null, "has_offers": false, "name": "Locos Grill & Pub", "longitude": -84.379124, "has_menu": false, "awards": null, "user_review_count": 2}, {"business_operation_status": 1, "rating": null, "neighborhood": null, "image": null, "scorecard": null, "featured": false, "sample_categories": "Restaurants", "public_id": "tokyo-bay-roswell", "id": 802518140, "votes": null, "tagline": null, "has_video": false, "website": null, "offers": null, "latitude": 34.026375, "politanName": "Atlanta, GA Metro ", "phone_number": "6783529937", "tags": [{"primary": true, "id": 1722, "name": "Restaurants"}], "fax_number": null, "expansion": {"count": null, "uri": null}, "impression_id": "000b0000007321f975ca0340e5a662d897233f7a36", "profile": "http://www.citysearch.com/profile/802518140/roswell_ga/tokyo_bay.html", "address": {"city": "Roswell", "state": "GA", "street": "925 Holcomb Bridge Rd", "postal_code": "30076"}, "capProviderId": null, "distance": null, "has_offers": false, "name": "Tokyo Bay", "longitude": -84.333791, "has_menu": false, "awards": null, "user_review_count": 0}, {"business_operation_status": 1, "rating": null, "neighborhood": null, "image": null, "scorecard": null, "featured": false, "sample_categories": "Ice Cream Parlors", "public_id": "jimmies-ice-cream-co-marietta", "id": 802518500, "votes": null, "tagline": null, "has_video": false, "website": null, "offers": null, "latitude": 34.013992, "politanName": "Atlanta, GA Metro ", "phone_number": "7706720051", "tags": [{"primary": true, "id": 1730, "name": "Ice Cream Parlors"}], "fax_number": null, "expansion": {"count": null, "uri": null}, "impression_id": "000b0000006d5bf7f4edd84d4682e4df72020c610a", "profile": "http://www.citysearch.com/profile/802518500/marietta_ga/jimmie_s_ice_cream_co.html", "address": {"city": "Marietta", "state": "GA", "street": "2595 Sandy Plains Rd", "postal_code": "30066"}, "capProviderId": null, "distance": null, "has_offers": false, "name": "Jimmie's Ice Cream Co", "longitude": -84.495703, "has_menu": false, "awards": null, "user_review_count": 0}, {"business_operation_status": 1, "rating": null, "neighborhood": null, "image": null, "scorecard": null, "featured": false, "sample_categories": "Restaurants", "public_id": "slocums-of-roswell-sandy", "id": 806683420, "votes": null, "tagline": null, "has_video": false, "website": null, "offers": null, "latitude": 34.000887, "politanName": "Atlanta, GA Metro ", "phone_number": "7705873022", "tags": [{"primary": true, "id": 1722, "name": "Restaurants"}], "fax_number": null, "expansion": {"count": null, "uri": null}, "impression_id": "000b0000005ec1d8cd52744ae6a1b0f0d0f7f72ad2", "profile": "http://www.citysearch.com/profile/806683420/sandy_springs_ga/slocum_s_of_roswell.html", "address": {"city": "Sandy Springs", "state": "GA", "street": "8849 Roswell Rd", "postal_code": "30350"}, "capProviderId": null, "distance": null, "has_offers": false, "name": "Slocum's Of Roswell", "longitude": -84.350415, "has_menu": false, "awards": null, "user_review_count": 0}, {"business_operation_status": 1, "rating": 8.0, "neighborhood": null, "image": null, "scorecard": null, "featured": false, "sample_categories": "Mexican", "public_id": "el-tequilla-marietta", "id": 37460153, "votes": null, "tagline": null, "has_video": false, "website": null, "offers": null, "latitude": 33.906772, "politanName": "Atlanta, GA Metro ", "phone_number": "7709538610", "tags": [{"primary": true, "id": 11208, "name": "Mexican"}], "fax_number": null, "expansion": {"count": null, "uri": null}, "impression_id": "000b000000bcd2873b4843497cb77e359ffe631963", "profile": "http://www.citysearch.com/profile/37460153/marietta_ga/el_tequilla.html", "address": {"city": "Marietta", "state": "GA", "street": "1869 Cobb Pkwy S", "postal_code": "30060"}, "capProviderId": null, "distance": null, "has_offers": false, "name": "El Tequilla", "longitude": -84.490975, "has_menu": true, "awards": null, "user_review_count": 0}, {"business_operation_status": 1, "rating": null, "neighborhood": null, "image": null, "scorecard": null, "featured": false, "sample_categories": "Restaurants", "public_id": "aramark-marietta-2", "id": 805946400, "votes": null, "tagline": null, "has_video": false, "website": null, "offers": null, "latitude": 33.984208, "politanName": "Atlanta, GA Metro ", "phone_number": "7705785577", "tags": [{"primary": true, "id": 1722, "name": "Restaurants"}], "fax_number": null, "expansion": {"count": null, "uri": null}, "impression_id": "000b00000067d515db1e3a4adcbd7eccd8031f8973", "profile": "http://www.citysearch.com/profile/805946400/marietta_ga/aramark.html", "address": {"city": "Marietta", "state": "GA", "street": "901 Sawyer Rd", "postal_code": "30062"}, "capProviderId": null, "distance": null, "has_offers": false, "name": "Aramark", "longitude": -84.529003, "has_menu": false, "awards": null, "user_review_count": 0}, {"business_operation_status": 1, "rating": null, "neighborhood": null, "image": null, "scorecard": null, "featured": false, "sample_categories": "Restaurants, Pizza", "public_id": "mellow-atlanta", "id": 748304140, "votes": null, "tagline": null, "has_video": false, "website": null, "offers": null, "latitude": 33.921743, "politanName": "Atlanta, GA Metro ", "phone_number": "4042571299", "tags": [{"primary": false, "id": 11299, "name": "Pizza"}, {"primary": true, "id": 1722, "name": "Restaurants"}], "fax_number": null, "expansion": {"count": null, "uri": null}, "impression_id": "000b00000052ccfeca02ae45ac88e71c4d3ade6831", "profile": "http://www.citysearch.com/profile/748304140/atlanta_ga/mellow.html", "address": {"city": "Atlanta", "state": "GA", "street": "6100 Roswell Rd NE", "postal_code": "30328"}, "capProviderId": null, "distance": null, "has_offers": false, "name": "Mellow", "longitude": -84.379738, "has_menu": false, "awards": null, "user_review_count": 0}, {"business_operation_status": 1, "rating": null, "neighborhood": null, "image": null, "scorecard": null, "featured": false, "sample_categories": "Restaurants", "public_id": "muffin-boy-atlanta", "id": 732171540, "votes": null, "tagline": null, "has_video": false, "website": null, "offers": null, "latitude": 33.94795, "politanName": "Atlanta, GA Metro ", "phone_number": "7703910848", "tags": [{"primary": true, "id": 1722, "name": "Restaurants"}], "fax_number": null, "expansion": {"count": null, "uri": null}, "impression_id": "000b00000057542b7374dd4870b6ae4b89f7eea891", "profile": "http://www.citysearch.com/profile/732171540/atlanta_ga/muffin_boy.html", "address": {"city": "Atlanta", "state": "GA", "street": "3070 River North Pkwy NW", "postal_code": "30328"}, "capProviderId": null, "distance": null, "has_offers": false, "name": "Muffin Boy", "longitude": -84.399051, "has_menu": false, "awards": null, "user_review_count": 0}, {"business_operation_status": 1, "rating": null, "neighborhood": null, "image": null, "scorecard": null, "featured": false, "sample_categories": "Restaurants", "public_id": "all-atlanta-catering-marietta", "id": 732174150, "votes": null, "tagline": null, "has_video": false, "website": null, "offers": null, "latitude": 34.019875, "politanName": "Atlanta, GA Metro ", "phone_number": "6789780338", "tags": [{"primary": true, "id": 1722, "name": "Restaurants"}], "fax_number": null, "expansion": {"count": null, "uri": null}, "impression_id": "000b0000003abd023b3f4a4ff39ed0336bbb7298ea", "profile": "http://www.citysearch.com/profile/732174150/marietta_ga/all_atlanta_catering.html", "address": {"city": "Marietta", "state": "GA", "street": "2854 Water Wheel Ct NE", "postal_code": "30062"}, "capProviderId": null, "distance": null, "has_offers": false, "name": "All Atlanta Catering", "longitude": -84.471664, "has_menu": false, "awards": null, "user_review_count": 0}, {"business_operation_status": 1, "rating": null, "neighborhood": null, "image": null, "scorecard": null, "featured": false, "sample_categories": "Restaurants", "public_id": "garden-fresh-restaurant-atlanta", "id": 732203670, "votes": null, "tagline": null, "has_video": false, "website": null, "offers": null, "latitude": 33.927101, "politanName": "Atlanta, GA Metro ", "phone_number": "7703909527", "tags": [{"primary": true, "id": 1722, "name": "Restaurants"}], "fax_number": null, "expansion": {"count": null, "uri": null}, "impression_id": "000b000000380cf977174045d1838950876b661fc2", "profile": "http://www.citysearch.com/profile/732203670/atlanta_ga/garden_fresh_restaurant.html", "address": {"city": "Atlanta", "state": "GA", "street": "6340 Peachtree Dunwoody Rd NE", "postal_code": "30328"}, "capProviderId": null, "distance": null, "has_offers": false, "name": "Garden Fresh Restaurant", "longitude": -84.351662, "has_menu": false, "awards": null, "user_review_count": 0}, {"business_operation_status": 0, "rating": null, "neighborhood": null, "image": null, "scorecard": null, "featured": false, "sample_categories": "Restaurants, Delis And Delicatessens, American Express, Debit Card, Discover", "public_id": "lennys-sub-shop-marietta", "id": 732210960, "votes": null, "tagline": null, "has_video": false, "website": null, "offers": null, "latitude": 33.946428, "politanName": "Atlanta, GA Metro ", "phone_number": "6785946940", "tags": [{"primary": false, "id": 1727, "name": "Delis And Delicatessens"}, {"primary": false, "id": 11333, "name": "American Express"}, {"primary": false, "id": 11347, "name": "Debit Card"}, {"primary": false, "id": 11349, "name": "Discover"}, {"primary": false, "id": 11361, "name": "MasterCard"}, {"primary": false, "id": 11382, "name": "Visa"}, {"primary": true, "id": 1722, "name": "Restaurants"}], "fax_number": null, "expansion": {"count": null, "uri": null}, "impression_id": "000b00000004abaf1c83c7444fbd115476c471b706", "profile": "http://www.citysearch.com/profile/732210960/marietta_ga/lenny_s_sub_shop.html", "address": {"city": "Marietta", "state": "GA", "street": "270 Cobb Pkwy S", "postal_code": "30060"}, "capProviderId": null, "distance": null, "has_offers": false, "name": "Lenny's Sub Shop", "longitude": -84.520358, "has_menu": false, "awards": null, "user_review_count": 0}, {"business_operation_status": 1, "rating": null, "neighborhood": null, "image": null, "scorecard": null, "featured": false, "sample_categories": "Restaurants, Delis And Delicatessens, Sandwich Shops, Carry Out, Shop Online", "public_id": "quiznos-marietta-6", "id": 764858410, "votes": null, "tagline": null, "has_video": false, "website": null, "offers": null, "latitude": 33.98568, "politanName": "Atlanta, GA Metro ", "phone_number": "7709714909", "tags": [{"primary": false, "id": 1727, "name": "Delis And Delicatessens"}, {"primary": false, "id": 1736, "name": "Sandwich Shops"}, {"primary": false, "id": 11247, "name": "Carry Out"}, {"primary": false, "id": 11375, "name": "Shop Online"}, {"primary": true, "id": 1722, "name": "Restaurants"}], "fax_number": null, "expansion": {"count": null, "uri": null}, "impression_id": "000b000000177a3741344a4930bb07d7e7b4dc164b", "profile": "http://www.citysearch.com/profile/764858410/marietta_ga/quiznos.html", "address": {"city": "Marietta", "state": "GA", "street": "4400 Roswell Rd # 140", "postal_code": "30062"}, "capProviderId": null, "distance": null, "has_offers": false, "name": "Quiznos", "longitude": -84.423208, "has_menu": true, "awards": null, "user_review_count": 0}, {"business_operation_status": 1, "rating": null, "neighborhood": null, "image": null, "scorecard": null, "featured": false, "sample_categories": "Restaurants, Carry Out", "public_id": "arbys-marietta-16", "id": 764873620, "votes": null, "tagline": null, "has_video": false, "website": null, "offers": null, "latitude": 33.917209, "politanName": "Atlanta, GA Metro ", "phone_number": "7709338090", "tags": [{"primary": false, "id": 11247, "name": "Carry Out"}, {"primary": true, "id": 1722, "name": "Restaurants"}], "fax_number": null, "expansion": {"count": null, "uri": null}, "impression_id": "000b0000004006898b3fbf4cdb96cbc929cb2d5f24", "profile": "http://www.citysearch.com/profile/764873620/marietta_ga/arby_s.html", "address": {"city": "Marietta", "state": "GA", "street": "1421 Terrell Mill Rd SE", "postal_code": "30067"}, "capProviderId": null, "distance": null, "has_offers": false, "name": "Arby's", "longitude": -84.468004, "has_menu": false, "awards": null, "user_review_count": 0}, {"business_operation_status": 1, "rating": null, "neighborhood": null, "image": null, "scorecard": null, "featured": false, "sample_categories": "Restaurants, Bars & Pubs, Carry Out", "public_id": "chilis-grill-bar-marietta-4", "id": 764886130, "votes": null, "tagline": null, "has_video": false, "website": null, "offers": null, "latitude": 33.939526, "politanName": "Atlanta, GA Metro ", "phone_number": "7704230897", "tags": [{"primary": false, "id": 1686, "name": "Bars & Pubs"}, {"primary": false, "id": 11247, "name": "Carry Out"}, {"primary": true, "id": 1722, "name": "Restaurants"}], "fax_number": null, "expansion": {"count": null, "uri": null}, "impression_id": "000b000000b143ec376b364c22aa303cda3707a3a9", "profile": "http://www.citysearch.com/profile/764886130/marietta_ga/chili_s_grill_bar.html", "address": {"city": "Marietta", "state": "GA", "street": "555 Commerce Ave SE", "postal_code": "30067"}, "capProviderId": null, "distance": null, "has_offers": false, "name": "Chili's Grill & Bar", "longitude": -84.506501, "has_menu": false, "awards": null, "user_review_count": 0}, {"business_operation_status": 1, "rating": null, "neighborhood": null, "image": null, "scorecard": null, "featured": false, "sample_categories": "Grocery Stores, Restaurants", "public_id": "royal-groceries-rstrnt-llc-marietta", "id": 764910880, "votes": null, "tagline": null, "has_video": false, "website": null, "offers": null, "latitude": 33.95073, "politanName": "Atlanta, GA Metro ", "phone_number": "7709738414", "tags": [{"primary": false, "id": 1722, "name": "Restaurants"}, {"primary": true, "id": 1713, "name": "Grocery Stores"}], "fax_number": null, "expansion": {"count": null, "uri": null}, "impression_id": "000b000000546550f6979542a9a7887b5983c3522c", "profile": "http://www.citysearch.com/profile/764910880/marietta_ga/royal_groceries_rstrnt_llc.html", "address": {"city": "Marietta", "state": "GA", "street": "1392 Roswell Rd", "postal_code": "30062"}, "capProviderId": null, "distance": null, "has_offers": false, "name": "Royal Groceries & Rstrnt Llc", "longitude": -84.511253, "has_menu": false, "awards": null, "user_review_count": 0}, {"business_operation_status": 1, "rating": null, "neighborhood": null, "image": null, "scorecard": null, "featured": false, "sample_categories": "Restaurants, Grocery Stores", "public_id": "sugar-shack-snacks-marietta", "id": 766798620, "votes": null, "tagline": null, "has_video": false, "website": null, "offers": null, "latitude": 33.952602, "politanName": "Atlanta, GA Metro ", "phone_number": "7704850847", "tags": [{"primary": false, "id": 1713, "name": "Grocery Stores"}, {"primary": true, "id": 1722, "name": "Restaurants"}], "fax_number": null, "expansion": {"count": null, "uri": null}, "impression_id": "000b000000edbb01f05a8b4a74bf799d137ef7ffd9", "profile": "http://www.citysearch.com/profile/766798620/marietta_ga/sugar_shack_snacks.html", "address": {"city": "Marietta", "state": "GA", "street": "3901 Mary Eliza Trce NW # 120", "postal_code": "30064"}, "capProviderId": null, "distance": null, "has_offers": false, "name": "Sugar Shack Snacks", "longitude": -84.549933, "has_menu": false, "awards": null, "user_review_count": 0}, {"business_operation_status": 1, "rating": null, "neighborhood": null, "image": null, "scorecard": null, "featured": false, "sample_categories": "Restaurants, Diners", "public_id": "empire-diner-sandy-spgs", "id": 655825260, "votes": null, "tagline": null, "has_video": false, "website": null, "offers": null, "latitude": 33.916242, "politanName": "Atlanta, GA Metro ", "phone_number": "4042527472", "tags": [{"primary": false, "id": 1732, "name": "Diners"}, {"primary": true, "id": 1722, "name": "Restaurants"}], "fax_number": null, "expansion": {"count": null, "uri": null}, "impression_id": "000b000000e96ad5cde5b14224a58f09b6e20ee35b", "profile": "http://www.citysearch.com/profile/655825260/sandy_springs_ga/empire_diner.html", "address": {"city": "Sandy Springs", "state": "GA", "street": "5920 Roswell Rd", "postal_code": "30328"}, "capProviderId": null, "distance": null, "has_offers": false, "name": "Empire Diner", "longitude": -84.379244, "has_menu": false, "awards": null, "user_review_count": 0}, {"business_operation_status": 1, "rating": null, "neighborhood": null, "image": null, "scorecard": null, "featured": false, "sample_categories": "Restaurants, Mexican", "public_id": "el-taco-azteco-bar-grill-marietta", "id": 779707060, "votes": null, "tagline": null, "has_video": false, "website": null, "offers": null, "latitude": 33.976739, "politanName": "Atlanta, GA Metro ", "phone_number": "6782752349", "tags": [{"primary": false, "id": 11208, "name": "Mexican"}, {"primary": true, "id": 1722, "name": "Restaurants"}], "fax_number": null, "expansion": {"count": null, "uri": null}, "impression_id": "000b000000a178ebc143d1403fb84686ba66a44d84", "profile": "http://www.citysearch.com/profile/779707060/marietta_ga/el_taco_azteco_bar_grill.html", "address": {"city": "Marietta", "state": "GA", "street": "1050 E Piedmont Rd", "postal_code": "30062"}, "capProviderId": null, "distance": null, "has_offers": false, "name": "El Taco Azteco Bar & Grill", "longitude": -84.479676, "has_menu": false, "awards": null, "user_review_count": 0}, {"business_operation_status": 0, "rating": null, "neighborhood": null, "image": null, "scorecard": null, "featured": false, "sample_categories": "Restaurants, Delis And Delicatessens, Sandwich Shops, Carry Out", "public_id": "quiznos-atlanta-32", "id": 764855160, "votes": null, "tagline": null, "has_video": false, "website": null, "offers": null, "latitude": 33.917033, "politanName": "Atlanta, GA Metro ", "phone_number": "7709534495", "tags": [{"primary": false, "id": 1727, "name": "Delis And Delicatessens"}, {"primary": false, "id": 1736, "name": "Sandwich Shops"}, {"primary": false, "id": 11247, "name": "Carry Out"}, {"primary": true, "id": 1722, "name": "Restaurants"}], "fax_number": null, "expansion": {"count": null, "uri": null}, "impression_id": "000b000000557ba7b17d67487eba34c8926b93ba5d", "profile": "http://www.citysearch.com/profile/764855160/atlanta_ga/quiznos.html", "address": {"city": "Atlanta", "state": "GA", "street": "5890 Winterthur Rdg NW", "postal_code": "30328"}, "capProviderId": null, "distance": null, "has_offers": false, "name": "Quiznos", "longitude": -84.434794, "has_menu": true, "awards": null, "user_review_count": 0}, {"business_operation_status": 1, "rating": null, "neighborhood": null, "image": null, "scorecard": null, "featured": false, "sample_categories": "Restaurants, Delis And Delicatessens, Sandwich Shops, Carry Out, Shop Online", "public_id": "quiznos-smyrna-8", "id": 764861640, "votes": null, "tagline": null, "has_video": false, "website": "http://www.citysearch.com/profile/external/764861640/smyrna_ga/quiznos.html", "offers": null, "latitude": 33.893328, "politanName": "Atlanta, GA Metro ", "phone_number": "7709840033", "tags": [{"primary": false, "id": 1727, "name": "Delis And Delicatessens"}, {"primary": false, "id": 1736, "name": "Sandwich Shops"}, {"primary": false, "id": 11247, "name": "Carry Out"}, {"primary": false, "id": 11375, "name": "Shop Online"}, {"primary": true, "id": 1722, "name": "Restaurants"}], "fax_number": null, "expansion": {"count": null, "uri": null}, "impression_id": "000b0000009155acaa43a44d6ab4841277579cbabe", "profile": "http://www.citysearch.com/profile/764861640/smyrna_ga/quiznos.html", "address": {"city": "Smyrna", "state": "GA", "street": "2415 Cobb Pkwy SE", "postal_code": "30080"}, "capProviderId": null, "distance": null, "has_offers": false, "name": "Quiznos", "longitude": -84.478533, "has_menu": true, "awards": null, "user_review_count": 3}, {"business_operation_status": 1, "rating": null, "neighborhood": null, "image": null, "scorecard": null, "featured": false, "sample_categories": "Restaurants, Carry Out, Pizza", "public_id": "papa-johns-pizza-marietta-16", "id": 764880810, "votes": null, "tagline": null, "has_video": false, "website": null, "offers": null, "latitude": 33.922655, "politanName": "Atlanta, GA Metro ", "phone_number": "4049848282", "tags": [{"primary": false, "id": 11247, "name": "Carry Out"}, {"primary": false, "id": 11299, "name": "Pizza"}, {"primary": true, "id": 1722, "name": "Restaurants"}], "fax_number": null, "expansion": {"count": null, "uri": null}, "impression_id": "000b000000e100e1bb68fd4b82b947955d43637773", "profile": "http://www.citysearch.com/profile/764880810/marietta_ga/papa_john_s_pizza.html", "address": {"city": "Marietta", "state": "GA", "street": "2556 Delk Rd SE", "postal_code": "30067"}, "capProviderId": null, "distance": null, "has_offers": false, "name": "Papa John's Pizza", "longitude": -84.480194, "has_menu": false, "awards": null, "user_review_count": 0}, {"business_operation_status": 1, "rating": null, "neighborhood": null, "image": null, "scorecard": null, "featured": false, "sample_categories": "Restaurants", "public_id": "lakeside-cafe-atlanta", "id": 682418240, "votes": null, "tagline": null, "has_video": false, "website": null, "offers": null, "latitude": 33.919847, "politanName": "Atlanta, GA Metro ", "phone_number": "7706680469", "tags": [{"primary": true, "id": 1722, "name": "Restaurants"}], "fax_number": null, "expansion": {"count": null, "uri": null}, "impression_id": "000b000000d141de4aea934e13904087f76c0d1cf0", "profile": "http://www.citysearch.com/profile/682418240/atlanta_ga/lakeside_cafe.html", "address": {"city": "Atlanta", "state": "GA", "street": "990 Hammond Dr Ne", "postal_code": "30328"}, "capProviderId": null, "distance": null, "has_offers": false, "name": "Lakeside Cafe", "longitude": -84.356319, "has_menu": false, "awards": null, "user_review_count": 0}, {"business_operation_status": 1, "rating": null, "neighborhood": null, "image": null, "scorecard": null, "featured": false, "sample_categories": "Restaurants, Traditional American, Carry Out, American Express, Discover", "public_id": "arbys-austell", "id": 682522910, "votes": null, "tagline": null, "has_video": false, "website": "http://www.citysearch.com/profile/external/682522910/austell_ga/arby_s.html", "offers": null, "latitude": 33.802759, "politanName": "Atlanta, GA Metro ", "phone_number": "7707390339", "tags": [{"primary": false, "id": 11190, "name": "Traditional American"}, {"primary": false, "id": 11247, "name": "Carry Out"}, {"primary": false, "id": 11333, "name": "American Express"}, {"primary": false, "id": 11349, "name": "Discover"}, {"primary": false, "id": 11361, "name": "MasterCard"}, {"primary": false, "id": 11382, "name": "Visa"}, {"primary": true, "id": 1722, "name": "Restaurants"}], "fax_number": null, "expansion": {"count": null, "uri": null}, "impression_id": "000b000000ea47c313a217413fbe10f1ec33eaca0a", "profile": "http://www.citysearch.com/profile/682522910/austell_ga/arby_s.html", "address": {"city": "Austell", "state": "GA", "street": "3060 Bankhead Hwy", "postal_code": "30168"}, "capProviderId": null, "distance": null, "has_offers": false, "name": "Arby's", "longitude": -84.638393, "has_menu": true, "awards": null, "user_review_count": 0}, {"business_operation_status": 1, "rating": null, "neighborhood": null, "image": null, "scorecard": null, "featured": false, "sample_categories": "Restaurants, Cafes", "public_id": "world-peace-cafe-llc-atlanta", "id": 682723520, "votes": null, "tagline": null, "has_video": false, "website": "http://www.citysearch.com/profile/external/682723520/atlanta_ga/world_peace_cafe_llc.html", "offers": null, "latitude": 33.919009, "politanName": "Atlanta, GA Metro ", "phone_number": "4042562100", "tags": [{"primary": false, "id": 6190, "name": "Cafes"}, {"primary": true, "id": 1722, "name": "Restaurants"}], "fax_number": null, "expansion": {"count": null, "uri": null}, "impression_id": "000b0000000a0420824fc1437392d99bc36e2eb157", "profile": "http://www.citysearch.com/profile/682723520/atlanta_ga/world_peace_cafe_llc.html", "address": {"city": "Atlanta", "state": "GA", "street": "220 Hammond Dr Ne # 302", "postal_code": "30328"}, "capProviderId": null, "distance": null, "has_offers": false, "name": "World Peace Cafe LLC", "longitude": -84.381491, "has_menu": false, "awards": null, "user_review_count": 3}, {"business_operation_status": 1, "rating": null, "neighborhood": null, "image": null, "scorecard": null, "featured": false, "sample_categories": "Restaurants, Diners", "public_id": "cobb-diner-marietta", "id": 781263410, "votes": null, "tagline": null, "has_video": false, "website": null, "offers": null, "latitude": 33.950808, "politanName": "Atlanta, GA Metro ", "phone_number": "7705149700", "tags": [{"primary": false, "id": 1732, "name": "Diners"}, {"primary": true, "id": 1722, "name": "Restaurants"}], "fax_number": null, "expansion": {"count": null, "uri": null}, "impression_id": "000b0000002ab29241f9cd4c42b0075bc4a4ee45d1", "profile": "http://www.citysearch.com/profile/781263410/marietta_ga/cobb_diner.html", "address": {"city": "Marietta", "state": "GA", "street": "749 Roswell St Ne", "postal_code": "30060"}, "capProviderId": null, "distance": null, "has_offers": false, "name": "Cobb Diner", "longitude": -84.53017, "has_menu": false, "awards": null, "user_review_count": 1}], "histograms": [], "tag_ids": [1722], "uri": "http://api.citygridmedia.com:8080/search/places/v2/search/where?has_offers=false&type=restaurant&format=json&page=36&where=30068&rpp=50&histograms=false&publisher=10000009598&region_type=circle", "did_you_mean": "", "regions": [{"latitude": 33.967813, "default_radius": 3.91, "type": "postal_code", "name": "30068", "longitude": -84.433422}], "call_id": "000b0000004da27838ad784c8abf5db169c4e8d9de", "first_hit": 1751, "total_hits": 2028, "geo_ids": [26296], "page": 36, "last_hit": 1800}}