{"results": {"rpp": 50, "locations": [{"business_operation_status": 1, "rating": null, "neighborhood": null, "image": null, "scorecard": null, "featured": false, "sample_categories": "Delis And Delicatessens", "public_id": "kroger-deli-marietta-5", "id": 695444670, "votes": null, "tagline": null, "has_video": false, "website": null, "offers": null, "latitude": 33.964739, "politanName": "Atlanta, GA Metro ", "phone_number": "7709718801", "tags": [{"primary": true, "id": 1727, "name": "Delis And Delicatessens"}], "fax_number": null, "expansion": {"count": null, "uri": null}, "impression_id": "000b000000e1ebb98dbd914f009b05f8c430f899a2", "profile": "http://www.citysearch.com/profile/695444670/marietta_ga/kroger_deli.html", "address": {"city": "Marietta", "state": "GA", "street": "4880 Lower Roswell Rd # 400b", "postal_code": "30068"}, "capProviderId": null, "distance": null, "has_offers": false, "name": "Kroger Deli", "longitude": -84.409822, "has_menu": false, "awards": null, "user_review_count": 0}, {"business_operation_status": 1, "rating": null, "neighborhood": null, "image": null, "scorecard": null, "featured": false, "sample_categories": "Restaurants", "public_id": "cool-river-cafe-sandy", "id": 713318230, "votes": null, "tagline": null, "has_video": false, "website": null, "offers": null, "latitude": 33.906954, "politanName": "Atlanta, GA Metro ", "phone_number": "7709511553", "tags": [{"primary": true, "id": 1722, "name": "Restaurants"}], "fax_number": null, "expansion": {"count": null, "uri": null}, "impression_id": "000b000000dfb407d6800f4d988dcc1a611f1571af", "profile": "http://www.citysearch.com/profile/713318230/sandy_springs_ga/cool_river_cafe.html", "address": {"city": "Sandy Springs", "state": "GA", "street": "5500 Interstate North NW # 102", "postal_code": "30328"}, "capProviderId": null, "distance": null, "has_offers": false, "name": "Cool River Cafe", "longitude": -84.434288, "has_menu": false, "awards": null, "user_review_count": 0}, {"business_operation_status": 1, "rating": null, "neighborhood": null, "image": null, "scorecard": null, "featured": false, "sample_categories": "Restaurants, Delis And Delicatessens, Sandwich Shops, Carry Out", "public_id": "subway-smyrna-20", "id": 713364310, "votes": null, "tagline": null, "has_video": false, "website": "http://www.citysearch.com/profile/external/713364310/smyrna_ga/subway.html", "offers": null, "latitude": 33.842892, "politanName": "Atlanta, GA Metro ", "phone_number": "6784027179", "tags": [{"primary": false, "id": 1727, "name": "Delis And Delicatessens"}, {"primary": false, "id": 1736, "name": "Sandwich Shops"}, {"primary": false, "id": 11247, "name": "Carry Out"}, {"primary": true, "id": 1722, "name": "Restaurants"}], "fax_number": null, "expansion": {"count": null, "uri": null}, "impression_id": "000b0000001218d3ab292946b99cdc11173b79aa5d", "profile": "http://www.citysearch.com/profile/713364310/smyrna_ga/subway.html", "address": {"city": "Smyrna", "state": "GA", "street": "4500 West Village Pl Se", "postal_code": "30080"}, "capProviderId": null, "distance": null, "has_offers": false, "name": "SUBWAY", "longitude": -84.490261, "has_menu": false, "awards": null, "user_review_count": 0}, {"business_operation_status": 1, "rating": null, "neighborhood": null, "image": null, "scorecard": null, "featured": false, "sample_categories": "Restaurants, Pizza", "public_id": "marcos-pizza-marietta", "id": 713581120, "votes": null, "tagline": null, "has_video": false, "website": "http://www.citysearch.com/profile/external/713581120/marietta_ga/marco_s_pizza.html", "offers": null, "latitude": 33.973533, "politanName": "Atlanta, GA Metro ", "phone_number": "7706946400", "tags": [{"primary": false, "id": 11299, "name": "Pizza"}, {"primary": true, "id": 1722, "name": "Restaurants"}], "fax_number": null, "expansion": {"count": null, "uri": null}, "impression_id": "000b000000d9fab8c116fe4bd6ae04d94162798647", "profile": "http://www.citysearch.com/profile/713581120/marietta_ga/marco_s_pizza.html", "address": {"city": "Marietta", "state": "GA", "street": "2424 Roswell Rd", "postal_code": "30068"}, "capProviderId": null, "distance": null, "has_offers": false, "name": "Marco's Pizza", "longitude": -84.480778, "has_menu": true, "awards": null, "user_review_count": 0}, {"business_operation_status": 1, "rating": null, "neighborhood": null, "image": null, "scorecard": null, "featured": false, "sample_categories": "Restaurants", "public_id": "peldng-garden-restaurant-smyrna", "id": 713430280, "votes": null, "tagline": null, "has_video": false, "website": null, "offers": null, "latitude": 33.891107, "politanName": "Atlanta, GA Metro ", "phone_number": "7704324048", "tags": [{"primary": true, "id": 1722, "name": "Restaurants"}], "fax_number": null, "expansion": {"count": null, "uri": null}, "impression_id": "000b0000005574a89b7b564168bfd9f62f7e781cd9", "profile": "http://www.citysearch.com/profile/713430280/smyrna_ga/peldng_garden_restaurant.html", "address": {"city": "Smyrna", "state": "GA", "street": "2526 S Cobb Dr Se", "postal_code": "30080"}, "capProviderId": null, "distance": null, "has_offers": false, "name": "Peldng Garden Restaurant", "longitude": -84.537851, "has_menu": false, "awards": null, "user_review_count": 0}, {"business_operation_status": 1, "rating": null, "neighborhood": null, "image": null, "scorecard": null, "featured": false, "sample_categories": "Restaurants", "public_id": "snack-shack-marietta", "id": 713480420, "votes": null, "tagline": null, "has_video": false, "website": null, "offers": null, "latitude": 33.938267, "politanName": "Atlanta, GA Metro ", "phone_number": "7709190010", "tags": [{"primary": true, "id": 1722, "name": "Restaurants"}], "fax_number": null, "expansion": {"count": null, "uri": null}, "impression_id": "000b000000313f286d87f54cf2b436f64f9e7f8251", "profile": "http://www.citysearch.com/profile/713480420/marietta_ga/snack_shack.html", "address": {"city": "Marietta", "state": "GA", "street": "601 Powder Springs St", "postal_code": "30064"}, "capProviderId": null, "distance": null, "has_offers": false, "name": "Snack Shack", "longitude": -84.553758, "has_menu": false, "awards": null, "user_review_count": 0}, {"business_operation_status": 1, "rating": null, "neighborhood": null, "image": null, "scorecard": null, "featured": false, "sample_categories": "Restaurants, Mexican", "public_id": "mexico-tipico-atlanta", "id": 713500290, "votes": null, "tagline": null, "has_video": false, "website": "http://www.citysearch.com/profile/external/713500290/atlanta_ga/mexico_tipico.html", "offers": null, "latitude": 33.869506, "politanName": "Atlanta, GA Metro ", "phone_number": "7709745054", "tags": [{"primary": false, "id": 11208, "name": "Mexican"}, {"primary": true, "id": 1722, "name": "Restaurants"}], "fax_number": null, "expansion": {"count": null, "uri": null}, "impression_id": "000b0000005fdc4d75f6f2480d80a54d37489d9715", "profile": "http://www.citysearch.com/profile/713500290/atlanta_ga/mexico_tipico.html", "address": {"city": "Atlanta", "state": "GA", "street": "3160 Cobb Pkwy Se", "postal_code": "30339"}, "capProviderId": null, "distance": null, "has_offers": false, "name": "Mexico Tipico", "longitude": -84.455525, "has_menu": false, "awards": null, "user_review_count": 0}, {"business_operation_status": 1, "rating": null, "neighborhood": null, "image": null, "scorecard": null, "featured": false, "sample_categories": "Restaurants", "public_id": "cafe-med-marietta", "id": 2908313, "votes": null, "tagline": null, "has_video": false, "website": null, "offers": null, "latitude": 34.015118, "politanName": "Atlanta, GA Metro ", "phone_number": "7705790630", "tags": [{"primary": true, "id": 1722, "name": "Restaurants"}], "fax_number": null, "expansion": {"count": null, "uri": null}, "impression_id": "000b000000214817d6a35043eb868b5482cc0ca51d", "profile": "http://www.citysearch.com/profile/2908313/marietta_ga/cafe_med.html", "address": {"city": "Marietta", "state": "GA", "street": "2635 Sandy Plains Rd Ste A10", "postal_code": "30066"}, "capProviderId": null, "distance": null, "has_offers": false, "name": "Cafe Med", "longitude": -84.495187, "has_menu": true, "awards": null, "user_review_count": 3}, {"business_operation_status": 1, "rating": null, "neighborhood": null, "image": null, "scorecard": null, "featured": false, "sample_categories": "Restaurants", "public_id": "jocks-jills-galleria-smyrna", "id": 632025340, "votes": null, "tagline": null, "has_video": false, "website": null, "offers": null, "latitude": 33.885247, "politanName": "Atlanta, GA Metro ", "phone_number": "7709524254", "tags": [{"primary": true, "id": 1722, "name": "Restaurants"}], "fax_number": null, "expansion": {"count": null, "uri": null}, "impression_id": "000b000000a2e163fbdd4e49428034f704c71f9e48", "profile": "http://www.citysearch.com/profile/632025340/smyrna_ga/jocks_jills_galleria.html", "address": {"city": "Smyrna", "state": "GA", "street": "2778 Cumberland Blvd Se # 586", "postal_code": "30080"}, "capProviderId": null, "distance": null, "has_offers": false, "name": "Jocks & Jills Galleria", "longitude": -84.47677, "has_menu": false, "awards": null, "user_review_count": 0}, {"business_operation_status": 1, "rating": null, "neighborhood": null, "image": null, "scorecard": null, "featured": false, "sample_categories": "Restaurants", "public_id": "buffalo-grill-llc-marietta", "id": 638844090, "votes": null, "tagline": null, "has_video": false, "website": null, "offers": null, "latitude": 33.972692, "politanName": "Atlanta, GA Metro ", "phone_number": "6783549464", "tags": [{"primary": true, "id": 1722, "name": "Restaurants"}], "fax_number": null, "expansion": {"count": null, "uri": null}, "impression_id": "000b000000acae4aa802764609acc5acf9f3f0bed7", "profile": "http://www.citysearch.com/profile/638844090/marietta_ga/buffalo_grill_llc.html", "address": {"city": "Marietta", "state": "GA", "street": "949 Ashebrooke Trce Ne", "postal_code": "30068"}, "capProviderId": null, "distance": null, "has_offers": false, "name": "Buffalo Grill Llc", "longitude": -84.468243, "has_menu": false, "awards": null, "user_review_count": 0}, {"business_operation_status": 1, "rating": null, "neighborhood": null, "image": null, "scorecard": null, "featured": false, "sample_categories": "Food Stores, Restaurants, Sandwich Shops, Ham, Pork", "public_id": "honey-baked-ham-atlanta-5", "id": 682302160, "votes": null, "tagline": null, "has_video": false, "website": "http://www.citysearch.com/profile/external/682302160/atlanta_ga/honeybaked_ham.html", "offers": null, "latitude": 33.881249, "politanName": "Atlanta, GA Metro ", "phone_number": "7709530010", "tags": [{"primary": false, "id": 1706, "name": "Food Stores"}, {"primary": false, "id": 1722, "name": "Restaurants"}, {"primary": false, "id": 1736, "name": "Sandwich Shops"}, {"primary": false, "id": 11125, "name": "Pork"}, {"primary": true, "id": 11124, "name": "Ham"}], "fax_number": null, "expansion": {"count": null, "uri": null}, "impression_id": "000b0000001b97b8a610334cb6be9a0d4472fff65a", "profile": "http://www.citysearch.com/profile/682302160/atlanta_ga/honeybaked_ham.html", "address": {"city": "Atlanta", "state": "GA", "street": "2955 Cobb Pkwy SE 250", "postal_code": "30339"}, "capProviderId": null, "distance": null, "has_offers": false, "name": "Honeybaked Ham", "longitude": -84.46212, "has_menu": true, "awards": null, "user_review_count": 0}, {"business_operation_status": 1, "rating": null, "neighborhood": null, "image": null, "scorecard": null, "featured": false, "sample_categories": "Restaurants", "public_id": "clec-solutions-inc-marietta-2", "id": 682601500, "votes": null, "tagline": null, "has_video": false, "website": null, "offers": null, "latitude": 33.948318, "politanName": "Atlanta, GA Metro ", "phone_number": "7709772212", "tags": [{"primary": true, "id": 1722, "name": "Restaurants"}], "fax_number": null, "expansion": {"count": null, "uri": null}, "impression_id": "000b000000d2bf10313c52494296c7faea8ae489a6", "profile": "http://www.citysearch.com/profile/682601500/marietta_ga/clec_solutions_inc.html", "address": {"city": "Marietta", "state": "GA", "street": "2060 Lower Roswell Rd", "postal_code": "30068"}, "capProviderId": null, "distance": null, "has_offers": false, "name": "Clec Solutions INC", "longitude": -84.492511, "has_menu": false, "awards": null, "user_review_count": 0}, {"business_operation_status": 1, "rating": null, "neighborhood": null, "image": null, "scorecard": null, "featured": false, "sample_categories": "Restaurants", "public_id": "zuzzu-roswell", "id": 626968874, "votes": null, "tagline": null, "has_video": false, "website": null, "offers": null, "latitude": 34.02005, "politanName": "Atlanta, GA Metro ", "phone_number": "4049834589", "tags": [{"primary": true, "id": 1722, "name": "Restaurants"}], "fax_number": null, "expansion": {"count": null, "uri": null}, "impression_id": "000b0000004e7ed1c66de14b2889c534d063105334", "profile": "http://www.citysearch.com/profile/626968874/roswell_ga/zuzzu.html", "address": {"city": "Roswell", "state": "GA", "street": "42 Oak St B", "postal_code": "30075"}, "capProviderId": null, "distance": null, "has_offers": false, "name": "Zuzzu", "longitude": -84.360424, "has_menu": false, "awards": null, "user_review_count": 0}, {"business_operation_status": 1, "rating": null, "neighborhood": null, "image": null, "scorecard": null, "featured": false, "sample_categories": "Restaurants", "public_id": "nashville-restaurant-mgmt-smyrna", "id": 713616520, "votes": null, "tagline": null, "has_video": false, "website": null, "offers": null, "latitude": 33.871625, "politanName": "Atlanta, GA Metro ", "phone_number": "7704389400", "tags": [{"primary": true, "id": 1722, "name": "Restaurants"}], "fax_number": null, "expansion": {"count": null, "uri": null}, "impression_id": "000b000000c894c33f09d84e7da688c40de7383432", "profile": "http://www.citysearch.com/profile/713616520/smyrna_ga/nashville_restaurant_mgmt.html", "address": {"city": "Smyrna", "state": "GA", "street": "3350 S Cobb Dr Se", "postal_code": "30080"}, "capProviderId": null, "distance": null, "has_offers": false, "name": "Nashville Restaurant Mgmt", "longitude": -84.528763, "has_menu": false, "awards": null, "user_review_count": 0}, {"business_operation_status": 1, "rating": null, "neighborhood": null, "image": null, "scorecard": null, "featured": false, "sample_categories": "Restaurants, Mexican", "public_id": "el-vaquero-mexican-cantina-marietta", "id": 655802400, "votes": null, "tagline": null, "has_video": false, "website": null, "offers": null, "latitude": 33.953033, "politanName": "Atlanta, GA Metro ", "phone_number": "6787385431", "tags": [{"primary": false, "id": 11208, "name": "Mexican"}, {"primary": true, "id": 1722, "name": "Restaurants"}], "fax_number": null, "expansion": {"count": null, "uri": null}, "impression_id": "000b0000008bbe9aa667de4b19b3e41081c0b2b679", "profile": "http://www.citysearch.com/profile/655802400/marietta_ga/el_vaquero_mexican_cantina.html", "address": {"city": "Marietta", "state": "GA", "street": "1000 Whitlock Ave Nw # 410", "postal_code": "30064"}, "capProviderId": null, "distance": null, "has_offers": false, "name": "El Vaquero Mexican Cantina", "longitude": -84.581202, "has_menu": false, "awards": null, "user_review_count": 0}, {"business_operation_status": 1, "rating": null, "neighborhood": null, "image": null, "scorecard": null, "featured": false, "sample_categories": "Restaurants", "public_id": "yuraku-sushi-steak-smyrna", "id": 672566190, "votes": null, "tagline": null, "has_video": false, "website": null, "offers": null, "latitude": 33.842892, "politanName": "Atlanta, GA Metro ", "phone_number": null, "tags": [{"primary": true, "id": 1722, "name": "Restaurants"}], "fax_number": null, "expansion": {"count": null, "uri": null}, "impression_id": "000b00000016002bcdd3374830b598907a345859c5", "profile": "http://www.citysearch.com/profile/672566190/smyrna_ga/yuraku_sushi_steak.html", "address": {"city": "Smyrna", "state": "GA", "street": "4500 West Village Place", "postal_code": "30080"}, "capProviderId": null, "distance": null, "has_offers": false, "name": "Yuraku Sushi & Steak", "longitude": -84.490261, "has_menu": false, "awards": null, "user_review_count": 0}, {"business_operation_status": 1, "rating": null, "neighborhood": null, "image": null, "scorecard": null, "featured": false, "sample_categories": "Restaurants", "public_id": "kani-house-roswell", "id": 764923300, "votes": null, "tagline": null, "has_video": false, "website": null, "offers": null, "latitude": 34.00537, "politanName": "Atlanta, GA Metro ", "phone_number": "6784618831", "tags": [{"primary": true, "id": 1722, "name": "Restaurants"}], "fax_number": null, "expansion": {"count": null, "uri": null}, "impression_id": "000b0000009b35d5a27aa24c0da9c58f25f2b258d3", "profile": "http://www.citysearch.com/profile/764923300/roswell_ga/kani_house.html", "address": {"city": "Roswell", "state": "GA", "street": "910 Marietta Hwy # 110", "postal_code": "30075"}, "capProviderId": null, "distance": null, "has_offers": false, "name": "Kani House", "longitude": -84.389755, "has_menu": true, "awards": null, "user_review_count": 0}, {"business_operation_status": 1, "rating": null, "neighborhood": null, "image": null, "scorecard": null, "featured": false, "sample_categories": "Coffeehouses, Coffee & Tea Shops, Restaurants", "public_id": "starbucks-marietta-10", "id": 621939860, "votes": null, "tagline": null, "has_video": false, "website": "http://www.citysearch.com/profile/external/621939860/marietta_ga/starbucks.html", "offers": null, "latitude": 33.971846, "politanName": "Atlanta, GA Metro ", "phone_number": "7707941443", "tags": [{"primary": false, "id": 1711, "name": "Coffee & Tea Shops"}, {"primary": false, "id": 1722, "name": "Restaurants"}, {"primary": true, "id": 1726, "name": "Coffeehouses"}], "fax_number": null, "expansion": {"count": null, "uri": null}, "impression_id": "000b0000005a06460a66d5487da7e6f0d5e03d71ea", "profile": "http://www.citysearch.com/profile/621939860/marietta_ga/starbucks.html", "address": {"city": "Marietta", "state": "GA", "street": "825 Church St Ne", "postal_code": "30060"}, "capProviderId": null, "distance": null, "has_offers": false, "name": "Starbucks", "longitude": -84.551204, "has_menu": true, "awards": null, "user_review_count": 0}, {"business_operation_status": 1, "rating": null, "neighborhood": null, "image": null, "scorecard": null, "featured": false, "sample_categories": "Delis And Delicatessens", "public_id": "kroger-deli-marietta-9", "id": 706041470, "votes": null, "tagline": null, "has_video": false, "website": null, "offers": null, "latitude": 34.025792, "politanName": "Atlanta, GA Metro ", "phone_number": "7706506673", "tags": [{"primary": true, "id": 1727, "name": "Delis And Delicatessens"}], "fax_number": null, "expansion": {"count": null, "uri": null}, "impression_id": "000b000000f02daf324408432c83024c919bf8866a", "profile": "http://www.citysearch.com/profile/706041470/marietta_ga/kroger_deli.html", "address": {"city": "Marietta", "state": "GA", "street": "3162 Johnson Ferry Rd # 300", "postal_code": "30062"}, "capProviderId": null, "distance": null, "has_offers": false, "name": "Kroger Deli", "longitude": -84.42248, "has_menu": false, "awards": null, "user_review_count": 0}, {"business_operation_status": 1, "rating": null, "neighborhood": null, "image": null, "scorecard": null, "featured": false, "sample_categories": "Restaurants, Seafood, American Express, Discover, MasterCard", "public_id": "a-js-famous-seafood-po-boys-marietta-2", "id": 713327660, "votes": null, "tagline": null, "has_video": false, "website": "http://www.citysearch.com/profile/external/713327660/marietta_ga/ajs_famous_seafood.html", "offers": null, "latitude": 33.968758, "politanName": "Atlanta, GA Metro ", "phone_number": "6789990767", "tags": [{"primary": false, "id": 11228, "name": "Seafood"}, {"primary": false, "id": 11333, "name": "American Express"}, {"primary": false, "id": 11349, "name": "Discover"}, {"primary": false, "id": 11361, "name": "MasterCard"}, {"primary": false, "id": 11382, "name": "Visa"}, {"primary": true, "id": 1722, "name": "Restaurants"}], "fax_number": null, "expansion": {"count": null, "uri": null}, "impression_id": "000b000000b6935644e7ae433d9bcac94d141d05db", "profile": "http://www.citysearch.com/profile/713327660/marietta_ga/ajs_famous_seafood.html", "address": {"city": "Marietta", "state": "GA", "street": "2100 Roswell Rd Ne", "postal_code": "30062"}, "capProviderId": null, "distance": null, "has_offers": false, "name": "AJs famous seafood", "longitude": -84.488447, "has_menu": true, "awards": null, "user_review_count": 9}, {"business_operation_status": 1, "rating": null, "neighborhood": null, "image": null, "scorecard": null, "featured": false, "sample_categories": "Restaurants, Pizza", "public_id": "stevi-bs-pizza-marietta-4", "id": 713518730, "votes": null, "tagline": null, "has_video": false, "website": null, "offers": null, "latitude": 34.015975, "politanName": "Atlanta, GA Metro ", "phone_number": "7704990155", "tags": [{"primary": false, "id": 11299, "name": "Pizza"}, {"primary": true, "id": 1722, "name": "Restaurants"}], "fax_number": null, "expansion": {"count": null, "uri": null}, "impression_id": "000b000000108c22009b2942338dc277971d0c891e", "profile": "http://www.citysearch.com/profile/713518730/marietta_ga/stevi_b_s_pizza.html", "address": {"city": "Marietta", "state": "GA", "street": "50 Ernest Barrett Pkwy NW", "postal_code": "30060"}, "capProviderId": null, "distance": null, "has_offers": false, "name": "Stevi B's Pizza", "longitude": -84.550996, "has_menu": false, "awards": null, "user_review_count": 0}, {"business_operation_status": 1, "rating": null, "neighborhood": null, "image": null, "scorecard": null, "featured": false, "sample_categories": "Restaurants", "public_id": "sivier-hut-two-atlanta", "id": 713540870, "votes": null, "tagline": null, "has_video": false, "website": null, "offers": null, "latitude": 33.881746, "politanName": "Atlanta, GA Metro ", "phone_number": "7704326625", "tags": [{"primary": true, "id": 1722, "name": "Restaurants"}], "fax_number": null, "expansion": {"count": null, "uri": null}, "impression_id": "000b000000d1d4587f20a94446a36e31f23c75d551", "profile": "http://www.citysearch.com/profile/713540870/atlanta_ga/sivier_hut_two.html", "address": {"city": "Atlanta", "state": "GA", "street": "1000 Cumberland Mall Se", "postal_code": "30339"}, "capProviderId": null, "distance": null, "has_offers": false, "name": "Sivier Hut Two", "longitude": -84.470079, "has_menu": false, "awards": null, "user_review_count": 0}, {"business_operation_status": 1, "rating": null, "neighborhood": null, "image": null, "scorecard": null, "featured": false, "sample_categories": "Restaurants, Eclectic & International", "public_id": "mingles-international-cafe-marietta", "id": 713577140, "votes": null, "tagline": null, "has_video": false, "website": null, "offers": null, "latitude": 33.968758, "politanName": "Atlanta, GA Metro ", "phone_number": "7709777878", "tags": [{"primary": false, "id": 11259, "name": "Eclectic & International"}, {"primary": true, "id": 1722, "name": "Restaurants"}], "fax_number": null, "expansion": {"count": null, "uri": null}, "impression_id": "000b000000bd8fb2fefdbc4df6a4bfa0cb6d6d77df", "profile": "http://www.citysearch.com/profile/713577140/marietta_ga/mingles_international_cafe.html", "address": {"city": "Marietta", "state": "GA", "street": "2100 Roswell Rd # 2198", "postal_code": "30062"}, "capProviderId": null, "distance": null, "has_offers": false, "name": "Mingles International Cafe", "longitude": -84.488447, "has_menu": false, "awards": null, "user_review_count": 0}, {"business_operation_status": 1, "rating": null, "neighborhood": null, "image": null, "scorecard": null, "featured": false, "sample_categories": "Restaurants", "public_id": "taquito-express-marietta", "id": 619777844, "votes": null, "tagline": null, "has_video": false, "website": null, "offers": null, "latitude": 34.026887, "politanName": "Atlanta, GA Metro ", "phone_number": "6782052661", "tags": [{"primary": true, "id": 1722, "name": "Restaurants"}], "fax_number": null, "expansion": {"count": null, "uri": null}, "impression_id": "000b0000009666868c92e549118f93ea297e55a77d", "profile": "http://www.citysearch.com/profile/619777844/marietta_ga/taquito_express.html", "address": {"city": "Marietta", "state": "GA", "street": "4324 Shallowford Rd", "postal_code": "30062"}, "capProviderId": null, "distance": null, "has_offers": false, "name": "Taquito Express", "longitude": -84.42441, "has_menu": false, "awards": null, "user_review_count": 0}, {"business_operation_status": 0, "rating": null, "neighborhood": null, "image": null, "scorecard": null, "featured": false, "sample_categories": "Restaurants, Barbecue Restaurants", "public_id": "georges-grill-barbecue-marietta", "id": 621879190, "votes": null, "tagline": null, "has_video": false, "website": null, "offers": null, "latitude": 33.997727, "politanName": "Atlanta, GA Metro ", "phone_number": "7704851099", "tags": [{"primary": false, "id": 1724, "name": "Barbecue Restaurants"}, {"primary": true, "id": 1722, "name": "Restaurants"}], "fax_number": null, "expansion": {"count": null, "uri": null}, "impression_id": "000b000000abaf3e5f9f194e25a1009bfc62fb95c0", "profile": "http://www.citysearch.com/profile/621879190/marietta_ga/georges_grill_barbecue.html", "address": {"city": "Marietta", "state": "GA", "street": "1951 Canton Rd # 330", "postal_code": "30066"}, "capProviderId": null, "distance": null, "has_offers": false, "name": "Georges Grill & Barbecue", "longitude": -84.525055, "has_menu": false, "awards": null, "user_review_count": 0}, {"business_operation_status": 1, "rating": null, "neighborhood": null, "image": null, "scorecard": null, "featured": false, "sample_categories": "Restaurants, Mexican, American Express, Discover, MasterCard", "public_id": "el-serape-mexican-restaurant-roswell", "id": 742266390, "votes": null, "tagline": null, "has_video": false, "website": null, "offers": null, "latitude": 34.022435, "politanName": "Atlanta, GA Metro ", "phone_number": "7709986553", "tags": [{"primary": false, "id": 11208, "name": "Mexican"}, {"primary": false, "id": 11333, "name": "American Express"}, {"primary": false, "id": 11349, "name": "Discover"}, {"primary": false, "id": 11361, "name": "MasterCard"}, {"primary": false, "id": 11382, "name": "Visa"}, {"primary": true, "id": 1722, "name": "Restaurants"}], "fax_number": null, "expansion": {"count": null, "uri": null}, "impression_id": "000b0000002bd212308e0b475588942c94b2e88a82", "profile": "http://www.citysearch.com/profile/742266390/roswell_ga/el_serape_mexican_restaurant.html", "address": {"city": "Roswell", "state": "GA", "street": "880 Atlanta St", "postal_code": "30075"}, "capProviderId": null, "distance": null, "has_offers": false, "name": "El Serape Mexican Restaurant", "longitude": -84.361867, "has_menu": true, "awards": null, "user_review_count": 5}, {"business_operation_status": 1, "rating": null, "neighborhood": null, "image": null, "scorecard": null, "featured": false, "sample_categories": "Restaurants", "public_id": "slate-table-tap-roswell", "id": 764863210, "votes": null, "tagline": null, "has_video": false, "website": null, "offers": null, "latitude": 34.029548, "politanName": "Atlanta, GA Metro ", "phone_number": "7706416641", "tags": [{"primary": true, "id": 1722, "name": "Restaurants"}], "fax_number": null, "expansion": {"count": null, "uri": null}, "impression_id": "000b000000ed0f6b7c19244855bca51ae81b749450", "profile": "http://www.citysearch.com/profile/764863210/roswell_ga/slate_table_tap.html", "address": {"city": "Roswell", "state": "GA", "street": "1132 Canton St", "postal_code": "30075"}, "capProviderId": null, "distance": null, "has_offers": false, "name": "Slate Table & Tap", "longitude": -84.361851, "has_menu": false, "awards": null, "user_review_count": 0}, {"business_operation_status": 1, "rating": null, "neighborhood": null, "image": null, "scorecard": null, "featured": false, "sample_categories": "Restaurants, Bars & Pubs", "public_id": "malones-bar-grill-atlanta", "id": 764882200, "votes": null, "tagline": null, "has_video": false, "website": null, "offers": null, "latitude": 33.880351, "politanName": "Atlanta, GA Metro ", "phone_number": "7709526042", "tags": [{"primary": false, "id": 1686, "name": "Bars & Pubs"}, {"primary": true, "id": 1722, "name": "Restaurants"}], "fax_number": null, "expansion": {"count": null, "uri": null}, "impression_id": "000b0000005df48f30c4e240148f5a7a6f69fe7870", "profile": "http://www.citysearch.com/profile/764882200/atlanta_ga/malone_s_bar_grill.html", "address": {"city": "Atlanta", "state": "GA", "street": "2960 Cobb Pkwy NW", "postal_code": "30339"}, "capProviderId": null, "distance": null, "has_offers": false, "name": "Malone's Bar & Grill", "longitude": -84.462963, "has_menu": false, "awards": null, "user_review_count": 0}, {"business_operation_status": 1, "rating": null, "neighborhood": null, "image": null, "scorecard": null, "featured": false, "sample_categories": "Restaurants, Delis And Delicatessens, Sandwich Shops, Carry Out", "public_id": "subway-sandwiches-salads-marietta", "id": 764919100, "votes": null, "tagline": null, "has_video": false, "website": "http://www.citysearch.com/profile/external/764919100/marietta_ga/subway_sandwiches_salads.html", "offers": null, "latitude": 33.949333, "politanName": "Atlanta, GA Metro ", "phone_number": "7704225412", "tags": [{"primary": false, "id": 1727, "name": "Delis And Delicatessens"}, {"primary": false, "id": 1736, "name": "Sandwich Shops"}, {"primary": false, "id": 11247, "name": "Carry Out"}, {"primary": true, "id": 1722, "name": "Restaurants"}], "fax_number": null, "expansion": {"count": null, "uri": null}, "impression_id": "000b0000000568de9e11bb4d52933e259df0cc7854", "profile": "http://www.citysearch.com/profile/764919100/marietta_ga/subway_sandwiches_salads.html", "address": {"city": "Marietta", "state": "GA", "street": "85 S Marietta Pkwy SW", "postal_code": "30064"}, "capProviderId": null, "distance": null, "has_offers": false, "name": "Subway Sandwiches & Salads", "longitude": -84.550502, "has_menu": false, "awards": null, "user_review_count": 0}, {"business_operation_status": 1, "rating": null, "neighborhood": null, "image": null, "scorecard": null, "featured": false, "sample_categories": "Restaurants", "public_id": "whaleback-als-marietta", "id": 764934130, "votes": null, "tagline": null, "has_video": false, "website": null, "offers": null, "latitude": 33.976658, "politanName": "Atlanta, GA Metro ", "phone_number": "7705093725", "tags": [{"primary": true, "id": 1722, "name": "Restaurants"}], "fax_number": null, "expansion": {"count": null, "uri": null}, "impression_id": "000b0000001deb6c1b94fc4f34a5a113906a4695a7", "profile": "http://www.citysearch.com/profile/764934130/marietta_ga/whaleback_als.html", "address": {"city": "Marietta", "state": "GA", "street": "1121 Johnson Ferry Rd", "postal_code": "30068"}, "capProviderId": null, "distance": null, "has_offers": false, "name": "Whaleback Als", "longitude": -84.416675, "has_menu": false, "awards": null, "user_review_count": 0}, {"business_operation_status": 0, "rating": null, "neighborhood": null, "image": null, "scorecard": null, "featured": false, "sample_categories": "Restaurants", "public_id": "tasqueria-don-tono-smyrna", "id": 713480920, "votes": null, "tagline": null, "has_video": false, "website": null, "offers": null, "latitude": 33.883443, "politanName": "Atlanta, GA Metro ", "phone_number": "7704058600", "tags": [{"primary": true, "id": 1722, "name": "Restaurants"}], "fax_number": null, "expansion": {"count": null, "uri": null}, "impression_id": "000b000000bd906b4d51f34c84ae94d54c00b1adc0", "profile": "http://www.citysearch.com/profile/713480920/smyrna_ga/tasqueria_don_tono.html", "address": {"city": "Smyrna", "state": "GA", "street": "2517 Spring Rd Se", "postal_code": "30080"}, "capProviderId": null, "distance": null, "has_offers": false, "name": "Tasqueria Don Tono", "longitude": -84.480608, "has_menu": false, "awards": null, "user_review_count": 0}, {"business_operation_status": 1, "rating": null, "neighborhood": null, "image": null, "scorecard": null, "featured": false, "sample_categories": "Ice Cream Parlors", "public_id": "yogolyciouls-marietta", "id": 713608720, "votes": null, "tagline": null, "has_video": false, "website": null, "offers": null, "latitude": 33.968758, "politanName": "Atlanta, GA Metro ", "phone_number": "7705092345", "tags": [{"primary": true, "id": 1730, "name": "Ice Cream Parlors"}], "fax_number": null, "expansion": {"count": null, "uri": null}, "impression_id": "000b000000247a64066d944cc5aac1d324f5cfd953", "profile": "http://www.citysearch.com/profile/713608720/marietta_ga/yogolyciouls.html", "address": {"city": "Marietta", "state": "GA", "street": "2100 Roswell Rd", "postal_code": "30062"}, "capProviderId": null, "distance": null, "has_offers": false, "name": "Yogolyciouls", "longitude": -84.488447, "has_menu": false, "awards": null, "user_review_count": 0}, {"business_operation_status": 1, "rating": null, "neighborhood": null, "image": null, "scorecard": null, "featured": false, "sample_categories": "Restaurants, Mexican", "public_id": "mi-rancho-mexican-restaurant-marietta", "id": 655842120, "votes": null, "tagline": null, "has_video": false, "website": null, "offers": null, "latitude": 33.933889, "politanName": "Atlanta, GA Metro ", "phone_number": "7707940330", "tags": [{"primary": false, "id": 11208, "name": "Mexican"}, {"primary": true, "id": 1722, "name": "Restaurants"}], "fax_number": null, "expansion": {"count": null, "uri": null}, "impression_id": "000b000000023c1c028461480fb17441013f028654", "profile": "http://www.citysearch.com/profile/655842120/marietta_ga/mi_rancho_mexican_restaurant.html", "address": {"city": "Marietta", "state": "GA", "street": "760 Sandtown Rd Sw", "postal_code": "30008"}, "capProviderId": null, "distance": null, "has_offers": false, "name": "Mi Rancho Mexican Restaurant", "longitude": -84.555648, "has_menu": false, "awards": null, "user_review_count": 0}, {"business_operation_status": 1, "rating": null, "neighborhood": null, "image": null, "scorecard": null, "featured": false, "sample_categories": "Restaurants, Food Delivery, Online Reservations", "public_id": "saebass-kitchen-atlanta", "id": 771680680, "votes": null, "tagline": null, "has_video": false, "website": "http://www.citysearch.com/profile/external/771680680/atlanta_ga/seabass_kitchen.html", "offers": null, "latitude": 33.92312, "politanName": "Atlanta, GA Metro ", "phone_number": "4047058880", "tags": [{"primary": false, "id": 11267, "name": "Food Delivery"}, {"primary": false, "id": 11295, "name": "Online Reservations"}, {"primary": true, "id": 1722, "name": "Restaurants"}], "fax_number": null, "expansion": {"count": null, "uri": null}, "impression_id": "000b00000009beb3e74bf3419fb2a0f15d014e64a8", "profile": "http://www.citysearch.com/profile/771680680/atlanta_ga/seabass_kitchen.html", "address": {"city": "Atlanta", "state": "GA", "street": "6152 Roswell Rd", "postal_code": "30328"}, "capProviderId": null, "distance": null, "has_offers": false, "name": "SeaBass Kitchen", "longitude": -84.379493, "has_menu": false, "awards": null, "user_review_count": 0}, {"business_operation_status": 1, "rating": null, "neighborhood": null, "image": null, "scorecard": null, "featured": false, "sample_categories": "Restaurants", "public_id": "las-drisas-marietta", "id": 728109250, "votes": null, "tagline": null, "has_video": false, "website": null, "offers": null, "latitude": 33.935213, "politanName": "Atlanta, GA Metro ", "phone_number": "6783542220", "tags": [{"primary": true, "id": 1722, "name": "Restaurants"}], "fax_number": null, "expansion": {"count": null, "uri": null}, "impression_id": "000b00000015382d5aa81e408298021e0decad3a7f", "profile": "http://www.citysearch.com/profile/728109250/marietta_ga/las_drisas.html", "address": {"city": "Marietta", "state": "GA", "street": "715 Sandtown Rd Sw", "postal_code": "30008"}, "capProviderId": null, "distance": null, "has_offers": false, "name": "Las Drisas", "longitude": -84.555821, "has_menu": false, "awards": null, "user_review_count": 0}, {"business_operation_status": 1, "rating": null, "neighborhood": null, "image": null, "scorecard": null, "featured": false, "sample_categories": "Ice Cream Parlors, Restaurants, Dessert Shops, Information & Referral Services", "public_id": "noels-ice-cream-smyrna", "id": 2924493, "votes": null, "tagline": null, "has_video": false, "website": null, "offers": null, "latitude": 33.867003, "politanName": "Atlanta, GA Metro ", "phone_number": "7703330515", "tags": [{"primary": false, "id": 1722, "name": "Restaurants"}, {"primary": false, "id": 1728, "name": "Dessert Shops"}, {"primary": false, "id": 624, "name": "Information & Referral Services"}, {"primary": true, "id": 1730, "name": "Ice Cream Parlors"}], "fax_number": null, "expansion": {"count": null, "uri": null}, "impression_id": "000b000000898a979532134d7680416e53d98169c0", "profile": "http://www.citysearch.com/profile/2924493/smyrna_ga/noels_ice_cream.html", "address": {"city": "Smyrna", "state": "GA", "street": "3539 Westbrook Dr SE", "postal_code": "30082"}, "capProviderId": null, "distance": null, "has_offers": false, "name": "Noels Ice Cream", "longitude": -84.526611, "has_menu": false, "awards": null, "user_review_count": 1}, {"business_operation_status": 1, "rating": null, "neighborhood": null, "image": null, "scorecard": null, "featured": false, "sample_categories": "Restaurants", "public_id": "daily-bread-cafe-marietta", "id": 787129630, "votes": null, "tagline": null, "has_video": false, "website": null, "offers": null, "latitude": 33.964179, "politanName": "Atlanta, GA Metro ", "phone_number": "7704237288", "tags": [{"primary": true, "id": 1722, "name": "Restaurants"}], "fax_number": null, "expansion": {"count": null, "uri": null}, "impression_id": "000b0000000a7da98768224794862b0d5647bc09df", "profile": "http://www.citysearch.com/profile/787129630/marietta_ga/daily_bread_cafe.html", "address": {"city": "Marietta", "state": "GA", "street": "531 Roselane St NW", "postal_code": "30060"}, "capProviderId": null, "distance": null, "has_offers": false, "name": "Daily Bread Cafe", "longitude": -84.556876, "has_menu": false, "awards": null, "user_review_count": 0}, {"business_operation_status": 1, "rating": null, "neighborhood": null, "image": null, "scorecard": null, "featured": false, "sample_categories": "Restaurants", "public_id": "saigon-pearl-marietta", "id": 672478560, "votes": null, "tagline": null, "has_video": false, "website": null, "offers": null, "latitude": 34.018696, "politanName": "Atlanta, GA Metro ", "phone_number": "7705147555", "tags": [{"primary": true, "id": 1722, "name": "Restaurants"}], "fax_number": null, "expansion": {"count": null, "uri": null}, "impression_id": "000b00000043a8fd8b35a145c9b4b5d16f40b1f7af", "profile": "http://www.citysearch.com/profile/672478560/marietta_ga/saigon_pearl.html", "address": {"city": "Marietta", "state": "GA", "street": "2755 Canton Rd NE", "postal_code": "30066"}, "capProviderId": null, "distance": null, "has_offers": false, "name": "Saigon Pearl", "longitude": -84.528341, "has_menu": false, "awards": null, "user_review_count": 0}, {"business_operation_status": 1, "rating": null, "neighborhood": null, "image": null, "scorecard": null, "featured": false, "sample_categories": "Restaurants, Carry Out, Pizza", "public_id": "sbarro-smyrna-2", "id": 682322420, "votes": null, "tagline": null, "has_video": false, "website": "http://www.citysearch.com/profile/external/682322420/smyrna_ga/sbarro.html", "offers": null, "latitude": 33.87774, "politanName": "Atlanta, GA Metro ", "phone_number": "7704443994", "tags": [{"primary": false, "id": 11247, "name": "Carry Out"}, {"primary": false, "id": 11299, "name": "Pizza"}, {"primary": true, "id": 1722, "name": "Restaurants"}], "fax_number": null, "expansion": {"count": null, "uri": null}, "impression_id": "000b00000043cdb0842ce64fc78d4e9d44b4accee8", "profile": "http://www.citysearch.com/profile/682322420/smyrna_ga/sbarro.html", "address": {"city": "Smyrna", "state": "GA", "street": "3030 Montclair Cir Se", "postal_code": "30080"}, "capProviderId": null, "distance": null, "has_offers": false, "name": "Sbarro", "longitude": -84.508306, "has_menu": false, "awards": null, "user_review_count": 0}, {"business_operation_status": 1, "rating": null, "neighborhood": null, "image": null, "scorecard": null, "featured": false, "sample_categories": "Restaurants, Sandwich Shops, Pizza", "public_id": "peace-love-and-pizza-marietta-2", "id": 606523644, "votes": null, "tagline": null, "has_video": false, "website": "http://www.citysearch.com/profile/external/606523644/marietta_ga/peace_love_and_pizza.html", "offers": null, "latitude": 33.976429, "politanName": "Atlanta, GA Metro ", "phone_number": "7703210757", "tags": [{"primary": false, "id": 1722, "name": "Restaurants"}, {"primary": false, "id": 1736, "name": "Sandwich Shops"}, {"primary": true, "id": 11299, "name": "Pizza"}], "fax_number": null, "expansion": {"count": null, "uri": null}, "impression_id": "000b00000065eb4a2890ab4e29bbd86bc4f3885757", "profile": "http://www.citysearch.com/profile/606523644/marietta_ga/peace_love_and_pizza.html", "address": {"city": "Marietta", "state": "GA", "street": "1050 E Piedmont Rd 152", "postal_code": "30062"}, "capProviderId": null, "distance": null, "has_offers": false, "name": "Peace Love and Pizza", "longitude": -84.478226, "has_menu": false, "awards": null, "user_review_count": 0}, {"business_operation_status": 1, "rating": null, "neighborhood": null, "image": null, "scorecard": null, "featured": false, "sample_categories": "Restaurants, Carry Out, Pizza", "public_id": "sandy-springs-pizza-llc-atlanta", "id": 607035474, "votes": null, "tagline": null, "has_video": false, "website": "http://www.citysearch.com/profile/external/607035474/atlanta_ga/sandy_springs_pizza_llc.html", "offers": null, "latitude": 33.935143, "politanName": "Atlanta, GA Metro ", "phone_number": "4042570222", "tags": [{"primary": false, "id": 11247, "name": "Carry Out"}, {"primary": false, "id": 11299, "name": "Pizza"}, {"primary": true, "id": 1722, "name": "Restaurants"}], "fax_number": null, "expansion": {"count": null, "uri": null}, "impression_id": "000b000000ff41899d6eb342cfa5388f2b9cbbd126", "profile": "http://www.citysearch.com/profile/607035474/atlanta_ga/sandy_springs_pizza_llc.html", "address": {"city": "Atlanta", "state": "GA", "street": "6615 Roswell Rd", "postal_code": "30328"}, "capProviderId": null, "distance": null, "has_offers": false, "name": "Sandy Springs Pizza LLC", "longitude": -84.377801, "has_menu": false, "awards": null, "user_review_count": 0}, {"business_operation_status": 1, "rating": null, "neighborhood": null, "image": null, "scorecard": null, "featured": false, "sample_categories": "Restaurants, Carry Out", "public_id": "corner-bakery-cafe-atlanta-6", "id": 607149504, "votes": null, "tagline": null, "has_video": false, "website": "http://www.citysearch.com/profile/external/607149504/atlanta_ga/corner_bakery_cafe.html", "offers": null, "latitude": 33.884294, "politanName": "Atlanta, GA Metro ", "phone_number": "6784330070", "tags": [{"primary": false, "id": 11247, "name": "Carry Out"}, {"primary": true, "id": 1722, "name": "Restaurants"}], "fax_number": null, "expansion": {"count": null, "uri": null}, "impression_id": "000b000000ee955f71032549beab83086f0cc13dd3", "profile": "http://www.citysearch.com/profile/607149504/atlanta_ga/corner_bakery_cafe.html", "address": {"city": "Atlanta", "state": "GA", "street": "2973 Cobb Pkwy SE", "postal_code": "30339"}, "capProviderId": null, "distance": null, "has_offers": false, "name": "Corner Bakery Cafe", "longitude": -84.469653, "has_menu": false, "awards": null, "user_review_count": 0}, {"business_operation_status": 1, "rating": null, "neighborhood": null, "image": null, "scorecard": null, "featured": false, "sample_categories": "Restaurants", "public_id": "caspian-grill-marietta", "id": 609045974, "votes": null, "tagline": null, "has_video": false, "website": null, "offers": null, "latitude": 34.023191, "politanName": "Atlanta, GA Metro ", "phone_number": "7702565953", "tags": [{"primary": true, "id": 1722, "name": "Restaurants"}], "fax_number": null, "expansion": {"count": null, "uri": null}, "impression_id": "000b000000d16ef4da493649afad199945c1320929", "profile": "http://www.citysearch.com/profile/609045974/marietta_ga/caspian_grill.html", "address": {"city": "Marietta", "state": "GA", "street": "3120 Johnson Ferry Rd", "postal_code": "30062"}, "capProviderId": null, "distance": null, "has_offers": false, "name": "Caspian Grill", "longitude": -84.425297, "has_menu": false, "awards": null, "user_review_count": 0}, {"business_operation_status": 1, "rating": null, "neighborhood": null, "image": null, "scorecard": null, "featured": false, "sample_categories": "Coffeehouses", "public_id": "starbucks-marietta-16", "id": 813931400, "votes": null, "tagline": null, "has_video": false, "website": "http://www.citysearch.com/profile/external/813931400/marietta_ga/starbucks.html", "offers": null, "latitude": 34.025792, "politanName": "Atlanta, GA Metro ", "phone_number": "7706506673", "tags": [{"primary": true, "id": 1726, "name": "Coffeehouses"}], "fax_number": null, "expansion": {"count": null, "uri": null}, "impression_id": "000b000000fe1cfd6ad8894adf9ffaa44581c0ed26", "profile": "http://www.citysearch.com/profile/813931400/marietta_ga/starbucks.html", "address": {"city": "Marietta", "state": "GA", "street": "3162 Johnson Ferry Rd # 300", "postal_code": "30062"}, "capProviderId": null, "distance": null, "has_offers": false, "name": "Starbucks", "longitude": -84.42248, "has_menu": false, "awards": null, "user_review_count": 0}, {"business_operation_status": 1, "rating": null, "neighborhood": null, "image": null, "scorecard": null, "featured": false, "sample_categories": "Restaurants", "public_id": "micks-cumberland-mall-atlanta", "id": 817195060, "votes": null, "tagline": null, "has_video": false, "website": null, "offers": null, "latitude": 33.879283, "politanName": "Atlanta, GA Metro ", "phone_number": "7704317190", "tags": [{"primary": true, "id": 1722, "name": "Restaurants"}], "fax_number": null, "expansion": {"count": null, "uri": null}, "impression_id": "000b000000011f3824ce17480886e4c977fb10d776", "profile": "http://www.citysearch.com/profile/817195060/atlanta_ga/micks_cumberland_mall.html", "address": {"city": "Atlanta", "state": "GA", "street": "1320 Cumberland Mall SE", "postal_code": "30339"}, "capProviderId": null, "distance": null, "has_offers": false, "name": "Micks Cumberland Mall", "longitude": -84.471266, "has_menu": false, "awards": null, "user_review_count": 0}, {"business_operation_status": 1, "rating": null, "neighborhood": null, "image": null, "scorecard": null, "featured": false, "sample_categories": "Restaurants", "public_id": "brown-bagger-atlanta", "id": 817148170, "votes": null, "tagline": null, "has_video": false, "website": null, "offers": null, "latitude": 33.918703, "politanName": "Atlanta, GA Metro ", "phone_number": "7705229900", "tags": [{"primary": true, "id": 1722, "name": "Restaurants"}], "fax_number": null, "expansion": {"count": null, "uri": null}, "impression_id": "000b000000fede775c06934bbcb1f82cd404dc3ac6", "profile": "http://www.citysearch.com/profile/817148170/atlanta_ga/brown_bagger.html", "address": {"city": "Atlanta", "state": "GA", "street": "1155 Hammond Dr", "postal_code": "30328"}, "capProviderId": null, "distance": null, "has_offers": false, "name": "Brown Bagger", "longitude": -84.350593, "has_menu": false, "awards": null, "user_review_count": 0}, {"business_operation_status": 1, "rating": null, "neighborhood": null, "image": null, "scorecard": null, "featured": false, "sample_categories": "Restaurants, Pizza, Carry Out", "public_id": "pizza-hut-atlanta-34", "id": 824168770, "votes": null, "tagline": null, "has_video": false, "website": "http://www.citysearch.com/profile/external/824168770/atlanta_ga/pizza_hut.html", "offers": null, "latitude": 33.884828, "politanName": "Atlanta, GA Metro ", "phone_number": "7709528054", "tags": [{"primary": false, "id": 1722, "name": "Restaurants"}, {"primary": false, "id": 11247, "name": "Carry Out"}, {"primary": true, "id": 11299, "name": "Pizza"}], "fax_number": null, "expansion": {"count": null, "uri": null}, "impression_id": "000b0000007dd52b9709f14666926064ffdac3688d", "profile": "http://www.citysearch.com/profile/824168770/atlanta_ga/pizza_hut.html", "address": {"city": "Atlanta", "state": "GA", "street": "2771 Spring Rd Se", "postal_code": "30339"}, "capProviderId": null, "distance": null, "has_offers": false, "name": "Pizza Hut", "longitude": -84.472366, "has_menu": true, "awards": null, "user_review_count": 0}, {"business_operation_status": 1, "rating": null, "neighborhood": null, "image": null, "scorecard": null, "featured": false, "sample_categories": "Restaurants", "public_id": "cena-roswell", "id": 621988950, "votes": null, "tagline": null, "has_video": false, "website": null, "offers": null, "latitude": 34.005286, "politanName": "Atlanta, GA Metro ", "phone_number": "7704355855", "tags": [{"primary": true, "id": 1722, "name": "Restaurants"}], "fax_number": null, "expansion": {"count": null, "uri": null}, "impression_id": "000b0000007009c5b02e4b4abfbc2fbed36b5d5598", "profile": "http://www.citysearch.com/profile/621988950/roswell_ga/cena.html", "address": {"city": "Roswell", "state": "GA", "street": "920 Marietta Hwy # 300", "postal_code": "30075"}, "capProviderId": null, "distance": null, "has_offers": false, "name": "Cena", "longitude": -84.389879, "has_menu": false, "awards": null, "user_review_count": 0}, {"business_operation_status": 1, "rating": null, "neighborhood": null, "image": null, "scorecard": null, "featured": false, "sample_categories": "Restaurants", "public_id": "spice-it-up-cafe-marietta", "id": 839365090, "votes": null, "tagline": null, "has_video": false, "website": null, "offers": null, "latitude": 33.944775, "politanName": "Atlanta, GA Metro ", "phone_number": "6789034384", "tags": [{"primary": true, "id": 1722, "name": "Restaurants"}], "fax_number": null, "expansion": {"count": null, "uri": null}, "impression_id": "000b000000453ecbeba2d14f8d9b4adb67c6fa3aa4", "profile": "http://www.citysearch.com/profile/839365090/marietta_ga/spice_it_up_cafe.html", "address": {"city": "Marietta", "state": "GA", "street": "316 S Fairground St SE", "postal_code": "30060"}, "capProviderId": null, "distance": null, "has_offers": false, "name": "Spice It Up Cafe", "longitude": -84.535719, "has_menu": true, "awards": null, "user_review_count": 0}, {"business_operation_status": 1, "rating": null, "neighborhood": null, "image": null, "scorecard": null, "featured": false, "sample_categories": "Restaurants", "public_id": "north-of-new-orleans-roswell", "id": 655942250, "votes": null, "tagline": null, "has_video": false, "website": null, "offers": null, "latitude": 34.016917, "politanName": "Atlanta, GA Metro ", "phone_number": "7709931000", "tags": [{"primary": true, "id": 1722, "name": "Restaurants"}], "fax_number": null, "expansion": {"count": null, "uri": null}, "impression_id": "000b000000ffa99ce0e8a24866aedcf58fb7b6adf2", "profile": "http://www.citysearch.com/profile/655942250/roswell_ga/north_of_new_orleans.html", "address": {"city": "Roswell", "state": "GA", "street": "659 Atlanta St", "postal_code": "30075"}, "capProviderId": null, "distance": null, "has_offers": false, "name": "North Of New Orleans", "longitude": -84.362319, "has_menu": false, "awards": null, "user_review_count": 0}], "histograms": [], "tag_ids": [1722], "uri": "http://api.citygridmedia.com:8080/search/places/v2/search/where?has_offers=false&type=restaurant&format=json&page=23&where=30067&rpp=50&histograms=false&publisher=10000009598&region_type=circle", "did_you_mean": "", "regions": [{"latitude": 33.930575, "default_radius": 3.78, "type": "postal_code", "name": "30067", "longitude": -84.463162}], "call_id": "000b00000028e62a85085048d9956e1a165dd1b054", "first_hit": 1101, "total_hits": 1972, "geo_ids": [26295], "page": 23, "last_hit": 1150}}