{"results": {"rpp": 50, "locations": [{"business_operation_status": 1, "rating": null, "neighborhood": null, "image": null, "scorecard": null, "featured": false, "sample_categories": "Restaurants, Chinese", "public_id": "number-one-chinese-restaurant-smyrna", "id": 773448470, "votes": null, "tagline": null, "has_video": false, "website": null, "offers": null, "latitude": 33.873639, "politanName": "Atlanta, GA Metro ", "phone_number": "7703331293", "tags": [{"primary": false, "id": 11252, "name": "Chinese"}, {"primary": true, "id": 1722, "name": "Restaurants"}], "fax_number": null, "expansion": {"count": null, "uri": null}, "impression_id": "000b000000abf671c99b53490ead9dc1d878fb6b2d", "profile": "http://www.citysearch.com/profile/773448470/smyrna_ga/number_one_chinese_restaurant.html", "address": {"city": "Smyrna", "state": "GA", "street": "3240 S Cobb Dr SE", "postal_code": "30080"}, "capProviderId": null, "distance": null, "has_offers": false, "name": "Number One Chinese Restaurant", "longitude": -84.530478, "has_menu": false, "awards": null, "user_review_count": 0}, {"business_operation_status": 1, "rating": null, "neighborhood": null, "image": null, "scorecard": null, "featured": false, "sample_categories": "Restaurants, Carry Out, Hamburgers", "public_id": "back-yard-burgers-marietta-2", "id": 777794660, "votes": null, "tagline": null, "has_video": false, "website": "http://www.citysearch.com/profile/external/777794660/marietta_ga/back_yard_burgers.html", "offers": null, "latitude": 33.980844, "politanName": "Atlanta, GA Metro ", "phone_number": "7705090444", "tags": [{"primary": false, "id": 11247, "name": "Carry Out"}, {"primary": false, "id": 11270, "name": "Hamburgers"}, {"primary": true, "id": 1722, "name": "Restaurants"}], "fax_number": null, "expansion": {"count": null, "uri": null}, "impression_id": "000b000000a214c100e96a48efb151b87a6f3e52c2", "profile": "http://www.citysearch.com/profile/777794660/marietta_ga/back_yard_burgers.html", "address": {"city": "Marietta", "state": "GA", "street": "1323 Johnson Ferry Rd", "postal_code": "30068"}, "capProviderId": null, "distance": null, "has_offers": false, "name": "Back Yard Burgers", "longitude": -84.425465, "has_menu": true, "awards": null, "user_review_count": 0}, {"business_operation_status": 1, "rating": null, "neighborhood": null, "image": null, "scorecard": null, "featured": false, "sample_categories": "Restaurants, Pizza", "public_id": "pizza-rogizio-marietta", "id": 777749830, "votes": null, "tagline": null, "has_video": false, "website": null, "offers": null, "latitude": 33.951936, "politanName": "Atlanta, GA Metro ", "phone_number": "7705782824", "tags": [{"primary": false, "id": 11299, "name": "Pizza"}, {"primary": true, "id": 1722, "name": "Restaurants"}], "fax_number": null, "expansion": {"count": null, "uri": null}, "impression_id": "000b0000000de2c3c6f9af4a5aa5cd310b6c08868d", "profile": "http://www.citysearch.com/profile/777749830/marietta_ga/pizza_rogizio.html", "address": {"city": "Marietta", "state": "GA", "street": "1818 Lower Roswell Rd", "postal_code": "30068"}, "capProviderId": null, "distance": null, "has_offers": false, "name": "Pizza Rogizio", "longitude": -84.499113, "has_menu": false, "awards": null, "user_review_count": 0}, {"business_operation_status": 1, "rating": null, "neighborhood": null, "image": null, "scorecard": null, "featured": false, "sample_categories": "Restaurants, Japanese", "public_id": "bishoku-japanese-restaurant-sandy", "id": 787115080, "votes": null, "tagline": null, "has_video": false, "website": null, "offers": null, "latitude": 33.916242, "politanName": "Atlanta, GA Metro ", "phone_number": "4042527998", "tags": [{"primary": false, "id": 11202, "name": "Japanese"}, {"primary": true, "id": 1722, "name": "Restaurants"}], "fax_number": null, "expansion": {"count": null, "uri": null}, "impression_id": "000b000000d7b4ee2c52e6464ca374bc582a6d859a", "profile": "http://www.citysearch.com/profile/787115080/sandy_springs_ga/bishoku_japanese_restaurant.html", "address": {"city": "Sandy Springs", "state": "GA", "street": "5920 Roswell Rd", "postal_code": "30328"}, "capProviderId": null, "distance": null, "has_offers": false, "name": "Bishoku Japanese Restaurant", "longitude": -84.379244, "has_menu": false, "awards": null, "user_review_count": 0}, {"business_operation_status": 1, "rating": null, "neighborhood": null, "image": null, "scorecard": null, "featured": false, "sample_categories": "Restaurants, Seafood", "public_id": "a-js-famous-seafood-poboys-marietta", "id": 793361500, "votes": null, "tagline": null, "has_video": false, "website": null, "offers": null, "latitude": 33.968758, "politanName": "Atlanta, GA Metro ", "phone_number": "6786273971", "tags": [{"primary": false, "id": 11228, "name": "Seafood"}, {"primary": true, "id": 1722, "name": "Restaurants"}], "fax_number": null, "expansion": {"count": null, "uri": null}, "impression_id": "000b000000971eb18722824ecb89c25ec576dfad8c", "profile": "http://www.citysearch.com/profile/793361500/marietta_ga/a_j_s_famous_seafood_poboys.html", "address": {"city": "Marietta", "state": "GA", "street": "2100 Roswell Rd", "postal_code": "30062"}, "capProviderId": null, "distance": null, "has_offers": false, "name": "A J's Famous Seafood & Poboys", "longitude": -84.488447, "has_menu": false, "awards": null, "user_review_count": 0}, {"business_operation_status": 1, "rating": null, "neighborhood": null, "image": null, "scorecard": null, "featured": false, "sample_categories": "Restaurants, Cafes", "public_id": "socrates-cafe-marietta", "id": 713427300, "votes": null, "tagline": null, "has_video": false, "website": null, "offers": null, "latitude": 33.930756, "politanName": "Atlanta, GA Metro ", "phone_number": "7707926042", "tags": [{"primary": false, "id": 6190, "name": "Cafes"}, {"primary": true, "id": 1722, "name": "Restaurants"}], "fax_number": null, "expansion": {"count": null, "uri": null}, "impression_id": "000b0000005528d087223e441aa66f9659bedc1bcc", "profile": "http://www.citysearch.com/profile/713427300/marietta_ga/socrates_cafe.html", "address": {"city": "Marietta", "state": "GA", "street": "1269 Barclay Cir Se", "postal_code": "30060"}, "capProviderId": null, "distance": null, "has_offers": false, "name": "Socrates Cafe", "longitude": -84.514539, "has_menu": false, "awards": null, "user_review_count": 0}, {"business_operation_status": 1, "rating": null, "neighborhood": null, "image": null, "scorecard": null, "featured": false, "sample_categories": "Restaurants", "public_id": "hoof-ale-marietta", "id": 796118290, "votes": null, "tagline": null, "has_video": false, "website": null, "offers": null, "latitude": 33.968758, "politanName": "Atlanta, GA Metro ", "phone_number": "7709710334", "tags": [{"primary": true, "id": 1722, "name": "Restaurants"}], "fax_number": null, "expansion": {"count": null, "uri": null}, "impression_id": "000b00000024179cfb563a47ccafa32bf533b86d5d", "profile": "http://www.citysearch.com/profile/796118290/marietta_ga/hoof_ale.html", "address": {"city": "Marietta", "state": "GA", "street": "2100 Roswell Rd", "postal_code": "30062"}, "capProviderId": null, "distance": null, "has_offers": false, "name": "Hoof & Ale", "longitude": -84.488447, "has_menu": false, "awards": null, "user_review_count": 0}, {"business_operation_status": 1, "rating": 7.0, "neighborhood": null, "image": null, "scorecard": null, "featured": false, "sample_categories": "Sandwich Shops, Restaurants, Soups", "public_id": "my-friends-place-atlanta-7", "id": 3019462, "votes": null, "tagline": null, "has_video": false, "website": "http://www.citysearch.com/profile/external/3019462/atlanta_ga/my_friend_s_place.html", "offers": null, "latitude": 33.917671, "politanName": "Atlanta, GA Metro ", "phone_number": "4042526280", "tags": [{"primary": false, "id": 1722, "name": "Restaurants"}, {"primary": false, "id": 11311, "name": "Soups"}, {"primary": true, "id": 1736, "name": "Sandwich Shops"}], "fax_number": null, "expansion": {"count": null, "uri": null}, "impression_id": "000b000000626b8af7496f4b1bae3d73ebf5e9f8ed", "profile": "http://www.citysearch.com/profile/3019462/atlanta_ga/my_friend_s_place.html", "address": {"city": "Atlanta", "state": "GA", "street": "5952 Roswell Rd NE", "postal_code": "30328"}, "capProviderId": null, "distance": null, "has_offers": false, "name": "My Friend's Place", "longitude": -84.37912, "has_menu": true, "awards": null, "user_review_count": 3}, {"business_operation_status": 1, "rating": null, "neighborhood": null, "image": null, "scorecard": null, "featured": false, "sample_categories": "Restaurants", "public_id": "little-china-smyrna", "id": 805796770, "votes": null, "tagline": null, "has_video": false, "website": null, "offers": null, "latitude": 33.894335, "politanName": "Atlanta, GA Metro ", "phone_number": "6783057377", "tags": [{"primary": true, "id": 1722, "name": "Restaurants"}], "fax_number": null, "expansion": {"count": null, "uri": null}, "impression_id": "000b0000002f1bfbf20d1e4913b020c0d14cca0459", "profile": "http://www.citysearch.com/profile/805796770/smyrna_ga/little_china.html", "address": {"city": "Smyrna", "state": "GA", "street": "1065 Windy Hill Rd SE", "postal_code": "30080"}, "capProviderId": null, "distance": null, "has_offers": false, "name": "Little China", "longitude": -84.522435, "has_menu": false, "awards": null, "user_review_count": 0}, {"business_operation_status": 1, "rating": null, "neighborhood": null, "image": null, "scorecard": null, "featured": false, "sample_categories": "Restaurants", "public_id": "papinos-mediterranean-rstrnt-atlanta", "id": 808035120, "votes": null, "tagline": null, "has_video": false, "website": null, "offers": null, "latitude": 33.918703, "politanName": "Atlanta, GA Metro ", "phone_number": "7705220394", "tags": [{"primary": true, "id": 1722, "name": "Restaurants"}], "fax_number": null, "expansion": {"count": null, "uri": null}, "impression_id": "000b000000af55f8c9e130477192bcd442ebb911a1", "profile": "http://www.citysearch.com/profile/808035120/atlanta_ga/papino_s_mediterranean_rstrnt.html", "address": {"city": "Atlanta", "state": "GA", "street": "1155 Hammond Dr", "postal_code": "30328"}, "capProviderId": null, "distance": null, "has_offers": false, "name": "Papino's Mediterranean Rstrnt", "longitude": -84.350593, "has_menu": false, "awards": null, "user_review_count": 0}, {"business_operation_status": 1, "rating": null, "neighborhood": null, "image": null, "scorecard": null, "featured": false, "sample_categories": "Coffeehouses", "public_id": "ashley-cooper-coffee-marietta", "id": 816560520, "votes": null, "tagline": null, "has_video": false, "website": null, "offers": null, "latitude": 33.970881, "politanName": "Atlanta, GA Metro ", "phone_number": "7704229615", "tags": [{"primary": true, "id": 1726, "name": "Coffeehouses"}], "fax_number": null, "expansion": {"count": null, "uri": null}, "impression_id": "000b000000d578e10a4c5f4ca291798e68ae24e3f1", "profile": "http://www.citysearch.com/profile/816560520/marietta_ga/ashley_cooper_coffee.html", "address": {"city": "Marietta", "state": "GA", "street": "829 Pickens Industrial Dr # 11", "postal_code": "30062"}, "capProviderId": null, "distance": null, "has_offers": false, "name": "Ashley Cooper Coffee", "longitude": -84.525365, "has_menu": false, "awards": null, "user_review_count": 0}, {"business_operation_status": 1, "rating": null, "neighborhood": null, "image": null, "scorecard": null, "featured": false, "sample_categories": "Coffeehouses", "public_id": "hamilton-coffee-co-inc-smyrna", "id": 821080290, "votes": null, "tagline": null, "has_video": false, "website": null, "offers": null, "latitude": 33.869377, "politanName": "Atlanta, GA Metro ", "phone_number": "7704327385", "tags": [{"primary": true, "id": 1726, "name": "Coffeehouses"}], "fax_number": null, "expansion": {"count": null, "uri": null}, "impression_id": "000b000000805845ec1bb2415cbfe715507e048ef3", "profile": "http://www.citysearch.com/profile/821080290/smyrna_ga/hamilton_coffee_co_inc.html", "address": {"city": "Smyrna", "state": "GA", "street": "1105 Oakdale Dr SE", "postal_code": "30080"}, "capProviderId": null, "distance": null, "has_offers": false, "name": "Hamilton Coffee Co Inc", "longitude": -84.521363, "has_menu": false, "awards": null, "user_review_count": 0}, {"business_operation_status": 1, "rating": null, "neighborhood": null, "image": null, "scorecard": null, "featured": false, "sample_categories": "Restaurants", "public_id": "chicagos-steak-seafood-pas-sandy", "id": 820010590, "votes": null, "tagline": null, "has_video": false, "website": null, "offers": null, "latitude": 33.925302, "politanName": "Atlanta, GA Metro ", "phone_number": "4042578883", "tags": [{"primary": true, "id": 1722, "name": "Restaurants"}], "fax_number": null, "expansion": {"count": null, "uri": null}, "impression_id": "000b000000d07c6d1dbe224696acf96224b2f10644", "profile": "http://www.citysearch.com/profile/820010590/sandy_springs_ga/chicagos_steak_seafood_pas.html", "address": {"city": "Sandy Springs", "state": "GA", "street": "5920 Roswell Rd", "postal_code": "30328"}, "capProviderId": null, "distance": null, "has_offers": false, "name": "Chicagos Steak Seafood & Pas", "longitude": -84.385744, "has_menu": false, "awards": null, "user_review_count": 0}, {"business_operation_status": 1, "rating": null, "neighborhood": null, "image": null, "scorecard": null, "featured": false, "sample_categories": "Restaurants", "public_id": "cafeteria-la-oaxaquena-smyrna", "id": 764902040, "votes": null, "tagline": null, "has_video": false, "website": null, "offers": null, "latitude": 33.8912, "politanName": "Atlanta, GA Metro ", "phone_number": "6785560599", "tags": [{"primary": true, "id": 1722, "name": "Restaurants"}], "fax_number": null, "expansion": {"count": null, "uri": null}, "impression_id": "000b00000021c8cf3add5d499bbfe35e0ad050f63f", "profile": "http://www.citysearch.com/profile/764902040/smyrna_ga/cafeteria_la_oaxaquena.html", "address": {"city": "Smyrna", "state": "GA", "street": "1651 Roswell St SE", "postal_code": "30080"}, "capProviderId": null, "distance": null, "has_offers": false, "name": "Cafeteria La Oaxaquena", "longitude": -84.503871, "has_menu": false, "awards": null, "user_review_count": 0}, {"business_operation_status": 0, "rating": null, "neighborhood": null, "image": null, "scorecard": null, "featured": false, "sample_categories": "Restaurants, Chinese", "public_id": "house-of-wong-marietta", "id": 2912581, "votes": null, "tagline": null, "has_video": false, "website": null, "offers": null, "latitude": 33.965797, "politanName": "Atlanta, GA Metro ", "phone_number": "7709732306", "tags": [{"primary": false, "id": 11252, "name": "Chinese"}, {"primary": true, "id": 1722, "name": "Restaurants"}], "fax_number": null, "expansion": {"count": null, "uri": null}, "impression_id": "000b00000055609b3e0df54479ab08fff97629be39", "profile": "http://www.citysearch.com/profile/2912581/marietta_ga/house_of_wong.html", "address": {"city": "Marietta", "state": "GA", "street": "4940 Lower Roswell Rd", "postal_code": "30068"}, "capProviderId": null, "distance": null, "has_offers": false, "name": "House of Wong", "longitude": -84.407527, "has_menu": true, "awards": null, "user_review_count": 1}, {"business_operation_status": 0, "rating": null, "neighborhood": null, "image": null, "scorecard": null, "featured": false, "sample_categories": "Restaurants, Convenience Stores", "public_id": "pantry-marietta", "id": 777697380, "votes": null, "tagline": null, "has_video": false, "website": null, "offers": null, "latitude": 33.970591, "politanName": "Atlanta, GA Metro ", "phone_number": "7704198988", "tags": [{"primary": false, "id": 1714, "name": "Convenience Stores"}, {"primary": true, "id": 1722, "name": "Restaurants"}], "fax_number": null, "expansion": {"count": null, "uri": null}, "impression_id": "000b000000ee5e474ba5b14c3da919c5ee46bcba0c", "profile": "http://www.citysearch.com/profile/777697380/marietta_ga/pantry.html", "address": {"city": "Marietta", "state": "GA", "street": "790 Church St Ne # 210", "postal_code": "30060"}, "capProviderId": null, "distance": null, "has_offers": false, "name": "Pantry", "longitude": -84.550288, "has_menu": false, "awards": null, "user_review_count": 0}, {"business_operation_status": 1, "rating": null, "neighborhood": null, "image": null, "scorecard": null, "featured": false, "sample_categories": "Restaurants, Barbecue Restaurants, Carry Out", "public_id": "gem-city-wings-marietta", "id": 777757950, "votes": null, "tagline": null, "has_video": false, "website": null, "offers": null, "latitude": 33.95115, "politanName": "Atlanta, GA Metro ", "phone_number": "6784027331", "tags": [{"primary": false, "id": 1724, "name": "Barbecue Restaurants"}, {"primary": false, "id": 11247, "name": "Carry Out"}, {"primary": true, "id": 1722, "name": "Restaurants"}], "fax_number": null, "expansion": {"count": null, "uri": null}, "impression_id": "000b000000794405a195074a309e176ccb6c0e4c46", "profile": "http://www.citysearch.com/profile/777757950/marietta_ga/gem_city_wings.html", "address": {"city": "Marietta", "state": "GA", "street": "20 N Fairground St Ne", "postal_code": "30060"}, "capProviderId": null, "distance": null, "has_offers": false, "name": "Gem City Wings", "longitude": -84.535474, "has_menu": false, "awards": null, "user_review_count": 0}, {"business_operation_status": 1, "rating": null, "neighborhood": null, "image": null, "scorecard": null, "featured": false, "sample_categories": "Delis And Delicatessens, Restaurants", "public_id": "deli-cafe-one-overton-park-atlanta", "id": 40947580, "votes": null, "tagline": null, "has_video": false, "website": "http://www.citysearch.com/profile/external/40947580/atlanta_ga/deli_cafe_one_overton_park.html", "offers": null, "latitude": 33.884248, "politanName": "Atlanta, GA Metro ", "phone_number": "7708501506", "tags": [{"primary": false, "id": 1727, "name": "Delis And Delicatessens"}, {"primary": true, "id": 1722, "name": "Restaurants"}], "fax_number": null, "expansion": {"count": null, "uri": null}, "impression_id": "000b000000463a66a8dcc24c8ab72d991b85ea4882", "profile": "http://www.citysearch.com/profile/40947580/atlanta_ga/deli_cafe_one_overton_park.html", "address": {"city": "Atlanta", "state": "GA", "street": "3625 Cumberland Blvd SE", "postal_code": "30339"}, "capProviderId": null, "distance": null, "has_offers": false, "name": "Deli & Cafe One Overton Park", "longitude": -84.453498, "has_menu": false, "awards": null, "user_review_count": 1}, {"business_operation_status": 1, "rating": null, "neighborhood": null, "image": null, "scorecard": null, "featured": false, "sample_categories": "Restaurants", "public_id": "grill-atlanta", "id": 787103840, "votes": null, "tagline": null, "has_video": false, "website": null, "offers": null, "latitude": 33.882924, "politanName": "Atlanta, GA Metro ", "phone_number": "7709163170", "tags": [{"primary": true, "id": 1722, "name": "Restaurants"}], "fax_number": null, "expansion": {"count": null, "uri": null}, "impression_id": "000b000000aec59491fc1f44b2be00f6fe7b8bb947", "profile": "http://www.citysearch.com/profile/787103840/atlanta_ga/grill.html", "address": {"city": "Atlanta", "state": "GA", "street": "2844 Cobb Pkwy Se", "postal_code": "30339"}, "capProviderId": null, "distance": null, "has_offers": false, "name": "Grill", "longitude": -84.468893, "has_menu": false, "awards": null, "user_review_count": 0}, {"business_operation_status": 1, "rating": null, "neighborhood": null, "image": null, "scorecard": null, "featured": false, "sample_categories": "Restaurants, Carry Out", "public_id": "jamaica-mi-krazy-restaurant-smyrna", "id": 789846400, "votes": null, "tagline": null, "has_video": false, "website": null, "offers": null, "latitude": 33.883443, "politanName": "Atlanta, GA Metro ", "phone_number": "7708743071", "tags": [{"primary": false, "id": 1722, "name": "Restaurants"}, {"primary": true, "id": 11247, "name": "Carry Out"}], "fax_number": null, "expansion": {"count": null, "uri": null}, "impression_id": "000b000000c3c4cbff55ac435abbe9f8730f9463df", "profile": "http://www.citysearch.com/profile/789846400/smyrna_ga/jamaica_mi_krazy_restaurant.html", "address": {"city": "Smyrna", "state": "GA", "street": "2517 Spring Rd SE", "postal_code": "30080"}, "capProviderId": null, "distance": null, "has_offers": false, "name": "JAMAICA MI KRAZY RESTAURANT", "longitude": -84.480608, "has_menu": false, "awards": null, "user_review_count": 0}, {"business_operation_status": 1, "rating": null, "neighborhood": null, "image": null, "scorecard": null, "featured": false, "sample_categories": "Restaurants, Delis And Delicatessens, Sandwich Shops, Carry Out, MasterCard", "public_id": "subway-atlanta-78", "id": 45113612, "votes": null, "tagline": null, "has_video": false, "website": "http://www.citysearch.com/profile/external/45113612/atlanta_ga/subway.html", "offers": null, "latitude": 33.884135, "politanName": "Atlanta, GA Metro ", "phone_number": "7709840455", "tags": [{"primary": false, "id": 1727, "name": "Delis And Delicatessens"}, {"primary": false, "id": 1736, "name": "Sandwich Shops"}, {"primary": false, "id": 11247, "name": "Carry Out"}, {"primary": false, "id": 11361, "name": "MasterCard"}, {"primary": false, "id": 11382, "name": "Visa"}, {"primary": true, "id": 1722, "name": "Restaurants"}], "fax_number": null, "expansion": {"count": null, "uri": null}, "impression_id": "000b000000b430051104394699a46fc6e2f7c28afa", "profile": "http://www.citysearch.com/profile/45113612/atlanta_ga/subway.html", "address": {"city": "Atlanta", "state": "GA", "street": "1 Galleria Pkwy SE 1C", "postal_code": "30339"}, "capProviderId": null, "distance": null, "has_offers": false, "name": "Subway", "longitude": -84.46371, "has_menu": true, "awards": null, "user_review_count": 0}, {"business_operation_status": 1, "rating": null, "neighborhood": null, "image": null, "scorecard": null, "featured": false, "sample_categories": "Restaurants", "public_id": "whichwich-llc-marietta", "id": 801142990, "votes": null, "tagline": null, "has_video": false, "website": "http://www.citysearch.com/profile/external/801142990/marietta_ga/whichwich_superior_sandwiches.html", "offers": null, "latitude": 33.984638, "politanName": "Atlanta, GA Metro ", "phone_number": "7703219424", "tags": [{"primary": true, "id": 1722, "name": "Restaurants"}], "fax_number": null, "expansion": {"count": null, "uri": null}, "impression_id": "000b00000090ba34cac0f744b5a94d8ee2f322989f", "profile": "http://www.citysearch.com/profile/801142990/marietta_ga/whichwich_superior_sandwiches.html", "address": {"city": "Marietta", "state": "GA", "street": "1401 Johnson Ferry Rd Ste 310", "postal_code": "30062"}, "capProviderId": null, "distance": null, "has_offers": false, "name": "WhichWich Superior Sandwiches", "longitude": -84.427737, "has_menu": false, "awards": null, "user_review_count": 0}, {"business_operation_status": 1, "rating": 8.0, "neighborhood": null, "image": null, "scorecard": null, "featured": false, "sample_categories": "Restaurants, Catering, Traditional American, American Express, Discover", "public_id": "fresh-2-order-sandy-spgs", "id": 45569986, "votes": null, "tagline": null, "has_video": false, "website": "http://www.citysearch.com/profile/external/45569986/sandy_springs_ga/fresh_to_order.html", "offers": null, "latitude": 33.922185, "politanName": "Atlanta, GA Metro ", "phone_number": "4045678646", "tags": [{"primary": false, "id": 1705, "name": "Catering"}, {"primary": false, "id": 11190, "name": "Traditional American"}, {"primary": false, "id": 11333, "name": "American Express"}, {"primary": false, "id": 11349, "name": "Discover"}, {"primary": false, "id": 11361, "name": "MasterCard"}, {"primary": false, "id": 11382, "name": "Visa"}, {"primary": true, "id": 1722, "name": "Restaurants"}], "fax_number": null, "expansion": {"count": null, "uri": null}, "impression_id": "000b000000a17b6db15f864d549d8dac9d62ea7df5", "profile": "http://www.citysearch.com/profile/45569986/sandy_springs_ga/fresh_to_order.html", "address": {"city": "Sandy Springs", "state": "GA", "street": "6125 Roswell Rd 318", "postal_code": "30328"}, "capProviderId": null, "distance": null, "has_offers": false, "name": "Fresh To Order", "longitude": -84.378284, "has_menu": true, "awards": null, "user_review_count": 2}, {"business_operation_status": 1, "rating": null, "neighborhood": null, "image": null, "scorecard": null, "featured": false, "sample_categories": "Restaurants", "public_id": "maximillians-marietta", "id": 815534440, "votes": null, "tagline": null, "has_video": false, "website": null, "offers": null, "latitude": 33.905412, "politanName": "Atlanta, GA Metro ", "phone_number": "7709554286", "tags": [{"primary": true, "id": 1722, "name": "Restaurants"}], "fax_number": null, "expansion": {"count": null, "uri": null}, "impression_id": "000b0000006aac688be6a743c6bf3982fec5b34300", "profile": "http://www.citysearch.com/profile/815534440/marietta_ga/maximillian_s.html", "address": {"city": "Marietta", "state": "GA", "street": "1857 Airport Ind Park Dr SE", "postal_code": "30060"}, "capProviderId": null, "distance": null, "has_offers": false, "name": "Maximillian's", "longitude": -84.495214, "has_menu": false, "awards": null, "user_review_count": 0}, {"business_operation_status": 1, "rating": null, "neighborhood": null, "image": null, "scorecard": null, "featured": false, "sample_categories": "Restaurants", "public_id": "taqueria-la-villa-marietta", "id": 816057700, "votes": null, "tagline": null, "has_video": false, "website": null, "offers": null, "latitude": 33.969085, "politanName": "Atlanta, GA Metro ", "phone_number": "7705908887", "tags": [{"primary": true, "id": 1722, "name": "Restaurants"}], "fax_number": null, "expansion": {"count": null, "uri": null}, "impression_id": "000b000000f99527ebceaf42ccb06fe71438831ee0", "profile": "http://www.citysearch.com/profile/816057700/marietta_ga/taqueria_la_villa.html", "address": {"city": "Marietta", "state": "GA", "street": "745 Cobb Pkwy N", "postal_code": "30062"}, "capProviderId": null, "distance": null, "has_offers": false, "name": "Taqueria La Villa", "longitude": -84.538349, "has_menu": false, "awards": null, "user_review_count": 0}, {"business_operation_status": 1, "rating": null, "neighborhood": null, "image": null, "scorecard": null, "featured": false, "sample_categories": "Restaurants", "public_id": "beyond-the-box-designs-inc-marietta", "id": 713390380, "votes": null, "tagline": null, "has_video": false, "website": "http://www.citysearch.com/profile/external/713390380/marietta_ga/beyond_the_box_designs_inc.html", "offers": null, "latitude": 33.950732, "politanName": "Atlanta, GA Metro ", "phone_number": "7704898198", "tags": [{"primary": true, "id": 1722, "name": "Restaurants"}], "fax_number": null, "expansion": {"count": null, "uri": null}, "impression_id": "000b0000009f4bbec6ee754a018322558e20d57446", "profile": "http://www.citysearch.com/profile/713390380/marietta_ga/beyond_the_box_designs_inc.html", "address": {"city": "Marietta", "state": "GA", "street": "515 Roswell St Ne", "postal_code": "30060"}, "capProviderId": null, "distance": null, "has_offers": false, "name": "Beyond The Box Designs INC", "longitude": -84.537203, "has_menu": false, "awards": null, "user_review_count": 0}, {"business_operation_status": 1, "rating": null, "neighborhood": null, "image": null, "scorecard": null, "featured": false, "sample_categories": "Restaurants", "public_id": "little-da-vinci-intl-sch-inc-atlanta", "id": 732237010, "votes": null, "tagline": null, "has_video": false, "website": null, "offers": null, "latitude": 33.93592, "politanName": "Atlanta, GA Metro ", "phone_number": "4044349078", "tags": [{"primary": true, "id": 1722, "name": "Restaurants"}], "fax_number": null, "expansion": {"count": null, "uri": null}, "impression_id": "000b000000c357fecb1570457cbd6bff7b3f1a50ab", "profile": "http://www.citysearch.com/profile/732237010/atlanta_ga/little_da_vinci_intl_sch_inc.html", "address": {"city": "Atlanta", "state": "GA", "street": "6125 Blackwater Trl NW", "postal_code": "30328"}, "capProviderId": null, "distance": null, "has_offers": false, "name": "Little Da Vinci Intl Sch Inc", "longitude": -84.404826, "has_menu": false, "awards": null, "user_review_count": 0}, {"business_operation_status": 1, "rating": null, "neighborhood": null, "image": null, "scorecard": null, "featured": false, "sample_categories": "Restaurants", "public_id": "saigon-cafe-smyrna", "id": 620245484, "votes": null, "tagline": null, "has_video": false, "website": null, "offers": null, "latitude": 33.886268, "politanName": "Atlanta, GA Metro ", "phone_number": "6783059091", "tags": [{"primary": true, "id": 1722, "name": "Restaurants"}], "fax_number": null, "expansion": {"count": null, "uri": null}, "impression_id": "000b000000bb72372d0cd94401bb4034564d6d8013", "profile": "http://www.citysearch.com/profile/620245484/smyrna_ga/saigon_cafe.html", "address": {"city": "Smyrna", "state": "GA", "street": "2700 Cobb Pkwy SE", "postal_code": "30080"}, "capProviderId": null, "distance": null, "has_offers": false, "name": "Saigon Cafe", "longitude": -84.471205, "has_menu": false, "awards": null, "user_review_count": 0}, {"business_operation_status": 1, "rating": null, "neighborhood": null, "image": null, "scorecard": null, "featured": false, "sample_categories": "Restaurants, Pizza, Carry Out", "public_id": "jets-pizza-marietta-2", "id": 766779210, "votes": null, "tagline": null, "has_video": false, "website": "http://www.citysearch.com/profile/external/766779210/marietta_ga/jet_s_pizza.html", "offers": null, "latitude": 33.980787, "politanName": "Atlanta, GA Metro ", "phone_number": "7705095774", "tags": [{"primary": false, "id": 1722, "name": "Restaurants"}, {"primary": false, "id": 11247, "name": "Carry Out"}, {"primary": true, "id": 11299, "name": "Pizza"}], "fax_number": null, "expansion": {"count": null, "uri": null}, "impression_id": "000b000000789e0d2bf3f34aa993618429dc971ee8", "profile": "http://www.citysearch.com/profile/766779210/marietta_ga/jet_s_pizza.html", "address": {"city": "Marietta", "state": "GA", "street": "3101 Roswell Rd", "postal_code": "30062"}, "capProviderId": null, "distance": null, "has_offers": false, "name": "Jet's Pizza", "longitude": -84.464028, "has_menu": false, "awards": null, "user_review_count": 0}, {"business_operation_status": 1, "rating": null, "neighborhood": null, "image": null, "scorecard": null, "featured": false, "sample_categories": "Restaurants, Coffeehouses", "public_id": "rev-coffee-house-smyrna", "id": 766767230, "votes": null, "tagline": null, "has_video": false, "website": null, "offers": null, "latitude": 33.882118, "politanName": "Atlanta, GA Metro ", "phone_number": "7705734434", "tags": [{"primary": false, "id": 1726, "name": "Coffeehouses"}, {"primary": true, "id": 1722, "name": "Restaurants"}], "fax_number": null, "expansion": {"count": null, "uri": null}, "impression_id": "000b0000009b0d009dd13141c39859ea280ec163fb", "profile": "http://www.citysearch.com/profile/766767230/smyrna_ga/rev_coffee_house.html", "address": {"city": "Smyrna", "state": "GA", "street": "1680 Spring Rd SE", "postal_code": "30080"}, "capProviderId": null, "distance": null, "has_offers": false, "name": "Rev Coffee House", "longitude": -84.504533, "has_menu": false, "awards": null, "user_review_count": 0}, {"business_operation_status": 1, "rating": null, "neighborhood": null, "image": null, "scorecard": null, "featured": false, "sample_categories": "Restaurants", "public_id": "buffalos-cafe-marietta", "id": 2870538, "votes": null, "tagline": null, "has_video": false, "website": null, "offers": null, "latitude": 33.950209, "politanName": "Atlanta, GA Metro ", "phone_number": "7705212844", "tags": [{"primary": true, "id": 1722, "name": "Restaurants"}], "fax_number": null, "expansion": {"count": null, "uri": null}, "impression_id": "000b0000003dab6e2162c6495988800d8ee5916795", "profile": "http://www.citysearch.com/profile/2870538/marietta_ga/buffalo_s_cafe.html", "address": {"city": "Marietta", "state": "GA", "street": "707 Whitlock Ave SW Ste H13", "postal_code": "30064"}, "capProviderId": null, "distance": null, "has_offers": false, "name": "Buffalo's Cafe", "longitude": -84.573437, "has_menu": true, "awards": null, "user_review_count": 0}, {"business_operation_status": 1, "rating": null, "neighborhood": null, "image": null, "scorecard": null, "featured": false, "sample_categories": "Seafood Markets, Restaurants", "public_id": "cajun-gulf-seafood-marietta", "id": 775189770, "votes": null, "tagline": null, "has_video": false, "website": null, "offers": null, "latitude": 33.970105, "politanName": "Atlanta, GA Metro ", "phone_number": "7705753222", "tags": [{"primary": false, "id": 1722, "name": "Restaurants"}, {"primary": true, "id": 1719, "name": "Seafood Markets"}], "fax_number": null, "expansion": {"count": null, "uri": null}, "impression_id": "000b0000000cd76e919928412cbdc3080e72201ba6", "profile": "http://www.citysearch.com/profile/775189770/marietta_ga/cajun_gulf_seafood.html", "address": {"city": "Marietta", "state": "GA", "street": "745 Cobb Pkwy N", "postal_code": "30062"}, "capProviderId": null, "distance": null, "has_offers": false, "name": "Cajun Gulf Seafood", "longitude": -84.5389, "has_menu": false, "awards": null, "user_review_count": 0}, {"business_operation_status": 1, "rating": null, "neighborhood": null, "image": null, "scorecard": null, "featured": false, "sample_categories": "Grocery Stores, Restaurants, Coffeehouses", "public_id": "kroger-atlanta-38", "id": 781188880, "votes": null, "tagline": null, "has_video": false, "website": "http://www.citysearch.com/profile/external/781188880/atlanta_ga/kroger.html", "offers": null, "latitude": 33.919748, "politanName": "Atlanta, GA Metro ", "phone_number": "4042563434", "tags": [{"primary": false, "id": 1722, "name": "Restaurants"}, {"primary": false, "id": 1726, "name": "Coffeehouses"}, {"primary": true, "id": 1713, "name": "Grocery Stores"}], "fax_number": null, "expansion": {"count": null, "uri": null}, "impression_id": "000b0000003cdd1f230810438cac8fb514e97f3715", "profile": "http://www.citysearch.com/profile/781188880/atlanta_ga/kroger.html", "address": {"city": "Atlanta", "state": "GA", "street": "227 Sandy Springs Pl # K", "postal_code": "30328"}, "capProviderId": null, "distance": null, "has_offers": false, "name": "Kroger", "longitude": -84.381429, "has_menu": false, "awards": null, "user_review_count": 0}, {"business_operation_status": 1, "rating": null, "neighborhood": null, "image": null, "scorecard": null, "featured": false, "sample_categories": "Coffeehouses", "public_id": "assoc-coffee-mill-enthusics-marietta", "id": 787109920, "votes": null, "tagline": null, "has_video": false, "website": null, "offers": null, "latitude": 33.969136, "politanName": "Atlanta, GA Metro ", "phone_number": "7704276434", "tags": [{"primary": true, "id": 1726, "name": "Coffeehouses"}], "fax_number": null, "expansion": {"count": null, "uri": null}, "impression_id": "000b000000f42b11b3b5ea43bf9f55f72e4e0adc46", "profile": "http://www.citysearch.com/profile/787109920/marietta_ga/assoc_coffee_mill_enthusics.html", "address": {"city": "Marietta", "state": "GA", "street": "657 Old Mountain Rd NW", "postal_code": "30064"}, "capProviderId": null, "distance": null, "has_offers": false, "name": "Assoc Coffee Mill Enthusics", "longitude": -84.593531, "has_menu": false, "awards": null, "user_review_count": 0}, {"business_operation_status": 1, "rating": null, "neighborhood": null, "image": null, "scorecard": null, "featured": false, "sample_categories": "Restaurants", "public_id": "righteous-que-marietta", "id": 790722150, "votes": null, "tagline": null, "has_video": false, "website": null, "offers": null, "latitude": 33.976739, "politanName": "Atlanta, GA Metro ", "phone_number": "7709718111", "tags": [{"primary": true, "id": 1722, "name": "Restaurants"}], "fax_number": null, "expansion": {"count": null, "uri": null}, "impression_id": "000b000000aa8f8b40cfb747b6aef7d28ff1f7c324", "profile": "http://www.citysearch.com/profile/790722150/marietta_ga/righteous_que.html", "address": {"city": "Marietta", "state": "GA", "street": "1050 E Piedmont Rd", "postal_code": "30062"}, "capProviderId": null, "distance": null, "has_offers": false, "name": "Righteous Que", "longitude": -84.479676, "has_menu": false, "awards": null, "user_review_count": 0}, {"business_operation_status": 0, "rating": null, "neighborhood": null, "image": null, "scorecard": null, "featured": false, "sample_categories": "Restaurants", "public_id": "daily-grind-marietta-2", "id": 672770880, "votes": null, "tagline": null, "has_video": false, "website": null, "offers": null, "latitude": 34.014064, "politanName": "Atlanta, GA Metro ", "phone_number": "7709715199", "tags": [{"primary": true, "id": 1722, "name": "Restaurants"}], "fax_number": null, "expansion": {"count": null, "uri": null}, "impression_id": "000b00000076b9d84d386347adb293609d7cdb2a58", "profile": "http://www.citysearch.com/profile/672770880/marietta_ga/daily_grind.html", "address": {"city": "Marietta", "state": "GA", "street": "2595 Sandy Plains Rd", "postal_code": "30066"}, "capProviderId": null, "distance": null, "has_offers": false, "name": "Daily Grind", "longitude": -84.495766, "has_menu": true, "awards": null, "user_review_count": 0}, {"business_operation_status": 1, "rating": null, "neighborhood": null, "image": null, "scorecard": null, "featured": false, "sample_categories": "Restaurants", "public_id": "jc-flowers-bonsai-marietta", "id": 787129080, "votes": null, "tagline": null, "has_video": false, "website": null, "offers": null, "latitude": 33.952602, "politanName": "Atlanta, GA Metro ", "phone_number": "7705653912", "tags": [{"primary": true, "id": 1722, "name": "Restaurants"}], "fax_number": null, "expansion": {"count": null, "uri": null}, "impression_id": "000b00000090ba6ab0d0714642a4812a2badbeddee", "profile": "http://www.citysearch.com/profile/787129080/marietta_ga/jc_flowers_bonsai.html", "address": {"city": "Marietta", "state": "GA", "street": "2754 Sandy Plains Rd # 116", "postal_code": "30066"}, "capProviderId": null, "distance": null, "has_offers": false, "name": "Jc Flowers & Bonsai", "longitude": -84.549933, "has_menu": false, "awards": null, "user_review_count": 0}, {"business_operation_status": 1, "rating": null, "neighborhood": null, "image": null, "scorecard": null, "featured": false, "sample_categories": "Restaurants", "public_id": "roswell-wing-depot-sandy", "id": 806514000, "votes": null, "tagline": null, "has_video": false, "website": null, "offers": null, "latitude": 33.925302, "politanName": "Atlanta, GA Metro ", "phone_number": "4047058400", "tags": [{"primary": true, "id": 1722, "name": "Restaurants"}], "fax_number": null, "expansion": {"count": null, "uri": null}, "impression_id": "000b000000cf621f2b9af74ebf9d8b91c5d1ebd531", "profile": "http://www.citysearch.com/profile/806514000/sandy_springs_ga/roswell_wing_depot.html", "address": {"city": "Sandy Springs", "state": "GA", "street": "5920 Roswell Rd", "postal_code": "30328"}, "capProviderId": null, "distance": null, "has_offers": false, "name": "Roswell Wing Depot", "longitude": -84.385744, "has_menu": false, "awards": null, "user_review_count": 0}, {"business_operation_status": 1, "rating": null, "neighborhood": null, "image": null, "scorecard": null, "featured": false, "sample_categories": "Restaurants", "public_id": "cosmos-sandwich-shop-atlanta", "id": 814623340, "votes": null, "tagline": null, "has_video": false, "website": null, "offers": null, "latitude": 33.92427, "politanName": "Atlanta, GA Metro ", "phone_number": "6788476688", "tags": [{"primary": true, "id": 1722, "name": "Restaurants"}], "fax_number": null, "expansion": {"count": null, "uri": null}, "impression_id": "000b000000fe1d7da145354123bca56eab7b718e56", "profile": "http://www.citysearch.com/profile/814623340/atlanta_ga/cosmos_sandwich_shop.html", "address": {"city": "Atlanta", "state": "GA", "street": "6195 Barfield Rd", "postal_code": "30328"}, "capProviderId": null, "distance": null, "has_offers": false, "name": "Cosmos Sandwich Shop", "longitude": -84.3591, "has_menu": false, "awards": null, "user_review_count": 0}, {"business_operation_status": 0, "rating": null, "neighborhood": null, "image": null, "scorecard": null, "featured": false, "sample_categories": "Restaurants, Bars & Pubs", "public_id": "skylight-bar-grill-atlanta", "id": 713428170, "votes": null, "tagline": null, "has_video": false, "website": null, "offers": null, "latitude": 33.883731, "politanName": "Atlanta, GA Metro ", "phone_number": "7709539067", "tags": [{"primary": false, "id": 1686, "name": "Bars & Pubs"}, {"primary": true, "id": 1722, "name": "Restaurants"}], "fax_number": null, "expansion": {"count": null, "uri": null}, "impression_id": "000b0000004ebc83560ff348b1bcb444726d6e6f79", "profile": "http://www.citysearch.com/profile/713428170/atlanta_ga/skylight_bar_grill.html", "address": {"city": "Atlanta", "state": "GA", "street": "2815 Akers Mill Rd Se", "postal_code": "30339"}, "capProviderId": null, "distance": null, "has_offers": false, "name": "Skylight Bar & Grill", "longitude": -84.459836, "has_menu": false, "awards": null, "user_review_count": 0}, {"business_operation_status": 1, "rating": null, "neighborhood": null, "image": null, "scorecard": null, "featured": false, "sample_categories": "Restaurants, Bars & Clubs, Bars & Pubs", "public_id": "celic-firehouse-pub-marietta", "id": 713546520, "votes": null, "tagline": null, "has_video": false, "website": null, "offers": null, "latitude": 33.95185, "politanName": "Atlanta, GA Metro ", "phone_number": "6782906642", "tags": [{"primary": false, "id": 164, "name": "Bars & Clubs"}, {"primary": false, "id": 1686, "name": "Bars & Pubs"}, {"primary": true, "id": 1722, "name": "Restaurants"}], "fax_number": null, "expansion": {"count": null, "uri": null}, "impression_id": "000b000000cffde80836ef4141a120f9f185507acd", "profile": "http://www.citysearch.com/profile/713546520/marietta_ga/celic_firehouse_pub.html", "address": {"city": "Marietta", "state": "GA", "street": "15 Atlanta St Se", "postal_code": "30060"}, "capProviderId": null, "distance": null, "has_offers": false, "name": "Celic Firehouse Pub", "longitude": -84.548701, "has_menu": false, "awards": null, "user_review_count": 0}, {"business_operation_status": 1, "rating": null, "neighborhood": null, "image": null, "scorecard": null, "featured": false, "sample_categories": "Restaurants", "public_id": "imani-african-arabian-rstrnt-smyrna", "id": 713541910, "votes": null, "tagline": null, "has_video": false, "website": null, "offers": null, "latitude": 33.891129, "politanName": "Atlanta, GA Metro ", "phone_number": "6782936841", "tags": [{"primary": true, "id": 1722, "name": "Restaurants"}], "fax_number": null, "expansion": {"count": null, "uri": null}, "impression_id": "000b000000297bb37285354126bec28cc80713b5cc", "profile": "http://www.citysearch.com/profile/713541910/smyrna_ga/imani_african_arabian_rstrnt.html", "address": {"city": "Smyrna", "state": "GA", "street": "1651 Roswell St Se", "postal_code": "30080"}, "capProviderId": null, "distance": null, "has_offers": false, "name": "Imani African & Arabian Rstrnt", "longitude": -84.504659, "has_menu": false, "awards": null, "user_review_count": 0}, {"business_operation_status": 1, "rating": null, "neighborhood": null, "image": null, "scorecard": null, "featured": false, "sample_categories": "Restaurants", "public_id": "wings-101-smyrna", "id": 621748804, "votes": null, "tagline": null, "has_video": false, "website": null, "offers": null, "latitude": 33.894038, "politanName": "Atlanta, GA Metro ", "phone_number": "7709891520", "tags": [{"primary": true, "id": 1722, "name": "Restaurants"}], "fax_number": null, "expansion": {"count": null, "uri": null}, "impression_id": "000b000000d4fc783805d643c0a041948d44a97c32", "profile": "http://www.citysearch.com/profile/621748804/smyrna_ga/wings_101.html", "address": {"city": "Smyrna", "state": "GA", "street": "998 Windy Hill Rd SE", "postal_code": "30080"}, "capProviderId": null, "distance": null, "has_offers": false, "name": "Wings 101", "longitude": -84.524382, "has_menu": false, "awards": null, "user_review_count": 0}, {"business_operation_status": 1, "rating": null, "neighborhood": null, "image": null, "scorecard": null, "featured": false, "sample_categories": "Ice Cream Parlors", "public_id": "hagen-holding-marietta", "id": 732215110, "votes": null, "tagline": null, "has_video": false, "website": null, "offers": null, "latitude": 33.988744, "politanName": "Atlanta, GA Metro ", "phone_number": "4045836303", "tags": [{"primary": true, "id": 1730, "name": "Ice Cream Parlors"}], "fax_number": null, "expansion": {"count": null, "uri": null}, "impression_id": "000b0000006e5b0a3b1bc34393b33fa397a6d64b63", "profile": "http://www.citysearch.com/profile/732215110/marietta_ga/hagen_holding.html", "address": {"city": "Marietta", "state": "GA", "street": "1573 Asheforde Dr", "postal_code": "30068"}, "capProviderId": null, "distance": null, "has_offers": false, "name": "Hagen Holding", "longitude": -84.386785, "has_menu": false, "awards": null, "user_review_count": 0}, {"business_operation_status": 1, "rating": null, "neighborhood": null, "image": null, "scorecard": null, "featured": false, "sample_categories": "Restaurants, Barbecue Restaurants", "public_id": "j-buffalo-wings-atlanta-3", "id": 745574930, "votes": null, "tagline": null, "has_video": false, "website": "http://www.citysearch.com/profile/external/745574930/atlanta_ga/j_buffalo_wings.html", "offers": null, "latitude": 33.935486, "politanName": "Atlanta, GA Metro ", "phone_number": "4045544588", "tags": [{"primary": false, "id": 1724, "name": "Barbecue Restaurants"}, {"primary": true, "id": 1722, "name": "Restaurants"}], "fax_number": null, "expansion": {"count": null, "uri": null}, "impression_id": "000b000000e152394625a14e529503e1524a985c6c", "profile": "http://www.citysearch.com/profile/745574930/atlanta_ga/j_buffalo_wings.html", "address": {"city": "Atlanta", "state": "GA", "street": "6595 Roswell Rd NE # H", "postal_code": "30328"}, "capProviderId": null, "distance": null, "has_offers": false, "name": "J Buffalo Wings", "longitude": -84.377458, "has_menu": false, "awards": null, "user_review_count": 0}, {"business_operation_status": 1, "rating": null, "neighborhood": null, "image": null, "scorecard": null, "featured": false, "sample_categories": "Restaurants", "public_id": "village-cafe-smyrna", "id": 745629910, "votes": null, "tagline": null, "has_video": false, "website": null, "offers": null, "latitude": 33.883751, "politanName": "Atlanta, GA Metro ", "phone_number": "6782935977", "tags": [{"primary": true, "id": 1722, "name": "Restaurants"}], "fax_number": null, "expansion": {"count": null, "uri": null}, "impression_id": "000b000000977be101b93c4bdcad3a2332de4ef591", "profile": "http://www.citysearch.com/profile/745629910/smyrna_ga/village_cafe.html", "address": {"city": "Smyrna", "state": "GA", "street": "865 Pinehill Dr SE", "postal_code": "30080"}, "capProviderId": null, "distance": null, "has_offers": false, "name": "Village Cafe", "longitude": -84.528342, "has_menu": false, "awards": null, "user_review_count": 0}, {"business_operation_status": 1, "rating": null, "neighborhood": null, "image": null, "scorecard": null, "featured": false, "sample_categories": "Restaurants, Bars & Clubs, Carry Out", "public_id": "hooters-of-orlando-airport-inc-atlanta", "id": 766753430, "votes": null, "tagline": null, "has_video": false, "website": null, "offers": null, "latitude": 33.908131, "politanName": "Atlanta, GA Metro ", "phone_number": "7709512040", "tags": [{"primary": false, "id": 164, "name": "Bars & Clubs"}, {"primary": false, "id": 11247, "name": "Carry Out"}, {"primary": true, "id": 1722, "name": "Restaurants"}], "fax_number": null, "expansion": {"count": null, "uri": null}, "impression_id": "000b000000ba99b7938cd94bae8b69745d51b85482", "profile": "http://www.citysearch.com/profile/766753430/atlanta_ga/hooters_of_orlando_airport_inc.html", "address": {"city": "Atlanta", "state": "GA", "street": "1815 the Exchange SE", "postal_code": "30339"}, "capProviderId": null, "distance": null, "has_offers": false, "name": "Hooters of Orlando Airport Inc", "longitude": -84.479005, "has_menu": false, "awards": null, "user_review_count": 0}, {"business_operation_status": 1, "rating": null, "neighborhood": null, "image": null, "scorecard": null, "featured": false, "sample_categories": "Restaurants", "public_id": "zaban-food-group-atlanta", "id": 772196800, "votes": null, "tagline": null, "has_video": false, "website": null, "offers": null, "latitude": 33.906775, "politanName": "Atlanta, GA Metro ", "phone_number": "7709841787", "tags": [{"primary": true, "id": 1722, "name": "Restaurants"}], "fax_number": null, "expansion": {"count": null, "uri": null}, "impression_id": "000b0000004c79e458ec664c699196d0c2b526a027", "profile": "http://www.citysearch.com/profile/772196800/atlanta_ga/zaban_food_group.html", "address": {"city": "Atlanta", "state": "GA", "street": "1900 the Exchange SE # 360", "postal_code": "30339"}, "capProviderId": null, "distance": null, "has_offers": false, "name": "Zaban Food Group", "longitude": -84.477741, "has_menu": false, "awards": null, "user_review_count": 0}, {"business_operation_status": 1, "rating": 8.0, "neighborhood": null, "image": null, "scorecard": null, "featured": false, "sample_categories": "Restaurants, Mexican", "public_id": "cazadores-mexican-restaurant-marietta", "id": 2904708, "votes": null, "tagline": null, "has_video": false, "website": "http://www.citysearch.com/profile/external/2904708/marietta_ga/cazadores_mexican_restaurant.html", "offers": null, "latitude": 34.02596, "politanName": "Atlanta, GA Metro ", "phone_number": "7706418625", "tags": [{"primary": false, "id": 11208, "name": "Mexican"}, {"primary": true, "id": 1722, "name": "Restaurants"}], "fax_number": null, "expansion": {"count": null, "uri": null}, "impression_id": "000b00000069f48f4fef2b45dfb20472cba8c4166b", "profile": "http://www.citysearch.com/profile/2904708/marietta_ga/cazadores_mexican_restaurant.html", "address": {"city": "Marietta", "state": "GA", "street": "3165 Johnson Ferry Rd", "postal_code": "30062"}, "capProviderId": null, "distance": null, "has_offers": false, "name": "Cazadores Mexican Restaurant", "longitude": -84.423963, "has_menu": true, "awards": null, "user_review_count": 5}, {"business_operation_status": 1, "rating": null, "neighborhood": null, "image": null, "scorecard": null, "featured": false, "sample_categories": "Seafood Markets, Restaurants, Seafood", "public_id": "pieer-213-seafood-marietta", "id": 772962240, "votes": null, "tagline": null, "has_video": false, "website": null, "offers": null, "latitude": 33.951025, "politanName": "Atlanta, GA Metro ", "phone_number": "6782908170", "tags": [{"primary": false, "id": 1722, "name": "Restaurants"}, {"primary": false, "id": 11228, "name": "Seafood"}, {"primary": true, "id": 1719, "name": "Seafood Markets"}], "fax_number": null, "expansion": {"count": null, "uri": null}, "impression_id": "000b000000a8619d5ae2b542b7af1d550971bc4942", "profile": "http://www.citysearch.com/profile/772962240/marietta_ga/pieer_213_seafood.html", "address": {"city": "Marietta", "state": "GA", "street": "35 S Marietta Pkwy Sw", "postal_code": "30064"}, "capProviderId": null, "distance": null, "has_offers": false, "name": "Pieer 213 Seafood", "longitude": -84.551785, "has_menu": false, "awards": null, "user_review_count": 0}], "histograms": [], "tag_ids": [1722], "uri": "http://api.citygridmedia.com:8080/search/places/v2/search/where?has_offers=false&type=restaurant&format=json&page=33&where=30067&rpp=50&histograms=false&publisher=10000009598&region_type=circle", "did_you_mean": "", "regions": [{"latitude": 33.930575, "default_radius": 3.78, "type": "postal_code", "name": "30067", "longitude": -84.463162}], "call_id": "000b0000007cc7ade1a9514eb9b6bda2ae6d141e08", "first_hit": 1601, "total_hits": 1972, "geo_ids": [26295], "page": 33, "last_hit": 1650}}