{"results": {"rpp": 50, "locations": [{"business_operation_status": 1, "rating": null, "neighborhood": null, "image": null, "scorecard": null, "featured": false, "sample_categories": "Restaurants", "public_id": "wan-fu-chinese-austell", "id": 814396930, "votes": null, "tagline": null, "has_video": false, "website": null, "offers": null, "latitude": 33.829858, "politanName": "Atlanta, GA Metro ", "phone_number": "7709486668", "tags": [{"primary": true, "id": 1722, "name": "Restaurants"}], "fax_number": null, "expansion": {"count": null, "uri": null}, "impression_id": "000b000000dc2aad9c79c149ab94be6f80b5ec88a1", "profile": "http://www.citysearch.com/profile/814396930/austell_ga/wan_fu_chinese.html", "address": {"city": "Austell", "state": "GA", "street": "5055 Austell Rd # 153", "postal_code": "30106"}, "capProviderId": null, "distance": null, "has_offers": false, "name": "Wan Fu Chinese", "longitude": -84.612138, "has_menu": false, "awards": null, "user_review_count": 0}, {"business_operation_status": 1, "rating": null, "neighborhood": null, "image": null, "scorecard": null, "featured": false, "sample_categories": "Restaurants, Delis And Delicatessens", "public_id": "jasons-deli-kennesaw", "id": 803500390, "votes": null, "tagline": null, "has_video": false, "website": "http://www.citysearch.com/profile/external/803500390/kennesaw_ga/jason_s_deli.html", "offers": null, "latitude": 34.003304, "politanName": "Atlanta, GA Metro ", "phone_number": "6783984000", "tags": [{"primary": false, "id": 1727, "name": "Delis And Delicatessens"}, {"primary": true, "id": 1722, "name": "Restaurants"}], "fax_number": null, "expansion": {"count": null, "uri": null}, "impression_id": "000b0000009fd52867d8524340b7324a3fab720370", "profile": "http://www.citysearch.com/profile/803500390/kennesaw_ga/jason_s_deli.html", "address": {"city": "Kennesaw", "state": "GA", "street": "945 Ernest W Barrett Pkwy NW", "postal_code": "30144"}, "capProviderId": null, "distance": null, "has_offers": false, "name": "Jason's Deli", "longitude": -84.578858, "has_menu": false, "awards": null, "user_review_count": 0}, {"business_operation_status": 1, "rating": null, "neighborhood": null, "image": null, "scorecard": null, "featured": false, "sample_categories": "Restaurants", "public_id": "johnnys-jerk-barbeque-mableton", "id": 808729280, "votes": null, "tagline": null, "has_video": false, "website": null, "offers": null, "latitude": 33.835173, "politanName": "Atlanta, GA Metro ", "phone_number": "6788386770", "tags": [{"primary": true, "id": 1722, "name": "Restaurants"}], "fax_number": null, "expansion": {"count": null, "uri": null}, "impression_id": "000b0000006e107610c3a64263a95a8c8accebd9ba", "profile": "http://www.citysearch.com/profile/808729280/mableton_ga/johnny_s_jerk_barbeque.html", "address": {"city": "Mableton", "state": "GA", "street": "4875 Floyd Rd SW", "postal_code": "30126"}, "capProviderId": null, "distance": null, "has_offers": false, "name": "Johnny's Jerk & Barbeque", "longitude": -84.574622, "has_menu": false, "awards": null, "user_review_count": 0}, {"business_operation_status": 1, "rating": null, "neighborhood": null, "image": null, "scorecard": null, "featured": false, "sample_categories": "Restaurants, Coffeehouses", "public_id": "peace-cafe-kennesaw", "id": 748262240, "votes": null, "tagline": null, "has_video": false, "website": null, "offers": null, "latitude": 34.042632, "politanName": "Atlanta, GA Metro ", "phone_number": "7707927880", "tags": [{"primary": false, "id": 1726, "name": "Coffeehouses"}, {"primary": true, "id": 1722, "name": "Restaurants"}], "fax_number": null, "expansion": {"count": null, "uri": null}, "impression_id": "000b00000055c183fea6794e4496407047d35c0a1f", "profile": "http://www.citysearch.com/profile/748262240/kennesaw_ga/peace_cafe.html", "address": {"city": "Kennesaw", "state": "GA", "street": "3805 Canton Pl NW", "postal_code": "30144"}, "capProviderId": null, "distance": null, "has_offers": false, "name": "Peace Cafe", "longitude": -84.584447, "has_menu": false, "awards": null, "user_review_count": 0}, {"business_operation_status": 1, "rating": null, "neighborhood": null, "image": null, "scorecard": null, "featured": false, "sample_categories": "Grocery Stores, Restaurants", "public_id": "global-food-nuts-marietta", "id": 748312370, "votes": null, "tagline": null, "has_video": false, "website": null, "offers": null, "latitude": 33.929154, "politanName": "Atlanta, GA Metro ", "phone_number": "7704282222", "tags": [{"primary": false, "id": 1722, "name": "Restaurants"}, {"primary": true, "id": 1713, "name": "Grocery Stores"}], "fax_number": null, "expansion": {"count": null, "uri": null}, "impression_id": "000b000000ff4344a4f0364ff0a79e3dc6a20c5161", "profile": "http://www.citysearch.com/profile/748312370/marietta_ga/global_food_nuts.html", "address": {"city": "Marietta", "state": "GA", "street": "950 Cobb Pkwy S", "postal_code": "30060"}, "capProviderId": null, "distance": null, "has_offers": false, "name": "Global Food & Nuts", "longitude": -84.510376, "has_menu": false, "awards": null, "user_review_count": 0}, {"business_operation_status": 1, "rating": null, "neighborhood": null, "image": null, "scorecard": null, "featured": false, "sample_categories": "Restaurants", "public_id": "cafe-moms-douglasville", "id": 622212590, "votes": null, "tagline": null, "has_video": false, "website": null, "offers": null, "latitude": 33.78174, "politanName": "Atlanta, GA Metro ", "phone_number": "6784027897", "tags": [{"primary": true, "id": 1722, "name": "Restaurants"}], "fax_number": null, "expansion": {"count": null, "uri": null}, "impression_id": "000b000000944278cb3f824fc18c504a0c0c68493f", "profile": "http://www.citysearch.com/profile/622212590/douglasville_ga/cafe_mom_s.html", "address": {"city": "Douglasville", "state": "GA", "street": "4010 Bankhead Hwy", "postal_code": "30134"}, "capProviderId": null, "distance": null, "has_offers": false, "name": "Cafe Mom's", "longitude": -84.702227, "has_menu": false, "awards": null, "user_review_count": 0}, {"business_operation_status": 0, "rating": null, "neighborhood": null, "image": null, "scorecard": null, "featured": false, "sample_categories": "Restaurants", "public_id": "zokas-smyrna", "id": 43845390, "votes": null, "tagline": null, "has_video": false, "website": null, "offers": null, "latitude": 33.890523, "politanName": "Atlanta, GA Metro ", "phone_number": "7704314727", "tags": [{"primary": true, "id": 1722, "name": "Restaurants"}], "fax_number": null, "expansion": {"count": null, "uri": null}, "impression_id": "000b000000dbd4b1feb3f54e90af63c94276a5b6f1", "profile": "http://www.citysearch.com/profile/43845390/smyrna_ga/zoka_s.html", "address": {"city": "Smyrna", "state": "GA", "street": "2506 Atlanta Rd SE Ste O8", "postal_code": "30080"}, "capProviderId": null, "distance": null, "has_offers": false, "name": "Zoka's", "longitude": -84.51736, "has_menu": true, "awards": null, "user_review_count": 0}, {"business_operation_status": 1, "rating": null, "neighborhood": null, "image": null, "scorecard": null, "featured": false, "sample_categories": "Coffee & Tea Shops, Restaurants, Deordorant, Soap, Glue", "public_id": "southern-tea-llc-marietta-2", "id": 43853814, "votes": null, "tagline": null, "has_video": false, "website": null, "offers": null, "latitude": 33.983317, "politanName": "Atlanta, GA Metro ", "phone_number": "7705901221", "tags": [{"primary": false, "id": 1711, "name": "Coffee & Tea Shops"}, {"primary": false, "id": 1722, "name": "Restaurants"}, {"primary": false, "id": 23400, "name": "Deordorant"}, {"primary": false, "id": 23410, "name": "Soap"}, {"primary": false, "id": 24950, "name": "Glue"}, {"primary": false, "id": 25880, "name": "Air Fresheners"}, {"primary": false, "id": 3922, "name": "General Merchandise Stores"}, {"primary": true, "id": 11147, "name": "Tea"}], "fax_number": null, "expansion": {"count": null, "uri": null}, "impression_id": "000b00000019a847cc64f147908ac791e831537171", "profile": "http://www.citysearch.com/profile/43853814/marietta_ga/southern_tea_llc.html", "address": {"city": "Marietta", "state": "GA", "street": "1491 Cobb Industrial Dr", "postal_code": "30066"}, "capProviderId": null, "distance": null, "has_offers": false, "name": "Southern Tea Llc", "longitude": -84.534242, "has_menu": false, "awards": null, "user_review_count": 1}, {"business_operation_status": 1, "rating": null, "neighborhood": null, "image": null, "scorecard": null, "featured": false, "sample_categories": "Restaurants, Delis And Delicatessens, Sandwich Shops, Carry Out", "public_id": "subway-acworth-7", "id": 632978540, "votes": null, "tagline": null, "has_video": false, "website": "http://www.citysearch.com/profile/external/632978540/acworth_ga/subway.html", "offers": null, "latitude": 33.996583, "politanName": "Atlanta, GA Metro ", "phone_number": "6783556035", "tags": [{"primary": false, "id": 1727, "name": "Delis And Delicatessens"}, {"primary": false, "id": 1736, "name": "Sandwich Shops"}, {"primary": false, "id": 11247, "name": "Carry Out"}, {"primary": true, "id": 1722, "name": "Restaurants"}], "fax_number": null, "expansion": {"count": null, "uri": null}, "impression_id": "000b0000006025b1f980fe4f34bcf85183b295d55f", "profile": "http://www.citysearch.com/profile/632978540/acworth_ga/subway.html", "address": {"city": "Acworth", "state": "GA", "street": "1720 Mars Hill Rd Nw # 3", "postal_code": "30101"}, "capProviderId": null, "distance": null, "has_offers": false, "name": "Subway", "longitude": -84.705934, "has_menu": true, "awards": null, "user_review_count": 0}, {"business_operation_status": 1, "rating": null, "neighborhood": null, "image": null, "scorecard": null, "featured": false, "sample_categories": "Restaurants", "public_id": "specialty-restaurant-group-inc-kennesaw", "id": 648896300, "votes": null, "tagline": null, "has_video": false, "website": "http://www.citysearch.com/profile/external/648896300/kennesaw_ga/specialty_restaurant_group_inc.html", "offers": null, "latitude": 34.015329, "politanName": "Atlanta, GA Metro ", "phone_number": "7704997878", "tags": [{"primary": true, "id": 1722, "name": "Restaurants"}], "fax_number": null, "expansion": {"count": null, "uri": null}, "impression_id": "000b000000f9f4f1dfeddb4e1d823beaf0b1e447c3", "profile": "http://www.citysearch.com/profile/648896300/kennesaw_ga/specialty_restaurant_group_inc.html", "address": {"city": "Kennesaw", "state": "GA", "street": "2500 Cobb Pkwy NW Ste B7", "postal_code": "30152"}, "capProviderId": null, "distance": null, "has_offers": false, "name": "Specialty Restaurant Group Inc", "longitude": -84.615064, "has_menu": false, "awards": null, "user_review_count": 0}, {"business_operation_status": 1, "rating": null, "neighborhood": null, "image": null, "scorecard": null, "featured": false, "sample_categories": "Restaurants, Barbecue Restaurants", "public_id": "barbecue-heaven-marietta", "id": 631969010, "votes": null, "tagline": null, "has_video": false, "website": null, "offers": null, "latitude": 33.894508, "politanName": "Atlanta, GA Metro ", "phone_number": "7704344247", "tags": [{"primary": false, "id": 1724, "name": "Barbecue Restaurants"}, {"primary": true, "id": 1722, "name": "Restaurants"}], "fax_number": null, "expansion": {"count": null, "uri": null}, "impression_id": "000b000000a171fee488884afba057d44244240f9d", "profile": "http://www.citysearch.com/profile/631969010/marietta_ga/barbecue_heaven.html", "address": {"city": "Marietta", "state": "GA", "street": "186 Windy Hill Rd Sw", "postal_code": "30060"}, "capProviderId": null, "distance": null, "has_offers": false, "name": "Barbecue Heaven", "longitude": -84.555734, "has_menu": false, "awards": null, "user_review_count": 0}, {"business_operation_status": 1, "rating": null, "neighborhood": null, "image": null, "scorecard": null, "featured": false, "sample_categories": "Restaurants", "public_id": "jmc-restaurant-distribution-kennesaw", "id": 601313826, "votes": null, "tagline": null, "has_video": false, "website": "http://www.citysearch.com/profile/external/601313826/kennesaw_ga/jmc_restaurant_distribution.html", "offers": null, "latitude": 34.011176, "politanName": "Atlanta, GA Metro ", "phone_number": "7705281170", "tags": [{"primary": true, "id": 1722, "name": "Restaurants"}], "fax_number": null, "expansion": {"count": null, "uri": null}, "impression_id": "000b000000f717a8d7628e423e9c9ffb57e44aa4bf", "profile": "http://www.citysearch.com/profile/601313826/kennesaw_ga/jmc_restaurant_distribution.html", "address": {"city": "Kennesaw", "state": "GA", "street": "980 Cobb Place Blvd Nw # 240", "postal_code": "30144"}, "capProviderId": null, "distance": null, "has_offers": false, "name": "Jmc Restaurant Distribution", "longitude": -84.581645, "has_menu": false, "awards": null, "user_review_count": 0}, {"business_operation_status": 1, "rating": null, "neighborhood": null, "image": null, "scorecard": null, "featured": false, "sample_categories": "Restaurants", "public_id": "mughals-marietta", "id": 672132640, "votes": null, "tagline": null, "has_video": false, "website": null, "offers": null, "latitude": 33.907587, "politanName": "Atlanta, GA Metro ", "phone_number": "7709553130", "tags": [{"primary": true, "id": 1722, "name": "Restaurants"}], "fax_number": null, "expansion": {"count": null, "uri": null}, "impression_id": "000b000000f5f3853a465b4c719ef3251bd9a13b7d", "profile": "http://www.citysearch.com/profile/672132640/marietta_ga/mughals.html", "address": {"city": "Marietta", "state": "GA", "street": "1869 S Cobb Dr SE", "postal_code": "30060"}, "capProviderId": null, "distance": null, "has_offers": false, "name": "Mughals", "longitude": -84.543502, "has_menu": false, "awards": null, "user_review_count": 0}, {"business_operation_status": 1, "rating": null, "neighborhood": null, "image": null, "scorecard": null, "featured": false, "sample_categories": "Restaurants", "public_id": "taco-l-1000000-marietta", "id": 607688524, "votes": null, "tagline": null, "has_video": false, "website": null, "offers": null, "latitude": 33.902769, "politanName": "Atlanta, GA Metro ", "phone_number": "6783090482", "tags": [{"primary": true, "id": 1722, "name": "Restaurants"}], "fax_number": null, "expansion": {"count": null, "uri": null}, "impression_id": "000b000000ef31285f6eea44a9bb0d8706064ab863", "profile": "http://www.citysearch.com/profile/607688524/marietta_ga/taco_l_1000000.html", "address": {"city": "Marietta", "state": "GA", "street": "2080 Favor Rd SW", "postal_code": "30060"}, "capProviderId": null, "distance": null, "has_offers": false, "name": "Taco L 1000000", "longitude": -84.564621, "has_menu": false, "awards": null, "user_review_count": 0}, {"business_operation_status": 1, "rating": null, "neighborhood": null, "image": null, "scorecard": null, "featured": false, "sample_categories": "Delis And Delicatessens, Sandwich Shops", "public_id": "threadmill-deli-austell", "id": 695583100, "votes": null, "tagline": null, "has_video": false, "website": null, "offers": null, "latitude": 33.832536, "politanName": "Atlanta, GA Metro ", "phone_number": "7707459100", "tags": [{"primary": false, "id": 1736, "name": "Sandwich Shops"}, {"primary": true, "id": 1727, "name": "Delis And Delicatessens"}], "fax_number": null, "expansion": {"count": null, "uri": null}, "impression_id": "000b00000098587b8f40094fb6839c7436605bdf33", "profile": "http://www.citysearch.com/profile/695583100/austell_ga/threadmill_deli.html", "address": {"city": "Austell", "state": "GA", "street": "5000 Austell Powder Spngs#289", "postal_code": "30106"}, "capProviderId": null, "distance": null, "has_offers": false, "name": "Threadmill Deli", "longitude": -84.654686, "has_menu": false, "awards": null, "user_review_count": 0}, {"business_operation_status": 1, "rating": null, "neighborhood": null, "image": null, "scorecard": null, "featured": false, "sample_categories": "Restaurants, Delis And Delicatessens, Sandwich Shops, Carry Out", "public_id": "blimpie-subs-salads-kennesaw-2", "id": 713401400, "votes": null, "tagline": null, "has_video": false, "website": "http://www.citysearch.com/profile/external/713401400/kennesaw_ga/blimpie_subs_salads.html", "offers": null, "latitude": 34.00436, "politanName": "Atlanta, GA Metro ", "phone_number": "7704245088", "tags": [{"primary": false, "id": 1727, "name": "Delis And Delicatessens"}, {"primary": false, "id": 1736, "name": "Sandwich Shops"}, {"primary": false, "id": 11247, "name": "Carry Out"}, {"primary": true, "id": 1722, "name": "Restaurants"}], "fax_number": null, "expansion": {"count": null, "uri": null}, "impression_id": "000b000000a5e18dd32b774a54973ec57c389b0275", "profile": "http://www.citysearch.com/profile/713401400/kennesaw_ga/blimpie_subs_salads.html", "address": {"city": "Kennesaw", "state": "GA", "street": "667 Ernest W Barrett Pkwy NW", "postal_code": "30144"}, "capProviderId": null, "distance": null, "has_offers": false, "name": "Blimpie Subs & Salads", "longitude": -84.572087, "has_menu": false, "awards": null, "user_review_count": 0}, {"business_operation_status": 1, "rating": null, "neighborhood": null, "image": null, "scorecard": null, "featured": false, "sample_categories": "Restaurants, Pizza", "public_id": "johnnys-pizza-austell", "id": 601307782, "votes": null, "tagline": null, "has_video": false, "website": null, "offers": null, "latitude": 33.866983, "politanName": "Atlanta, GA Metro ", "phone_number": "7709439936", "tags": [{"primary": false, "id": 1722, "name": "Restaurants"}, {"primary": true, "id": 11299, "name": "Pizza"}], "fax_number": null, "expansion": {"count": null, "uri": null}, "impression_id": "000b0000000f590da55b5f4a7581104e4bd3b320e3", "profile": "http://www.citysearch.com/profile/601307782/austell_ga/johnny_s_pizza.html", "address": {"city": "Austell", "state": "GA", "street": "2840 E West Connector # 390", "postal_code": "30106"}, "capProviderId": null, "distance": null, "has_offers": false, "name": "Johnny's Pizza", "longitude": -84.624721, "has_menu": true, "awards": null, "user_review_count": 0}, {"business_operation_status": 1, "rating": null, "neighborhood": null, "image": null, "scorecard": null, "featured": false, "sample_categories": "Restaurants", "public_id": "stellas-neighborhood-grill-austell", "id": 604719582, "votes": null, "tagline": null, "has_video": false, "website": "http://www.citysearch.com/profile/external/604719582/austell_ga/stella_s_neighborhood_grill.html", "offers": null, "latitude": 33.866421, "politanName": "Atlanta, GA Metro ", "phone_number": "7702221331", "tags": [{"primary": true, "id": 1722, "name": "Restaurants"}], "fax_number": null, "expansion": {"count": null, "uri": null}, "impression_id": "000b00000064904d53929e4b3ea60c410c5164b36f", "profile": "http://www.citysearch.com/profile/604719582/austell_ga/stella_s_neighborhood_grill.html", "address": {"city": "Austell", "state": "GA", "street": "2810 E West Connector", "postal_code": "30106"}, "capProviderId": null, "distance": null, "has_offers": false, "name": "Stella's Neighborhood Grill", "longitude": -84.625947, "has_menu": false, "awards": null, "user_review_count": 3}, {"business_operation_status": 1, "rating": null, "neighborhood": null, "image": null, "scorecard": null, "featured": false, "sample_categories": "Restaurants", "public_id": "best-friends-cafe-incorporated-marietta", "id": 37645592, "votes": null, "tagline": null, "has_video": false, "website": null, "offers": null, "latitude": 33.951322, "politanName": "Atlanta, GA Metro ", "phone_number": "7707920506", "tags": [{"primary": true, "id": 1722, "name": "Restaurants"}], "fax_number": null, "expansion": {"count": null, "uri": null}, "impression_id": "000b0000008a600612a68b465eabddcd1782676c97", "profile": "http://www.citysearch.com/profile/37645592/marietta_ga/best_friends_cafe_incorporated.html", "address": {"city": "Marietta", "state": "GA", "street": "749 Roswell St NE", "postal_code": "30060"}, "capProviderId": null, "distance": null, "has_offers": false, "name": "Best Friends Cafe Incorporated", "longitude": -84.530069, "has_menu": false, "awards": null, "user_review_count": 0}, {"business_operation_status": 1, "rating": null, "neighborhood": null, "image": null, "scorecard": null, "featured": false, "sample_categories": "Restaurants, Bars & Clubs, Bars & Pubs, Traditional American, American Express", "public_id": "ciclon-sports-bar-grll-smyrna", "id": 43853277, "votes": null, "tagline": null, "has_video": false, "website": null, "offers": null, "latitude": 33.886772, "politanName": "Atlanta, GA Metro ", "phone_number": "7704318100", "tags": [{"primary": false, "id": 164, "name": "Bars & Clubs"}, {"primary": false, "id": 1686, "name": "Bars & Pubs"}, {"primary": false, "id": 11190, "name": "Traditional American"}, {"primary": false, "id": 11333, "name": "American Express"}, {"primary": false, "id": 11349, "name": "Discover"}, {"primary": false, "id": 11361, "name": "MasterCard"}, {"primary": false, "id": 11382, "name": "Visa"}, {"primary": true, "id": 1722, "name": "Restaurants"}], "fax_number": null, "expansion": {"count": null, "uri": null}, "impression_id": "000b000000b7209b85a6614c1a9806a605494f97a5", "profile": "http://www.citysearch.com/profile/43853277/smyrna_ga/ciclon_sports_bar_grll.html", "address": {"city": "Smyrna", "state": "GA", "street": "2731 S Cobb Dr SE", "postal_code": "30080"}, "capProviderId": null, "distance": null, "has_offers": false, "name": "Ciclon Sports Bar & Grll", "longitude": -84.534827, "has_menu": false, "awards": null, "user_review_count": 0}, {"business_operation_status": 1, "rating": 6.0, "neighborhood": null, "image": null, "scorecard": null, "featured": false, "sample_categories": "Restaurants, Mexican, American Express, Discover, MasterCard", "public_id": "el-taco-azteca-mexican-grille-kennesaw", "id": 43859514, "votes": null, "tagline": null, "has_video": false, "website": "http://www.citysearch.com/profile/external/43859514/kennesaw_ga/el_taco_azteca_mexican_grille.html", "offers": null, "latitude": 34.020557, "politanName": "Atlanta, GA Metro ", "phone_number": "7709191609", "tags": [{"primary": false, "id": 11208, "name": "Mexican"}, {"primary": false, "id": 11333, "name": "American Express"}, {"primary": false, "id": 11349, "name": "Discover"}, {"primary": false, "id": 11361, "name": "MasterCard"}, {"primary": false, "id": 11382, "name": "Visa"}, {"primary": true, "id": 1722, "name": "Restaurants"}], "fax_number": null, "expansion": {"count": null, "uri": null}, "impression_id": "000b000000df58dadfcd744376b73d4faadde12111", "profile": "http://www.citysearch.com/profile/43859514/kennesaw_ga/el_taco_azteca_mexican_grille.html", "address": {"city": "Kennesaw", "state": "GA", "street": "2752 S Main St NW", "postal_code": "30144"}, "capProviderId": null, "distance": null, "has_offers": false, "name": "El Taco Azteca Mexican Grille", "longitude": -84.612558, "has_menu": false, "awards": null, "user_review_count": 3}, {"business_operation_status": 1, "rating": null, "neighborhood": null, "image": null, "scorecard": null, "featured": false, "sample_categories": "Catering, Restaurants, Pizza", "public_id": "rays-new-york-pizza-kennesaw-2", "id": 653618780, "votes": null, "tagline": null, "has_video": false, "website": "http://www.citysearch.com/profile/external/653618780/kennesaw_ga/ray_s_new_york_pizza.html", "offers": null, "latitude": 34.037182, "politanName": "Atlanta, GA Metro ", "phone_number": "7704249000", "tags": [{"primary": false, "id": 1705, "name": "Catering"}, {"primary": false, "id": 1722, "name": "Restaurants"}, {"primary": true, "id": 11299, "name": "Pizza"}], "fax_number": null, "expansion": {"count": null, "uri": null}, "impression_id": "000b000000e0439195ec1e4442aec6344cd199ee55", "profile": "http://www.citysearch.com/profile/653618780/kennesaw_ga/ray_s_new_york_pizza.html", "address": {"city": "Kennesaw", "state": "GA", "street": "600 Chastain Rd Nw", "postal_code": "30144"}, "capProviderId": null, "distance": null, "has_offers": false, "name": "Ray's New York Pizza", "longitude": -84.567518, "has_menu": false, "awards": null, "user_review_count": 0}, {"business_operation_status": 1, "rating": null, "neighborhood": null, "image": null, "scorecard": null, "featured": false, "sample_categories": "Restaurants", "public_id": "sun-rise-cafe-marietta", "id": 811484560, "votes": null, "tagline": null, "has_video": false, "website": null, "offers": null, "latitude": 33.903093, "politanName": "Atlanta, GA Metro ", "phone_number": "7704310203", "tags": [{"primary": true, "id": 1722, "name": "Restaurants"}], "fax_number": null, "expansion": {"count": null, "uri": null}, "impression_id": "000b0000005c325d941a4c4ca599859324c3c766a7", "profile": "http://www.citysearch.com/profile/811484560/marietta_ga/sun_rise_cafe.html", "address": {"city": "Marietta", "state": "GA", "street": "2052 S Cobb Dr SE", "postal_code": "30060"}, "capProviderId": null, "distance": null, "has_offers": false, "name": "Sun Rise Cafe", "longitude": -84.542386, "has_menu": false, "awards": null, "user_review_count": 0}, {"business_operation_status": 1, "rating": null, "neighborhood": null, "image": null, "scorecard": null, "featured": false, "sample_categories": "Restaurants, Pizza", "public_id": "atena-pizza-kennesaw", "id": 827581250, "votes": null, "tagline": null, "has_video": false, "website": null, "offers": null, "latitude": 34.020819, "politanName": "Atlanta, GA Metro ", "phone_number": "6787971888", "tags": [{"primary": false, "id": 1722, "name": "Restaurants"}, {"primary": true, "id": 11299, "name": "Pizza"}], "fax_number": null, "expansion": {"count": null, "uri": null}, "impression_id": "000b0000005da477a3aaba479681ded39d13021b1a", "profile": "http://www.citysearch.com/profile/827581250/kennesaw_ga/atena_pizza.html", "address": {"city": "Kennesaw", "state": "GA", "street": "2754 S Main St NW", "postal_code": "30144"}, "capProviderId": null, "distance": null, "has_offers": false, "name": "Atena Pizza", "longitude": -84.613657, "has_menu": false, "awards": null, "user_review_count": 0}, {"business_operation_status": 1, "rating": null, "neighborhood": null, "image": null, "scorecard": null, "featured": false, "sample_categories": "Restaurants", "public_id": "darbys-run-hoa-hiram", "id": 751321720, "votes": null, "tagline": null, "has_video": false, "website": null, "offers": null, "latitude": 33.89367, "politanName": "Atlanta, GA Metro ", "phone_number": "7702228881", "tags": [{"primary": true, "id": 1722, "name": "Restaurants"}], "fax_number": null, "expansion": {"count": null, "uri": null}, "impression_id": "000b00000051bee6e387fe4b9080d7da9fdee83771", "profile": "http://www.citysearch.com/profile/751321720/hiram_ga/darbys_run_hoa.html", "address": {"city": "Hiram", "state": "GA", "street": "99 Darbys Run Dr", "postal_code": "30141"}, "capProviderId": null, "distance": null, "has_offers": false, "name": "Darbys Run HOA", "longitude": -84.78156, "has_menu": false, "awards": null, "user_review_count": 0}, {"business_operation_status": 1, "rating": null, "neighborhood": null, "image": null, "scorecard": null, "featured": false, "sample_categories": "Restaurants", "public_id": "yoland-trade-co-marietta", "id": 766788970, "votes": null, "tagline": null, "has_video": false, "website": null, "offers": null, "latitude": 34.017093, "politanName": "Atlanta, GA Metro ", "phone_number": "7705651995", "tags": [{"primary": true, "id": 1722, "name": "Restaurants"}], "fax_number": null, "expansion": {"count": null, "uri": null}, "impression_id": "000b000000a8fd4a5bae19460ab705b89b681877ab", "profile": "http://www.citysearch.com/profile/766788970/marietta_ga/yoland_trade_co.html", "address": {"city": "Marietta", "state": "GA", "street": "2731 Sandy Plains Rd # A", "postal_code": "30066"}, "capProviderId": null, "distance": null, "has_offers": false, "name": "Yoland Trade Co", "longitude": -84.492328, "has_menu": false, "awards": null, "user_review_count": 0}, {"business_operation_status": 1, "rating": null, "neighborhood": null, "image": null, "scorecard": null, "featured": false, "sample_categories": "Restaurants", "public_id": "cafe-internet-marietta", "id": 775213360, "votes": null, "tagline": null, "has_video": false, "website": null, "offers": null, "latitude": 33.938913, "politanName": "Atlanta, GA Metro ", "phone_number": "6785940304", "tags": [{"primary": true, "id": 1722, "name": "Restaurants"}], "fax_number": null, "expansion": {"count": null, "uri": null}, "impression_id": "000b000000c509126e7a2441b487d6360cea8486d9", "profile": "http://www.citysearch.com/profile/775213360/marietta_ga/cafe_internet.html", "address": {"city": "Marietta", "state": "GA", "street": "550 Franklin Rd SE", "postal_code": "30067"}, "capProviderId": null, "distance": null, "has_offers": false, "name": "Cafe Internet", "longitude": -84.507658, "has_menu": false, "awards": null, "user_review_count": 0}, {"business_operation_status": 1, "rating": null, "neighborhood": null, "image": null, "scorecard": null, "featured": false, "sample_categories": "Restaurants", "public_id": "ragazzis-marietta", "id": 775214350, "votes": null, "tagline": null, "has_video": false, "website": null, "offers": null, "latitude": 33.863583, "politanName": "Atlanta, GA Metro ", "phone_number": "7704326846", "tags": [{"primary": true, "id": 1722, "name": "Restaurants"}], "fax_number": null, "expansion": {"count": null, "uri": null}, "impression_id": "000b000000478771a2c4dd4987a9b52b48a2bdcde6", "profile": "http://www.citysearch.com/profile/775214350/marietta_ga/ragazzi_s.html", "address": {"city": "Marietta", "state": "GA", "street": "3696 Austell Rd SW", "postal_code": "30008"}, "capProviderId": null, "distance": null, "has_offers": false, "name": "Ragazzi's", "longitude": -84.595971, "has_menu": false, "awards": null, "user_review_count": 0}, {"business_operation_status": 1, "rating": null, "neighborhood": null, "image": null, "scorecard": null, "featured": false, "sample_categories": "Restaurants", "public_id": "pressed-marietta", "id": 787100030, "votes": null, "tagline": null, "has_video": false, "website": null, "offers": null, "latitude": 33.952269, "politanName": "Atlanta, GA Metro ", "phone_number": "7704853759", "tags": [{"primary": true, "id": 1722, "name": "Restaurants"}], "fax_number": null, "expansion": {"count": null, "uri": null}, "impression_id": "000b000000668fdd0c6dd14c589e3df8a73c6edcf2", "profile": "http://www.citysearch.com/profile/787100030/marietta_ga/pressed.html", "address": {"city": "Marietta", "state": "GA", "street": "30 S Park Sq Ne", "postal_code": "30060"}, "capProviderId": null, "distance": null, "has_offers": false, "name": "Pressed", "longitude": -84.550109, "has_menu": false, "awards": null, "user_review_count": 0}, {"business_operation_status": 1, "rating": null, "neighborhood": null, "image": null, "scorecard": null, "featured": false, "sample_categories": "Restaurants, Pizza", "public_id": "emkay-llc-marietta", "id": 802504650, "votes": null, "tagline": null, "has_video": false, "website": null, "offers": null, "latitude": 34.032174, "politanName": "Atlanta, GA Metro ", "phone_number": "6783248066", "tags": [{"primary": false, "id": 11299, "name": "Pizza"}, {"primary": true, "id": 1722, "name": "Restaurants"}], "fax_number": null, "expansion": {"count": null, "uri": null}, "impression_id": "000b00000043c1701f96384f4d8cb0d7f41301ff38", "profile": "http://www.citysearch.com/profile/802504650/marietta_ga/emkay_llc.html", "address": {"city": "Marietta", "state": "GA", "street": "3372 Canton Rd", "postal_code": "30066"}, "capProviderId": null, "distance": null, "has_offers": false, "name": "Emkay LLC", "longitude": -84.527817, "has_menu": false, "awards": null, "user_review_count": 0}, {"business_operation_status": 1, "rating": null, "neighborhood": null, "image": null, "scorecard": null, "featured": false, "sample_categories": "Ice Cream Parlors, Restaurants, Dessert Shops, Frozen Yogurt Shops, Doughnut Shops", "public_id": "baskinrobbins-kennesaw", "id": 43858643, "votes": null, "tagline": null, "has_video": false, "website": "http://www.citysearch.com/profile/external/43858643/kennesaw_ga/baskin_robbins.html", "offers": null, "latitude": 34.03594, "politanName": "Atlanta, GA Metro ", "phone_number": "6783555518", "tags": [{"primary": false, "id": 1722, "name": "Restaurants"}, {"primary": false, "id": 1728, "name": "Dessert Shops"}, {"primary": false, "id": 1729, "name": "Frozen Yogurt Shops"}, {"primary": false, "id": 1734, "name": "Doughnut Shops"}, {"primary": true, "id": 1730, "name": "Ice Cream Parlors"}], "fax_number": null, "expansion": {"count": null, "uri": null}, "impression_id": "000b000000661c586a4a114790afda72cb27c68840", "profile": "http://www.citysearch.com/profile/43858643/kennesaw_ga/baskin_robbins.html", "address": {"city": "Kennesaw", "state": "GA", "street": "741 Townpark Ln NW", "postal_code": "30144"}, "capProviderId": null, "distance": null, "has_offers": false, "name": "Baskin-Robbins", "longitude": -84.572269, "has_menu": true, "awards": null, "user_review_count": 0}, {"business_operation_status": 1, "rating": null, "neighborhood": null, "image": null, "scorecard": null, "featured": false, "sample_categories": "Restaurants", "public_id": "buffalos-cafe-kennesaw", "id": 803506350, "votes": null, "tagline": null, "has_video": false, "website": null, "offers": null, "latitude": 34.032711, "politanName": "Atlanta, GA Metro ", "phone_number": "6782369464", "tags": [{"primary": true, "id": 1722, "name": "Restaurants"}], "fax_number": null, "expansion": {"count": null, "uri": null}, "impression_id": "000b000000f3f195be55f84b2d9396c604e7756360", "profile": "http://www.citysearch.com/profile/803506350/kennesaw_ga/buffalos_cafe.html", "address": {"city": "Kennesaw", "state": "GA", "street": "3161 Cobb Pkwy NW", "postal_code": "30152"}, "capProviderId": null, "distance": null, "has_offers": false, "name": "Buffalos Cafe", "longitude": -84.673088, "has_menu": false, "awards": null, "user_review_count": 0}, {"business_operation_status": 1, "rating": null, "neighborhood": null, "image": null, "scorecard": null, "featured": false, "sample_categories": "Ice Cream Parlors, Restaurants, Dessert Shops, Information & Referral Services", "public_id": "j-t-ice-cream-marietta", "id": 43838545, "votes": null, "tagline": null, "has_video": false, "website": null, "offers": null, "latitude": 33.883858, "politanName": "Atlanta, GA Metro ", "phone_number": "7708607124", "tags": [{"primary": false, "id": 1722, "name": "Restaurants"}, {"primary": false, "id": 1728, "name": "Dessert Shops"}, {"primary": false, "id": 624, "name": "Information & Referral Services"}, {"primary": true, "id": 1730, "name": "Ice Cream Parlors"}], "fax_number": null, "expansion": {"count": null, "uri": null}, "impression_id": "000b00000054c5646f64b14012a005c6eea1748238", "profile": "http://www.citysearch.com/profile/43838545/marietta_ga/j_t_ice_cream.html", "address": {"city": "Marietta", "state": "GA", "street": "2879 Lakemont Dr SW", "postal_code": "30060"}, "capProviderId": null, "distance": null, "has_offers": false, "name": "J & T Ice Cream", "longitude": -84.554682, "has_menu": false, "awards": null, "user_review_count": 0}, {"business_operation_status": 1, "rating": null, "neighborhood": null, "image": null, "scorecard": null, "featured": false, "sample_categories": "Catering, Restaurants, Pizza", "public_id": "poppys-pizza-kennesaw", "id": 43861477, "votes": null, "tagline": null, "has_video": false, "website": null, "offers": null, "latitude": 34.022601, "politanName": "Atlanta, GA Metro ", "phone_number": "7705294377", "tags": [{"primary": false, "id": 1722, "name": "Restaurants"}, {"primary": false, "id": 11299, "name": "Pizza"}, {"primary": true, "id": 1705, "name": "Catering"}], "fax_number": null, "expansion": {"count": null, "uri": null}, "impression_id": "000b000000a5bb9a2924404ad7b56ea1b96e368e0a", "profile": "http://www.citysearch.com/profile/43861477/kennesaw_ga/poppy_s_pizza.html", "address": {"city": "Kennesaw", "state": "GA", "street": "3140 Cobb Pkwy NW Ste 10", "postal_code": "30152"}, "capProviderId": null, "distance": null, "has_offers": false, "name": "Poppy's Pizza", "longitude": -84.626408, "has_menu": false, "awards": null, "user_review_count": 0}, {"business_operation_status": 0, "rating": null, "neighborhood": null, "image": null, "scorecard": null, "featured": false, "sample_categories": "Restaurants, Fast Food, American Express, Discover, MasterCard", "public_id": "kfc-marietta-2", "id": 45557267, "votes": null, "tagline": null, "has_video": false, "website": "http://www.citysearch.com/profile/external/45557267/marietta_ga/kfc.html", "offers": null, "latitude": 33.971057, "politanName": "Atlanta, GA Metro ", "phone_number": "7709713374", "tags": [{"primary": false, "id": 11199, "name": "Fast Food"}, {"primary": false, "id": 11333, "name": "American Express"}, {"primary": false, "id": 11349, "name": "Discover"}, {"primary": false, "id": 11361, "name": "MasterCard"}, {"primary": false, "id": 11382, "name": "Visa"}, {"primary": false, "id": 12839, "name": "Chicken"}, {"primary": true, "id": 1722, "name": "Restaurants"}], "fax_number": null, "expansion": {"count": null, "uri": null}, "impression_id": "000b000000016755ad555343a8943df954c9d922c7", "profile": "http://www.citysearch.com/profile/45557267/marietta_ga/kfc.html", "address": {"city": "Marietta", "state": "GA", "street": "2220 Roswell Rd", "postal_code": "30062"}, "capProviderId": null, "distance": null, "has_offers": false, "name": "Kfc", "longitude": -84.487359, "has_menu": true, "awards": null, "user_review_count": 0}, {"business_operation_status": 1, "rating": null, "neighborhood": null, "image": null, "scorecard": null, "featured": false, "sample_categories": "Restaurants, Barbecue Restaurants, Carry Out, Chicken", "public_id": "wing-street-powder-spgs", "id": 45993765, "votes": null, "tagline": null, "has_video": false, "website": "http://www.citysearch.com/profile/external/45993765/powder_springs_ga/wing_street.html", "offers": null, "latitude": 33.872769, "politanName": "Atlanta, GA Metro ", "phone_number": "7704395538", "tags": [{"primary": false, "id": 1724, "name": "Barbecue Restaurants"}, {"primary": false, "id": 11247, "name": "Carry Out"}, {"primary": false, "id": 12839, "name": "Chicken"}, {"primary": true, "id": 1722, "name": "Restaurants"}], "fax_number": null, "expansion": {"count": null, "uri": null}, "impression_id": "000b000000e344309ca160428eb1c54e673ea4e996", "profile": "http://www.citysearch.com/profile/45993765/powder_springs_ga/wing_street.html", "address": {"city": "Powder Springs", "state": "GA", "street": "3309 New Macland Rd", "postal_code": "30127"}, "capProviderId": null, "distance": null, "has_offers": false, "name": "Wing Street", "longitude": -84.676147, "has_menu": false, "awards": null, "user_review_count": 0}, {"business_operation_status": 1, "rating": null, "neighborhood": null, "image": null, "scorecard": null, "featured": false, "sample_categories": "Restaurants, Delis And Delicatessens, Sandwich Shops, Carry Out, Soups", "public_id": "subway-marietta-35", "id": 43855738, "votes": null, "tagline": null, "has_video": false, "website": "http://www.citysearch.com/profile/external/43855738/marietta_ga/subway.html", "offers": null, "latitude": 33.949315, "politanName": "Atlanta, GA Metro ", "phone_number": "6785603332", "tags": [{"primary": false, "id": 1727, "name": "Delis And Delicatessens"}, {"primary": false, "id": 1736, "name": "Sandwich Shops"}, {"primary": false, "id": 11247, "name": "Carry Out"}, {"primary": false, "id": 11311, "name": "Soups"}, {"primary": false, "id": 11361, "name": "MasterCard"}, {"primary": false, "id": 11382, "name": "Visa"}, {"primary": true, "id": 1722, "name": "Restaurants"}], "fax_number": null, "expansion": {"count": null, "uri": null}, "impression_id": "000b000000b8dc70a0ad494ade87e44f02109407cf", "profile": "http://www.citysearch.com/profile/43855738/marietta_ga/subway.html", "address": {"city": "Marietta", "state": "GA", "street": "2044 Lower Roswell Rd", "postal_code": "30068"}, "capProviderId": null, "distance": null, "has_offers": false, "name": "Subway", "longitude": -84.49256, "has_menu": true, "awards": null, "user_review_count": 0}, {"business_operation_status": 1, "rating": null, "neighborhood": null, "image": null, "scorecard": null, "featured": false, "sample_categories": "Restaurants, Carry Out, American Express, Discover, MasterCard", "public_id": "zaxbys-kennesaw-2", "id": 43864981, "votes": null, "tagline": null, "has_video": false, "website": "http://www.citysearch.com/profile/external/43864981/kennesaw_ga/zaxby_s.html", "offers": null, "latitude": 34.036091, "politanName": "Atlanta, GA Metro ", "phone_number": "7704295778", "tags": [{"primary": false, "id": 11247, "name": "Carry Out"}, {"primary": false, "id": 11333, "name": "American Express"}, {"primary": false, "id": 11349, "name": "Discover"}, {"primary": false, "id": 11361, "name": "MasterCard"}, {"primary": false, "id": 11382, "name": "Visa"}, {"primary": false, "id": 12839, "name": "Chicken"}, {"primary": true, "id": 1722, "name": "Restaurants"}], "fax_number": null, "expansion": {"count": null, "uri": null}, "impression_id": "000b000000bf7cf7d1972a4d37a21aabdcb02841f2", "profile": "http://www.citysearch.com/profile/43864981/kennesaw_ga/zaxby_s.html", "address": {"city": "Kennesaw", "state": "GA", "street": "780 Townpark Ln NW", "postal_code": "30144"}, "capProviderId": null, "distance": null, "has_offers": false, "name": "Zaxby's", "longitude": -84.574531, "has_menu": true, "awards": null, "user_review_count": 0}, {"business_operation_status": 1, "rating": null, "neighborhood": null, "image": null, "scorecard": null, "featured": false, "sample_categories": "Restaurants", "public_id": "the-mad-italian-marietta", "id": 826162680, "votes": null, "tagline": null, "has_video": false, "website": null, "offers": null, "latitude": 33.974656, "politanName": "Atlanta, GA Metro ", "phone_number": "6782130564", "tags": [{"primary": true, "id": 1722, "name": "Restaurants"}], "fax_number": null, "expansion": {"count": null, "uri": null}, "impression_id": "000b00000045d8cf309b994bd4af1c9627ebc69caa", "profile": "http://www.citysearch.com/profile/826162680/marietta_ga/the_mad_italian.html", "address": {"city": "Marietta", "state": "GA", "street": "980 E Piedmont Rd", "postal_code": "30062"}, "capProviderId": null, "distance": null, "has_offers": false, "name": "The Mad Italian", "longitude": -84.479091, "has_menu": true, "awards": null, "user_review_count": 0}, {"business_operation_status": 1, "rating": null, "neighborhood": null, "image": null, "scorecard": null, "featured": false, "sample_categories": "Ice Cream Parlors, Restaurants, Dessert Shops", "public_id": "dippin-dots-kennesaw", "id": 36642606, "votes": null, "tagline": null, "has_video": false, "website": "http://www.citysearch.com/profile/external/36642606/kennesaw_ga/dippin_dots.html", "offers": null, "latitude": 34.019128, "politanName": "Atlanta, GA Metro ", "phone_number": "7709191015", "tags": [{"primary": false, "id": 1722, "name": "Restaurants"}, {"primary": false, "id": 1728, "name": "Dessert Shops"}, {"primary": true, "id": 1730, "name": "Ice Cream Parlors"}], "fax_number": null, "expansion": {"count": null, "uri": null}, "impression_id": "000b00000080314be928a940a5b14e7e06d6678f60", "profile": "http://www.citysearch.com/profile/36642606/kennesaw_ga/dippin_dots.html", "address": {"city": "Kennesaw", "state": "GA", "street": "400 Ernest W Barrett Pkwy NW", "postal_code": "30144"}, "capProviderId": null, "distance": null, "has_offers": false, "name": "Dippin' Dots", "longitude": -84.563608, "has_menu": true, "awards": null, "user_review_count": 0}, {"business_operation_status": 1, "rating": null, "neighborhood": null, "image": null, "scorecard": null, "featured": false, "sample_categories": "Restaurants, Japanese, American Express, Discover, MasterCard", "public_id": "japan-express-marietta", "id": 36940470, "votes": null, "tagline": null, "has_video": false, "website": null, "offers": null, "latitude": 33.980787, "politanName": "Atlanta, GA Metro ", "phone_number": "7703216353", "tags": [{"primary": false, "id": 11202, "name": "Japanese"}, {"primary": false, "id": 11333, "name": "American Express"}, {"primary": false, "id": 11349, "name": "Discover"}, {"primary": false, "id": 11361, "name": "MasterCard"}, {"primary": false, "id": 11382, "name": "Visa"}, {"primary": true, "id": 1722, "name": "Restaurants"}], "fax_number": null, "expansion": {"count": null, "uri": null}, "impression_id": "000b000000297fc1ea3e54426caadffcd3fc689d85", "profile": "http://www.citysearch.com/profile/36940470/marietta_ga/japan_express.html", "address": {"city": "Marietta", "state": "GA", "street": "3101 Roswell Rd", "postal_code": "30062"}, "capProviderId": null, "distance": null, "has_offers": false, "name": "Japan Express", "longitude": -84.464028, "has_menu": true, "awards": null, "user_review_count": 0}, {"business_operation_status": 1, "rating": null, "neighborhood": null, "image": null, "scorecard": null, "featured": false, "sample_categories": "Ethnic Food Markets, Restaurants, Hispanic Food Products, Mexican", "public_id": "el-maizal-tortilleria-inc-kennesaw", "id": 36715365, "votes": null, "tagline": null, "has_video": false, "website": "http://www.citysearch.com/profile/external/36715365/kennesaw_ga/el_maizal_tortilleria_inc.html", "offers": null, "latitude": 34.056577, "politanName": "Atlanta, GA Metro ", "phone_number": "7709192501", "tags": [{"primary": false, "id": 1712, "name": "Ethnic Food Markets"}, {"primary": false, "id": 11153, "name": "Hispanic Food Products"}, {"primary": false, "id": 11208, "name": "Mexican"}, {"primary": true, "id": 1722, "name": "Restaurants"}], "fax_number": null, "expansion": {"count": null, "uri": null}, "impression_id": "000b0000003cb3755b4ae44b5293b1d05b96174f53", "profile": "http://www.citysearch.com/profile/36715365/kennesaw_ga/el_maizal_tortilleria_inc.html", "address": {"city": "Kennesaw", "state": "GA", "street": "1920 Shiloh Rd NW", "postal_code": "30144"}, "capProviderId": null, "distance": null, "has_offers": false, "name": "El Maizal Tortilleria Inc", "longitude": -84.606862, "has_menu": false, "awards": null, "user_review_count": 0}, {"business_operation_status": 1, "rating": null, "neighborhood": null, "image": null, "scorecard": null, "featured": false, "sample_categories": "Restaurants", "public_id": "kennesaw-thai-kennesaw", "id": 608222434, "votes": null, "tagline": null, "has_video": false, "website": null, "offers": null, "latitude": 34.020591, "politanName": "Atlanta, GA Metro ", "phone_number": "6783311988", "tags": [{"primary": true, "id": 1722, "name": "Restaurants"}], "fax_number": null, "expansion": {"count": null, "uri": null}, "impression_id": "000b000000719f438df609433397fc0e35bb5539e9", "profile": "http://www.citysearch.com/profile/608222434/kennesaw_ga/kennesaw_thai.html", "address": {"city": "Kennesaw", "state": "GA", "street": "2754 S Main Street", "postal_code": "30144"}, "capProviderId": null, "distance": null, "has_offers": false, "name": "Kennesaw Thai", "longitude": -84.612586, "has_menu": true, "awards": null, "user_review_count": 1}, {"business_operation_status": 0, "rating": 9.0, "neighborhood": null, "image": null, "scorecard": null, "featured": false, "sample_categories": "Restaurants, Coffee & Tea Shops", "public_id": "tiffanys-tea-room-marietta", "id": 37645595, "votes": null, "tagline": null, "has_video": false, "website": null, "offers": null, "latitude": 33.952532, "politanName": "Atlanta, GA Metro ", "phone_number": "7702188463", "tags": [{"primary": false, "id": 1711, "name": "Coffee & Tea Shops"}, {"primary": true, "id": 1722, "name": "Restaurants"}], "fax_number": null, "expansion": {"count": null, "uri": null}, "impression_id": "000b000000769aec5feef84a03b4c67d1182f25329", "profile": "http://www.citysearch.com/profile/37645595/marietta_ga/tiffanys_tea_room.html", "address": {"city": "Marietta", "state": "GA", "street": "21 W Park Sq NE", "postal_code": "30060"}, "capProviderId": null, "distance": null, "has_offers": false, "name": "Tiffanys Tea Room", "longitude": -84.550467, "has_menu": false, "awards": null, "user_review_count": 3}, {"business_operation_status": 1, "rating": null, "neighborhood": null, "image": null, "scorecard": null, "featured": false, "sample_categories": "Grocery Stores, Bakeries, Delis And Delicatessens, Florists, Department Stores", "public_id": "kroger-deli-marietta", "id": 621968220, "votes": null, "tagline": null, "has_video": false, "website": "http://www.citysearch.com/profile/external/621968220/marietta_ga/kroger_deli.html", "offers": null, "latitude": 34.038928, "politanName": "Atlanta, GA Metro ", "phone_number": "7709247930", "tags": [{"primary": false, "id": 1685, "name": "Bakeries"}, {"primary": false, "id": 1727, "name": "Delis And Delicatessens"}, {"primary": false, "id": 3921, "name": "Florists"}, {"primary": false, "id": 3924, "name": "Department Stores"}, {"primary": true, "id": 1713, "name": "Grocery Stores"}], "fax_number": null, "expansion": {"count": null, "uri": null}, "impression_id": "000b0000003856ffb2b8414c038b833ddb369c7e58", "profile": "http://www.citysearch.com/profile/621968220/marietta_ga/kroger_deli.html", "address": {"city": "Marietta", "state": "GA", "street": "3595 Canton Rd # B", "postal_code": "30066"}, "capProviderId": null, "distance": null, "has_offers": false, "name": "Kroger Deli", "longitude": -84.530249, "has_menu": false, "awards": null, "user_review_count": 0}, {"business_operation_status": 1, "rating": null, "neighborhood": null, "image": null, "scorecard": null, "featured": false, "sample_categories": "Restaurants, Carry Out", "public_id": "baja-fresh-mexican-grill-dallas-3", "id": 624919634, "votes": null, "tagline": null, "has_video": false, "website": "http://www.citysearch.com/profile/external/624919634/dallas_ga/baja_fresh_mexican_grill.html", "offers": null, "latitude": 34.038292, "politanName": "Atlanta, GA Metro ", "phone_number": "7704455434", "tags": [{"primary": false, "id": 11247, "name": "Carry Out"}, {"primary": true, "id": 1722, "name": "Restaurants"}], "fax_number": null, "expansion": {"count": null, "uri": null}, "impression_id": "000b0000009ecb459699c24f95a62faddc1ad92a8e", "profile": "http://www.citysearch.com/profile/624919634/dallas_ga/baja_fresh_mexican_grill.html", "address": {"city": "Dallas", "state": "GA", "street": "8860 Cartersville Hwy", "postal_code": "30132"}, "capProviderId": null, "distance": null, "has_offers": false, "name": "Baja Fresh Mexican Grill", "longitude": -84.84262, "has_menu": false, "awards": null, "user_review_count": 0}, {"business_operation_status": 1, "rating": null, "neighborhood": null, "image": null, "scorecard": null, "featured": false, "sample_categories": "Restaurants", "public_id": "tme-enterprises-iltd-marietta", "id": 631965290, "votes": null, "tagline": null, "has_video": false, "website": "http://www.citysearch.com/profile/external/631965290/marietta_ga/tme_enterprises_iltd.html", "offers": null, "latitude": 33.968631, "politanName": "Atlanta, GA Metro ", "phone_number": "7705652095", "tags": [{"primary": true, "id": 1722, "name": "Restaurants"}], "fax_number": null, "expansion": {"count": null, "uri": null}, "impression_id": "000b0000001f3af982675d4a1cb0efc627608f9d32", "profile": "http://www.citysearch.com/profile/631965290/marietta_ga/tme_enterprises_iltd.html", "address": {"city": "Marietta", "state": "GA", "street": "2169 Roswell Rd", "postal_code": "30062"}, "capProviderId": null, "distance": null, "has_offers": false, "name": "Tme Enterprises Iltd", "longitude": -84.489815, "has_menu": false, "awards": null, "user_review_count": 0}, {"business_operation_status": 1, "rating": null, "neighborhood": null, "image": null, "scorecard": null, "featured": false, "sample_categories": "Restaurants, Food Service Management", "public_id": "eurest-dining-svc-marietta", "id": 632989390, "votes": null, "tagline": null, "has_video": false, "website": "http://www.citysearch.com/profile/external/632989390/marietta_ga/eurest_dining_svc.html", "offers": null, "latitude": 33.929162, "politanName": "Atlanta, GA Metro ", "phone_number": "7706443211", "tags": [{"primary": false, "id": 11120, "name": "Food Service Management"}, {"primary": true, "id": 1722, "name": "Restaurants"}], "fax_number": null, "expansion": {"count": null, "uri": null}, "impression_id": "000b00000066e2b9db50654f7ab60482fc05f91e7e", "profile": "http://www.citysearch.com/profile/632989390/marietta_ga/eurest_dining_svc.html", "address": {"city": "Marietta", "state": "GA", "street": "814 Livingston Ct Se", "postal_code": "30067"}, "capProviderId": null, "distance": null, "has_offers": false, "name": "Eurest Dining Svc", "longitude": -84.499949, "has_menu": false, "awards": null, "user_review_count": 0}, {"business_operation_status": 1, "rating": null, "neighborhood": null, "image": null, "scorecard": null, "featured": false, "sample_categories": "Restaurants, Shop Online", "public_id": "freshnfit-marietta", "id": 621924400, "votes": null, "tagline": null, "has_video": false, "website": null, "offers": null, "latitude": 33.974036, "politanName": "Atlanta, GA Metro ", "phone_number": "7705092232", "tags": [{"primary": false, "id": 11375, "name": "Shop Online"}, {"primary": true, "id": 1722, "name": "Restaurants"}], "fax_number": null, "expansion": {"count": null, "uri": null}, "impression_id": "000b0000004072167394cd48bf922f3cb244bf8b76", "profile": "http://www.citysearch.com/profile/621924400/marietta_ga/fresh_n_fit.html", "address": {"city": "Marietta", "state": "GA", "street": "2265 Roswell Rd", "postal_code": "30062"}, "capProviderId": null, "distance": null, "has_offers": false, "name": "Fresh-N-Fit", "longitude": -84.485346, "has_menu": false, "awards": null, "user_review_count": 0}, {"business_operation_status": 1, "rating": null, "neighborhood": null, "image": null, "scorecard": null, "featured": false, "sample_categories": "Restaurants, Carry Out", "public_id": "panera-bread-kennesaw-3", "id": 621013304, "votes": null, "tagline": null, "has_video": false, "website": "http://www.citysearch.com/profile/external/621013304/kennesaw_ga/panera_bread.html", "offers": null, "latitude": 34.016149, "politanName": "Atlanta, GA Metro ", "phone_number": "7704851240", "tags": [{"primary": false, "id": 11247, "name": "Carry Out"}, {"primary": true, "id": 1722, "name": "Restaurants"}], "fax_number": null, "expansion": {"count": null, "uri": null}, "impression_id": "000b0000003d2dbdcc9e724a7ab25c507af64b02d9", "profile": "http://www.citysearch.com/profile/621013304/kennesaw_ga/panera_bread.html", "address": {"city": "Kennesaw", "state": "GA", "street": "3629 Hollyhock Way NW", "postal_code": "30152"}, "capProviderId": null, "distance": null, "has_offers": false, "name": "Panera Bread", "longitude": -84.658211, "has_menu": false, "awards": null, "user_review_count": 0}], "histograms": [], "tag_ids": [1722], "uri": "http://api.citygridmedia.com:8080/search/places/v2/search/where?has_offers=false&type=restaurant&format=json&page=23&where=30064&rpp=50&histograms=false&publisher=10000009598&region_type=circle", "did_you_mean": "", "regions": [{"latitude": 33.938860999999996, "default_radius": 5.31, "type": "postal_code", "name": "30064", "longitude": -84.614086}], "call_id": "000b000000f6b21c8e4cc84c508e1b8bab7a206a22", "first_hit": 1101, "total_hits": 1588, "geo_ids": [26293], "page": 23, "last_hit": 1150}}