{"results": {"rpp": 50, "locations": [{"business_operation_status": 1, "rating": null, "neighborhood": null, "image": null, "scorecard": null, "featured": false, "sample_categories": "Restaurants", "public_id": "real-cabana-restaurant-inc-marietta", "id": 764845910, "votes": null, "tagline": null, "has_video": false, "website": null, "offers": null, "latitude": 33.905083, "politanName": "Atlanta, GA Metro ", "phone_number": "7704364079", "tags": [{"primary": true, "id": 1722, "name": "Restaurants"}], "fax_number": null, "expansion": {"count": null, "uri": null}, "impression_id": "000b00000055e3c4a683ca44c985e277bc6c19cb33", "profile": "http://www.citysearch.com/profile/764845910/marietta_ga/real_cabana_restaurant_inc.html", "address": {"city": "Marietta", "state": "GA", "street": "1977 S Cobb Dr SE", "postal_code": "30060"}, "capProviderId": null, "distance": null, "has_offers": false, "name": "Real Cabana Restaurant Inc", "longitude": -84.542545, "has_menu": false, "awards": null, "user_review_count": 0}, {"business_operation_status": 1, "rating": null, "neighborhood": null, "image": null, "scorecard": null, "featured": false, "sample_categories": "Restaurants, Bars & Pubs", "public_id": "breaking-point-sports-bar-marietta", "id": 764906570, "votes": null, "tagline": null, "has_video": false, "website": null, "offers": null, "latitude": 33.936757, "politanName": "Atlanta, GA Metro ", "phone_number": "7704264199", "tags": [{"primary": false, "id": 1686, "name": "Bars & Pubs"}, {"primary": true, "id": 1722, "name": "Restaurants"}], "fax_number": null, "expansion": {"count": null, "uri": null}, "impression_id": "000b00000060c788064a7c46c79585ad22f4ada676", "profile": "http://www.citysearch.com/profile/764906570/marietta_ga/breaking_point_sports_bar.html", "address": {"city": "Marietta", "state": "GA", "street": "680 Powder Springs St", "postal_code": "30064"}, "capProviderId": null, "distance": null, "has_offers": false, "name": "Breaking Point Sports Bar", "longitude": -84.557357, "has_menu": false, "awards": null, "user_review_count": 0}, {"business_operation_status": 1, "rating": null, "neighborhood": null, "image": null, "scorecard": null, "featured": false, "sample_categories": "Restaurants, Delis And Delicatessens, Carry Out, American Express, Debit Card", "public_id": "firehouse-subs-marietta", "id": 43849250, "votes": null, "tagline": null, "has_video": false, "website": "http://www.citysearch.com/profile/external/43849250/marietta_ga/firehouse_subs.html", "offers": null, "latitude": 33.97713, "politanName": "Atlanta, GA Metro ", "phone_number": "7705655952", "tags": [{"primary": false, "id": 1727, "name": "Delis And Delicatessens"}, {"primary": false, "id": 11247, "name": "Carry Out"}, {"primary": false, "id": 11333, "name": "American Express"}, {"primary": false, "id": 11347, "name": "Debit Card"}, {"primary": false, "id": 11349, "name": "Discover"}, {"primary": false, "id": 11361, "name": "MasterCard"}, {"primary": false, "id": 11382, "name": "Visa"}, {"primary": true, "id": 1722, "name": "Restaurants"}], "fax_number": null, "expansion": {"count": null, "uri": null}, "impression_id": "000b0000000b3224b77dc64d40a2ede89f20caabe6", "profile": "http://www.citysearch.com/profile/43849250/marietta_ga/firehouse_subs.html", "address": {"city": "Marietta", "state": "GA", "street": "1100 Johnson Ferry Rd", "postal_code": "30068"}, "capProviderId": null, "distance": null, "has_offers": false, "name": "Firehouse Subs", "longitude": -84.414566, "has_menu": true, "awards": null, "user_review_count": 0}, {"business_operation_status": 0, "rating": null, "neighborhood": null, "image": null, "scorecard": null, "featured": false, "sample_categories": "Art Galleries, Restaurants, Pizza", "public_id": "art-of-the-pie-atlanta", "id": 43873073, "votes": null, "tagline": null, "has_video": false, "website": null, "offers": null, "latitude": 33.887616, "politanName": "Atlanta, GA Metro ", "phone_number": "7709568282", "tags": [{"primary": false, "id": 6043, "name": "Art Galleries"}, {"primary": false, "id": 11299, "name": "Pizza"}, {"primary": true, "id": 1722, "name": "Restaurants"}], "fax_number": null, "expansion": {"count": null, "uri": null}, "impression_id": "000b000000c2e62ab050c54187a169f58bee80169b", "profile": "http://www.citysearch.com/profile/43873073/atlanta_ga/art_of_the_pie.html", "address": {"city": "Atlanta", "state": "GA", "street": "2241 Akers Mill Rd SE", "postal_code": "30339"}, "capProviderId": null, "distance": null, "has_offers": false, "name": "Art of The Pie", "longitude": -84.45545, "has_menu": false, "awards": null, "user_review_count": 0}, {"business_operation_status": 1, "rating": null, "neighborhood": null, "image": null, "scorecard": null, "featured": false, "sample_categories": "Restaurants", "public_id": "sunshine-cafe-atlanta", "id": 40947579, "votes": null, "tagline": null, "has_video": false, "website": "http://www.citysearch.com/profile/external/40947579/atlanta_ga/sunshine_cafe.html", "offers": null, "latitude": 33.9096, "politanName": "Atlanta, GA Metro ", "phone_number": "7702269444", "tags": [{"primary": true, "id": 1722, "name": "Restaurants"}], "fax_number": null, "expansion": {"count": null, "uri": null}, "impression_id": "000b00000071451903830b4546b4158ee4ea3ab96b", "profile": "http://www.citysearch.com/profile/40947579/atlanta_ga/sunshine_cafe.html", "address": {"city": "Atlanta", "state": "GA", "street": "6151 Powers Ferry Rd NW Ste 140", "postal_code": "30339"}, "capProviderId": null, "distance": null, "has_offers": false, "name": "Sunshine Cafe", "longitude": -84.426412, "has_menu": true, "awards": null, "user_review_count": 1}, {"business_operation_status": 1, "rating": null, "neighborhood": null, "image": null, "scorecard": null, "featured": false, "sample_categories": "Restaurants, Barbecue Restaurants", "public_id": "wings-fiesta-smyrna", "id": 43853119, "votes": null, "tagline": null, "has_video": false, "website": null, "offers": null, "latitude": 33.892507, "politanName": "Atlanta, GA Metro ", "phone_number": "7704349999", "tags": [{"primary": false, "id": 1724, "name": "Barbecue Restaurants"}, {"primary": true, "id": 1722, "name": "Restaurants"}], "fax_number": null, "expansion": {"count": null, "uri": null}, "impression_id": "000b000000060b6aafda024cf5bf38c1da46eeb2db", "profile": "http://www.citysearch.com/profile/43853119/smyrna_ga/wings_fiesta.html", "address": {"city": "Smyrna", "state": "GA", "street": "2500 S Cobb Dr SE", "postal_code": "30080"}, "capProviderId": null, "distance": null, "has_offers": false, "name": "Wings Fiesta", "longitude": -84.537976, "has_menu": false, "awards": null, "user_review_count": 0}, {"business_operation_status": 1, "rating": null, "neighborhood": null, "image": null, "scorecard": null, "featured": false, "sample_categories": "Restaurants, Steakhouse", "public_id": "steak-escape-atlanta", "id": 43874404, "votes": null, "tagline": null, "has_video": false, "website": "http://www.citysearch.com/profile/external/43874404/atlanta_ga/steak_escape.html", "offers": null, "latitude": 33.879293, "politanName": "Atlanta, GA Metro ", "phone_number": "7704348988", "tags": [{"primary": false, "id": 11316, "name": "Steakhouse"}, {"primary": true, "id": 1722, "name": "Restaurants"}], "fax_number": null, "expansion": {"count": null, "uri": null}, "impression_id": "000b000000f5178f21b3c14314bf936e3422231520", "profile": "http://www.citysearch.com/profile/43874404/atlanta_ga/steak_escape.html", "address": {"city": "Atlanta", "state": "GA", "street": "1310 Cumberland Mall SE", "postal_code": "30339"}, "capProviderId": null, "distance": null, "has_offers": false, "name": "Steak Escape", "longitude": -84.471307, "has_menu": true, "awards": null, "user_review_count": 0}, {"business_operation_status": 1, "rating": null, "neighborhood": null, "image": null, "scorecard": null, "featured": false, "sample_categories": "Restaurants", "public_id": "hms-host-atlanta-7", "id": 813608660, "votes": null, "tagline": null, "has_video": false, "website": null, "offers": null, "latitude": 33.878815, "politanName": "Atlanta, GA Metro ", "phone_number": "4045303680", "tags": [{"primary": true, "id": 1722, "name": "Restaurants"}], "fax_number": null, "expansion": {"count": null, "uri": null}, "impression_id": "000b000000620e6563cf1347e8b3bfc2987b4aecb8", "profile": "http://www.citysearch.com/profile/813608660/atlanta_ga/hms_host.html", "address": {"city": "Atlanta", "state": "GA", "street": "215 I North Pkwy SE", "postal_code": "30339"}, "capProviderId": null, "distance": null, "has_offers": false, "name": "Hms Host", "longitude": -84.464518, "has_menu": false, "awards": null, "user_review_count": 0}, {"business_operation_status": 1, "rating": null, "neighborhood": null, "image": null, "scorecard": null, "featured": false, "sample_categories": "Restaurants", "public_id": "vito-goldbergs-marietta", "id": 814374650, "votes": null, "tagline": null, "has_video": false, "website": "http://www.citysearch.com/profile/external/814374650/marietta_ga/vito_goldberg_s.html", "offers": null, "latitude": 33.951001, "politanName": "Atlanta, GA Metro ", "phone_number": "7707958631", "tags": [{"primary": true, "id": 1722, "name": "Restaurants"}], "fax_number": null, "expansion": {"count": null, "uri": null}, "impression_id": "000b000000b86fb960b56643a29d41489bf09e9d5a", "profile": "http://www.citysearch.com/profile/814374650/marietta_ga/vito_goldberg_s.html", "address": {"city": "Marietta", "state": "GA", "street": "999 Whitlock Ave SW", "postal_code": "30064"}, "capProviderId": null, "distance": null, "has_offers": false, "name": "Vito Goldberg's", "longitude": -84.57917, "has_menu": false, "awards": null, "user_review_count": 0}, {"business_operation_status": 1, "rating": null, "neighborhood": null, "image": null, "scorecard": null, "featured": false, "sample_categories": "Restaurants", "public_id": "blue-sky-cafe-atlanta", "id": 45568411, "votes": null, "tagline": null, "has_video": false, "website": null, "offers": null, "latitude": 33.885476, "politanName": "Atlanta, GA Metro ", "phone_number": "7709552285", "tags": [{"primary": true, "id": 1722, "name": "Restaurants"}], "fax_number": null, "expansion": {"count": null, "uri": null}, "impression_id": "000b0000008365056823b7493b9cca2c3d05c3699e", "profile": "http://www.citysearch.com/profile/45568411/atlanta_ga/blue_sky_cafe.html", "address": {"city": "Atlanta", "state": "GA", "street": "600 Galleria Pkwy SE Ste 180", "postal_code": "30339"}, "capProviderId": null, "distance": null, "has_offers": false, "name": "Blue Sky Cafe", "longitude": -84.461662, "has_menu": false, "awards": null, "user_review_count": 0}, {"business_operation_status": 1, "rating": null, "neighborhood": null, "image": null, "scorecard": null, "featured": false, "sample_categories": "Ice Cream Parlors", "public_id": "marble-slab-creamery-smyrna", "id": 822378770, "votes": null, "tagline": null, "has_video": false, "website": null, "offers": null, "latitude": 33.884889, "politanName": "Atlanta, GA Metro ", "phone_number": "7704333336", "tags": [{"primary": true, "id": 1730, "name": "Ice Cream Parlors"}], "fax_number": null, "expansion": {"count": null, "uri": null}, "impression_id": "000b000000fccd15751bf246c482faa14dca866482", "profile": "http://www.citysearch.com/profile/822378770/smyrna_ga/marble_slab_creamery.html", "address": {"city": "Smyrna", "state": "GA", "street": "400 Village Green Cir SE", "postal_code": "30080"}, "capProviderId": null, "distance": null, "has_offers": false, "name": "Marble Slab Creamery", "longitude": -84.516415, "has_menu": false, "awards": null, "user_review_count": 0}, {"business_operation_status": 1, "rating": null, "neighborhood": null, "image": null, "scorecard": null, "featured": false, "sample_categories": "Restaurants", "public_id": "great-wraps-atlanta-12", "id": 836734760, "votes": null, "tagline": null, "has_video": false, "website": null, "offers": null, "latitude": 33.881743, "politanName": "Atlanta, GA Metro ", "phone_number": "7704323946", "tags": [{"primary": true, "id": 1722, "name": "Restaurants"}], "fax_number": null, "expansion": {"count": null, "uri": null}, "impression_id": "000b000000004c04d7740841a584399dd90e6b47de", "profile": "http://www.citysearch.com/profile/836734760/atlanta_ga/great_wraps.html", "address": {"city": "Atlanta", "state": "GA", "street": "1000 Cumberland Mall SE", "postal_code": "30339"}, "capProviderId": null, "distance": null, "has_offers": false, "name": "Great Wraps", "longitude": -84.470084, "has_menu": true, "awards": null, "user_review_count": 0}, {"business_operation_status": 0, "rating": null, "neighborhood": null, "image": null, "scorecard": null, "featured": false, "sample_categories": "Restaurants, Middle Eastern", "public_id": "shamshiri-persian-restaurant-atlanta", "id": 3037897, "votes": null, "tagline": null, "has_video": false, "website": null, "offers": null, "latitude": 33.910461, "politanName": "Atlanta, GA Metro ", "phone_number": "4048519566", "tags": [{"primary": false, "id": 11215, "name": "Middle Eastern"}, {"primary": true, "id": 1722, "name": "Restaurants"}], "fax_number": null, "expansion": {"count": null, "uri": null}, "impression_id": "000b0000000f2509bd528c48ffb886401c46f16d37", "profile": "http://www.citysearch.com/profile/3037897/atlanta_ga/shamshiri_persian_restaurant.html", "address": {"city": "Atlanta", "state": "GA", "street": "215 Northwood Dr NE Ste 11", "postal_code": "30342"}, "capProviderId": null, "distance": null, "has_offers": false, "name": "Shamshiri Persian Restaurant", "longitude": -84.379872, "has_menu": false, "awards": null, "user_review_count": 0}, {"business_operation_status": 1, "rating": null, "neighborhood": null, "image": null, "scorecard": null, "featured": false, "sample_categories": "Restaurants, Luaus", "public_id": "soup-garden-atlanta", "id": 809055650, "votes": null, "tagline": null, "has_video": false, "website": null, "offers": null, "latitude": 33.883196, "politanName": "Atlanta, GA Metro ", "phone_number": "7709555726", "tags": [{"primary": false, "id": 11285, "name": "Luaus"}, {"primary": true, "id": 1722, "name": "Restaurants"}], "fax_number": null, "expansion": {"count": null, "uri": null}, "impression_id": "000b0000007fa0d4b19d0e432da64458e3576f6232", "profile": "http://www.citysearch.com/profile/809055650/atlanta_ga/soup_garden.html", "address": {"city": "Atlanta", "state": "GA", "street": "2955 Cobb Pkwy SE # 240", "postal_code": "30339"}, "capProviderId": null, "distance": null, "has_offers": false, "name": "Soup Garden", "longitude": -84.461616, "has_menu": false, "awards": null, "user_review_count": 0}, {"business_operation_status": 1, "rating": null, "neighborhood": null, "image": null, "scorecard": null, "featured": false, "sample_categories": "Restaurants, Delis And Delicatessens", "public_id": "philly-connection-atlanta-2", "id": 37653250, "votes": null, "tagline": null, "has_video": false, "website": null, "offers": null, "latitude": 33.901998, "politanName": "Atlanta, GA Metro ", "phone_number": "7709523168", "tags": [{"primary": false, "id": 1727, "name": "Delis And Delicatessens"}, {"primary": true, "id": 1722, "name": "Restaurants"}], "fax_number": null, "expansion": {"count": null, "uri": null}, "impression_id": "000b0000002b4d90ecbf774694966cc616162c2037", "profile": "http://www.citysearch.com/profile/37653250/atlanta_ga/philly_connection.html", "address": {"city": "Atlanta", "state": "GA", "street": "120 Interstate North Pkwy SE", "postal_code": "30339"}, "capProviderId": null, "distance": null, "has_offers": false, "name": "Philly Connection", "longitude": -84.464688, "has_menu": true, "awards": null, "user_review_count": 0}, {"business_operation_status": 1, "rating": null, "neighborhood": null, "image": null, "scorecard": null, "featured": false, "sample_categories": "Restaurants", "public_id": "statewide-development-atlanta", "id": 808723820, "votes": null, "tagline": null, "has_video": false, "website": null, "offers": null, "latitude": 33.9093, "politanName": "Atlanta, GA Metro ", "phone_number": "6785466070", "tags": [{"primary": true, "id": 1722, "name": "Restaurants"}], "fax_number": null, "expansion": {"count": null, "uri": null}, "impression_id": "000b00000052b2919817b040cd89f51af498d5fc11", "profile": "http://www.citysearch.com/profile/808723820/atlanta_ga/statewide_development.html", "address": {"city": "Atlanta", "state": "GA", "street": "1775 The Exchange SE # 190", "postal_code": "30339"}, "capProviderId": null, "distance": null, "has_offers": false, "name": "Statewide Development", "longitude": -84.480035, "has_menu": false, "awards": null, "user_review_count": 0}, {"business_operation_status": 1, "rating": null, "neighborhood": null, "image": null, "scorecard": null, "featured": false, "sample_categories": "Restaurants", "public_id": "restaurant-brokers-atlanta-2", "id": 809337440, "votes": null, "tagline": null, "has_video": false, "website": null, "offers": null, "latitude": 33.927033, "politanName": "Atlanta, GA Metro ", "phone_number": "4043037048", "tags": [{"primary": true, "id": 1722, "name": "Restaurants"}], "fax_number": null, "expansion": {"count": null, "uri": null}, "impression_id": "000b000000288116364292483b92c609e2cff5f51a", "profile": "http://www.citysearch.com/profile/809337440/atlanta_ga/restaurant_brokers.html", "address": {"city": "Atlanta", "state": "GA", "street": "80 Johnson Ferry Rd NE", "postal_code": "30328"}, "capProviderId": null, "distance": null, "has_offers": false, "name": "Restaurant Brokers", "longitude": -84.38392, "has_menu": false, "awards": null, "user_review_count": 0}, {"business_operation_status": 1, "rating": null, "neighborhood": null, "image": null, "scorecard": null, "featured": false, "sample_categories": "Restaurants", "public_id": "roadside-cafe-marietta", "id": 809569360, "votes": null, "tagline": null, "has_video": false, "website": null, "offers": null, "latitude": 33.973353, "politanName": "Atlanta, GA Metro ", "phone_number": "6782908551", "tags": [{"primary": true, "id": 1722, "name": "Restaurants"}], "fax_number": null, "expansion": {"count": null, "uri": null}, "impression_id": "000b000000284aba73e69e473bba353a250c85c913", "profile": "http://www.citysearch.com/profile/809569360/marietta_ga/roadside_cafe.html", "address": {"city": "Marietta", "state": "GA", "street": "915 Cobb Pkwy N", "postal_code": "30062"}, "capProviderId": null, "distance": null, "has_offers": false, "name": "Roadside Cafe", "longitude": -84.54318, "has_menu": false, "awards": null, "user_review_count": 0}, {"business_operation_status": 1, "rating": null, "neighborhood": null, "image": null, "scorecard": null, "featured": false, "sample_categories": "Restaurants, Ice Cream Parlors", "public_id": "tcby-marietta-3", "id": 814186530, "votes": null, "tagline": null, "has_video": false, "website": "http://www.citysearch.com/profile/external/814186530/marietta_ga/tcby.html", "offers": null, "latitude": 33.969806, "politanName": "Atlanta, GA Metro ", "phone_number": "7705798833", "tags": [{"primary": false, "id": 1730, "name": "Ice Cream Parlors"}, {"primary": true, "id": 1722, "name": "Restaurants"}], "fax_number": null, "expansion": {"count": null, "uri": null}, "impression_id": "000b0000004763d9f720cb43df9c531e39cdafef95", "profile": "http://www.citysearch.com/profile/814186530/marietta_ga/tcby.html", "address": {"city": "Marietta", "state": "GA", "street": "2200 Roswell Rd", "postal_code": "30062"}, "capProviderId": null, "distance": null, "has_offers": false, "name": "TCBY", "longitude": -84.487911, "has_menu": true, "awards": null, "user_review_count": 0}, {"business_operation_status": 1, "rating": null, "neighborhood": null, "image": null, "scorecard": null, "featured": false, "sample_categories": "Restaurants", "public_id": "champs-barbq-smyrna", "id": 819797740, "votes": null, "tagline": null, "has_video": false, "website": null, "offers": null, "latitude": 33.896088, "politanName": "Atlanta, GA Metro ", "phone_number": "7704386618", "tags": [{"primary": true, "id": 1722, "name": "Restaurants"}], "fax_number": null, "expansion": {"count": null, "uri": null}, "impression_id": "000b000000eaf2736e2e1e45939622205040d6b9e9", "profile": "http://www.citysearch.com/profile/819797740/smyrna_ga/champs_bar_b_q.html", "address": {"city": "Smyrna", "state": "GA", "street": "2300 S Cobb Dr SE", "postal_code": "30080"}, "capProviderId": null, "distance": null, "has_offers": false, "name": "Champs Bar-B-Q", "longitude": -84.539784, "has_menu": false, "awards": null, "user_review_count": 0}, {"business_operation_status": 1, "rating": null, "neighborhood": null, "image": null, "scorecard": null, "featured": false, "sample_categories": "Catering, Restaurants, Traditional American, Food Delivery", "public_id": "gowaiter-atlanta-atlanta", "id": 755520650, "votes": null, "tagline": null, "has_video": false, "website": null, "offers": null, "latitude": 33.914823, "politanName": "Atlanta, GA Metro ", "phone_number": "4042521313", "tags": [{"primary": false, "id": 1722, "name": "Restaurants"}, {"primary": false, "id": 11190, "name": "Traditional American"}, {"primary": false, "id": 11267, "name": "Food Delivery"}, {"primary": true, "id": 1705, "name": "Catering"}], "fax_number": null, "expansion": {"count": null, "uri": null}, "impression_id": "000b0000001be2bed5356e47328f056089bb9dacab", "profile": "http://www.citysearch.com/profile/755520650/atlanta_ga/gowaiter_atlanta.html", "address": {"city": "Atlanta", "state": "GA", "street": "5825 Glenridge Dr Ste 3-245", "postal_code": "30328"}, "capProviderId": null, "distance": null, "has_offers": false, "name": "GoWaiter Atlanta", "longitude": -84.361566, "has_menu": false, "awards": null, "user_review_count": 0}, {"business_operation_status": 1, "rating": null, "neighborhood": null, "image": null, "scorecard": null, "featured": false, "sample_categories": "Restaurants, Barbecue Restaurants", "public_id": "wing-zone-franchise-corp-atlanta", "id": 43874042, "votes": null, "tagline": null, "has_video": false, "website": "http://www.citysearch.com/profile/external/43874042/atlanta_ga/wing_zone_franchise_corp.html", "offers": null, "latitude": 33.887557, "politanName": "Atlanta, GA Metro ", "phone_number": "4048755045", "tags": [{"primary": false, "id": 1724, "name": "Barbecue Restaurants"}, {"primary": true, "id": 1722, "name": "Restaurants"}], "fax_number": null, "expansion": {"count": null, "uri": null}, "impression_id": "000b0000002fc5e823aa494bd6af46e10255961ee5", "profile": "http://www.citysearch.com/profile/43874042/atlanta_ga/wing_zone_franchise_corp.html", "address": {"city": "Atlanta", "state": "GA", "street": "900 Circle 75 Pkwy SE Ste 930", "postal_code": "30339"}, "capProviderId": null, "distance": null, "has_offers": false, "name": "Wing Zone Franchise Corp", "longitude": -84.467746, "has_menu": true, "awards": null, "user_review_count": 0}, {"business_operation_status": 1, "rating": null, "neighborhood": null, "image": null, "scorecard": null, "featured": false, "sample_categories": "Restaurants, Catering, Traditional American", "public_id": "signature-hot-dogs-atlanta-2", "id": 762771120, "votes": null, "tagline": null, "has_video": false, "website": null, "offers": null, "latitude": 33.955038, "politanName": "Atlanta, GA Metro ", "phone_number": "4048493590", "tags": [{"primary": false, "id": 1705, "name": "Catering"}, {"primary": false, "id": 11190, "name": "Traditional American"}, {"primary": true, "id": 1722, "name": "Restaurants"}], "fax_number": null, "expansion": {"count": null, "uri": null}, "impression_id": "000b000000b0e034a8206a48d898809ad51837bb69", "profile": "http://www.citysearch.com/profile/762771120/atlanta_ga/signature_hot_dogs.html", "address": {"city": "Atlanta", "state": "GA", "street": "17 Dalrymple Rd NE", "postal_code": "30328"}, "capProviderId": null, "distance": null, "has_offers": false, "name": "Signature Hot Dogs", "longitude": -84.387023, "has_menu": false, "awards": null, "user_review_count": 0}, {"business_operation_status": 1, "rating": null, "neighborhood": null, "image": null, "scorecard": null, "featured": false, "sample_categories": "Restaurants, Sandwich Shops, Pizza, Carry Out, Food Delivery", "public_id": "dominos-pizza-marietta-7", "id": 44772710, "votes": null, "tagline": null, "has_video": false, "website": "http://www.citysearch.com/profile/external/44772710/marietta_ga/domino_s_pizza.html", "offers": null, "latitude": 33.965439, "politanName": "Atlanta, GA Metro ", "phone_number": "7706417020", "tags": [{"primary": false, "id": 1722, "name": "Restaurants"}, {"primary": false, "id": 1736, "name": "Sandwich Shops"}, {"primary": false, "id": 11247, "name": "Carry Out"}, {"primary": false, "id": 11267, "name": "Food Delivery"}, {"primary": false, "id": 11375, "name": "Shop Online"}, {"primary": true, "id": 11299, "name": "Pizza"}], "fax_number": null, "expansion": {"count": null, "uri": null}, "impression_id": "000b000000f085cd4e1d6f432fa76867a07d37a016", "profile": "http://www.citysearch.com/profile/44772710/marietta_ga/domino_s_pizza.html", "address": {"city": "Marietta", "state": "GA", "street": "4724 Lower Roswell Rd 101", "postal_code": "30068"}, "capProviderId": null, "distance": null, "has_offers": false, "name": "Domino's Pizza", "longitude": -84.413746, "has_menu": true, "awards": null, "user_review_count": 0}, {"business_operation_status": 1, "rating": null, "neighborhood": null, "image": null, "scorecard": null, "featured": false, "sample_categories": "Restaurants", "public_id": "unsukay-inc-atlanta", "id": 793286370, "votes": null, "tagline": null, "has_video": false, "website": null, "offers": null, "latitude": 33.907787, "politanName": "Atlanta, GA Metro ", "phone_number": "6784028471", "tags": [{"primary": true, "id": 1722, "name": "Restaurants"}], "fax_number": null, "expansion": {"count": null, "uri": null}, "impression_id": "000b00000096be069ba523437489b095d36001c051", "profile": "http://www.citysearch.com/profile/793286370/atlanta_ga/unsukay_inc.html", "address": {"city": "Atlanta", "state": "GA", "street": "1899 Powers Ferry Rd Se", "postal_code": "30339"}, "capProviderId": null, "distance": null, "has_offers": false, "name": "Unsukay INC", "longitude": -84.463769, "has_menu": false, "awards": null, "user_review_count": 0}, {"business_operation_status": 1, "rating": null, "neighborhood": null, "image": null, "scorecard": null, "featured": false, "sample_categories": "Restaurants", "public_id": "dineout-inc-marietta", "id": 807939100, "votes": null, "tagline": null, "has_video": false, "website": null, "offers": null, "latitude": 34.021269, "politanName": "Atlanta, GA Metro ", "phone_number": "7705656984", "tags": [{"primary": true, "id": 1722, "name": "Restaurants"}], "fax_number": null, "expansion": {"count": null, "uri": null}, "impression_id": "000b0000008216042b84a04e5ba4c4b8a080566880", "profile": "http://www.citysearch.com/profile/807939100/marietta_ga/dineout_inc.html", "address": {"city": "Marietta", "state": "GA", "street": "1705 Macby Dr", "postal_code": "30066"}, "capProviderId": null, "distance": null, "has_offers": false, "name": "Dineout Inc", "longitude": -84.502556, "has_menu": false, "awards": null, "user_review_count": 0}, {"business_operation_status": 1, "rating": null, "neighborhood": null, "image": null, "scorecard": null, "featured": false, "sample_categories": "Restaurants, Carry Out, Italian, Pizza", "public_id": "sbarro-smyrna", "id": 45082264, "votes": null, "tagline": null, "has_video": false, "website": "http://www.citysearch.com/profile/external/45082264/smyrna_ga/sbarro.html", "offers": null, "latitude": 33.874593, "politanName": "Atlanta, GA Metro ", "phone_number": "7704358311", "tags": [{"primary": false, "id": 11247, "name": "Carry Out"}, {"primary": false, "id": 11279, "name": "Italian"}, {"primary": false, "id": 11299, "name": "Pizza"}, {"primary": true, "id": 1722, "name": "Restaurants"}], "fax_number": null, "expansion": {"count": null, "uri": null}, "impression_id": "000b000000c1308137d2d045d08d62a148d4b00644", "profile": "http://www.citysearch.com/profile/45082264/smyrna_ga/sbarro.html", "address": {"city": "Smyrna", "state": "GA", "street": "1000 Cumberland Ct SE", "postal_code": "30080"}, "capProviderId": null, "distance": null, "has_offers": false, "name": "Sbarro", "longitude": -84.479034, "has_menu": true, "awards": null, "user_review_count": 0}, {"business_operation_status": 1, "rating": null, "neighborhood": null, "image": null, "scorecard": null, "featured": false, "sample_categories": "Restaurants", "public_id": "out-of-the-box-gifts-marietta", "id": 812371140, "votes": null, "tagline": null, "has_video": false, "website": null, "offers": null, "latitude": 33.982834, "politanName": "Atlanta, GA Metro ", "phone_number": "7702185455", "tags": [{"primary": true, "id": 1722, "name": "Restaurants"}], "fax_number": null, "expansion": {"count": null, "uri": null}, "impression_id": "000b0000008112979c53fb485fa06dcbd9e5103427", "profile": "http://www.citysearch.com/profile/812371140/marietta_ga/out_of_the_box_gifts.html", "address": {"city": "Marietta", "state": "GA", "street": "1343 Canton Rd", "postal_code": "30066"}, "capProviderId": null, "distance": null, "has_offers": false, "name": "Out Of The Box Gifts", "longitude": -84.538604, "has_menu": false, "awards": null, "user_review_count": 0}, {"business_operation_status": 1, "rating": null, "neighborhood": null, "image": null, "scorecard": null, "featured": false, "sample_categories": "Restaurants", "public_id": "a-taste-of-puerto-rico-marietta-2", "id": 813840920, "votes": null, "tagline": null, "has_video": false, "website": null, "offers": null, "latitude": 34.017341, "politanName": "Atlanta, GA Metro ", "phone_number": "6787979992", "tags": [{"primary": true, "id": 1722, "name": "Restaurants"}], "fax_number": null, "expansion": {"count": null, "uri": null}, "impression_id": "000b00000034fb1ce53fba480ebe799c49c585a34b", "profile": "http://www.citysearch.com/profile/813840920/marietta_ga/a_taste_of_puerto_rico.html", "address": {"city": "Marietta", "state": "GA", "street": "2769 Chastn Mdws Pkwy # 90", "postal_code": "30066"}, "capProviderId": null, "distance": null, "has_offers": false, "name": "A Taste Of Puerto Rico", "longitude": -84.555709, "has_menu": false, "awards": null, "user_review_count": 0}, {"business_operation_status": 1, "rating": null, "neighborhood": null, "image": null, "scorecard": null, "featured": false, "sample_categories": "Restaurants", "public_id": "wing-enterprises-inc-atlanta", "id": 816766630, "votes": null, "tagline": null, "has_video": false, "website": null, "offers": null, "latitude": 33.887519, "politanName": "Atlanta, GA Metro ", "phone_number": "4048751688", "tags": [{"primary": true, "id": 1722, "name": "Restaurants"}], "fax_number": null, "expansion": {"count": null, "uri": null}, "impression_id": "000b00000095d596c4b0604f21b0266ca6a60a81fd", "profile": "http://www.citysearch.com/profile/816766630/atlanta_ga/wing_enterprises_inc.html", "address": {"city": "Atlanta", "state": "GA", "street": "900 Circle 75 Pkwy SE # 930", "postal_code": "30339"}, "capProviderId": null, "distance": null, "has_offers": false, "name": "Wing Enterprises Inc", "longitude": -84.467593, "has_menu": false, "awards": null, "user_review_count": 0}, {"business_operation_status": 1, "rating": 6.0, "neighborhood": null, "image": null, "scorecard": null, "featured": false, "sample_categories": "Restaurants, Bars & Pubs, Taverns, Barbecue Restaurants, MasterCard", "public_id": "wings-pub-smyrna", "id": 2922999, "votes": null, "tagline": null, "has_video": false, "website": null, "offers": null, "latitude": 33.894336, "politanName": "Atlanta, GA Metro ", "phone_number": "7704350007", "tags": [{"primary": false, "id": 1686, "name": "Bars & Pubs"}, {"primary": false, "id": 1702, "name": "Taverns"}, {"primary": false, "id": 1724, "name": "Barbecue Restaurants"}, {"primary": false, "id": 11361, "name": "MasterCard"}, {"primary": false, "id": 11382, "name": "Visa"}, {"primary": true, "id": 1722, "name": "Restaurants"}], "fax_number": null, "expansion": {"count": null, "uri": null}, "impression_id": "000b0000006805a6a52a3f42efbe48f781cf067f58", "profile": "http://www.citysearch.com/profile/2922999/smyrna_ga/wings_pub.html", "address": {"city": "Smyrna", "state": "GA", "street": "1024 Windy Hill Rd SE", "postal_code": "30080"}, "capProviderId": null, "distance": null, "has_offers": false, "name": "Wings Pub", "longitude": -84.52318, "has_menu": false, "awards": null, "user_review_count": 0}, {"business_operation_status": 1, "rating": null, "neighborhood": null, "image": null, "scorecard": null, "featured": false, "sample_categories": "Restaurants", "public_id": "doc-cheys-asian-kitchen-atlanta", "id": 824100220, "votes": null, "tagline": null, "has_video": false, "website": null, "offers": null, "latitude": 33.919549, "politanName": "Atlanta, GA Metro ", "phone_number": "4049430113", "tags": [{"primary": true, "id": 1722, "name": "Restaurants"}], "fax_number": null, "expansion": {"count": null, "uri": null}, "impression_id": "000b000000dfed63ca2c0f43a3a3821378226cfb43", "profile": "http://www.citysearch.com/profile/824100220/atlanta_ga/doc_cheys_asian_kitchen.html", "address": {"city": "Atlanta", "state": "GA", "street": "227 Sandy Springs Pl", "postal_code": "30328"}, "capProviderId": null, "distance": null, "has_offers": false, "name": "Doc Cheys Asian Kitchen", "longitude": -84.382889, "has_menu": false, "awards": null, "user_review_count": 0}, {"business_operation_status": 1, "rating": null, "neighborhood": null, "image": null, "scorecard": null, "featured": false, "sample_categories": "Restaurants, Pizza", "public_id": "pizza-sorrento-buffet-marietta", "id": 814485390, "votes": null, "tagline": null, "has_video": false, "website": null, "offers": null, "latitude": 34.017913, "politanName": "Atlanta, GA Metro ", "phone_number": "6783834986", "tags": [{"primary": false, "id": 1722, "name": "Restaurants"}, {"primary": true, "id": 11299, "name": "Pizza"}], "fax_number": null, "expansion": {"count": null, "uri": null}, "impression_id": "000b00000090de2a4aaa074c0586fea06f51121271", "profile": "http://www.citysearch.com/profile/814485390/marietta_ga/pizza_sorrento_buffet.html", "address": {"city": "Marietta", "state": "GA", "street": "2745 Sandy Plains Rd # 106", "postal_code": "30066"}, "capProviderId": null, "distance": null, "has_offers": false, "name": "Pizza Sorrento Buffet", "longitude": -84.492683, "has_menu": false, "awards": null, "user_review_count": 0}, {"business_operation_status": 1, "rating": null, "neighborhood": null, "image": null, "scorecard": null, "featured": false, "sample_categories": "Restaurants", "public_id": "yogoday-marietta", "id": 828480390, "votes": null, "tagline": null, "has_video": false, "website": null, "offers": null, "latitude": 34.013868, "politanName": "Atlanta, GA Metro ", "phone_number": "7707951522", "tags": [{"primary": true, "id": 1722, "name": "Restaurants"}], "fax_number": null, "expansion": {"count": null, "uri": null}, "impression_id": "000b000000ad8b415c00a8408daa676403b6eeeed5", "profile": "http://www.citysearch.com/profile/828480390/marietta_ga/yogoday.html", "address": {"city": "Marietta", "state": "GA", "street": "125 Ernest W Barrett Pkwy NW", "postal_code": "30060"}, "capProviderId": null, "distance": null, "has_offers": false, "name": "Yogoday", "longitude": -84.55453, "has_menu": false, "awards": null, "user_review_count": 0}, {"business_operation_status": 1, "rating": null, "neighborhood": null, "image": null, "scorecard": null, "featured": false, "sample_categories": "Restaurants, Coffeehouses", "public_id": "starbucks-smyrna-6", "id": 834619900, "votes": null, "tagline": null, "has_video": false, "website": null, "offers": null, "latitude": 33.887919, "politanName": "Atlanta, GA Metro ", "phone_number": "7709550322", "tags": [{"primary": false, "id": 1726, "name": "Coffeehouses"}, {"primary": true, "id": 1722, "name": "Restaurants"}], "fax_number": null, "expansion": {"count": null, "uri": null}, "impression_id": "000b00000096d9750d13e4473aa2babe3c9574b1f5", "profile": "http://www.citysearch.com/profile/834619900/smyrna_ga/starbucks.html", "address": {"city": "Smyrna", "state": "GA", "street": "2670 Cobb Pkwy SE", "postal_code": "30080"}, "capProviderId": null, "distance": null, "has_offers": false, "name": "Starbucks", "longitude": -84.474232, "has_menu": true, "awards": null, "user_review_count": 0}, {"business_operation_status": 1, "rating": null, "neighborhood": null, "image": null, "scorecard": null, "featured": false, "sample_categories": "Restaurants, Bistros, Catering", "public_id": "paris-bistro-atlanta-10", "id": 775215220, "votes": null, "tagline": null, "has_video": false, "website": null, "offers": null, "latitude": 33.901847, "politanName": "Atlanta, GA Metro ", "phone_number": "6787661449", "tags": [{"primary": false, "id": 13690, "name": "Bistros"}, {"primary": false, "id": 1705, "name": "Catering"}, {"primary": true, "id": 1722, "name": "Restaurants"}], "fax_number": null, "expansion": {"count": null, "uri": null}, "impression_id": "000b000000fac33be8b66e4048b9209dc5644b78d3", "profile": "http://www.citysearch.com/profile/775215220/atlanta_ga/paris_bistro.html", "address": {"city": "Atlanta", "state": "GA", "street": "2018 Powers Ferry Rd SE", "postal_code": "30339"}, "capProviderId": null, "distance": null, "has_offers": false, "name": "Paris Bistro", "longitude": -84.457896, "has_menu": false, "awards": null, "user_review_count": 0}, {"business_operation_status": 1, "rating": null, "neighborhood": null, "image": null, "scorecard": null, "featured": false, "sample_categories": "Restaurants, Bakeries, Carry Out", "public_id": "cheesecake-factory-atlanta", "id": 793249980, "votes": null, "tagline": null, "has_video": false, "website": "http://www.citysearch.com/profile/external/793249980/atlanta_ga/cheesecake_factory.html", "offers": null, "latitude": 33.881743, "politanName": "Atlanta, GA Metro ", "phone_number": "7703195515", "tags": [{"primary": false, "id": 1685, "name": "Bakeries"}, {"primary": false, "id": 11247, "name": "Carry Out"}, {"primary": true, "id": 1722, "name": "Restaurants"}], "fax_number": null, "expansion": {"count": null, "uri": null}, "impression_id": "000b000000aea4a30621b24aa29b5441aca0f166cf", "profile": "http://www.citysearch.com/profile/793249980/atlanta_ga/cheesecake_factory.html", "address": {"city": "Atlanta", "state": "GA", "street": "1000 Cumberland Mall Se", "postal_code": "30339"}, "capProviderId": null, "distance": null, "has_offers": false, "name": "Cheesecake Factory", "longitude": -84.470084, "has_menu": true, "awards": null, "user_review_count": 0}, {"business_operation_status": 1, "rating": null, "neighborhood": null, "image": null, "scorecard": null, "featured": false, "sample_categories": "Restaurants, Delis And Delicatessens, Sandwich Shops, Carry Out, Soups", "public_id": "subway-marietta-33", "id": 43851179, "votes": null, "tagline": null, "has_video": false, "website": "http://www.citysearch.com/profile/external/43851179/marietta_ga/subway.html", "offers": null, "latitude": 34.019217, "politanName": "Atlanta, GA Metro ", "phone_number": "7705289499", "tags": [{"primary": false, "id": 1727, "name": "Delis And Delicatessens"}, {"primary": false, "id": 1736, "name": "Sandwich Shops"}, {"primary": false, "id": 11247, "name": "Carry Out"}, {"primary": false, "id": 11311, "name": "Soups"}, {"primary": false, "id": 11361, "name": "MasterCard"}, {"primary": false, "id": 11382, "name": "Visa"}, {"primary": true, "id": 1722, "name": "Restaurants"}], "fax_number": null, "expansion": {"count": null, "uri": null}, "impression_id": "000b0000008f15221d81ee450a96f548044198e484", "profile": "http://www.citysearch.com/profile/43851179/marietta_ga/subway.html", "address": {"city": "Marietta", "state": "GA", "street": "2795 Chastain Meadows Pkwy", "postal_code": "30066"}, "capProviderId": null, "distance": null, "has_offers": false, "name": "Subway", "longitude": -84.556431, "has_menu": true, "awards": null, "user_review_count": 0}, {"business_operation_status": 1, "rating": null, "neighborhood": null, "image": null, "scorecard": null, "featured": false, "sample_categories": "Restaurants, Catering, Delis And Delicatessens, Sandwich Shops, Carry Out", "public_id": "quiznos-atlanta", "id": 43875434, "votes": null, "tagline": null, "has_video": false, "website": "http://www.citysearch.com/profile/external/43875434/atlanta_ga/quiznos.html", "offers": null, "latitude": 33.879395, "politanName": "Atlanta, GA Metro ", "phone_number": "6782133101", "tags": [{"primary": false, "id": 1705, "name": "Catering"}, {"primary": false, "id": 1727, "name": "Delis And Delicatessens"}, {"primary": false, "id": 1736, "name": "Sandwich Shops"}, {"primary": false, "id": 11247, "name": "Carry Out"}, {"primary": false, "id": 11333, "name": "American Express"}, {"primary": false, "id": 11349, "name": "Discover"}, {"primary": false, "id": 11361, "name": "MasterCard"}, {"primary": false, "id": 11375, "name": "Shop Online"}, {"primary": false, "id": 11382, "name": "Visa"}, {"primary": true, "id": 1722, "name": "Restaurants"}], "fax_number": null, "expansion": {"count": null, "uri": null}, "impression_id": "000b0000006e2c38c6193b49bdbda3c8b1647862a3", "profile": "http://www.citysearch.com/profile/43875434/atlanta_ga/quiznos.html", "address": {"city": "Atlanta", "state": "GA", "street": "3051 Akers Mill Rd SE 140", "postal_code": "30339"}, "capProviderId": null, "distance": null, "has_offers": false, "name": "Quiznos", "longitude": -84.463912, "has_menu": true, "awards": null, "user_review_count": 0}, {"business_operation_status": 1, "rating": null, "neighborhood": null, "image": null, "scorecard": null, "featured": false, "sample_categories": "Restaurants, Seafood Markets, Seafood", "public_id": "rickys-fish-camp-roswell", "id": 802514250, "votes": null, "tagline": null, "has_video": false, "website": null, "offers": null, "latitude": 34.016917, "politanName": "Atlanta, GA Metro ", "phone_number": "6784641534", "tags": [{"primary": false, "id": 1719, "name": "Seafood Markets"}, {"primary": false, "id": 11228, "name": "Seafood"}, {"primary": true, "id": 1722, "name": "Restaurants"}], "fax_number": null, "expansion": {"count": null, "uri": null}, "impression_id": "000b00000067aabf7281e844aa8951e6aef0265c7b", "profile": "http://www.citysearch.com/profile/802514250/roswell_ga/ricky_s_fish_camp.html", "address": {"city": "Roswell", "state": "GA", "street": "659 Atlanta St", "postal_code": "30075"}, "capProviderId": null, "distance": null, "has_offers": false, "name": "Ricky's Fish Camp", "longitude": -84.362319, "has_menu": false, "awards": null, "user_review_count": 0}, {"business_operation_status": 1, "rating": 8.0, "neighborhood": null, "image": null, "scorecard": null, "featured": false, "sample_categories": "Ice Cream Parlors, Dessert Shops", "public_id": "bambi-ice-cream-smyrna", "id": 37647413, "votes": null, "tagline": null, "has_video": false, "website": null, "offers": null, "latitude": 33.902095, "politanName": "Atlanta, GA Metro ", "phone_number": "7703191929", "tags": [{"primary": false, "id": 1728, "name": "Dessert Shops"}, {"primary": true, "id": 1730, "name": "Ice Cream Parlors"}], "fax_number": null, "expansion": {"count": null, "uri": null}, "impression_id": "000b00000062724291a40f4a89bb7f44a7216111d5", "profile": "http://www.citysearch.com/profile/37647413/smyrna_ga/bambi_ice_cream.html", "address": {"city": "Smyrna", "state": "GA", "street": "441 Pat Mell Rd SE", "postal_code": "30080"}, "capProviderId": null, "distance": null, "has_offers": false, "name": "Bambi Ice Cream", "longitude": -84.540382, "has_menu": false, "awards": null, "user_review_count": 1}, {"business_operation_status": 1, "rating": null, "neighborhood": null, "image": null, "scorecard": null, "featured": false, "sample_categories": "Restaurants", "public_id": "park-point-cafe-atlanta", "id": 37653137, "votes": null, "tagline": null, "has_video": false, "website": null, "offers": null, "latitude": 33.902474, "politanName": "Atlanta, GA Metro ", "phone_number": "7705416677", "tags": [{"primary": true, "id": 1722, "name": "Restaurants"}], "fax_number": null, "expansion": {"count": null, "uri": null}, "impression_id": "000b0000003d423d34f74346318fd75160bb02278f", "profile": "http://www.citysearch.com/profile/37653137/atlanta_ga/park_point_cafe.html", "address": {"city": "Atlanta", "state": "GA", "street": "2018 Powers Ferry Rd SE", "postal_code": "30339"}, "capProviderId": null, "distance": null, "has_offers": false, "name": "Park Point Cafe", "longitude": -84.456329, "has_menu": false, "awards": null, "user_review_count": 0}, {"business_operation_status": 0, "rating": null, "neighborhood": null, "image": null, "scorecard": null, "featured": false, "sample_categories": "Restaurants, Indian", "public_id": "guru-indian-cuisine-roswell", "id": 45989425, "votes": null, "tagline": null, "has_video": false, "website": null, "offers": null, "latitude": 34.0134, "politanName": "Atlanta, GA Metro ", "phone_number": "6784619565", "tags": [{"primary": false, "id": 11277, "name": "Indian"}, {"primary": true, "id": 1722, "name": "Restaurants"}], "fax_number": null, "expansion": {"count": null, "uri": null}, "impression_id": "000b000000ee5184e2dfa241b9aa46ecb64ff9c64c", "profile": "http://www.citysearch.com/profile/45989425/roswell_ga/guru_indian_cuisine.html", "address": {"city": "Roswell", "state": "GA", "street": "555 S Atlanta St", "postal_code": "30075"}, "capProviderId": null, "distance": null, "has_offers": false, "name": "Guru Indian Cuisine", "longitude": -84.362872, "has_menu": false, "awards": null, "user_review_count": 0}, {"business_operation_status": 1, "rating": null, "neighborhood": null, "image": null, "scorecard": null, "featured": false, "sample_categories": "Restaurants, Diners, Carry Out", "public_id": "ihop-restaurant-atlanta-5", "id": 43874308, "votes": null, "tagline": null, "has_video": false, "website": null, "offers": null, "latitude": 33.9616, "politanName": "Atlanta, GA Metro ", "phone_number": "7703995283", "tags": [{"primary": false, "id": 1732, "name": "Diners"}, {"primary": false, "id": 11247, "name": "Carry Out"}, {"primary": true, "id": 1722, "name": "Restaurants"}], "fax_number": null, "expansion": {"count": null, "uri": null}, "impression_id": "000b0000009ae9acd1727b496985cb9b27c735732d", "profile": "http://www.citysearch.com/profile/43874308/atlanta_ga/ihop_restaurant.html", "address": {"city": "Atlanta", "state": "GA", "street": "1911 Huntingdon Chase", "postal_code": "30350"}, "capProviderId": null, "distance": null, "has_offers": false, "name": "IHOP Restaurant", "longitude": -84.355054, "has_menu": false, "awards": null, "user_review_count": 0}, {"business_operation_status": 1, "rating": null, "neighborhood": null, "image": null, "scorecard": null, "featured": false, "sample_categories": "Barbecue Restaurants", "public_id": "five-star-barbecue-atlanta", "id": 601362518, "votes": null, "tagline": null, "has_video": false, "website": "http://www.citysearch.com/profile/external/601362518/atlanta_ga/five_star_barbecue.html", "offers": null, "latitude": 33.915976, "politanName": "Atlanta, GA Metro ", "phone_number": "4043037827", "tags": [{"primary": true, "id": 1724, "name": "Barbecue Restaurants"}], "fax_number": null, "expansion": {"count": null, "uri": null}, "impression_id": "000b00000031f1dadce9e74479b5037533dfcfef59", "profile": "http://www.citysearch.com/profile/601362518/atlanta_ga/five_star_barbecue.html", "address": {"city": "Atlanta", "state": "GA", "street": "5895 Garber Dr Ne", "postal_code": "30328"}, "capProviderId": null, "distance": null, "has_offers": false, "name": "Five Star Barbecue", "longitude": -84.368882, "has_menu": false, "awards": null, "user_review_count": 0}, {"business_operation_status": 1, "rating": null, "neighborhood": null, "image": null, "scorecard": null, "featured": false, "sample_categories": "Restaurants", "public_id": "basils-neighborhood-cafe-llc-marietta", "id": 826054170, "votes": null, "tagline": null, "has_video": false, "website": null, "offers": null, "latitude": 33.979324, "politanName": "Atlanta, GA Metro ", "phone_number": "7705780011", "tags": [{"primary": true, "id": 1722, "name": "Restaurants"}], "fax_number": null, "expansion": {"count": null, "uri": null}, "impression_id": "000b000000a0dffec45d134a0db73a79c4c0eb4bb7", "profile": "http://www.citysearch.com/profile/826054170/marietta_ga/basils_neighborhood_cafe_llc.html", "address": {"city": "Marietta", "state": "GA", "street": "1255 Johnson Ferry Rd # 16", "postal_code": "30068"}, "capProviderId": null, "distance": null, "has_offers": false, "name": "Basils Neighborhood Cafe LLC", "longitude": -84.421557, "has_menu": false, "awards": null, "user_review_count": 0}, {"business_operation_status": 1, "rating": null, "neighborhood": null, "image": null, "scorecard": null, "featured": false, "sample_categories": "Restaurants", "public_id": "china-buffet-chinese-rstrnt-smyrna", "id": 826425600, "votes": null, "tagline": null, "has_video": false, "website": null, "offers": null, "latitude": 33.884505, "politanName": "Atlanta, GA Metro ", "phone_number": "7703338328", "tags": [{"primary": true, "id": 1722, "name": "Restaurants"}], "fax_number": null, "expansion": {"count": null, "uri": null}, "impression_id": "000b000000e12663dc70bf4903b90ce0d701786f15", "profile": "http://www.citysearch.com/profile/826425600/smyrna_ga/china_buffet_chinese_rstrnt.html", "address": {"city": "Smyrna", "state": "GA", "street": "2800 #a Spring Road", "postal_code": "30080"}, "capProviderId": null, "distance": null, "has_offers": false, "name": "China Buffet Chinese Rstrnt", "longitude": -84.4741, "has_menu": false, "awards": null, "user_review_count": 0}, {"business_operation_status": 1, "rating": null, "neighborhood": null, "image": null, "scorecard": null, "featured": false, "sample_categories": "Restaurants, Chinese, American Express, Discover, MasterCard", "public_id": "hong-kong-star-chinese-rstrnt-marietta", "id": 601297114, "votes": null, "tagline": null, "has_video": false, "website": null, "offers": null, "latitude": 33.943454, "politanName": "Atlanta, GA Metro ", "phone_number": "7704280988", "tags": [{"primary": false, "id": 11252, "name": "Chinese"}, {"primary": false, "id": 11333, "name": "American Express"}, {"primary": false, "id": 11349, "name": "Discover"}, {"primary": false, "id": 11361, "name": "MasterCard"}, {"primary": false, "id": 11382, "name": "Visa"}, {"primary": true, "id": 1722, "name": "Restaurants"}], "fax_number": null, "expansion": {"count": null, "uri": null}, "impression_id": "000b000000df0438cb17404293b434a9d19a876785", "profile": "http://www.citysearch.com/profile/601297114/marietta_ga/hong_kong_star_chinese_rstrnt.html", "address": {"city": "Marietta", "state": "GA", "street": "557 S Marietta Pkwy Se", "postal_code": "30060"}, "capProviderId": null, "distance": null, "has_offers": false, "name": "Hong Kong Star Chinese Rstrnt", "longitude": -84.536796, "has_menu": true, "awards": null, "user_review_count": 1}, {"business_operation_status": 1, "rating": null, "neighborhood": null, "image": null, "scorecard": null, "featured": false, "sample_categories": "Restaurants, Asian, Chinese", "public_id": "nyona-asain-cuisine-sandy-spgs", "id": 3020355, "votes": null, "tagline": null, "has_video": false, "website": "http://www.citysearch.com/profile/external/3020355/sandy_springs_ga/nyona_asain_cuisine.html", "offers": null, "latitude": 33.95143, "politanName": "Atlanta, GA Metro ", "phone_number": "7703943071", "tags": [{"primary": false, "id": 11235, "name": "Asian"}, {"primary": false, "id": 11252, "name": "Chinese"}, {"primary": true, "id": 1722, "name": "Restaurants"}], "fax_number": null, "expansion": {"count": null, "uri": null}, "impression_id": "000b00000037284a903baa414593b2c6222995dbc3", "profile": "http://www.citysearch.com/profile/3020355/sandy_springs_ga/nyona_asain_cuisine.html", "address": {"city": "Sandy Springs", "state": "GA", "street": "7294 Roswell Rd NE", "postal_code": "30328"}, "capProviderId": null, "distance": null, "has_offers": false, "name": "Nyona Asain Cuisine", "longitude": -84.367762, "has_menu": false, "awards": null, "user_review_count": 0}, {"business_operation_status": 1, "rating": 8.0, "neighborhood": null, "image": null, "scorecard": null, "featured": false, "sample_categories": "Restaurants, American Express, Discover, MasterCard, Visa", "public_id": "carols-cafe-marietta", "id": 2908298, "votes": null, "tagline": null, "has_video": false, "website": null, "offers": null, "latitude": 34.013278, "politanName": "Atlanta, GA Metro ", "phone_number": "7704224641", "tags": [{"primary": false, "id": 11333, "name": "American Express"}, {"primary": false, "id": 11349, "name": "Discover"}, {"primary": false, "id": 11361, "name": "MasterCard"}, {"primary": false, "id": 11382, "name": "Visa"}, {"primary": true, "id": 1722, "name": "Restaurants"}], "fax_number": null, "expansion": {"count": null, "uri": null}, "impression_id": "000b000000e9cb267bf6fb411c8097dd96188a657c", "profile": "http://www.citysearch.com/profile/2908298/marietta_ga/carol_s_cafe.html", "address": {"city": "Marietta", "state": "GA", "street": "2543 Bells Ferry Rd", "postal_code": "30066"}, "capProviderId": null, "distance": null, "has_offers": false, "name": "Carol's Cafe", "longitude": -84.549897, "has_menu": false, "awards": null, "user_review_count": 2}], "histograms": [], "tag_ids": [1722], "uri": "http://api.citygridmedia.com:8080/search/places/v2/search/where?has_offers=false&type=restaurant&format=json&page=26&where=30067&rpp=50&histograms=false&publisher=10000009598&region_type=circle", "did_you_mean": "", "regions": [{"latitude": 33.930575, "default_radius": 3.78, "type": "postal_code", "name": "30067", "longitude": -84.463162}], "call_id": "000b000000229303b666f9455ea1177ef1e4522450", "first_hit": 1251, "total_hits": 1972, "geo_ids": [26295], "page": 26, "last_hit": 1300}}