{"results": {"rpp": 50, "locations": [{"business_operation_status": 0, "rating": null, "neighborhood": null, "image": null, "scorecard": null, "featured": false, "sample_categories": "Restaurants", "public_id": "wenfour-foods-marietta", "id": 36940647, "votes": null, "tagline": null, "has_video": false, "website": null, "offers": null, "latitude": 34.002536, "politanName": "Atlanta, GA Metro ", "phone_number": "7703215355", "tags": [{"primary": true, "id": 1722, "name": "Restaurants"}], "fax_number": null, "expansion": {"count": null, "uri": null}, "impression_id": "000b0000007775571d03594def89958ecd5ee77c1d", "profile": "http://www.citysearch.com/profile/36940647/marietta_ga/wen_four_foods.html", "address": {"city": "Marietta", "state": "GA", "street": "2135 Wolbert Trl", "postal_code": "30062"}, "capProviderId": null, "distance": null, "has_offers": false, "name": "Wen-Four Foods", "longitude": -84.443075, "has_menu": false, "awards": null, "user_review_count": 0}, {"business_operation_status": 1, "rating": null, "neighborhood": null, "image": null, "scorecard": null, "featured": false, "sample_categories": "Restaurants, Delis And Delicatessens, Sandwich Shops, Carry Out, Soups", "public_id": "subway-woodstock-2", "id": 43858638, "votes": null, "tagline": null, "has_video": false, "website": "http://www.citysearch.com/profile/external/43858638/woodstock_ga/subway.html", "offers": null, "latitude": 34.129993, "politanName": "Atlanta, GA Metro ", "phone_number": "7705166488", "tags": [{"primary": false, "id": 1727, "name": "Delis And Delicatessens"}, {"primary": false, "id": 1736, "name": "Sandwich Shops"}, {"primary": false, "id": 11247, "name": "Carry Out"}, {"primary": false, "id": 11311, "name": "Soups"}, {"primary": false, "id": 11361, "name": "MasterCard"}, {"primary": false, "id": 11382, "name": "Visa"}, {"primary": true, "id": 1722, "name": "Restaurants"}], "fax_number": null, "expansion": {"count": null, "uri": null}, "impression_id": "000b000000e2f2917a1d4d46d8a2915baff2a6f203", "profile": "http://www.citysearch.com/profile/43858638/woodstock_ga/subway.html", "address": {"city": "Woodstock", "state": "GA", "street": "6234 Old Hwy 5 Ste D10", "postal_code": "30188"}, "capProviderId": null, "distance": null, "has_offers": false, "name": "Subway", "longitude": -84.497788, "has_menu": true, "awards": null, "user_review_count": 0}, {"business_operation_status": 0, "rating": 10.0, "neighborhood": null, "image": null, "scorecard": null, "featured": false, "sample_categories": "Restaurants", "public_id": "the-dinner-afare-marietta", "id": 44772948, "votes": null, "tagline": null, "has_video": false, "website": null, "offers": null, "latitude": 33.952164, "politanName": "Atlanta, GA Metro ", "phone_number": "6787970072", "tags": [{"primary": true, "id": 1722, "name": "Restaurants"}], "fax_number": null, "expansion": {"count": null, "uri": null}, "impression_id": "000b000000b736892572c7494b99e05f98b5c57141", "profile": "http://www.citysearch.com/profile/44772948/marietta_ga/the_dinner_afare.html", "address": {"city": "Marietta", "state": "GA", "street": "3625 Dallas Hwy SW Ste 715", "postal_code": "30064"}, "capProviderId": null, "distance": null, "has_offers": false, "name": "The Dinner Afare", "longitude": -84.657799, "has_menu": true, "awards": null, "user_review_count": 0}, {"business_operation_status": 1, "rating": null, "neighborhood": null, "image": null, "scorecard": null, "featured": false, "sample_categories": "Restaurants, Delis And Delicatessens", "public_id": "american-deli-marietta-4", "id": 45556668, "votes": null, "tagline": null, "has_video": false, "website": "http://www.citysearch.com/profile/external/45556668/marietta_ga/american_deli.html", "offers": null, "latitude": 33.946671, "politanName": "Atlanta, GA Metro ", "phone_number": "7705901178", "tags": [{"primary": false, "id": 1727, "name": "Delis And Delicatessens"}, {"primary": true, "id": 1722, "name": "Restaurants"}], "fax_number": null, "expansion": {"count": null, "uri": null}, "impression_id": "000b000000f83d534d829e473bb931a3c7379533f6", "profile": "http://www.citysearch.com/profile/45556668/marietta_ga/american_deli.html", "address": {"city": "Marietta", "state": "GA", "street": "180 Cobb Pkwy S", "postal_code": "30060"}, "capProviderId": null, "distance": null, "has_offers": false, "name": "American Deli", "longitude": -84.522736, "has_menu": true, "awards": null, "user_review_count": 0}, {"business_operation_status": 1, "rating": null, "neighborhood": null, "image": null, "scorecard": null, "featured": false, "sample_categories": "Restaurants", "public_id": "hibachi-express-smyrna", "id": 609007094, "votes": null, "tagline": null, "has_video": false, "website": null, "offers": null, "latitude": 33.889892, "politanName": "Atlanta, GA Metro ", "phone_number": "7704345005", "tags": [{"primary": true, "id": 1722, "name": "Restaurants"}], "fax_number": null, "expansion": {"count": null, "uri": null}, "impression_id": "000b0000009dac7460886a4452aa768c7bc672d3f7", "profile": "http://www.citysearch.com/profile/609007094/smyrna_ga/hibachi_express.html", "address": {"city": "Smyrna", "state": "GA", "street": "2596 S Cobb Dr SE", "postal_code": "30080"}, "capProviderId": null, "distance": null, "has_offers": false, "name": "Hibachi Express", "longitude": -84.537398, "has_menu": false, "awards": null, "user_review_count": 0}, {"business_operation_status": 1, "rating": null, "neighborhood": null, "image": null, "scorecard": null, "featured": false, "sample_categories": "Coffeehouses, Coffee & Tea Shops, Restaurants, American Express, Discover", "public_id": "starbucks-kennesaw-5", "id": 605561020, "votes": null, "tagline": null, "has_video": false, "website": "http://www.citysearch.com/profile/external/605561020/kennesaw_ga/starbucks.html", "offers": null, "latitude": 34.019128, "politanName": "Atlanta, GA Metro ", "phone_number": "7707944741", "tags": [{"primary": false, "id": 1711, "name": "Coffee & Tea Shops"}, {"primary": false, "id": 1722, "name": "Restaurants"}, {"primary": false, "id": 11333, "name": "American Express"}, {"primary": false, "id": 11349, "name": "Discover"}, {"primary": false, "id": 11361, "name": "MasterCard"}, {"primary": false, "id": 11382, "name": "Visa"}, {"primary": true, "id": 1726, "name": "Coffeehouses"}], "fax_number": null, "expansion": {"count": null, "uri": null}, "impression_id": "000b0000002e2cca5f2d3743669a73b2aca158d1e2", "profile": "http://www.citysearch.com/profile/605561020/kennesaw_ga/starbucks.html", "address": {"city": "Kennesaw", "state": "GA", "street": "400 Ernest W Barrett Nw # 267", "postal_code": "30144"}, "capProviderId": null, "distance": null, "has_offers": false, "name": "Starbucks", "longitude": -84.563608, "has_menu": true, "awards": null, "user_review_count": 2}, {"business_operation_status": 1, "rating": null, "neighborhood": null, "image": null, "scorecard": null, "featured": false, "sample_categories": "Coffeehouses, Coffee & Tea Shops, Restaurants, American Express, Discover", "public_id": "starbucks-roswell-2", "id": 33638057, "votes": null, "tagline": null, "has_video": false, "website": "http://www.citysearch.com/profile/external/33638057/roswell_ga/starbucks.html", "offers": null, "latitude": 34.00495, "politanName": "Atlanta, GA Metro ", "phone_number": "7706450328", "tags": [{"primary": false, "id": 1711, "name": "Coffee & Tea Shops"}, {"primary": false, "id": 1722, "name": "Restaurants"}, {"primary": false, "id": 11333, "name": "American Express"}, {"primary": false, "id": 11349, "name": "Discover"}, {"primary": false, "id": 11361, "name": "MasterCard"}, {"primary": false, "id": 11382, "name": "Visa"}, {"primary": true, "id": 1726, "name": "Coffeehouses"}], "fax_number": null, "expansion": {"count": null, "uri": null}, "impression_id": "000b00000034cd01597dc04b73b2bff3c06e21aca9", "profile": "http://www.citysearch.com/profile/33638057/roswell_ga/starbucks.html", "address": {"city": "Roswell", "state": "GA", "street": "930 Marietta Hwy 400", "postal_code": "30075"}, "capProviderId": null, "distance": null, "has_offers": false, "name": "Starbucks", "longitude": -84.389821, "has_menu": true, "awards": null, "user_review_count": 0}, {"business_operation_status": 1, "rating": null, "neighborhood": null, "image": null, "scorecard": null, "featured": false, "sample_categories": "Restaurants, Pizza", "public_id": "johnnys-pizza-roswell", "id": 824481370, "votes": null, "tagline": null, "has_video": false, "website": null, "offers": null, "latitude": 34.054243, "politanName": "Atlanta, GA Metro ", "phone_number": "7705520505", "tags": [{"primary": false, "id": 1722, "name": "Restaurants"}, {"primary": true, "id": 11299, "name": "Pizza"}], "fax_number": null, "expansion": {"count": null, "uri": null}, "impression_id": "000b0000006d6ec1000bd84d9f81337ada61fad509", "profile": "http://www.citysearch.com/profile/824481370/roswell_ga/johnny_s_pizza.html", "address": {"city": "Roswell", "state": "GA", "street": "580 W Crossville Rd", "postal_code": "30075"}, "capProviderId": null, "distance": null, "has_offers": false, "name": "Johnny's Pizza", "longitude": -84.378213, "has_menu": true, "awards": null, "user_review_count": 0}, {"business_operation_status": 1, "rating": null, "neighborhood": null, "image": null, "scorecard": null, "featured": false, "sample_categories": "Restaurants, Chinese, American Express, MasterCard, Visa", "public_id": "xin-xin-chinese-marietta", "id": 33572088, "votes": null, "tagline": null, "has_video": false, "website": null, "offers": null, "latitude": 33.928458, "politanName": "Atlanta, GA Metro ", "phone_number": "7709842233", "tags": [{"primary": false, "id": 11252, "name": "Chinese"}, {"primary": false, "id": 11333, "name": "American Express"}, {"primary": false, "id": 11361, "name": "MasterCard"}, {"primary": false, "id": 11382, "name": "Visa"}, {"primary": true, "id": 1722, "name": "Restaurants"}], "fax_number": null, "expansion": {"count": null, "uri": null}, "impression_id": "000b000000c03ae69d5c40495e9ecda91942fa15ad", "profile": "http://www.citysearch.com/profile/33572088/marietta_ga/xin_xin_chinese.html", "address": {"city": "Marietta", "state": "GA", "street": "1033 Franklin Rd SE", "postal_code": "30067"}, "capProviderId": null, "distance": null, "has_offers": false, "name": "Xin Xin Chinese", "longitude": -84.492995, "has_menu": true, "awards": null, "user_review_count": 1}, {"business_operation_status": 1, "rating": null, "neighborhood": null, "image": null, "scorecard": null, "featured": false, "sample_categories": "Restaurants, Delis And Delicatessens, Soups", "public_id": "togo-eateries-roswell", "id": 35974348, "votes": null, "tagline": null, "has_video": false, "website": null, "offers": null, "latitude": 34.061142, "politanName": "Atlanta, GA Metro ", "phone_number": "7709989299", "tags": [{"primary": false, "id": 1727, "name": "Delis And Delicatessens"}, {"primary": false, "id": 11311, "name": "Soups"}, {"primary": true, "id": 1722, "name": "Restaurants"}], "fax_number": null, "expansion": {"count": null, "uri": null}, "impression_id": "000b000000e04ccef7ff134c0bae6e7ea1bc63b279", "profile": "http://www.citysearch.com/profile/35974348/roswell_ga/togo_eateries.html", "address": {"city": "Roswell", "state": "GA", "street": "890 Woodstock Rd", "postal_code": "30075"}, "capProviderId": null, "distance": null, "has_offers": false, "name": "Togo Eateries", "longitude": -84.388286, "has_menu": false, "awards": null, "user_review_count": 0}, {"business_operation_status": 1, "rating": null, "neighborhood": null, "image": null, "scorecard": null, "featured": false, "sample_categories": "Restaurants", "public_id": "xtreme-smoothie-woodstock", "id": 37648995, "votes": null, "tagline": null, "has_video": false, "website": null, "offers": null, "latitude": 34.105297, "politanName": "Atlanta, GA Metro ", "phone_number": "7704265999", "tags": [{"primary": true, "id": 1722, "name": "Restaurants"}], "fax_number": null, "expansion": {"count": null, "uri": null}, "impression_id": "000b00000098aab50fdcf24a95b38c8b50b3538076", "profile": "http://www.citysearch.com/profile/37648995/woodstock_ga/x_treme_smoothie.html", "address": {"city": "Woodstock", "state": "GA", "street": "1085 Buckhead Xing", "postal_code": "30189"}, "capProviderId": null, "distance": null, "has_offers": false, "name": "X-Treme Smoothie", "longitude": -84.541696, "has_menu": false, "awards": null, "user_review_count": 0}, {"business_operation_status": 1, "rating": null, "neighborhood": null, "image": null, "scorecard": null, "featured": false, "sample_categories": "Restaurants, Fast Food, Carry Out, Hamburgers, American Express", "public_id": "wendys-canton-8", "id": 44774887, "votes": null, "tagline": null, "has_video": false, "website": "http://www.citysearch.com/profile/external/44774887/canton_ga/wendy_s.html", "offers": null, "latitude": 34.184686, "politanName": "Atlanta, GA Metro ", "phone_number": "6788800802", "tags": [{"primary": false, "id": 11199, "name": "Fast Food"}, {"primary": false, "id": 11247, "name": "Carry Out"}, {"primary": false, "id": 11270, "name": "Hamburgers"}, {"primary": false, "id": 11333, "name": "American Express"}, {"primary": false, "id": 11349, "name": "Discover"}, {"primary": false, "id": 11361, "name": "MasterCard"}, {"primary": false, "id": 11382, "name": "Visa"}, {"primary": true, "id": 1722, "name": "Restaurants"}], "fax_number": null, "expansion": {"count": null, "uri": null}, "impression_id": "000b000000e5803722f089499aafeaa70bcf700647", "profile": "http://www.citysearch.com/profile/44774887/canton_ga/wendy_s.html", "address": {"city": "Canton", "state": "GA", "street": "3265 E Cherokee Dr", "postal_code": "30115"}, "capProviderId": null, "distance": null, "has_offers": false, "name": "Wendy's", "longitude": -84.421247, "has_menu": true, "awards": null, "user_review_count": 0}, {"business_operation_status": 1, "rating": null, "neighborhood": null, "image": null, "scorecard": null, "featured": false, "sample_categories": "Restaurants, Fast Food, Mexican, American Express, Discover", "public_id": "taco-bell-marietta-3", "id": 45988789, "votes": null, "tagline": null, "has_video": false, "website": "http://www.citysearch.com/profile/external/45988789/marietta_ga/taco_bell.html", "offers": null, "latitude": 33.944998, "politanName": "Atlanta, GA Metro ", "phone_number": "7704218815", "tags": [{"primary": false, "id": 11199, "name": "Fast Food"}, {"primary": false, "id": 11208, "name": "Mexican"}, {"primary": false, "id": 11333, "name": "American Express"}, {"primary": false, "id": 11349, "name": "Discover"}, {"primary": false, "id": 11361, "name": "MasterCard"}, {"primary": false, "id": 11382, "name": "Visa"}, {"primary": true, "id": 1722, "name": "Restaurants"}], "fax_number": null, "expansion": {"count": null, "uri": null}, "impression_id": "000b0000009aa3b60a1ff84fc49e1895f152158139", "profile": "http://www.citysearch.com/profile/45988789/marietta_ga/taco_bell.html", "address": {"city": "Marietta", "state": "GA", "street": "380 Villa Rica Way SW", "postal_code": "30064"}, "capProviderId": null, "distance": null, "has_offers": false, "name": "Taco Bell", "longitude": -84.622332, "has_menu": false, "awards": null, "user_review_count": 0}, {"business_operation_status": 1, "rating": null, "neighborhood": null, "image": null, "scorecard": null, "featured": false, "sample_categories": "Restaurants, Asian", "public_id": "oishii-oriental-restaurant-kennesaw", "id": 37648994, "votes": null, "tagline": null, "has_video": false, "website": null, "offers": null, "latitude": 34.050651, "politanName": "Atlanta, GA Metro ", "phone_number": "7704246889", "tags": [{"primary": false, "id": 11235, "name": "Asian"}, {"primary": true, "id": 1722, "name": "Restaurants"}], "fax_number": null, "expansion": {"count": null, "uri": null}, "impression_id": "000b0000004b5d5e06e530436689d1a6464e108948", "profile": "http://www.citysearch.com/profile/37648994/kennesaw_ga/oishii_oriental_restaurant.html", "address": {"city": "Kennesaw", "state": "GA", "street": "3600 Cherokee St NW Ste 111", "postal_code": "30144"}, "capProviderId": null, "distance": null, "has_offers": false, "name": "Oishii Oriental Restaurant", "longitude": -84.595684, "has_menu": false, "awards": null, "user_review_count": 0}, {"business_operation_status": 1, "rating": null, "neighborhood": null, "image": null, "scorecard": null, "featured": false, "sample_categories": "Restaurants", "public_id": "ronny-johns-sunset-grill-woodstock", "id": 607507004, "votes": null, "tagline": null, "has_video": false, "website": null, "offers": null, "latitude": 34.083799, "politanName": "Atlanta, GA Metro ", "phone_number": "7705754085", "tags": [{"primary": true, "id": 1722, "name": "Restaurants"}], "fax_number": null, "expansion": {"count": null, "uri": null}, "impression_id": "000b00000071818ee85bae454fb2f8dab4450566e5", "profile": "http://www.citysearch.com/profile/607507004/woodstock_ga/ronny_john_s_sunset_grill.html", "address": {"city": "Woodstock", "state": "GA", "street": "9770 Main St", "postal_code": "30188"}, "capProviderId": null, "distance": null, "has_offers": false, "name": "Ronny John's Sunset Grill", "longitude": -84.519754, "has_menu": false, "awards": null, "user_review_count": 0}, {"business_operation_status": 1, "rating": null, "neighborhood": null, "image": null, "scorecard": null, "featured": false, "sample_categories": "Restaurants", "public_id": "tacos-del-chavo-llc-kennesaw", "id": 611127424, "votes": null, "tagline": null, "has_video": false, "website": null, "offers": null, "latitude": 34.005966, "politanName": "Atlanta, GA Metro ", "phone_number": "6788868893", "tags": [{"primary": true, "id": 1722, "name": "Restaurants"}], "fax_number": null, "expansion": {"count": null, "uri": null}, "impression_id": "000b000000d5d2e5db4ae24ea2a364b8578b2c49ef", "profile": "http://www.citysearch.com/profile/611127424/kennesaw_ga/tacos_del_chavo_llc.html", "address": {"city": "Kennesaw", "state": "GA", "street": "2176 Cobb Pkwy NW", "postal_code": "30152"}, "capProviderId": null, "distance": null, "has_offers": false, "name": "Tacos Del Chavo LLC", "longitude": -84.603387, "has_menu": false, "awards": null, "user_review_count": 0}, {"business_operation_status": 1, "rating": null, "neighborhood": null, "image": null, "scorecard": null, "featured": false, "sample_categories": "Restaurants, Carry Out", "public_id": "popeyes-chicken-biscuits-smyrna-2", "id": 614164814, "votes": null, "tagline": null, "has_video": false, "website": "http://www.citysearch.com/profile/external/614164814/smyrna_ga/popeye_s_chicken_biscuits.html", "offers": null, "latitude": 33.871926, "politanName": "Atlanta, GA Metro ", "phone_number": "7704389500", "tags": [{"primary": false, "id": 11247, "name": "Carry Out"}, {"primary": true, "id": 1722, "name": "Restaurants"}], "fax_number": null, "expansion": {"count": null, "uri": null}, "impression_id": "000b0000000fbe7ee0b1514aaf972b85a184bedac8", "profile": "http://www.citysearch.com/profile/614164814/smyrna_ga/popeye_s_chicken_biscuits.html", "address": {"city": "Smyrna", "state": "GA", "street": "3350 S Cobb Dr SE", "postal_code": "30080"}, "capProviderId": null, "distance": null, "has_offers": false, "name": "Popeye's Chicken & Biscuits", "longitude": -84.529826, "has_menu": false, "awards": null, "user_review_count": 0}, {"business_operation_status": 1, "rating": null, "neighborhood": null, "image": null, "scorecard": null, "featured": false, "sample_categories": "Restaurants", "public_id": "fish-chicks-more-kennesaw", "id": 809015050, "votes": null, "tagline": null, "has_video": false, "website": null, "offers": null, "latitude": 34.047379, "politanName": "Atlanta, GA Metro ", "phone_number": "7704255255", "tags": [{"primary": true, "id": 1722, "name": "Restaurants"}], "fax_number": null, "expansion": {"count": null, "uri": null}, "impression_id": "000b00000012bea12ba9a34b8d954f138f5d850c15", "profile": "http://www.citysearch.com/profile/809015050/kennesaw_ga/fish_chicks_more.html", "address": {"city": "Kennesaw", "state": "GA", "street": "4240 Jiles Rd NW", "postal_code": "30144"}, "capProviderId": null, "distance": null, "has_offers": false, "name": "Fish Chicks & More", "longitude": -84.601698, "has_menu": false, "awards": null, "user_review_count": 0}, {"business_operation_status": 1, "rating": 10.0, "neighborhood": null, "image": null, "scorecard": null, "featured": false, "sample_categories": "Ice Cream Parlors, Restaurants", "public_id": "braums-ice-cream-dairy-stores-kennesaw", "id": 33643586, "votes": null, "tagline": null, "has_video": false, "website": "http://www.citysearch.com/profile/external/33643586/kennesaw_ga/braum_s_ice_cream_dairy_stores.html", "offers": null, "latitude": 34.025916, "politanName": "Atlanta, GA Metro ", "phone_number": "7704255554", "tags": [{"primary": false, "id": 1722, "name": "Restaurants"}, {"primary": true, "id": 1730, "name": "Ice Cream Parlors"}], "fax_number": null, "expansion": {"count": null, "uri": null}, "impression_id": "000b00000032333fb5b2274daf90d873bea9afc83f", "profile": "http://www.citysearch.com/profile/33643586/kennesaw_ga/braum_s_ice_cream_dairy_stores.html", "address": {"city": "Kennesaw", "state": "GA", "street": "2960 George Busbee Pkwy NW", "postal_code": "30144"}, "capProviderId": null, "distance": null, "has_offers": false, "name": "Braum's Ice Cream & Dairy Stores", "longitude": -84.567155, "has_menu": true, "awards": null, "user_review_count": 0}, {"business_operation_status": 1, "rating": null, "neighborhood": null, "image": null, "scorecard": null, "featured": false, "sample_categories": "Restaurants, Pretzels", "public_id": "pretzel-time-kennesaw", "id": 35893828, "votes": null, "tagline": null, "has_video": false, "website": "http://www.citysearch.com/profile/external/35893828/kennesaw_ga/pretzel_time.html", "offers": null, "latitude": 34.019128, "politanName": "Atlanta, GA Metro ", "phone_number": "7704992004", "tags": [{"primary": false, "id": 1722, "name": "Restaurants"}, {"primary": true, "id": 11056, "name": "Pretzels"}], "fax_number": null, "expansion": {"count": null, "uri": null}, "impression_id": "000b000000a4a3aaa99f634dd9a2f797d552e4f52e", "profile": "http://www.citysearch.com/profile/35893828/kennesaw_ga/pretzel_time.html", "address": {"city": "Kennesaw", "state": "GA", "street": "400 Ernest W Barrett Pkwy NW", "postal_code": "30144"}, "capProviderId": null, "distance": null, "has_offers": false, "name": "Pretzel Time", "longitude": -84.563608, "has_menu": true, "awards": null, "user_review_count": 0}, {"business_operation_status": 1, "rating": null, "neighborhood": null, "image": null, "scorecard": null, "featured": false, "sample_categories": "Restaurants, Carry Out", "public_id": "captain-ds-seafood-kennesaw", "id": 823995220, "votes": null, "tagline": null, "has_video": false, "website": "http://www.citysearch.com/profile/external/823995220/kennesaw_ga/captain_d_s_seafood.html", "offers": null, "latitude": 34.001936, "politanName": "Atlanta, GA Metro ", "phone_number": "7704223068", "tags": [{"primary": false, "id": 11247, "name": "Carry Out"}, {"primary": true, "id": 1722, "name": "Restaurants"}], "fax_number": null, "expansion": {"count": null, "uri": null}, "impression_id": "000b000000558beb4c37114f33aae7c76f1209cf6a", "profile": "http://www.citysearch.com/profile/823995220/kennesaw_ga/captain_d_s_seafood.html", "address": {"city": "Kennesaw", "state": "GA", "street": "2013 Cobb Pkwy NW", "postal_code": "30152"}, "capProviderId": null, "distance": null, "has_offers": false, "name": "Captain D's Seafood", "longitude": -84.598402, "has_menu": true, "awards": null, "user_review_count": 0}, {"business_operation_status": 1, "rating": null, "neighborhood": null, "image": null, "scorecard": null, "featured": false, "sample_categories": "Restaurants", "public_id": "la-fiesta-mexican-restaurant-kennesaw", "id": 825185560, "votes": null, "tagline": null, "has_video": false, "website": null, "offers": null, "latitude": 34.049477, "politanName": "Atlanta, GA Metro ", "phone_number": "6783544621", "tags": [{"primary": true, "id": 1722, "name": "Restaurants"}], "fax_number": null, "expansion": {"count": null, "uri": null}, "impression_id": "000b0000003ab38ae0aff04886987b672f52c73cd4", "profile": "http://www.citysearch.com/profile/825185560/kennesaw_ga/la_fiesta_mexican_restaurant.html", "address": {"city": "Kennesaw", "state": "GA", "street": "3940 Cherokee St NW # 303", "postal_code": "30144"}, "capProviderId": null, "distance": null, "has_offers": false, "name": "La Fiesta Mexican Restaurant", "longitude": -84.596636, "has_menu": true, "awards": null, "user_review_count": 0}, {"business_operation_status": 1, "rating": null, "neighborhood": null, "image": null, "scorecard": null, "featured": false, "sample_categories": "Restaurants", "public_id": "scholtzskys-delisandwiches-roswell", "id": 825809970, "votes": null, "tagline": null, "has_video": false, "website": null, "offers": null, "latitude": 34.034046, "politanName": "Atlanta, GA Metro ", "phone_number": "7709923332", "tags": [{"primary": true, "id": 1722, "name": "Restaurants"}], "fax_number": null, "expansion": {"count": null, "uri": null}, "impression_id": "000b000000d62935d5cf2f4e1a8b312f99fbcda1ab", "profile": "http://www.citysearch.com/profile/825809970/roswell_ga/scholtzsky_s_deli_sandwiches.html", "address": {"city": "Roswell", "state": "GA", "street": "609 Holcomb Bridge Rd", "postal_code": "30076"}, "capProviderId": null, "distance": null, "has_offers": false, "name": "Scholtzsky's Deli/Sandwiches", "longitude": -84.342093, "has_menu": false, "awards": null, "user_review_count": 0}, {"business_operation_status": 1, "rating": null, "neighborhood": null, "image": null, "scorecard": null, "featured": false, "sample_categories": "Restaurants", "public_id": "shin-lai-inc-woodstock", "id": 614550594, "votes": null, "tagline": null, "has_video": false, "website": null, "offers": null, "latitude": 34.11177, "politanName": "Atlanta, GA Metro ", "phone_number": "7705918858", "tags": [{"primary": true, "id": 1722, "name": "Restaurants"}], "fax_number": null, "expansion": {"count": null, "uri": null}, "impression_id": "000b000000cecde6c5bc4542b390846588bead75c5", "profile": "http://www.citysearch.com/profile/614550594/woodstock_ga/shin_lai_inc.html", "address": {"city": "Woodstock", "state": "GA", "street": "200 Parkbrooke Dr # Ste 160", "postal_code": "30189"}, "capProviderId": null, "distance": null, "has_offers": false, "name": "Shin Lai Inc", "longitude": -84.558567, "has_menu": false, "awards": null, "user_review_count": 0}, {"business_operation_status": 1, "rating": null, "neighborhood": null, "image": null, "scorecard": null, "featured": false, "sample_categories": "Restaurants", "public_id": "chequers-seafood-steak-marietta", "id": 612034824, "votes": null, "tagline": null, "has_video": false, "website": "http://www.citysearch.com/profile/external/612034824/marietta_ga/chequers_seafood_steak.html", "offers": null, "latitude": 33.984638, "politanName": "Atlanta, GA Metro ", "phone_number": "7709779324", "tags": [{"primary": true, "id": 1722, "name": "Restaurants"}], "fax_number": null, "expansion": {"count": null, "uri": null}, "impression_id": "000b0000007814e8bd35a44d10a7d131b0b1a7353e", "profile": "http://www.citysearch.com/profile/612034824/marietta_ga/chequers_seafood_steak.html", "address": {"city": "Marietta", "state": "GA", "street": "1401 Johnson Ferry Rd", "postal_code": "30062"}, "capProviderId": null, "distance": null, "has_offers": false, "name": "Chequers Seafood & Steak", "longitude": -84.427737, "has_menu": false, "awards": null, "user_review_count": 0}, {"business_operation_status": 1, "rating": null, "neighborhood": null, "image": null, "scorecard": null, "featured": false, "sample_categories": "Restaurants", "public_id": "stockyard-burgers-marietta", "id": 621272344, "votes": null, "tagline": null, "has_video": false, "website": null, "offers": null, "latitude": 33.953436, "politanName": "Atlanta, GA Metro ", "phone_number": "6785032760", "tags": [{"primary": true, "id": 1722, "name": "Restaurants"}], "fax_number": null, "expansion": {"count": null, "uri": null}, "impression_id": "000b000000205b8d03551341b9b4146002ac257a96", "profile": "http://www.citysearch.com/profile/621272344/marietta_ga/stockyard_burgers.html", "address": {"city": "Marietta", "state": "GA", "street": "26 Mill St NE", "postal_code": "30060"}, "capProviderId": null, "distance": null, "has_offers": false, "name": "Stockyard Burgers", "longitude": -84.550777, "has_menu": false, "awards": null, "user_review_count": 0}, {"business_operation_status": 1, "rating": null, "neighborhood": null, "image": null, "scorecard": null, "featured": false, "sample_categories": "Restaurants, Bars & Clubs, Bars & Pubs", "public_id": "rafters-bar-grill-roswell", "id": 621882460, "votes": null, "tagline": null, "has_video": false, "website": null, "offers": null, "latitude": 34.0617, "politanName": "Atlanta, GA Metro ", "phone_number": "6784616294", "tags": [{"primary": false, "id": 164, "name": "Bars & Clubs"}, {"primary": false, "id": 1686, "name": "Bars & Pubs"}, {"primary": true, "id": 1722, "name": "Restaurants"}], "fax_number": null, "expansion": {"count": null, "uri": null}, "impression_id": "000b0000007f72f095592a41079e1f5da09d197429", "profile": "http://www.citysearch.com/profile/621882460/roswell_ga/rafter_s_bar_grill.html", "address": {"city": "Roswell", "state": "GA", "street": "1165 Woodstock Rd", "postal_code": "30075"}, "capProviderId": null, "distance": null, "has_offers": false, "name": "Rafter's Bar & Grill", "longitude": -84.399784, "has_menu": false, "awards": null, "user_review_count": 1}, {"business_operation_status": 1, "rating": null, "neighborhood": null, "image": null, "scorecard": null, "featured": false, "sample_categories": "Restaurants", "public_id": "good-fatts-country-cookin-acworth", "id": 653578880, "votes": null, "tagline": null, "has_video": false, "website": null, "offers": null, "latitude": 34.06489, "politanName": "Atlanta, GA Metro ", "phone_number": "6784014805", "tags": [{"primary": true, "id": 1722, "name": "Restaurants"}], "fax_number": null, "expansion": {"count": null, "uri": null}, "impression_id": "000b0000004738975010204d15b64222ecbbc22910", "profile": "http://www.citysearch.com/profile/653578880/acworth_ga/good_fatts_country_cookin.html", "address": {"city": "Acworth", "state": "GA", "street": "2535 Hickory Grove Rd Nw # 105", "postal_code": "30101"}, "capProviderId": null, "distance": null, "has_offers": false, "name": "Good Fatts Country Cookin", "longitude": -84.624038, "has_menu": false, "awards": null, "user_review_count": 0}, {"business_operation_status": 1, "rating": null, "neighborhood": null, "image": null, "scorecard": null, "featured": false, "sample_categories": "Restaurants, Japanese, Steakhouse", "public_id": "fuji-hana-marietta", "id": 672884060, "votes": null, "tagline": null, "has_video": false, "website": null, "offers": null, "latitude": 34.027664, "politanName": "Atlanta, GA Metro ", "phone_number": "7709927474", "tags": [{"primary": false, "id": 11202, "name": "Japanese"}, {"primary": false, "id": 11316, "name": "Steakhouse"}, {"primary": true, "id": 1722, "name": "Restaurants"}], "fax_number": null, "expansion": {"count": null, "uri": null}, "impression_id": "000b000000d668a1215e334e469999542d9165b845", "profile": "http://www.citysearch.com/profile/672884060/marietta_ga/fuji_hana.html", "address": {"city": "Marietta", "state": "GA", "street": "3162 Johnson Ferry Rd NE Ste 420", "postal_code": "30062"}, "capProviderId": null, "distance": null, "has_offers": false, "name": "Fuji Hana", "longitude": -84.423911, "has_menu": false, "awards": null, "user_review_count": 3}, {"business_operation_status": 1, "rating": null, "neighborhood": null, "image": null, "scorecard": null, "featured": false, "sample_categories": "Delis And Delicatessens", "public_id": "kroger-deli-marietta-4", "id": 693544700, "votes": null, "tagline": null, "has_video": false, "website": null, "offers": null, "latitude": 33.953033, "politanName": "Atlanta, GA Metro ", "phone_number": "7704217676", "tags": [{"primary": true, "id": 1727, "name": "Delis And Delicatessens"}], "fax_number": null, "expansion": {"count": null, "uri": null}, "impression_id": "000b00000081fc0d80054f49229b947fb6c0618665", "profile": "http://www.citysearch.com/profile/693544700/marietta_ga/kroger_deli.html", "address": {"city": "Marietta", "state": "GA", "street": "1000 Whitlock Ave NW # 200", "postal_code": "30064"}, "capProviderId": null, "distance": null, "has_offers": false, "name": "Kroger Deli", "longitude": -84.581202, "has_menu": false, "awards": null, "user_review_count": 0}, {"business_operation_status": 1, "rating": null, "neighborhood": null, "image": null, "scorecard": null, "featured": false, "sample_categories": "Restaurants", "public_id": "lennys-sub-shop-kennesaw-2", "id": 672416760, "votes": null, "tagline": null, "has_video": false, "website": null, "offers": null, "latitude": 34.014321, "politanName": "Atlanta, GA Metro ", "phone_number": "7705901218", "tags": [{"primary": true, "id": 1722, "name": "Restaurants"}], "fax_number": null, "expansion": {"count": null, "uri": null}, "impression_id": "000b0000004913ffa0fc15470aacd248541998434b", "profile": "http://www.citysearch.com/profile/672416760/kennesaw_ga/lenny_s_sub_shop.html", "address": {"city": "Kennesaw", "state": "GA", "street": "440 Barrett Pky NW Ste 12", "postal_code": "30144"}, "capProviderId": null, "distance": null, "has_offers": false, "name": "Lenny's Sub Shop", "longitude": -84.562111, "has_menu": true, "awards": null, "user_review_count": 0}, {"business_operation_status": 1, "rating": null, "neighborhood": null, "image": null, "scorecard": null, "featured": false, "sample_categories": "Restaurants", "public_id": "folia-brazilian-steakhouse-kennesaw", "id": 672760470, "votes": null, "tagline": null, "has_video": false, "website": null, "offers": null, "latitude": 34.01386, "politanName": "Atlanta, GA Metro ", "phone_number": "6783245041", "tags": [{"primary": true, "id": 1722, "name": "Restaurants"}], "fax_number": null, "expansion": {"count": null, "uri": null}, "impression_id": "000b0000005735a32f02de42edbccb83e445eeec4f", "profile": "http://www.citysearch.com/profile/672760470/kennesaw_ga/folia_brazilian_steakhouse.html", "address": {"city": "Kennesaw", "state": "GA", "street": "2606 George Busbee Pkwy", "postal_code": "30144"}, "capProviderId": null, "distance": null, "has_offers": false, "name": "Folia Brazilian Steakhouse", "longitude": -84.565725, "has_menu": false, "awards": null, "user_review_count": 0}, {"business_operation_status": 1, "rating": null, "neighborhood": null, "image": null, "scorecard": null, "featured": false, "sample_categories": "Restaurants, Pizza", "public_id": "marcos-pizza-marietta", "id": 713581120, "votes": null, "tagline": null, "has_video": false, "website": "http://www.citysearch.com/profile/external/713581120/marietta_ga/marco_s_pizza.html", "offers": null, "latitude": 33.973533, "politanName": "Atlanta, GA Metro ", "phone_number": "7706946400", "tags": [{"primary": false, "id": 11299, "name": "Pizza"}, {"primary": true, "id": 1722, "name": "Restaurants"}], "fax_number": null, "expansion": {"count": null, "uri": null}, "impression_id": "000b000000119b56cd78c04245845184f347c1ac23", "profile": "http://www.citysearch.com/profile/713581120/marietta_ga/marco_s_pizza.html", "address": {"city": "Marietta", "state": "GA", "street": "2424 Roswell Rd", "postal_code": "30068"}, "capProviderId": null, "distance": null, "has_offers": false, "name": "Marco's Pizza", "longitude": -84.480778, "has_menu": true, "awards": null, "user_review_count": 0}, {"business_operation_status": 1, "rating": null, "neighborhood": null, "image": null, "scorecard": null, "featured": false, "sample_categories": "Restaurants", "public_id": "snack-shack-marietta", "id": 713480420, "votes": null, "tagline": null, "has_video": false, "website": null, "offers": null, "latitude": 33.938267, "politanName": "Atlanta, GA Metro ", "phone_number": "7709190010", "tags": [{"primary": true, "id": 1722, "name": "Restaurants"}], "fax_number": null, "expansion": {"count": null, "uri": null}, "impression_id": "000b000000706ca8dd408743b4803f0f4ce227b534", "profile": "http://www.citysearch.com/profile/713480420/marietta_ga/snack_shack.html", "address": {"city": "Marietta", "state": "GA", "street": "601 Powder Springs St", "postal_code": "30064"}, "capProviderId": null, "distance": null, "has_offers": false, "name": "Snack Shack", "longitude": -84.553758, "has_menu": false, "awards": null, "user_review_count": 0}, {"business_operation_status": 1, "rating": null, "neighborhood": null, "image": null, "scorecard": null, "featured": false, "sample_categories": "Restaurants, Delis And Delicatessens, Sandwich Shops, Carry Out", "public_id": "lan-peter-subway-kennesaw", "id": 632036230, "votes": null, "tagline": null, "has_video": false, "website": "http://www.citysearch.com/profile/external/632036230/kennesaw_ga/lan_peter_subway.html", "offers": null, "latitude": 34.049377, "politanName": "Atlanta, GA Metro ", "phone_number": "6782135158", "tags": [{"primary": false, "id": 1727, "name": "Delis And Delicatessens"}, {"primary": false, "id": 1736, "name": "Sandwich Shops"}, {"primary": false, "id": 11247, "name": "Carry Out"}, {"primary": true, "id": 1722, "name": "Restaurants"}], "fax_number": null, "expansion": {"count": null, "uri": null}, "impression_id": "000b000000efdf1f1535c944e599e6565b2f9f1fc2", "profile": "http://www.citysearch.com/profile/632036230/kennesaw_ga/lan_peter_subway.html", "address": {"city": "Kennesaw", "state": "GA", "street": "2090 Baker Rd Nw", "postal_code": "30144"}, "capProviderId": null, "distance": null, "has_offers": false, "name": "Lan Peter Subway", "longitude": -84.61011, "has_menu": true, "awards": null, "user_review_count": 0}, {"business_operation_status": 1, "rating": null, "neighborhood": null, "image": null, "scorecard": null, "featured": false, "sample_categories": "Restaurants", "public_id": "buffalo-grill-llc-marietta", "id": 638844090, "votes": null, "tagline": null, "has_video": false, "website": null, "offers": null, "latitude": 33.972692, "politanName": "Atlanta, GA Metro ", "phone_number": "6783549464", "tags": [{"primary": true, "id": 1722, "name": "Restaurants"}], "fax_number": null, "expansion": {"count": null, "uri": null}, "impression_id": "000b00000010564953832d465d88475398498a3a6f", "profile": "http://www.citysearch.com/profile/638844090/marietta_ga/buffalo_grill_llc.html", "address": {"city": "Marietta", "state": "GA", "street": "949 Ashebrooke Trce Ne", "postal_code": "30068"}, "capProviderId": null, "distance": null, "has_offers": false, "name": "Buffalo Grill Llc", "longitude": -84.468243, "has_menu": false, "awards": null, "user_review_count": 0}, {"business_operation_status": 1, "rating": null, "neighborhood": null, "image": null, "scorecard": null, "featured": false, "sample_categories": "Restaurants, Carry Out, Steakhouse", "public_id": "steak-n-shake-roswell", "id": 638819600, "votes": null, "tagline": null, "has_video": false, "website": "http://www.citysearch.com/profile/external/638819600/roswell_ga/steak_n_shake.html", "offers": null, "latitude": 34.061357, "politanName": "Atlanta, GA Metro ", "phone_number": "6785343640", "tags": [{"primary": false, "id": 11247, "name": "Carry Out"}, {"primary": false, "id": 11316, "name": "Steakhouse"}, {"primary": true, "id": 1722, "name": "Restaurants"}], "fax_number": null, "expansion": {"count": null, "uri": null}, "impression_id": "000b0000004e3d795869b64065b4ec7f147e6caa47", "profile": "http://www.citysearch.com/profile/638819600/roswell_ga/steak_n_shake.html", "address": {"city": "Roswell", "state": "GA", "street": "895 Woodstock Rd", "postal_code": "30075"}, "capProviderId": null, "distance": null, "has_offers": false, "name": "Steak 'n Shake", "longitude": -84.388327, "has_menu": true, "awards": null, "user_review_count": 0}, {"business_operation_status": 1, "rating": null, "neighborhood": null, "image": null, "scorecard": null, "featured": false, "sample_categories": "Restaurants", "public_id": "tequilas-lounge-marietta", "id": 620246084, "votes": null, "tagline": null, "has_video": false, "website": null, "offers": null, "latitude": 33.935771, "politanName": "Atlanta, GA Metro ", "phone_number": "6789036953", "tags": [{"primary": true, "id": 1722, "name": "Restaurants"}], "fax_number": null, "expansion": {"count": null, "uri": null}, "impression_id": "000b0000001082b48891074875afba21fe2c6c09c2", "profile": "http://www.citysearch.com/profile/620246084/marietta_ga/tequilas_lounge.html", "address": {"city": "Marietta", "state": "GA", "street": "677 Franklin Rd SE", "postal_code": "30067"}, "capProviderId": null, "distance": null, "has_offers": false, "name": "Tequilas Lounge", "longitude": -84.503662, "has_menu": false, "awards": null, "user_review_count": 0}, {"business_operation_status": 1, "rating": null, "neighborhood": null, "image": null, "scorecard": null, "featured": false, "sample_categories": "Restaurants", "public_id": "dinner-afare-marietta", "id": 621938470, "votes": null, "tagline": null, "has_video": false, "website": null, "offers": null, "latitude": 33.963729, "politanName": "Atlanta, GA Metro ", "phone_number": "7704261838", "tags": [{"primary": true, "id": 1722, "name": "Restaurants"}], "fax_number": null, "expansion": {"count": null, "uri": null}, "impression_id": "000b00000040490f311e414cca992b2be35a46a39b", "profile": "http://www.citysearch.com/profile/621938470/marietta_ga/dinner_a_fare.html", "address": {"city": "Marietta", "state": "GA", "street": "3391 Bridle Run Trl Nw", "postal_code": "30064"}, "capProviderId": null, "distance": null, "has_offers": false, "name": "Dinner A'Fare", "longitude": -84.649114, "has_menu": false, "awards": null, "user_review_count": 0}, {"business_operation_status": 1, "rating": null, "neighborhood": null, "image": null, "scorecard": null, "featured": false, "sample_categories": "Restaurants, Bars & Clubs", "public_id": "peach-the-pork-chop-roswell", "id": 622457554, "votes": null, "tagline": null, "has_video": false, "website": "http://www.citysearch.com/profile/external/622457554/roswell_ga/peach_the_porkchop.html", "offers": null, "latitude": 34.073556, "politanName": "Atlanta, GA Metro ", "phone_number": "7706965409", "tags": [{"primary": false, "id": 164, "name": "Bars & Clubs"}, {"primary": true, "id": 1722, "name": "Restaurants"}], "fax_number": null, "expansion": {"count": null, "uri": null}, "impression_id": "000b000000285a7745683c481685e503a14e00d526", "profile": "http://www.citysearch.com/profile/622457554/roswell_ga/peach_the_porkchop.html", "address": {"city": "Roswell", "state": "GA", "street": "12040 Etris Rd D100", "postal_code": "30075"}, "capProviderId": null, "distance": null, "has_offers": false, "name": "Peach & the Porkchop", "longitude": -84.362707, "has_menu": false, "awards": null, "user_review_count": 0}, {"business_operation_status": 1, "rating": null, "neighborhood": null, "image": null, "scorecard": null, "featured": false, "sample_categories": "Restaurants", "public_id": "five-guys-woodstock-2", "id": 672566830, "votes": null, "tagline": null, "has_video": false, "website": null, "offers": null, "latitude": 34.104221, "politanName": "Atlanta, GA Metro ", "phone_number": null, "tags": [{"primary": true, "id": 1722, "name": "Restaurants"}], "fax_number": null, "expansion": {"count": null, "uri": null}, "impression_id": "000b00000024ba4f35e9944c97977d681c367deb91", "profile": "http://www.citysearch.com/profile/672566830/woodstock_ga/five_guys.html", "address": {"city": "Woodstock", "state": "GA", "street": "600 Towne Lake Pky", "postal_code": "30189"}, "capProviderId": null, "distance": null, "has_offers": false, "name": "Five Guys", "longitude": -84.539935, "has_menu": false, "awards": null, "user_review_count": 0}, {"business_operation_status": 1, "rating": null, "neighborhood": null, "image": null, "scorecard": null, "featured": false, "sample_categories": "Restaurants", "public_id": "clec-solutions-inc-marietta-2", "id": 682601500, "votes": null, "tagline": null, "has_video": false, "website": null, "offers": null, "latitude": 33.948318, "politanName": "Atlanta, GA Metro ", "phone_number": "7709772212", "tags": [{"primary": true, "id": 1722, "name": "Restaurants"}], "fax_number": null, "expansion": {"count": null, "uri": null}, "impression_id": "000b00000018ec885aefd648ad9d574fe840f78daa", "profile": "http://www.citysearch.com/profile/682601500/marietta_ga/clec_solutions_inc.html", "address": {"city": "Marietta", "state": "GA", "street": "2060 Lower Roswell Rd", "postal_code": "30068"}, "capProviderId": null, "distance": null, "has_offers": false, "name": "Clec Solutions INC", "longitude": -84.492511, "has_menu": false, "awards": null, "user_review_count": 0}, {"business_operation_status": 1, "rating": null, "neighborhood": null, "image": null, "scorecard": null, "featured": false, "sample_categories": "Restaurants", "public_id": "zuzzu-roswell", "id": 626968874, "votes": null, "tagline": null, "has_video": false, "website": null, "offers": null, "latitude": 34.02005, "politanName": "Atlanta, GA Metro ", "phone_number": "4049834589", "tags": [{"primary": true, "id": 1722, "name": "Restaurants"}], "fax_number": null, "expansion": {"count": null, "uri": null}, "impression_id": "000b000000f8100480d1f64471b9804b9aef469154", "profile": "http://www.citysearch.com/profile/626968874/roswell_ga/zuzzu.html", "address": {"city": "Roswell", "state": "GA", "street": "42 Oak St B", "postal_code": "30075"}, "capProviderId": null, "distance": null, "has_offers": false, "name": "Zuzzu", "longitude": -84.360424, "has_menu": false, "awards": null, "user_review_count": 0}, {"business_operation_status": 1, "rating": null, "neighborhood": null, "image": null, "scorecard": null, "featured": false, "sample_categories": "Restaurants, Bars & Clubs, Bars & Pubs", "public_id": "southern-bar-grill-woodstock", "id": 713453450, "votes": null, "tagline": null, "has_video": false, "website": null, "offers": null, "latitude": 34.087943, "politanName": "Atlanta, GA Metro ", "phone_number": "6783241012", "tags": [{"primary": false, "id": 164, "name": "Bars & Clubs"}, {"primary": false, "id": 1686, "name": "Bars & Pubs"}, {"primary": true, "id": 1722, "name": "Restaurants"}], "fax_number": null, "expansion": {"count": null, "uri": null}, "impression_id": "000b00000021b99d55e582446197654470effe9941", "profile": "http://www.citysearch.com/profile/713453450/woodstock_ga/southern_bar_grill.html", "address": {"city": "Woodstock", "state": "GA", "street": "6889 Highway 92", "postal_code": "30189"}, "capProviderId": null, "distance": null, "has_offers": false, "name": "Southern Bar Grill", "longitude": -84.573347, "has_menu": false, "awards": null, "user_review_count": 0}, {"business_operation_status": 1, "rating": null, "neighborhood": null, "image": null, "scorecard": null, "featured": false, "sample_categories": "Restaurants, Pizza", "public_id": "star-pizza-kennesaw", "id": 713428420, "votes": null, "tagline": null, "has_video": false, "website": null, "offers": null, "latitude": 34.046915, "politanName": "Atlanta, GA Metro ", "phone_number": "6787971190", "tags": [{"primary": false, "id": 1722, "name": "Restaurants"}, {"primary": true, "id": 11299, "name": "Pizza"}], "fax_number": null, "expansion": {"count": null, "uri": null}, "impression_id": "000b000000adcc919e08dd4cdcbdea6c77f1d792e5", "profile": "http://www.citysearch.com/profile/713428420/kennesaw_ga/star_pizza.html", "address": {"city": "Kennesaw", "state": "GA", "street": "3930 George Busbee Pkwy NW", "postal_code": "30144"}, "capProviderId": null, "distance": null, "has_offers": false, "name": "Star Pizza", "longitude": -84.581594, "has_menu": true, "awards": null, "user_review_count": 1}, {"business_operation_status": 1, "rating": null, "neighborhood": null, "image": null, "scorecard": null, "featured": false, "sample_categories": "Restaurants, Pizza", "public_id": "papa-carlos-new-york-pizza-roswell", "id": 728062430, "votes": null, "tagline": null, "has_video": false, "website": null, "offers": null, "latitude": 34.060624, "politanName": "Atlanta, GA Metro ", "phone_number": "6782085000", "tags": [{"primary": false, "id": 1722, "name": "Restaurants"}, {"primary": true, "id": 11299, "name": "Pizza"}], "fax_number": null, "expansion": {"count": null, "uri": null}, "impression_id": "000b0000003c39a5befdbd488cb5474ad73fb26e80", "profile": "http://www.citysearch.com/profile/728062430/roswell_ga/papa_carlos_new_york_pizza.html", "address": {"city": "Roswell", "state": "GA", "street": "885 Woodstock Rd", "postal_code": "30075"}, "capProviderId": null, "distance": null, "has_offers": false, "name": "Papa Carlos New York Pizza", "longitude": -84.385879, "has_menu": false, "awards": null, "user_review_count": 0}, {"business_operation_status": 1, "rating": null, "neighborhood": null, "image": null, "scorecard": null, "featured": false, "sample_categories": "Restaurants, Mexican", "public_id": "el-vaquero-mexican-cantina-marietta", "id": 655802400, "votes": null, "tagline": null, "has_video": false, "website": null, "offers": null, "latitude": 33.953033, "politanName": "Atlanta, GA Metro ", "phone_number": "6787385431", "tags": [{"primary": false, "id": 11208, "name": "Mexican"}, {"primary": true, "id": 1722, "name": "Restaurants"}], "fax_number": null, "expansion": {"count": null, "uri": null}, "impression_id": "000b000000bcea8fb97fb84b92966b80725b19c3d3", "profile": "http://www.citysearch.com/profile/655802400/marietta_ga/el_vaquero_mexican_cantina.html", "address": {"city": "Marietta", "state": "GA", "street": "1000 Whitlock Ave Nw # 410", "postal_code": "30064"}, "capProviderId": null, "distance": null, "has_offers": false, "name": "El Vaquero Mexican Cantina", "longitude": -84.581202, "has_menu": false, "awards": null, "user_review_count": 0}, {"business_operation_status": 1, "rating": null, "neighborhood": null, "image": null, "scorecard": null, "featured": false, "sample_categories": "Restaurants", "public_id": "soba-asian-bistro-roswell", "id": 728114260, "votes": null, "tagline": null, "has_video": false, "website": null, "offers": null, "latitude": 34.053819, "politanName": "Atlanta, GA Metro ", "phone_number": "7709711888", "tags": [{"primary": true, "id": 1722, "name": "Restaurants"}], "fax_number": null, "expansion": {"count": null, "uri": null}, "impression_id": "000b000000c521dfc0b13c45909e2c3213fe39e436", "profile": "http://www.citysearch.com/profile/728114260/roswell_ga/soba_asian_bistro.html", "address": {"city": "Roswell", "state": "GA", "street": "1005 Grace Hill Dr", "postal_code": "30075"}, "capProviderId": null, "distance": null, "has_offers": false, "name": "Soba Asian Bistro", "longitude": -84.373112, "has_menu": false, "awards": null, "user_review_count": 0}, {"business_operation_status": 1, "rating": null, "neighborhood": null, "image": null, "scorecard": null, "featured": false, "sample_categories": "Restaurants, Barbecue Restaurants, Carry Out", "public_id": "wingstreet-roswell", "id": 728126140, "votes": null, "tagline": null, "has_video": false, "website": "http://www.citysearch.com/profile/external/728126140/roswell_ga/wingstreet.html", "offers": null, "latitude": 34.065697, "politanName": "Atlanta, GA Metro ", "phone_number": "4049929900", "tags": [{"primary": false, "id": 1724, "name": "Barbecue Restaurants"}, {"primary": false, "id": 11247, "name": "Carry Out"}, {"primary": true, "id": 1722, "name": "Restaurants"}], "fax_number": null, "expansion": {"count": null, "uri": null}, "impression_id": "000b000000c40c37ad59914217850a1ba814216522", "profile": "http://www.citysearch.com/profile/728126140/roswell_ga/wingstreet.html", "address": {"city": "Roswell", "state": "GA", "street": "4750 Alabama Rd Ne", "postal_code": "30075"}, "capProviderId": null, "distance": null, "has_offers": false, "name": "Wingstreet", "longitude": -84.422792, "has_menu": true, "awards": null, "user_review_count": 0}, {"business_operation_status": 1, "rating": null, "neighborhood": null, "image": null, "scorecard": null, "featured": false, "sample_categories": "Restaurants", "public_id": "kani-house-roswell", "id": 764923300, "votes": null, "tagline": null, "has_video": false, "website": null, "offers": null, "latitude": 34.00537, "politanName": "Atlanta, GA Metro ", "phone_number": "6784618831", "tags": [{"primary": true, "id": 1722, "name": "Restaurants"}], "fax_number": null, "expansion": {"count": null, "uri": null}, "impression_id": "000b000000e1bc90a054cc4caca9a3e6e9d89faa1e", "profile": "http://www.citysearch.com/profile/764923300/roswell_ga/kani_house.html", "address": {"city": "Roswell", "state": "GA", "street": "910 Marietta Hwy # 110", "postal_code": "30075"}, "capProviderId": null, "distance": null, "has_offers": false, "name": "Kani House", "longitude": -84.389755, "has_menu": true, "awards": null, "user_review_count": 0}], "histograms": [], "tag_ids": [1722], "uri": "http://api.citygridmedia.com:8080/search/places/v2/search/where?has_offers=false&type=restaurant&format=json&page=22&where=30066&rpp=50&histograms=false&publisher=10000009598&region_type=circle", "did_you_mean": "", "regions": [{"latitude": 34.034132, "default_radius": 5.28, "type": "postal_code", "name": "30066", "longitude": -84.508332}], "call_id": "000b000000bf0b2f6a15f947d9af8aeb934625bc46", "first_hit": 1051, "total_hits": 2075, "geo_ids": [26294], "page": 22, "last_hit": 1100}}