{"results": {"rpp": 50, "locations": [{"business_operation_status": 1, "rating": null, "neighborhood": null, "image": null, "scorecard": null, "featured": false, "sample_categories": "Restaurants, Pizza, Carry Out", "public_id": "pizza-hut-marietta-14", "id": 814485380, "votes": null, "tagline": null, "has_video": false, "website": null, "offers": null, "latitude": 33.935534, "politanName": "Atlanta, GA Metro ", "phone_number": "7704291689", "tags": [{"primary": false, "id": 1722, "name": "Restaurants"}, {"primary": false, "id": 11247, "name": "Carry Out"}, {"primary": true, "id": 11299, "name": "Pizza"}], "fax_number": null, "expansion": {"count": null, "uri": null}, "impression_id": "000b00000014d805bfa7ee4e4195cb30c46bf60abb", "profile": "http://www.citysearch.com/profile/814485380/marietta_ga/pizza_hut.html", "address": {"city": "Marietta", "state": "GA", "street": "690 Sandtown Rd SW", "postal_code": "30008"}, "capProviderId": null, "distance": null, "has_offers": false, "name": "Pizza Hut", "longitude": -84.556228, "has_menu": false, "awards": null, "user_review_count": 0}, {"business_operation_status": 1, "rating": null, "neighborhood": null, "image": null, "scorecard": null, "featured": false, "sample_categories": "Ice Cream Parlors", "public_id": "baskinrobbins-marietta-8", "id": 833503720, "votes": null, "tagline": null, "has_video": false, "website": null, "offers": null, "latitude": 33.949812, "politanName": "Atlanta, GA Metro ", "phone_number": "7709713251", "tags": [{"primary": true, "id": 1730, "name": "Ice Cream Parlors"}], "fax_number": null, "expansion": {"count": null, "uri": null}, "impression_id": "000b000000f51c2157f6f84380a9ddef340376140b", "profile": "http://www.citysearch.com/profile/833503720/marietta_ga/baskin_robbins.html", "address": {"city": "Marietta", "state": "GA", "street": "80 Powers Ferry Rd SE", "postal_code": "30067"}, "capProviderId": null, "distance": null, "has_offers": false, "name": "Baskin-Robbins", "longitude": -84.511129, "has_menu": true, "awards": null, "user_review_count": 0}, {"business_operation_status": 1, "rating": null, "neighborhood": null, "image": null, "scorecard": null, "featured": false, "sample_categories": "Restaurants, Delis And Delicatessens, Greek, American Express, Discover", "public_id": "gyro-wrap-atlanta-3", "id": 3030506, "votes": null, "tagline": null, "has_video": false, "website": null, "offers": null, "latitude": 33.879304, "politanName": "Atlanta, GA Metro ", "phone_number": "7704323946", "tags": [{"primary": false, "id": 1727, "name": "Delis And Delicatessens"}, {"primary": false, "id": 11268, "name": "Greek"}, {"primary": false, "id": 11333, "name": "American Express"}, {"primary": false, "id": 11349, "name": "Discover"}, {"primary": false, "id": 11361, "name": "MasterCard"}, {"primary": false, "id": 11382, "name": "Visa"}, {"primary": true, "id": 1722, "name": "Restaurants"}], "fax_number": null, "expansion": {"count": null, "uri": null}, "impression_id": "000b0000001e9a6576969b46fba3a14a1b2ed6ad35", "profile": "http://www.citysearch.com/profile/3030506/atlanta_ga/gyro_wrap.html", "address": {"city": "Atlanta", "state": "GA", "street": "1328 Cumberland Mall SE", "postal_code": "30339"}, "capProviderId": null, "distance": null, "has_offers": false, "name": "Gyro Wrap", "longitude": -84.471298, "has_menu": true, "awards": null, "user_review_count": 0}, {"business_operation_status": 1, "rating": null, "neighborhood": null, "image": null, "scorecard": null, "featured": false, "sample_categories": "Restaurants", "public_id": "kabanas-bar-grille-marietta", "id": 628071894, "votes": null, "tagline": null, "has_video": false, "website": null, "offers": null, "latitude": 33.915701, "politanName": "Atlanta, GA Metro ", "phone_number": "7706932382", "tags": [{"primary": true, "id": 1722, "name": "Restaurants"}], "fax_number": null, "expansion": {"count": null, "uri": null}, "impression_id": "000b0000008af15a4fa631437d97b30b1e5a8fcaa8", "profile": "http://www.citysearch.com/profile/628071894/marietta_ga/kabanas_bar_grille.html", "address": {"city": "Marietta", "state": "GA", "street": "1475 Terrell Mill Rd SE", "postal_code": "30067"}, "capProviderId": null, "distance": null, "has_offers": false, "name": "Kabanas Bar & Grille", "longitude": -84.4689, "has_menu": false, "awards": null, "user_review_count": 0}, {"business_operation_status": 1, "rating": null, "neighborhood": null, "image": null, "scorecard": null, "featured": false, "sample_categories": "Grocery Stores, Health Food Stores, Restaurants", "public_id": "bambinos-nutritional-ctr-marietta", "id": 631964510, "votes": null, "tagline": null, "has_video": false, "website": null, "offers": null, "latitude": 33.906963, "politanName": "Atlanta, GA Metro ", "phone_number": "7709512267", "tags": [{"primary": false, "id": 1716, "name": "Health Food Stores"}, {"primary": false, "id": 1722, "name": "Restaurants"}, {"primary": true, "id": 1713, "name": "Grocery Stores"}], "fax_number": null, "expansion": {"count": null, "uri": null}, "impression_id": "000b0000007d705eb7799e49c181b9c8574f1aff6b", "profile": "http://www.citysearch.com/profile/631964510/marietta_ga/bambinos_nutritional_ctr.html", "address": {"city": "Marietta", "state": "GA", "street": "1869 Cobb Pkwy S 700", "postal_code": "30060"}, "capProviderId": null, "distance": null, "has_offers": false, "name": "Bambinos Nutritional Ctr", "longitude": -84.488987, "has_menu": false, "awards": null, "user_review_count": 0}, {"business_operation_status": 1, "rating": null, "neighborhood": null, "image": null, "scorecard": null, "featured": false, "sample_categories": "Restaurants, Delis And Delicatessens, Sandwich Shops, Carry Out", "public_id": "subway-kennesaw-12", "id": 627566914, "votes": null, "tagline": null, "has_video": false, "website": "http://www.citysearch.com/profile/external/627566914/kennesaw_ga/subway.html", "offers": null, "latitude": 34.014011, "politanName": "Atlanta, GA Metro ", "phone_number": null, "tags": [{"primary": false, "id": 1727, "name": "Delis And Delicatessens"}, {"primary": false, "id": 1736, "name": "Sandwich Shops"}, {"primary": false, "id": 11247, "name": "Carry Out"}, {"primary": true, "id": 1722, "name": "Restaurants"}], "fax_number": null, "expansion": {"count": null, "uri": null}, "impression_id": "000b000000bfa6326efe234981a0ba88f5c887079a", "profile": "http://www.citysearch.com/profile/627566914/kennesaw_ga/subway.html", "address": {"city": "Kennesaw", "state": "GA", "street": "575 Ernest W Barrett Pkwy NW", "postal_code": "30144"}, "capProviderId": null, "distance": null, "has_offers": false, "name": "Subway", "longitude": -84.559013, "has_menu": false, "awards": null, "user_review_count": 0}, {"business_operation_status": 1, "rating": null, "neighborhood": null, "image": null, "scorecard": null, "featured": false, "sample_categories": "Restaurants, Barbecue Restaurants", "public_id": "wings-burger-haven-marietta", "id": 653579150, "votes": null, "tagline": null, "has_video": false, "website": null, "offers": null, "latitude": 33.988155, "politanName": "Atlanta, GA Metro ", "phone_number": "6784679223", "tags": [{"primary": false, "id": 1724, "name": "Barbecue Restaurants"}, {"primary": true, "id": 1722, "name": "Restaurants"}], "fax_number": null, "expansion": {"count": null, "uri": null}, "impression_id": "000b0000000549bbe72b844f7fa4800da850243bdd", "profile": "http://www.citysearch.com/profile/653579150/marietta_ga/wings_burger_haven.html", "address": {"city": "Marietta", "state": "GA", "street": "1410 Glenover Cir", "postal_code": "30062"}, "capProviderId": null, "distance": null, "has_offers": false, "name": "Wings & Burger Haven", "longitude": -84.511569, "has_menu": false, "awards": null, "user_review_count": 0}, {"business_operation_status": 1, "rating": null, "neighborhood": null, "image": null, "scorecard": null, "featured": false, "sample_categories": "Restaurants, Bars & Clubs, Bars & Pubs", "public_id": "rose-crown-tavern-marietta", "id": 653616950, "votes": null, "tagline": null, "has_video": false, "website": null, "offers": null, "latitude": 33.904776, "politanName": "Atlanta, GA Metro ", "phone_number": "7709335595", "tags": [{"primary": false, "id": 164, "name": "Bars & Clubs"}, {"primary": false, "id": 1686, "name": "Bars & Pubs"}, {"primary": true, "id": 1722, "name": "Restaurants"}], "fax_number": null, "expansion": {"count": null, "uri": null}, "impression_id": "000b000000ca2bad1e78ea45f797ba4be00a5d4d0a", "profile": "http://www.citysearch.com/profile/653616950/marietta_ga/rose_crown_tavern.html", "address": {"city": "Marietta", "state": "GA", "street": "1931 Powers Ferry Trce Se", "postal_code": "30339"}, "capProviderId": null, "distance": null, "has_offers": false, "name": "Rose & Crown Tavern", "longitude": -84.46154, "has_menu": false, "awards": null, "user_review_count": 0}, {"business_operation_status": 1, "rating": null, "neighborhood": null, "image": null, "scorecard": null, "featured": false, "sample_categories": "Restaurants, Greek", "public_id": "milos-restaurant-greek-tavern-marietta", "id": 793388790, "votes": null, "tagline": null, "has_video": false, "website": null, "offers": null, "latitude": 33.953276, "politanName": "Atlanta, GA Metro ", "phone_number": "6789033148", "tags": [{"primary": false, "id": 11268, "name": "Greek"}, {"primary": true, "id": 1722, "name": "Restaurants"}], "fax_number": null, "expansion": {"count": null, "uri": null}, "impression_id": "000b000000416a91dff5134939b5fa6b469f16c505", "profile": "http://www.citysearch.com/profile/793388790/marietta_ga/milos_restaurant_greek_tavern.html", "address": {"city": "Marietta", "state": "GA", "street": "26 Mill St Ne", "postal_code": "30060"}, "capProviderId": null, "distance": null, "has_offers": false, "name": "Milos Restaurant Greek Tavern", "longitude": -84.551885, "has_menu": false, "awards": null, "user_review_count": 0}, {"business_operation_status": 1, "rating": 8.0, "neighborhood": null, "image": null, "scorecard": null, "featured": false, "sample_categories": "Restaurants, Barbecue Restaurants, MasterCard, Visa", "public_id": "wing-factory-smyrna", "id": 39887521, "votes": null, "tagline": null, "has_video": false, "website": null, "offers": null, "latitude": 33.886503, "politanName": "Atlanta, GA Metro ", "phone_number": "7704259533", "tags": [{"primary": false, "id": 1724, "name": "Barbecue Restaurants"}, {"primary": false, "id": 11361, "name": "MasterCard"}, {"primary": false, "id": 11382, "name": "Visa"}, {"primary": true, "id": 1722, "name": "Restaurants"}], "fax_number": null, "expansion": {"count": null, "uri": null}, "impression_id": "000b000000e5e15312114f412e9f722af358efd41f", "profile": "http://www.citysearch.com/profile/39887521/smyrna_ga/wing_factory.html", "address": {"city": "Smyrna", "state": "GA", "street": "1150 Powder Springs St SE", "postal_code": "30080"}, "capProviderId": null, "distance": null, "has_offers": false, "name": "Wing Factory", "longitude": -84.519854, "has_menu": false, "awards": null, "user_review_count": 0}, {"business_operation_status": 1, "rating": null, "neighborhood": null, "image": null, "scorecard": null, "featured": false, "sample_categories": "Restaurants", "public_id": "its-greek-to-us-marietta", "id": 804307170, "votes": null, "tagline": null, "has_video": false, "website": null, "offers": null, "latitude": 33.974019, "politanName": "Atlanta, GA Metro ", "phone_number": "7705753077", "tags": [{"primary": true, "id": 1722, "name": "Restaurants"}], "fax_number": null, "expansion": {"count": null, "uri": null}, "impression_id": "000b000000aa4a716b0dd347279a0eb655293a62ad", "profile": "http://www.citysearch.com/profile/804307170/marietta_ga/it_s_greek_to_us.html", "address": {"city": "Marietta", "state": "GA", "street": "1355 Church Street Ext Ne", "postal_code": "30060"}, "capProviderId": null, "distance": null, "has_offers": false, "name": "It's Greek To US", "longitude": -84.552835, "has_menu": true, "awards": null, "user_review_count": 0}, {"business_operation_status": 1, "rating": 6.0, "neighborhood": null, "image": null, "scorecard": null, "featured": false, "sample_categories": "Restaurants, Family-Friendly Dining", "public_id": "our-place-restaurant-marietta", "id": 43842559, "votes": null, "tagline": null, "has_video": false, "website": null, "offers": null, "latitude": 33.941343, "politanName": "Atlanta, GA Metro ", "phone_number": "7704223796", "tags": [{"primary": false, "id": 1722, "name": "Restaurants"}, {"primary": true, "id": 11263, "name": "Family-Friendly Dining"}], "fax_number": null, "expansion": {"count": null, "uri": null}, "impression_id": "000b0000007704269e2aab4b24bf7f6362bf4944d0", "profile": "http://www.citysearch.com/profile/43842559/marietta_ga/our_place_restaurant.html", "address": {"city": "Marietta", "state": "GA", "street": "940 S Marietta Pkwy SE", "postal_code": "30060"}, "capProviderId": null, "distance": null, "has_offers": false, "name": "Our Place Restaurant", "longitude": -84.523114, "has_menu": false, "awards": null, "user_review_count": 2}, {"business_operation_status": 1, "rating": null, "neighborhood": null, "image": null, "scorecard": null, "featured": false, "sample_categories": "Restaurants", "public_id": "cantons-donuts-marietta", "id": 805665440, "votes": null, "tagline": null, "has_video": false, "website": null, "offers": null, "latitude": 33.951218, "politanName": "Atlanta, GA Metro ", "phone_number": "7705792399", "tags": [{"primary": true, "id": 1722, "name": "Restaurants"}], "fax_number": null, "expansion": {"count": null, "uri": null}, "impression_id": "000b000000dd09373f0064422b9b5c0d3de8c3d6d1", "profile": "http://www.citysearch.com/profile/805665440/marietta_ga/canton_s_donuts.html", "address": {"city": "Marietta", "state": "GA", "street": "1516 Roswell Rd", "postal_code": "30062"}, "capProviderId": null, "distance": null, "has_offers": false, "name": "Canton's Donuts", "longitude": -84.508253, "has_menu": false, "awards": null, "user_review_count": 0}, {"business_operation_status": 1, "rating": null, "neighborhood": null, "image": null, "scorecard": null, "featured": false, "sample_categories": "Restaurants, Carry Out", "public_id": "golden-corral-buffet-grill-marietta-2", "id": 811738440, "votes": null, "tagline": null, "has_video": false, "website": null, "offers": null, "latitude": 33.93149, "politanName": "Atlanta, GA Metro ", "phone_number": "7709551779", "tags": [{"primary": false, "id": 11247, "name": "Carry Out"}, {"primary": true, "id": 1722, "name": "Restaurants"}], "fax_number": null, "expansion": {"count": null, "uri": null}, "impression_id": "000b000000201027f8a6ae448d9926c0cef24d8b20", "profile": "http://www.citysearch.com/profile/811738440/marietta_ga/golden_corral_buffet_grill.html", "address": {"city": "Marietta", "state": "GA", "street": "2024 Powers Ferry Trce SE", "postal_code": "30067"}, "capProviderId": null, "distance": null, "has_offers": false, "name": "Golden Corral Buffet & Grill", "longitude": -84.478299, "has_menu": false, "awards": null, "user_review_count": 0}, {"business_operation_status": 1, "rating": null, "neighborhood": null, "image": null, "scorecard": null, "featured": false, "sample_categories": "Restaurants, Chinese", "public_id": "china-shipping-agency-atlanta", "id": 45568408, "votes": null, "tagline": null, "has_video": false, "website": null, "offers": null, "latitude": 33.902606, "politanName": "Atlanta, GA Metro ", "phone_number": "7708578338", "tags": [{"primary": false, "id": 11252, "name": "Chinese"}, {"primary": true, "id": 1722, "name": "Restaurants"}], "fax_number": null, "expansion": {"count": null, "uri": null}, "impression_id": "000b000000868b7914953b473b9c5e5ee1f85e7f17", "profile": "http://www.citysearch.com/profile/45568408/atlanta_ga/china_shipping_agency.html", "address": {"city": "Atlanta", "state": "GA", "street": "2000 Powers Ferry Rd SE", "postal_code": "30339"}, "capProviderId": null, "distance": null, "has_offers": false, "name": "China Shipping Agency", "longitude": -84.457878, "has_menu": false, "awards": null, "user_review_count": 0}, {"business_operation_status": 1, "rating": null, "neighborhood": null, "image": null, "scorecard": null, "featured": false, "sample_categories": "Restaurants, Carry Out", "public_id": "back-yard-burgers-roswell-2", "id": 618629154, "votes": null, "tagline": null, "has_video": false, "website": "http://www.citysearch.com/profile/external/618629154/roswell_ga/back_yard_burgers.html", "offers": null, "latitude": 34.063969, "politanName": "Atlanta, GA Metro ", "phone_number": "7705948185", "tags": [{"primary": false, "id": 11247, "name": "Carry Out"}, {"primary": true, "id": 1722, "name": "Restaurants"}], "fax_number": null, "expansion": {"count": null, "uri": null}, "impression_id": "000b000000d4b56e74d11c4e7297836bd039fb03c0", "profile": "http://www.citysearch.com/profile/618629154/roswell_ga/back_yard_burgers.html", "address": {"city": "Roswell", "state": "GA", "street": "4765 Sandy Plains Rd", "postal_code": "30075"}, "capProviderId": null, "distance": null, "has_offers": false, "name": "Back Yard Burgers", "longitude": -84.424033, "has_menu": false, "awards": null, "user_review_count": 0}, {"business_operation_status": 1, "rating": null, "neighborhood": null, "image": null, "scorecard": null, "featured": false, "sample_categories": "Restaurants", "public_id": "jen-pal-smyrna", "id": 611103124, "votes": null, "tagline": null, "has_video": false, "website": null, "offers": null, "latitude": 33.884162, "politanName": "Atlanta, GA Metro ", "phone_number": "7704319620", "tags": [{"primary": true, "id": 1722, "name": "Restaurants"}], "fax_number": null, "expansion": {"count": null, "uri": null}, "impression_id": "000b000000f897b1cbb94849d6b371251011125a3f", "profile": "http://www.citysearch.com/profile/611103124/smyrna_ga/jen_pal.html", "address": {"city": "Smyrna", "state": "GA", "street": "1260 W Spring St SE # D", "postal_code": "30080"}, "capProviderId": null, "distance": null, "has_offers": false, "name": "Jen Pal", "longitude": -84.515885, "has_menu": false, "awards": null, "user_review_count": 0}, {"business_operation_status": 1, "rating": null, "neighborhood": null, "image": null, "scorecard": null, "featured": false, "sample_categories": "Restaurants, Delis And Delicatessens", "public_id": "sub-station-ii-smyrna", "id": 2922311, "votes": null, "tagline": null, "has_video": false, "website": "http://www.citysearch.com/profile/external/2922311/smyrna_ga/sub_station_ii.html", "offers": null, "latitude": 33.890368, "politanName": "Atlanta, GA Metro ", "phone_number": "4044356027", "tags": [{"primary": false, "id": 1727, "name": "Delis And Delicatessens"}, {"primary": true, "id": 1722, "name": "Restaurants"}], "fax_number": null, "expansion": {"count": null, "uri": null}, "impression_id": "000b000000784b9396cab3474099bd53a06f6f4c8f", "profile": "http://www.citysearch.com/profile/2922311/smyrna_ga/sub_station_ii.html", "address": {"city": "Smyrna", "state": "GA", "street": "2538 Atlanta Rd SE Ste B", "postal_code": "30080"}, "capProviderId": null, "distance": null, "has_offers": false, "name": "Sub Station II", "longitude": -84.51719, "has_menu": true, "awards": null, "user_review_count": 1}, {"business_operation_status": 1, "rating": null, "neighborhood": null, "image": null, "scorecard": null, "featured": false, "sample_categories": "Restaurants, Carry Out, American Express, Discover, MasterCard", "public_id": "chickfila-marietta-4", "id": 621935420, "votes": null, "tagline": null, "has_video": false, "website": "http://www.citysearch.com/profile/external/621935420/marietta_ga/chick_fil_a.html", "offers": null, "latitude": 33.904224, "politanName": "Atlanta, GA Metro ", "phone_number": "6783555297", "tags": [{"primary": false, "id": 11247, "name": "Carry Out"}, {"primary": false, "id": 11333, "name": "American Express"}, {"primary": false, "id": 11349, "name": "Discover"}, {"primary": false, "id": 11361, "name": "MasterCard"}, {"primary": false, "id": 11382, "name": "Visa"}, {"primary": false, "id": 12839, "name": "Chicken"}, {"primary": true, "id": 1722, "name": "Restaurants"}], "fax_number": null, "expansion": {"count": null, "uri": null}, "impression_id": "000b000000dfb476d59ff9480b9a3c8dc6e465898a", "profile": "http://www.citysearch.com/profile/621935420/marietta_ga/chick_fil_a.html", "address": {"city": "Marietta", "state": "GA", "street": "2005 Macland Rd Sw", "postal_code": "30064"}, "capProviderId": null, "distance": null, "has_offers": false, "name": "Chick-Fil-A", "longitude": -84.610996, "has_menu": true, "awards": null, "user_review_count": 0}, {"business_operation_status": 1, "rating": null, "neighborhood": null, "image": null, "scorecard": null, "featured": false, "sample_categories": "Sandwich Shops, Restaurants, Delis And Delicatessens", "public_id": "deli-planet-atlanta", "id": 3030563, "votes": null, "tagline": null, "has_video": false, "website": null, "offers": null, "latitude": 33.879395, "politanName": "Atlanta, GA Metro ", "phone_number": "7709514994", "tags": [{"primary": false, "id": 1722, "name": "Restaurants"}, {"primary": false, "id": 1727, "name": "Delis And Delicatessens"}, {"primary": true, "id": 1736, "name": "Sandwich Shops"}], "fax_number": null, "expansion": {"count": null, "uri": null}, "impression_id": "000b0000003a34aab212d44f11a2e9a6877f771b2d", "profile": "http://www.citysearch.com/profile/3030563/atlanta_ga/deli_planet.html", "address": {"city": "Atlanta", "state": "GA", "street": "3051 Akers Mill Rd SE", "postal_code": "30339"}, "capProviderId": null, "distance": null, "has_offers": false, "name": "Deli Planet", "longitude": -84.463912, "has_menu": false, "awards": null, "user_review_count": 1}, {"business_operation_status": 1, "rating": null, "neighborhood": null, "image": null, "scorecard": null, "featured": false, "sample_categories": "Restaurants", "public_id": "wings-101-smyrna", "id": 621900654, "votes": null, "tagline": null, "has_video": false, "website": null, "offers": null, "latitude": 33.894038, "politanName": "Atlanta, GA Metro ", "phone_number": "7709891520", "tags": [{"primary": true, "id": 1722, "name": "Restaurants"}], "fax_number": null, "expansion": {"count": null, "uri": null}, "impression_id": "000b0000005bfed0aa71974647a06e6e5f519078b0", "profile": "http://www.citysearch.com/profile/621900654/smyrna_ga/wings_101.html", "address": {"city": "Smyrna", "state": "GA", "street": "998 Windy Hill Rd SE", "postal_code": "30080"}, "capProviderId": null, "distance": null, "has_offers": false, "name": "Wings 101", "longitude": -84.524382, "has_menu": false, "awards": null, "user_review_count": 0}, {"business_operation_status": 1, "rating": null, "neighborhood": null, "image": null, "scorecard": null, "featured": false, "sample_categories": "Restaurants, Fast Food, Carry Out, MasterCard, Visa", "public_id": "bojangles-famous-chicken-marietta", "id": 43849344, "votes": null, "tagline": null, "has_video": false, "website": "http://www.citysearch.com/profile/external/43849344/marietta_ga/bojangles_famous_chicken.html", "offers": null, "latitude": 33.935998, "politanName": "Atlanta, GA Metro ", "phone_number": "7704226222", "tags": [{"primary": false, "id": 11199, "name": "Fast Food"}, {"primary": false, "id": 11247, "name": "Carry Out"}, {"primary": false, "id": 11361, "name": "MasterCard"}, {"primary": false, "id": 11382, "name": "Visa"}, {"primary": false, "id": 12839, "name": "Chicken"}, {"primary": true, "id": 1722, "name": "Restaurants"}], "fax_number": null, "expansion": {"count": null, "uri": null}, "impression_id": "000b000000903c115596fb47489bc8aaa320c87c9c", "profile": "http://www.citysearch.com/profile/43849344/marietta_ga/bojangles_famous_chicken.html", "address": {"city": "Marietta", "state": "GA", "street": "681 Cobb Pkwy N", "postal_code": "30062"}, "capProviderId": null, "distance": null, "has_offers": false, "name": "Bojangles' Famous Chicken", "longitude": -84.511888, "has_menu": false, "awards": null, "user_review_count": 0}, {"business_operation_status": 1, "rating": null, "neighborhood": null, "image": null, "scorecard": null, "featured": false, "sample_categories": "Restaurants, Japanese, Asian", "public_id": "blusushi-smyrna", "id": 621946410, "votes": null, "tagline": null, "has_video": false, "website": null, "offers": null, "latitude": 33.887059, "politanName": "Atlanta, GA Metro ", "phone_number": "7704379900", "tags": [{"primary": false, "id": 11202, "name": "Japanese"}, {"primary": false, "id": 11235, "name": "Asian"}, {"primary": true, "id": 1722, "name": "Restaurants"}], "fax_number": null, "expansion": {"count": null, "uri": null}, "impression_id": "000b00000085c0524978a34c5dbad2fd5222974faa", "profile": "http://www.citysearch.com/profile/621946410/smyrna_ga/blusushi.html", "address": {"city": "Smyrna", "state": "GA", "street": "2700 Cumberland Blvd Se", "postal_code": "30080"}, "capProviderId": null, "distance": null, "has_offers": false, "name": "Blusushi", "longitude": -84.476087, "has_menu": false, "awards": null, "user_review_count": 1}, {"business_operation_status": 1, "rating": 8.0, "neighborhood": null, "image": null, "scorecard": null, "featured": false, "sample_categories": "Translators & Interpreters, Bakeries, Restaurants", "public_id": "progreso-latino-marietta", "id": 44772942, "votes": null, "tagline": null, "has_video": false, "website": null, "offers": null, "latitude": 33.936757, "politanName": "Atlanta, GA Metro ", "phone_number": "7707941110", "tags": [{"primary": false, "id": 3744, "name": "Translators & Interpreters"}, {"primary": false, "id": 1685, "name": "Bakeries"}, {"primary": false, "id": 1722, "name": "Restaurants"}], "fax_number": null, "expansion": {"count": null, "uri": null}, "impression_id": "000b000000ca0c2b205c68499cbb0b6bccc4ab23df", "profile": "http://www.citysearch.com/profile/44772942/marietta_ga/progreso_latino.html", "address": {"city": "Marietta", "state": "GA", "street": "680 Powder Springs St", "postal_code": "30064"}, "capProviderId": null, "distance": null, "has_offers": false, "name": "Progreso Latino", "longitude": -84.557357, "has_menu": false, "awards": null, "user_review_count": 0}, {"business_operation_status": 1, "rating": null, "neighborhood": null, "image": null, "scorecard": null, "featured": false, "sample_categories": "Restaurants", "public_id": "cafe-the-pointe-atlanta", "id": 3020367, "votes": null, "tagline": null, "has_video": false, "website": null, "offers": null, "latitude": 33.908964, "politanName": "Atlanta, GA Metro ", "phone_number": "7709515553", "tags": [{"primary": true, "id": 1722, "name": "Restaurants"}], "fax_number": null, "expansion": {"count": null, "uri": null}, "impression_id": "000b000000226cf5b14252410b93a1cb940be7c3cb", "profile": "http://www.citysearch.com/profile/3020367/atlanta_ga/cafe_the_pointe.html", "address": {"city": "Atlanta", "state": "GA", "street": "5660 New Northside Dr NW Ste 180", "postal_code": "30328"}, "capProviderId": null, "distance": null, "has_offers": false, "name": "Cafe The Pointe", "longitude": -84.431126, "has_menu": false, "awards": null, "user_review_count": 0}, {"business_operation_status": 1, "rating": null, "neighborhood": null, "image": null, "scorecard": null, "featured": false, "sample_categories": "Restaurants", "public_id": "wing-it-cafe-marietta", "id": 610478634, "votes": null, "tagline": null, "has_video": false, "website": null, "offers": null, "latitude": 33.883197, "politanName": "Atlanta, GA Metro ", "phone_number": "7702189100", "tags": [{"primary": true, "id": 1722, "name": "Restaurants"}], "fax_number": null, "expansion": {"count": null, "uri": null}, "impression_id": "000b000000adf83526a6f6415183966659f9613f7a", "profile": "http://www.citysearch.com/profile/610478634/marietta_ga/wing_it_cafe.html", "address": {"city": "Marietta", "state": "GA", "street": "2200 Powder Springs Rd SW", "postal_code": "30064"}, "capProviderId": null, "distance": null, "has_offers": false, "name": "Wing It Cafe", "longitude": -84.61985, "has_menu": false, "awards": null, "user_review_count": 0}, {"business_operation_status": 1, "rating": null, "neighborhood": null, "image": null, "scorecard": null, "featured": false, "sample_categories": "Restaurants", "public_id": "parkside-cafe-atlanta", "id": 3030526, "votes": null, "tagline": null, "has_video": false, "website": null, "offers": null, "latitude": 33.906442, "politanName": "Atlanta, GA Metro ", "phone_number": "7709330089", "tags": [{"primary": true, "id": 1722, "name": "Restaurants"}], "fax_number": null, "expansion": {"count": null, "uri": null}, "impression_id": "000b0000009c39d66527d1448e87703d76256bded4", "profile": "http://www.citysearch.com/profile/3030526/atlanta_ga/parkside_cafe.html", "address": {"city": "Atlanta", "state": "GA", "street": "2500 Windy Ridge Pkwy SE Ste 100", "postal_code": "30339"}, "capProviderId": null, "distance": null, "has_offers": false, "name": "Parkside Cafe", "longitude": -84.46162, "has_menu": true, "awards": null, "user_review_count": 1}, {"business_operation_status": 1, "rating": null, "neighborhood": null, "image": null, "scorecard": null, "featured": false, "sample_categories": "Restaurants", "public_id": "galleria-100-cafe-atlanta", "id": 3030544, "votes": null, "tagline": null, "has_video": false, "website": null, "offers": null, "latitude": 33.885006, "politanName": "Atlanta, GA Metro ", "phone_number": "7709569773", "tags": [{"primary": true, "id": 1722, "name": "Restaurants"}], "fax_number": null, "expansion": {"count": null, "uri": null}, "impression_id": "000b0000001ca69c846fa241bf9a051cfa1e7651c6", "profile": "http://www.citysearch.com/profile/3030544/atlanta_ga/galleria_100_cafe.html", "address": {"city": "Atlanta", "state": "GA", "street": "100 Galleria Pkwy SE Ste 120", "postal_code": "30339"}, "capProviderId": null, "distance": null, "has_offers": false, "name": "Galleria 100 Cafe", "longitude": -84.462612, "has_menu": false, "awards": null, "user_review_count": 0}, {"business_operation_status": 1, "rating": null, "neighborhood": null, "image": null, "scorecard": null, "featured": false, "sample_categories": "Restaurants, Delis And Delicatessens", "public_id": "shadowood-cafe-atlanta", "id": 3030562, "votes": null, "tagline": null, "has_video": false, "website": null, "offers": null, "latitude": 33.901114, "politanName": "Atlanta, GA Metro ", "phone_number": "7709333265", "tags": [{"primary": false, "id": 1727, "name": "Delis And Delicatessens"}, {"primary": true, "id": 1722, "name": "Restaurants"}], "fax_number": null, "expansion": {"count": null, "uri": null}, "impression_id": "000b000000b52feace3f2f477caff76b340997f052", "profile": "http://www.citysearch.com/profile/3030562/atlanta_ga/shadowood_cafe.html", "address": {"city": "Atlanta", "state": "GA", "street": "2110 Powers Ferry Rd SE 120", "postal_code": "30339"}, "capProviderId": null, "distance": null, "has_offers": false, "name": "Shadowood Cafe", "longitude": -84.45113, "has_menu": false, "awards": null, "user_review_count": 0}, {"business_operation_status": 1, "rating": null, "neighborhood": null, "image": null, "scorecard": null, "featured": false, "sample_categories": "Restaurants", "public_id": "party-q-marietta", "id": 618276704, "votes": null, "tagline": null, "has_video": false, "website": null, "offers": null, "latitude": 34.020818, "politanName": "Atlanta, GA Metro ", "phone_number": "6786977808", "tags": [{"primary": true, "id": 1722, "name": "Restaurants"}], "fax_number": null, "expansion": {"count": null, "uri": null}, "impression_id": "000b000000b1561360e06249879283f015c281469d", "profile": "http://www.citysearch.com/profile/618276704/marietta_ga/party_q.html", "address": {"city": "Marietta", "state": "GA", "street": "2821 Chastain Meadows Pkwy", "postal_code": "30066"}, "capProviderId": null, "distance": null, "has_offers": false, "name": "Party Q", "longitude": -84.55554, "has_menu": false, "awards": null, "user_review_count": 0}, {"business_operation_status": 1, "rating": null, "neighborhood": null, "image": null, "scorecard": null, "featured": false, "sample_categories": "Restaurants, Bakeries, Doughnut Shops", "public_id": "powers-ferry-donuts-holdings-atlanta", "id": 622334470, "votes": null, "tagline": null, "has_video": false, "website": null, "offers": null, "latitude": 33.901856, "politanName": "Atlanta, GA Metro ", "phone_number": "7708591677", "tags": [{"primary": false, "id": 1685, "name": "Bakeries"}, {"primary": false, "id": 1734, "name": "Doughnut Shops"}, {"primary": true, "id": 1722, "name": "Restaurants"}], "fax_number": null, "expansion": {"count": null, "uri": null}, "impression_id": "000b000000af94d1a1c7d94cb293967c1bc27d6a99", "profile": "http://www.citysearch.com/profile/622334470/atlanta_ga/powers_ferry_donuts_holdings.html", "address": {"city": "Atlanta", "state": "GA", "street": "2022 Powers Ferry Rd Se", "postal_code": "30339"}, "capProviderId": null, "distance": null, "has_offers": false, "name": "Powers Ferry Donuts Holdings", "longitude": -84.455034, "has_menu": false, "awards": null, "user_review_count": 0}, {"business_operation_status": 1, "rating": null, "neighborhood": null, "image": null, "scorecard": null, "featured": false, "sample_categories": "Restaurants", "public_id": "ferreras-bistro-roswell", "id": 811707830, "votes": null, "tagline": null, "has_video": false, "website": null, "offers": null, "latitude": 34.015743, "politanName": "Atlanta, GA Metro ", "phone_number": "7706405345", "tags": [{"primary": true, "id": 1722, "name": "Restaurants"}], "fax_number": null, "expansion": {"count": null, "uri": null}, "impression_id": "000b000000c0a17c6b6609495098e189dee926f05d", "profile": "http://www.citysearch.com/profile/811707830/roswell_ga/ferrera_s_bistro.html", "address": {"city": "Roswell", "state": "GA", "street": "635 Atlanta St", "postal_code": "30075"}, "capProviderId": null, "distance": null, "has_offers": false, "name": "Ferrera's Bistro", "longitude": -84.362618, "has_menu": false, "awards": null, "user_review_count": 0}, {"business_operation_status": 1, "rating": null, "neighborhood": null, "image": null, "scorecard": null, "featured": false, "sample_categories": "Restaurants, Barbecue Restaurants", "public_id": "wing-zone-marietta", "id": 37646631, "votes": null, "tagline": null, "has_video": false, "website": "http://www.citysearch.com/profile/external/37646631/marietta_ga/wing_zone.html", "offers": null, "latitude": 33.920106, "politanName": "Atlanta, GA Metro ", "phone_number": "7709889464", "tags": [{"primary": false, "id": 1724, "name": "Barbecue Restaurants"}, {"primary": true, "id": 1722, "name": "Restaurants"}], "fax_number": null, "expansion": {"count": null, "uri": null}, "impression_id": "000b000000e7a96c1624394900891c2c1db66c74a5", "profile": "http://www.citysearch.com/profile/37646631/marietta_ga/wing_zone.html", "address": {"city": "Marietta", "state": "GA", "street": "1309 Powers Ferry Rd SE", "postal_code": "30067"}, "capProviderId": null, "distance": null, "has_offers": false, "name": "Wing Zone", "longitude": -84.467252, "has_menu": true, "awards": null, "user_review_count": 0}, {"business_operation_status": 1, "rating": null, "neighborhood": null, "image": null, "scorecard": null, "featured": false, "sample_categories": "Restaurants, Pizza", "public_id": "pizza-zone-inc-marietta", "id": 820298830, "votes": null, "tagline": null, "has_video": false, "website": null, "offers": null, "latitude": 33.904063, "politanName": "Atlanta, GA Metro ", "phone_number": "7704329364", "tags": [{"primary": false, "id": 1722, "name": "Restaurants"}, {"primary": true, "id": 11299, "name": "Pizza"}], "fax_number": null, "expansion": {"count": null, "uri": null}, "impression_id": "000b000000b20beef3ad2947af8fbc8c7674702a02", "profile": "http://www.citysearch.com/profile/820298830/marietta_ga/pizza_zone_inc.html", "address": {"city": "Marietta", "state": "GA", "street": "2022 S Cobb Dr SE", "postal_code": "30060"}, "capProviderId": null, "distance": null, "has_offers": false, "name": "Pizza Zone Inc", "longitude": -84.542723, "has_menu": false, "awards": null, "user_review_count": 0}, {"business_operation_status": 1, "rating": null, "neighborhood": null, "image": null, "scorecard": null, "featured": false, "sample_categories": "Restaurants", "public_id": "slate-grill-marietta-2", "id": 820825960, "votes": null, "tagline": null, "has_video": false, "website": null, "offers": null, "latitude": 33.953111, "politanName": "Atlanta, GA Metro ", "phone_number": "7704269777", "tags": [{"primary": true, "id": 1722, "name": "Restaurants"}], "fax_number": null, "expansion": {"count": null, "uri": null}, "impression_id": "000b0000002440493127134672856fbaa458a23b2f", "profile": "http://www.citysearch.com/profile/820825960/marietta_ga/slate_grill.html", "address": {"city": "Marietta", "state": "GA", "street": "1000 Whitlock Ave NW # 410", "postal_code": "30064"}, "capProviderId": null, "distance": null, "has_offers": false, "name": "Slate Grill", "longitude": -84.581272, "has_menu": true, "awards": null, "user_review_count": 0}, {"business_operation_status": 1, "rating": null, "neighborhood": null, "image": null, "scorecard": null, "featured": false, "sample_categories": "Restaurants", "public_id": "canton-street-resaurant-roswell", "id": 821779590, "votes": null, "tagline": null, "has_video": false, "website": null, "offers": null, "latitude": 34.023676, "politanName": "Atlanta, GA Metro ", "phone_number": "7706419244", "tags": [{"primary": true, "id": 1722, "name": "Restaurants"}], "fax_number": null, "expansion": {"count": null, "uri": null}, "impression_id": "000b000000ca17aca7f74c446f9ce56f03a10ff0da", "profile": "http://www.citysearch.com/profile/821779590/roswell_ga/canton_street_resaurant.html", "address": {"city": "Roswell", "state": "GA", "street": "928 Canton St", "postal_code": "30075"}, "capProviderId": null, "distance": null, "has_offers": false, "name": "Canton Street Resaurant", "longitude": -84.361782, "has_menu": false, "awards": null, "user_review_count": 0}, {"business_operation_status": 1, "rating": null, "neighborhood": null, "image": null, "scorecard": null, "featured": false, "sample_categories": "Restaurants", "public_id": "larrys-country-kitchen-marietta", "id": 827346130, "votes": null, "tagline": null, "has_video": false, "website": null, "offers": null, "latitude": 33.943185, "politanName": "Atlanta, GA Metro ", "phone_number": "7704269522", "tags": [{"primary": true, "id": 1722, "name": "Restaurants"}], "fax_number": null, "expansion": {"count": null, "uri": null}, "impression_id": "000b0000009bbd80b7364f4d8aa51679808dfbf830", "profile": "http://www.citysearch.com/profile/827346130/marietta_ga/larry_s_country_kitchen.html", "address": {"city": "Marietta", "state": "GA", "street": "625 S Marietta Pkwy SE", "postal_code": "30060"}, "capProviderId": null, "distance": null, "has_offers": false, "name": "Larry's Country Kitchen", "longitude": -84.533806, "has_menu": false, "awards": null, "user_review_count": 0}, {"business_operation_status": 0, "rating": null, "neighborhood": null, "image": null, "scorecard": null, "featured": false, "sample_categories": "Restaurants", "public_id": "gradys-american-grill-kennesaw", "id": 831505820, "votes": null, "tagline": null, "has_video": false, "website": null, "offers": null, "latitude": 34.012667, "politanName": "Atlanta, GA Metro ", "phone_number": "7709190090", "tags": [{"primary": true, "id": 1722, "name": "Restaurants"}], "fax_number": null, "expansion": {"count": null, "uri": null}, "impression_id": "000b0000008e57f31e5a0947db9c8ebdafcc820604", "profile": "http://www.citysearch.com/profile/831505820/kennesaw_ga/grady_s_american_grill.html", "address": {"city": "Kennesaw", "state": "GA", "street": "2475 George Busbee Pkwy NW", "postal_code": "30144"}, "capProviderId": null, "distance": null, "has_offers": false, "name": "Grady's American Grill", "longitude": -84.565651, "has_menu": false, "awards": null, "user_review_count": 0}, {"business_operation_status": 1, "rating": null, "neighborhood": null, "image": null, "scorecard": null, "featured": false, "sample_categories": "Restaurants", "public_id": "grand-champion-bbq-marietta", "id": 836972670, "votes": null, "tagline": null, "has_video": false, "website": null, "offers": null, "latitude": 33.952602, "politanName": "Atlanta, GA Metro ", "phone_number": "7709934227", "tags": [{"primary": true, "id": 1722, "name": "Restaurants"}], "fax_number": null, "expansion": {"count": null, "uri": null}, "impression_id": "000b00000025923ef09af548a4850d248136de8569", "profile": "http://www.citysearch.com/profile/836972670/marietta_ga/grand_champion_bbq.html", "address": {"city": "Marietta", "state": "GA", "street": "[empty]", "postal_code": "30062"}, "capProviderId": null, "distance": null, "has_offers": false, "name": "Grand Champion BBQ", "longitude": -84.549933, "has_menu": false, "awards": null, "user_review_count": 0}, {"business_operation_status": 1, "rating": null, "neighborhood": null, "image": null, "scorecard": null, "featured": false, "sample_categories": "Restaurants", "public_id": "corner-taqueria-smyrna", "id": 837793660, "votes": null, "tagline": null, "has_video": false, "website": "http://www.citysearch.com/profile/external/837793660/smyrna_ga/corner_taqueria.html", "offers": null, "latitude": 33.883705, "politanName": "Atlanta, GA Metro ", "phone_number": "6788420050", "tags": [{"primary": true, "id": 1722, "name": "Restaurants"}], "fax_number": null, "expansion": {"count": null, "uri": null}, "impression_id": "000b0000000dc7b51228b04972b985b47d457142ab", "profile": "http://www.citysearch.com/profile/837793660/smyrna_ga/corner_taqueria.html", "address": {"city": "Smyrna", "state": "GA", "street": "2860 Atlanta Rd SE", "postal_code": "30080"}, "capProviderId": null, "distance": null, "has_offers": false, "name": "Corner Taqueria", "longitude": -84.514807, "has_menu": false, "awards": null, "user_review_count": 0}, {"business_operation_status": 0, "rating": null, "neighborhood": null, "image": null, "scorecard": null, "featured": false, "sample_categories": "Restaurants, Delis And Delicatessens, Sandwich Shops, Carry Out", "public_id": "subway-marietta-49", "id": 764879600, "votes": null, "tagline": null, "has_video": false, "website": "http://www.citysearch.com/profile/external/764879600/marietta_ga/subway.html", "offers": null, "latitude": 33.900569, "politanName": "Atlanta, GA Metro ", "phone_number": "7708500296", "tags": [{"primary": false, "id": 1727, "name": "Delis And Delicatessens"}, {"primary": false, "id": 1736, "name": "Sandwich Shops"}, {"primary": false, "id": 11247, "name": "Carry Out"}, {"primary": true, "id": 1722, "name": "Restaurants"}], "fax_number": null, "expansion": {"count": null, "uri": null}, "impression_id": "000b0000007059d30ba6f5494eae54a2c10c7e2602", "profile": "http://www.citysearch.com/profile/764879600/marietta_ga/subway.html", "address": {"city": "Marietta", "state": "GA", "street": "2145 Powers Ferry Rd SE", "postal_code": "30067"}, "capProviderId": null, "distance": null, "has_offers": false, "name": "SUBWAY", "longitude": -84.448686, "has_menu": true, "awards": null, "user_review_count": 0}, {"business_operation_status": 1, "rating": null, "neighborhood": null, "image": null, "scorecard": null, "featured": false, "sample_categories": "Restaurants, Pizza", "public_id": "stevi-bs-pizza-marietta-5", "id": 766799650, "votes": null, "tagline": null, "has_video": false, "website": "http://www.citysearch.com/profile/external/766799650/marietta_ga/stevi_b_s_pizza.html", "offers": null, "latitude": 33.925343, "politanName": "Atlanta, GA Metro ", "phone_number": "7705411450", "tags": [{"primary": false, "id": 11299, "name": "Pizza"}, {"primary": true, "id": 1722, "name": "Restaurants"}], "fax_number": null, "expansion": {"count": null, "uri": null}, "impression_id": "000b000000cd6e0e4ec9d44e7696f693c67f60b12b", "profile": "http://www.citysearch.com/profile/766799650/marietta_ga/stevi_b_s_pizza.html", "address": {"city": "Marietta", "state": "GA", "street": "1165 Northchase Pkwy SE # 220", "postal_code": "30067"}, "capProviderId": null, "distance": null, "has_offers": false, "name": "Stevi B's Pizza", "longitude": -84.480479, "has_menu": true, "awards": null, "user_review_count": 0}, {"business_operation_status": 1, "rating": null, "neighborhood": null, "image": null, "scorecard": null, "featured": false, "sample_categories": "Restaurants", "public_id": "restaurant-concepts-inc-marietta", "id": 775223410, "votes": null, "tagline": null, "has_video": false, "website": null, "offers": null, "latitude": 33.930134, "politanName": "Atlanta, GA Metro ", "phone_number": "7709525943", "tags": [{"primary": true, "id": 1722, "name": "Restaurants"}], "fax_number": null, "expansion": {"count": null, "uri": null}, "impression_id": "000b000000ee79d340b9f247ce9d67d819d13c1ed0", "profile": "http://www.citysearch.com/profile/775223410/marietta_ga/restaurant_concepts_inc.html", "address": {"city": "Marietta", "state": "GA", "street": "2120 Powers Ferry Dr SE", "postal_code": "30067"}, "capProviderId": null, "distance": null, "has_offers": false, "name": "Restaurant Concepts Inc", "longitude": -84.486864, "has_menu": false, "awards": null, "user_review_count": 0}, {"business_operation_status": 0, "rating": null, "neighborhood": null, "image": null, "scorecard": null, "featured": false, "sample_categories": "Restaurants", "public_id": "aspen-west-cobb-marietta", "id": 41283282, "votes": null, "tagline": null, "has_video": false, "website": "http://www.citysearch.com/profile/external/41283282/marietta_ga/aspens.html", "offers": null, "latitude": 33.952164, "politanName": "Atlanta, GA Metro ", "phone_number": "7704191744", "tags": [{"primary": true, "id": 1722, "name": "Restaurants"}], "fax_number": null, "expansion": {"count": null, "uri": null}, "impression_id": "000b000000aed4e6bd553343bba5c644345133a4b3", "profile": "http://www.citysearch.com/profile/41283282/marietta_ga/aspens.html", "address": {"city": "Marietta", "state": "GA", "street": "3625 Dallas Hwy SW Ste 715", "postal_code": "30064"}, "capProviderId": null, "distance": null, "has_offers": false, "name": "Aspens", "longitude": -84.657799, "has_menu": false, "awards": null, "user_review_count": 1}, {"business_operation_status": 1, "rating": null, "neighborhood": null, "image": null, "scorecard": null, "featured": false, "sample_categories": "Restaurants, Grocery Stores, Indian, American Express, Debit Card", "public_id": "amrutha-groceries-norcross", "id": 43841746, "votes": null, "tagline": null, "has_video": false, "website": null, "offers": null, "latitude": 33.878815, "politanName": "Atlanta, GA Metro ", "phone_number": "7709567589", "tags": [{"primary": false, "id": 1713, "name": "Grocery Stores"}, {"primary": false, "id": 11277, "name": "Indian"}, {"primary": false, "id": 11333, "name": "American Express"}, {"primary": false, "id": 11347, "name": "Debit Card"}, {"primary": false, "id": 11349, "name": "Discover"}, {"primary": false, "id": 11361, "name": "MasterCard"}, {"primary": false, "id": 11382, "name": "Visa"}, {"primary": true, "id": 1722, "name": "Restaurants"}], "fax_number": null, "expansion": {"count": null, "uri": null}, "impression_id": "000b000000a80d97d3d5e047cea5b3a90c69d0a43f", "profile": "http://www.citysearch.com/profile/43841746/norcross_ga/amrutha_groceries.html", "address": {"city": "Norcross", "state": "GA", "street": "2655 Car Pkwy", "postal_code": "30339"}, "capProviderId": null, "distance": null, "has_offers": false, "name": "Amrutha Groceries", "longitude": -84.464518, "has_menu": false, "awards": null, "user_review_count": 0}, {"business_operation_status": 1, "rating": null, "neighborhood": null, "image": null, "scorecard": null, "featured": false, "sample_categories": "Restaurants, Bars & Clubs", "public_id": "tio-bar-grill-smyrna", "id": 802510740, "votes": null, "tagline": null, "has_video": false, "website": null, "offers": null, "latitude": 33.886772, "politanName": "Atlanta, GA Metro ", "phone_number": "7709891065", "tags": [{"primary": false, "id": 164, "name": "Bars & Clubs"}, {"primary": true, "id": 1722, "name": "Restaurants"}], "fax_number": null, "expansion": {"count": null, "uri": null}, "impression_id": "000b000000b6d9160f7d654d739a12d0c2ad6ac5d4", "profile": "http://www.citysearch.com/profile/802510740/smyrna_ga/tio_bar_grill.html", "address": {"city": "Smyrna", "state": "GA", "street": "2731 S Cobb Dr Se", "postal_code": "30080"}, "capProviderId": null, "distance": null, "has_offers": false, "name": "Tio Bar & Grill", "longitude": -84.534827, "has_menu": false, "awards": null, "user_review_count": 0}, {"business_operation_status": 1, "rating": null, "neighborhood": null, "image": null, "scorecard": null, "featured": false, "sample_categories": "Ice Cream Parlors", "public_id": "consistency-enterprises-marietta", "id": 807599050, "votes": null, "tagline": null, "has_video": false, "website": null, "offers": null, "latitude": 34.003582, "politanName": "Atlanta, GA Metro ", "phone_number": "4045567996", "tags": [{"primary": true, "id": 1730, "name": "Ice Cream Parlors"}], "fax_number": null, "expansion": {"count": null, "uri": null}, "impression_id": "000b000000b58a61a20e8c445c9196064cb75a3a33", "profile": "http://www.citysearch.com/profile/807599050/marietta_ga/consistency_enterprises.html", "address": {"city": "Marietta", "state": "GA", "street": "2123 Plymouth Ln", "postal_code": "30062"}, "capProviderId": null, "distance": null, "has_offers": false, "name": "Consistency Enterprises", "longitude": -84.489848, "has_menu": false, "awards": null, "user_review_count": 0}, {"business_operation_status": 1, "rating": null, "neighborhood": null, "image": null, "scorecard": null, "featured": false, "sample_categories": "Restaurants", "public_id": "china-statistical-info-usa-marietta", "id": 810372840, "votes": null, "tagline": null, "has_video": false, "website": null, "offers": null, "latitude": 33.996599, "politanName": "Atlanta, GA Metro ", "phone_number": "7702180493", "tags": [{"primary": true, "id": 1722, "name": "Restaurants"}], "fax_number": null, "expansion": {"count": null, "uri": null}, "impression_id": "000b00000081283388c99c48ed896e8b4b00a7b041", "profile": "http://www.citysearch.com/profile/810372840/marietta_ga/china_statistical_info_usa.html", "address": {"city": "Marietta", "state": "GA", "street": "1441 Rosewood Creek Dr", "postal_code": "30066"}, "capProviderId": null, "distance": null, "has_offers": false, "name": "China Statistical Info USA", "longitude": -84.510317, "has_menu": false, "awards": null, "user_review_count": 0}, {"business_operation_status": 1, "rating": null, "neighborhood": null, "image": null, "scorecard": null, "featured": false, "sample_categories": "Restaurants", "public_id": "filimons-restaurant-smyrna", "id": 811872330, "votes": null, "tagline": null, "has_video": false, "website": null, "offers": null, "latitude": 33.887574, "politanName": "Atlanta, GA Metro ", "phone_number": "6782131556", "tags": [{"primary": true, "id": 1722, "name": "Restaurants"}], "fax_number": null, "expansion": {"count": null, "uri": null}, "impression_id": "000b0000004ccd05121ea746bebd8bb4c80e59e4bd", "profile": "http://www.citysearch.com/profile/811872330/smyrna_ga/filimon_s_restaurant.html", "address": {"city": "Smyrna", "state": "GA", "street": "601 Powder Springs St SE", "postal_code": "30080"}, "capProviderId": null, "distance": null, "has_offers": false, "name": "Filimon's Restaurant", "longitude": -84.535901, "has_menu": false, "awards": null, "user_review_count": 0}, {"business_operation_status": 1, "rating": null, "neighborhood": null, "image": null, "scorecard": null, "featured": false, "sample_categories": "Restaurants", "public_id": "silver-lodestone-inc-marietta", "id": 2873989, "votes": null, "tagline": null, "has_video": false, "website": "http://www.citysearch.com/profile/external/2873989/marietta_ga/silver_lodestone_inc.html", "offers": null, "latitude": 33.936462, "politanName": "Atlanta, GA Metro ", "phone_number": "7705907778", "tags": [{"primary": true, "id": 1722, "name": "Restaurants"}], "fax_number": null, "expansion": {"count": null, "uri": null}, "impression_id": "000b000000bca0412d9c7a48729eed7e781599c9b7", "profile": "http://www.citysearch.com/profile/2873989/marietta_ga/silver_lodestone_inc.html", "address": {"city": "Marietta", "state": "GA", "street": "191 Garrison Rd SE Ste A", "postal_code": "30008"}, "capProviderId": null, "distance": null, "has_offers": false, "name": "Silver Lodestone Inc", "longitude": -84.547583, "has_menu": false, "awards": null, "user_review_count": 0}], "histograms": [], "tag_ids": [1722], "uri": "http://api.citygridmedia.com:8080/search/places/v2/search/where?has_offers=false&type=restaurant&format=json&page=26&where=30069&rpp=50&histograms=false&publisher=10000009598&region_type=circle", "did_you_mean": "", "regions": [{"latitude": 33.911972, "default_radius": 1.53, "type": "postal_code", "name": "30069", "longitude": -84.51369799999999}], "call_id": "000b0000001a0697c708354a3f82b98135be5cf4a2", "first_hit": 1251, "total_hits": 1411, "geo_ids": [26297], "page": 26, "last_hit": 1300}}