{"results": {"rpp": 50, "locations": [{"business_operation_status": 1, "rating": null, "neighborhood": null, "image": null, "scorecard": null, "featured": false, "sample_categories": "Restaurants, Barbecue Restaurants", "public_id": "bar-be-que-heavern-marietta", "id": 787133740, "votes": null, "tagline": null, "has_video": false, "website": null, "offers": null, "latitude": 33.894508, "politanName": "Atlanta, GA Metro ", "phone_number": "7706530935", "tags": [{"primary": false, "id": 1724, "name": "Barbecue Restaurants"}, {"primary": true, "id": 1722, "name": "Restaurants"}], "fax_number": null, "expansion": {"count": null, "uri": null}, "impression_id": "000b000000c494bef974704c84bb8d252c3a783f66", "profile": "http://www.citysearch.com/profile/787133740/marietta_ga/bar_be_que_heavern.html", "address": {"city": "Marietta", "state": "GA", "street": "186 Windy Hill Rd Sw", "postal_code": "30060"}, "capProviderId": null, "distance": null, "has_offers": false, "name": "Bar Be Que Heavern", "longitude": -84.555734, "has_menu": false, "awards": null, "user_review_count": 0}, {"business_operation_status": 1, "rating": 8.0, "neighborhood": null, "image": null, "scorecard": null, "featured": false, "sample_categories": "Restaurants, American Express, Discover, MasterCard, Visa", "public_id": "joyful-diner-marietta", "id": 2908308, "votes": null, "tagline": null, "has_video": false, "website": null, "offers": null, "latitude": 34.017069, "politanName": "Atlanta, GA Metro ", "phone_number": "7705656700", "tags": [{"primary": false, "id": 11333, "name": "American Express"}, {"primary": false, "id": 11349, "name": "Discover"}, {"primary": false, "id": 11361, "name": "MasterCard"}, {"primary": false, "id": 11382, "name": "Visa"}, {"primary": true, "id": 1722, "name": "Restaurants"}], "fax_number": null, "expansion": {"count": null, "uri": null}, "impression_id": "000b000000a0b6c279b13148688b25eb750281a0ac", "profile": "http://www.citysearch.com/profile/2908308/marietta_ga/joyful_diner.html", "address": {"city": "Marietta", "state": "GA", "street": "2778 Sandy Plains Rd", "postal_code": "30066"}, "capProviderId": null, "distance": null, "has_offers": false, "name": "Joyful Diner", "longitude": -84.491613, "has_menu": false, "awards": null, "user_review_count": 1}, {"business_operation_status": 0, "rating": null, "neighborhood": null, "image": null, "scorecard": null, "featured": false, "sample_categories": "Coffeehouses, Restaurants", "public_id": "expresso-expresso-marietta", "id": 2908344, "votes": null, "tagline": null, "has_video": false, "website": null, "offers": null, "latitude": 34.018009, "politanName": "Atlanta, GA Metro ", "phone_number": "7066375366", "tags": [{"primary": false, "id": 1722, "name": "Restaurants"}, {"primary": true, "id": 1726, "name": "Coffeehouses"}], "fax_number": null, "expansion": {"count": null, "uri": null}, "impression_id": "000b0000004e804d2dfcad4434bd04372c4d5cf8bb", "profile": "http://www.citysearch.com/profile/2908344/marietta_ga/expresso_expresso.html", "address": {"city": "Marietta", "state": "GA", "street": "1251 Morgan Chase Dr NE", "postal_code": "30066"}, "capProviderId": null, "distance": null, "has_offers": false, "name": "Expresso Expresso", "longitude": -84.515255, "has_menu": false, "awards": null, "user_review_count": 0}, {"business_operation_status": 1, "rating": null, "neighborhood": null, "image": null, "scorecard": null, "featured": false, "sample_categories": "Restaurants, American Express, MasterCard, Visa", "public_id": "buddhas-delight-marietta", "id": 2908307, "votes": null, "tagline": null, "has_video": false, "website": "http://www.citysearch.com/profile/external/2908307/marietta_ga/buddhas_delight.html", "offers": null, "latitude": 34.017093, "politanName": "Atlanta, GA Metro ", "phone_number": "7705651995", "tags": [{"primary": false, "id": 11333, "name": "American Express"}, {"primary": false, "id": 11361, "name": "MasterCard"}, {"primary": false, "id": 11382, "name": "Visa"}, {"primary": true, "id": 1722, "name": "Restaurants"}], "fax_number": null, "expansion": {"count": null, "uri": null}, "impression_id": "000b000000bceae342fb8942748e73c11cf33bd8df", "profile": "http://www.citysearch.com/profile/2908307/marietta_ga/buddhas_delight.html", "address": {"city": "Marietta", "state": "GA", "street": "2731 Sandy Plains Rd", "postal_code": "30066"}, "capProviderId": null, "distance": null, "has_offers": false, "name": "Buddhas Delight", "longitude": -84.492328, "has_menu": true, "awards": null, "user_review_count": 3}, {"business_operation_status": 1, "rating": null, "neighborhood": null, "image": null, "scorecard": null, "featured": false, "sample_categories": "Restaurants", "public_id": "cafe-135-atlanta", "id": 3045188, "votes": null, "tagline": null, "has_video": false, "website": null, "offers": null, "latitude": 33.968847, "politanName": "Atlanta, GA Metro ", "phone_number": "7705220096", "tags": [{"primary": true, "id": 1722, "name": "Restaurants"}], "fax_number": null, "expansion": {"count": null, "uri": null}, "impression_id": "000b0000008c989f8dafa24320a1b58a0c380d6843", "profile": "http://www.citysearch.com/profile/3045188/atlanta_ga/cafe_135.html", "address": {"city": "Atlanta", "state": "GA", "street": "600 Morgan Falls Rd Ste 135", "postal_code": "30350"}, "capProviderId": null, "distance": null, "has_offers": false, "name": "Cafe 135", "longitude": -84.36573, "has_menu": false, "awards": null, "user_review_count": 0}, {"business_operation_status": 1, "rating": null, "neighborhood": null, "image": null, "scorecard": null, "featured": false, "sample_categories": "Delis And Delicatessens", "public_id": "kroger-deli-roswell-3", "id": 698576870, "votes": null, "tagline": null, "has_video": false, "website": null, "offers": null, "latitude": 34.004136, "politanName": "Atlanta, GA Metro ", "phone_number": "7706409199", "tags": [{"primary": true, "id": 1727, "name": "Delis And Delicatessens"}], "fax_number": null, "expansion": {"count": null, "uri": null}, "impression_id": "000b0000008d2e53e205be493eb589cad0767465e5", "profile": "http://www.citysearch.com/profile/698576870/roswell_ga/kroger_deli.html", "address": {"city": "Roswell", "state": "GA", "street": "900 Marietta Hwy", "postal_code": "30075"}, "capProviderId": null, "distance": null, "has_offers": false, "name": "Kroger Deli", "longitude": -84.389686, "has_menu": false, "awards": null, "user_review_count": 0}, {"business_operation_status": 1, "rating": null, "neighborhood": null, "image": null, "scorecard": null, "featured": false, "sample_categories": "Restaurants", "public_id": "restaurant-to-be-named-sandy", "id": 713540460, "votes": null, "tagline": null, "has_video": false, "website": null, "offers": null, "latitude": 33.9202, "politanName": "Atlanta, GA Metro ", "phone_number": "4043899260", "tags": [{"primary": true, "id": 1722, "name": "Restaurants"}], "fax_number": null, "expansion": {"count": null, "uri": null}, "impression_id": "000b0000004511f2e22ead435b925f383d35ac3a01", "profile": "http://www.citysearch.com/profile/713540460/sandy_springs_ga/restaurant_to_be_named.html", "address": {"city": "Sandy Springs", "state": "GA", "street": "6010 Sandy Springs Cir Ne", "postal_code": "30328"}, "capProviderId": null, "distance": null, "has_offers": false, "name": "Restaurant To Be Named", "longitude": -84.384878, "has_menu": false, "awards": null, "user_review_count": 0}, {"business_operation_status": 1, "rating": null, "neighborhood": null, "image": null, "scorecard": null, "featured": false, "sample_categories": "Restaurants, Carry Out, Hamburgers", "public_id": "wendys-atlanta-30", "id": 713357310, "votes": null, "tagline": null, "has_video": false, "website": "http://www.citysearch.com/profile/external/713357310/atlanta_ga/wendy_s.html", "offers": null, "latitude": 33.905902, "politanName": "Atlanta, GA Metro ", "phone_number": "7709526954", "tags": [{"primary": false, "id": 11247, "name": "Carry Out"}, {"primary": false, "id": 11270, "name": "Hamburgers"}, {"primary": true, "id": 1722, "name": "Restaurants"}], "fax_number": null, "expansion": {"count": null, "uri": null}, "impression_id": "000b0000004e37b47c92d6471cad96f805b2fd4fb0", "profile": "http://www.citysearch.com/profile/713357310/atlanta_ga/wendy_s.html", "address": {"city": "Atlanta", "state": "GA", "street": "6350 Powers Ferry Rd NW", "postal_code": "30339"}, "capProviderId": null, "distance": null, "has_offers": false, "name": "Wendy's", "longitude": -84.429154, "has_menu": true, "awards": null, "user_review_count": 0}, {"business_operation_status": 1, "rating": null, "neighborhood": null, "image": null, "scorecard": null, "featured": false, "sample_categories": "Restaurants", "public_id": "winggos-restaurant-marietta", "id": 814303450, "votes": null, "tagline": null, "has_video": false, "website": null, "offers": null, "latitude": 33.980787, "politanName": "Atlanta, GA Metro ", "phone_number": "7709778688", "tags": [{"primary": true, "id": 1722, "name": "Restaurants"}], "fax_number": null, "expansion": {"count": null, "uri": null}, "impression_id": "000b000000c0d2ee53370f485996be0efd7c09a8ff", "profile": "http://www.citysearch.com/profile/814303450/marietta_ga/winggos_restaurant.html", "address": {"city": "Marietta", "state": "GA", "street": "3101 Roswell Rd # M", "postal_code": "30062"}, "capProviderId": null, "distance": null, "has_offers": false, "name": "Winggos Restaurant", "longitude": -84.464028, "has_menu": false, "awards": null, "user_review_count": 0}, {"business_operation_status": 1, "rating": null, "neighborhood": null, "image": null, "scorecard": null, "featured": false, "sample_categories": "Restaurants", "public_id": "badayori-restaurant-sandy", "id": 809542900, "votes": null, "tagline": null, "has_video": false, "website": null, "offers": null, "latitude": 33.938009, "politanName": "Atlanta, GA Metro ", "phone_number": "4044590040", "tags": [{"primary": true, "id": 1722, "name": "Restaurants"}], "fax_number": null, "expansion": {"count": null, "uri": null}, "impression_id": "000b0000007b6f1484f3714da3947bba14c828860a", "profile": "http://www.citysearch.com/profile/809542900/sandy_springs_ga/badayori_restaurant.html", "address": {"city": "Sandy Springs", "state": "GA", "street": "6690 Roswell Rd", "postal_code": "30328"}, "capProviderId": null, "distance": null, "has_offers": false, "name": "Badayori Restaurant", "longitude": -84.379657, "has_menu": false, "awards": null, "user_review_count": 0}, {"business_operation_status": 1, "rating": null, "neighborhood": null, "image": null, "scorecard": null, "featured": false, "sample_categories": "Restaurants", "public_id": "peking-express-sandy", "id": 812996590, "votes": null, "tagline": null, "has_video": false, "website": null, "offers": null, "latitude": 33.972659, "politanName": "Atlanta, GA Metro ", "phone_number": "7703960026", "tags": [{"primary": true, "id": 1722, "name": "Restaurants"}], "fax_number": null, "expansion": {"count": null, "uri": null}, "impression_id": "000b000000d20bd3f6eb9642fbb45dac9e1907e8be", "profile": "http://www.citysearch.com/profile/812996590/sandy_springs_ga/peking_express.html", "address": {"city": "Sandy Springs", "state": "GA", "street": "7878 Roswell Rd", "postal_code": "30350"}, "capProviderId": null, "distance": null, "has_offers": false, "name": "Peking Express", "longitude": -84.35877, "has_menu": true, "awards": null, "user_review_count": 0}, {"business_operation_status": 1, "rating": null, "neighborhood": null, "image": null, "scorecard": null, "featured": false, "sample_categories": "Restaurants", "public_id": "philly-connectionsandy-spgs-atlanta", "id": 819444770, "votes": null, "tagline": null, "has_video": false, "website": null, "offers": null, "latitude": 33.916628, "politanName": "Atlanta, GA Metro ", "phone_number": "4042559005", "tags": [{"primary": true, "id": 1722, "name": "Restaurants"}], "fax_number": null, "expansion": {"count": null, "uri": null}, "impression_id": "000b0000002920d6dac6cb49c5bed39d0207364960", "profile": "http://www.citysearch.com/profile/819444770/atlanta_ga/philly_connection_sandy_spgs.html", "address": {"city": "Atlanta", "state": "GA", "street": "6309 Roswell Rd # 1b", "postal_code": "30328"}, "capProviderId": null, "distance": null, "has_offers": false, "name": "Philly Connection-Sandy Spgs", "longitude": -84.379177, "has_menu": false, "awards": null, "user_review_count": 0}, {"business_operation_status": 1, "rating": null, "neighborhood": null, "image": null, "scorecard": null, "featured": false, "sample_categories": "Restaurants, Food Stores, Diners, Greek Food Products, American Express", "public_id": "broadway-diner-marietta", "id": 739054880, "votes": null, "tagline": null, "has_video": false, "website": null, "offers": null, "latitude": 33.981385, "politanName": "Atlanta, GA Metro ", "phone_number": "7709773607", "tags": [{"primary": false, "id": 1706, "name": "Food Stores"}, {"primary": false, "id": 1732, "name": "Diners"}, {"primary": false, "id": 11151, "name": "Greek Food Products"}, {"primary": false, "id": 11333, "name": "American Express"}, {"primary": false, "id": 11347, "name": "Debit Card"}, {"primary": false, "id": 11349, "name": "Discover"}, {"primary": false, "id": 11361, "name": "MasterCard"}, {"primary": false, "id": 11382, "name": "Visa"}, {"primary": true, "id": 1722, "name": "Restaurants"}], "fax_number": null, "expansion": {"count": null, "uri": null}, "impression_id": "000b000000736e1aa7e37848e2aa4f8faa5e321943", "profile": "http://www.citysearch.com/profile/739054880/marietta_ga/broadway_diner.html", "address": {"city": "Marietta", "state": "GA", "street": "1333 Johnson Ferry Rd", "postal_code": "30068"}, "capProviderId": null, "distance": null, "has_offers": false, "name": "Broadway Diner", "longitude": -84.426367, "has_menu": false, "awards": null, "user_review_count": 0}, {"business_operation_status": 1, "rating": null, "neighborhood": null, "image": null, "scorecard": null, "featured": false, "sample_categories": "Restaurants", "public_id": "va-t-i-c-atlanta", "id": 610450354, "votes": null, "tagline": null, "has_video": false, "website": null, "offers": null, "latitude": 33.908517, "politanName": "Atlanta, GA Metro ", "phone_number": "7706934742", "tags": [{"primary": true, "id": 1722, "name": "Restaurants"}], "fax_number": null, "expansion": {"count": null, "uri": null}, "impression_id": "000b00000094b30e4d7b0542eda110bf4b3749e139", "profile": "http://www.citysearch.com/profile/610450354/atlanta_ga/va_t_i_c.html", "address": {"city": "Atlanta", "state": "GA", "street": "1827 Powers Ferry Rd SE Ste 3-200 # 3-200", "postal_code": "30339"}, "capProviderId": null, "distance": null, "has_offers": false, "name": "VA T I C", "longitude": -84.463637, "has_menu": false, "awards": null, "user_review_count": 0}, {"business_operation_status": 1, "rating": null, "neighborhood": null, "image": null, "scorecard": null, "featured": false, "sample_categories": "Restaurants", "public_id": "lickskillet-farm-restaurant-roswell", "id": 828711140, "votes": null, "tagline": null, "has_video": false, "website": null, "offers": null, "latitude": 34.02, "politanName": "Atlanta, GA Metro ", "phone_number": "7704756484", "tags": [{"primary": true, "id": 1722, "name": "Restaurants"}], "fax_number": null, "expansion": {"count": null, "uri": null}, "impression_id": "000b00000018add6a2e21f4ae8874a8fa570994deb", "profile": "http://www.citysearch.com/profile/828711140/roswell_ga/lickskillet_farm_restaurant.html", "address": {"city": "Roswell", "state": "GA", "street": "PO Box 665", "postal_code": "30077"}, "capProviderId": null, "distance": null, "has_offers": false, "name": "Lickskillet Farm Restaurant", "longitude": -84.36, "has_menu": false, "awards": null, "user_review_count": 0}, {"business_operation_status": 1, "rating": null, "neighborhood": null, "image": null, "scorecard": null, "featured": false, "sample_categories": "Restaurants", "public_id": "checkers-marietta-3", "id": 836194250, "votes": null, "tagline": null, "has_video": false, "website": null, "offers": null, "latitude": 33.950121, "politanName": "Atlanta, GA Metro ", "phone_number": "7704298398", "tags": [{"primary": true, "id": 1722, "name": "Restaurants"}], "fax_number": null, "expansion": {"count": null, "uri": null}, "impression_id": "000b00000022c923edd9814163bcbf274e8fc2a9ee", "profile": "http://www.citysearch.com/profile/836194250/marietta_ga/checkers.html", "address": {"city": "Marietta", "state": "GA", "street": "41 Cobb Pkwy S", "postal_code": "30060"}, "capProviderId": null, "distance": null, "has_offers": false, "name": "Checkers", "longitude": -84.519571, "has_menu": false, "awards": null, "user_review_count": 0}, {"business_operation_status": 1, "rating": null, "neighborhood": null, "image": null, "scorecard": null, "featured": false, "sample_categories": "Restaurants, Catering", "public_id": "a-little-bit-of-heaven-marietta", "id": 837084260, "votes": null, "tagline": null, "has_video": false, "website": null, "offers": null, "latitude": 33.965305, "politanName": "Atlanta, GA Metro ", "phone_number": "6782246780", "tags": [{"primary": false, "id": 1705, "name": "Catering"}, {"primary": true, "id": 1722, "name": "Restaurants"}], "fax_number": null, "expansion": {"count": null, "uri": null}, "impression_id": "000b00000030f61c078b54481787c6acf4a97734bd", "profile": "http://www.citysearch.com/profile/837084260/marietta_ga/a_little_bit_of_heaven.html", "address": {"city": "Marietta", "state": "GA", "street": "4665 Lower Roswell Rd 101", "postal_code": "30068"}, "capProviderId": null, "distance": null, "has_offers": false, "name": "A Little Bit of Heaven", "longitude": -84.415723, "has_menu": false, "awards": null, "user_review_count": 0}, {"business_operation_status": 1, "rating": null, "neighborhood": null, "image": null, "scorecard": null, "featured": false, "sample_categories": "Cafes", "public_id": "reveille-cafe-marietta-2", "id": 619600404, "votes": null, "tagline": null, "has_video": false, "website": null, "offers": null, "latitude": 34.023215, "politanName": "Atlanta, GA Metro ", "phone_number": "7709716800", "tags": [{"primary": true, "id": 6190, "name": "Cafes"}], "fax_number": null, "expansion": {"count": null, "uri": null}, "impression_id": "000b0000006c4c0a32f58c46729e0a0c10db6917f5", "profile": "http://www.citysearch.com/profile/619600404/marietta_ga/reveille_cafe.html", "address": {"city": "Marietta", "state": "GA", "street": "2960 Sandy Plains Rd # 130", "postal_code": "30066"}, "capProviderId": null, "distance": null, "has_offers": false, "name": "Reveille Cafe", "longitude": -84.485512, "has_menu": false, "awards": null, "user_review_count": 0}, {"business_operation_status": 1, "rating": null, "neighborhood": null, "image": null, "scorecard": null, "featured": false, "sample_categories": "Restaurants, Delis And Delicatessens, Sandwich Shops, Carry Out", "public_id": "subway-atlanta-129", "id": 627096204, "votes": null, "tagline": null, "has_video": false, "website": "http://www.citysearch.com/profile/external/627096204/atlanta_ga/subway.html", "offers": null, "latitude": 33.880962, "politanName": "Atlanta, GA Metro ", "phone_number": "6789050209", "tags": [{"primary": false, "id": 1727, "name": "Delis And Delicatessens"}, {"primary": false, "id": 1736, "name": "Sandwich Shops"}, {"primary": false, "id": 11247, "name": "Carry Out"}, {"primary": true, "id": 1722, "name": "Restaurants"}], "fax_number": null, "expansion": {"count": null, "uri": null}, "impression_id": "000b000000e6f0ea1469c54c288eea03a0827630f7", "profile": "http://www.citysearch.com/profile/627096204/atlanta_ga/subway.html", "address": {"city": "Atlanta", "state": "GA", "street": "1330 Cumberland Mall SE 245", "postal_code": "30339"}, "capProviderId": null, "distance": null, "has_offers": false, "name": "Subway", "longitude": -84.470024, "has_menu": false, "awards": null, "user_review_count": 0}, {"business_operation_status": 1, "rating": null, "neighborhood": null, "image": null, "scorecard": null, "featured": false, "sample_categories": "Ice Cream Parlors, Restaurants", "public_id": "haagan-ice-cream-atlanta", "id": 627717420, "votes": null, "tagline": null, "has_video": false, "website": "http://www.citysearch.com/profile/external/627717420/atlanta_ga/haagan_ice_cream.html", "offers": null, "latitude": 33.879202, "politanName": "Atlanta, GA Metro ", "phone_number": "7704348089", "tags": [{"primary": false, "id": 1722, "name": "Restaurants"}, {"primary": true, "id": 1730, "name": "Ice Cream Parlors"}], "fax_number": null, "expansion": {"count": null, "uri": null}, "impression_id": "000b000000959fcf25adda419cb95dc81f66158236", "profile": "http://www.citysearch.com/profile/627717420/atlanta_ga/haagan_ice_cream.html", "address": {"city": "Atlanta", "state": "GA", "street": "1154 Cumberland Mall Se", "postal_code": "30339"}, "capProviderId": null, "distance": null, "has_offers": false, "name": "Haagan Ice Cream", "longitude": -84.471382, "has_menu": false, "awards": null, "user_review_count": 0}, {"business_operation_status": 1, "rating": null, "neighborhood": null, "image": null, "scorecard": null, "featured": false, "sample_categories": "Bars & Clubs, Bars & Pubs, Restaurants, Carry Out", "public_id": "hooters-of-america-inc-atlanta", "id": 682344370, "votes": null, "tagline": null, "has_video": false, "website": "http://www.citysearch.com/profile/external/682344370/atlanta_ga/hooters_of_america_inc.html", "offers": null, "latitude": 33.908131, "politanName": "Atlanta, GA Metro ", "phone_number": "7703038124", "tags": [{"primary": false, "id": 164, "name": "Bars & Clubs"}, {"primary": false, "id": 1686, "name": "Bars & Pubs"}, {"primary": false, "id": 11247, "name": "Carry Out"}, {"primary": true, "id": 1722, "name": "Restaurants"}], "fax_number": null, "expansion": {"count": null, "uri": null}, "impression_id": "000b0000006052516db2dd4a2ca29aa4a6cf2febc5", "profile": "http://www.citysearch.com/profile/682344370/atlanta_ga/hooters_of_america_inc.html", "address": {"city": "Atlanta", "state": "GA", "street": "1815 The Exchange Se", "postal_code": "30339"}, "capProviderId": null, "distance": null, "has_offers": false, "name": "Hooters of America INC", "longitude": -84.479005, "has_menu": true, "awards": null, "user_review_count": 0}, {"business_operation_status": 1, "rating": null, "neighborhood": null, "image": null, "scorecard": null, "featured": false, "sample_categories": "Restaurants, Pizza", "public_id": "johnnys-new-york-style-pizza-smyrna-4", "id": 682425730, "votes": null, "tagline": null, "has_video": false, "website": "http://www.citysearch.com/profile/external/682425730/smyrna_ga/johnny_s_new_york_style_pizza.html", "offers": null, "latitude": 33.887838, "politanName": "Atlanta, GA Metro ", "phone_number": "7704380300", "tags": [{"primary": false, "id": 1722, "name": "Restaurants"}, {"primary": true, "id": 11299, "name": "Pizza"}], "fax_number": null, "expansion": {"count": null, "uri": null}, "impression_id": "000b000000406928f6ec0b4f60a8661b337426ce50", "profile": "http://www.citysearch.com/profile/682425730/smyrna_ga/johnny_s_new_york_style_pizza.html", "address": {"city": "Smyrna", "state": "GA", "street": "2651 Cumberland Blvd Se", "postal_code": "30080"}, "capProviderId": null, "distance": null, "has_offers": false, "name": "Johnny's New York Style Pizza", "longitude": -84.475608, "has_menu": true, "awards": null, "user_review_count": 0}, {"business_operation_status": 1, "rating": null, "neighborhood": null, "image": null, "scorecard": null, "featured": false, "sample_categories": "Restaurants, Bars & Clubs, Bars & Pubs", "public_id": "stadium-bar-grill-marietta", "id": 647336140, "votes": null, "tagline": null, "has_video": false, "website": null, "offers": null, "latitude": 34.011742, "politanName": "Atlanta, GA Metro ", "phone_number": "7705092899", "tags": [{"primary": false, "id": 164, "name": "Bars & Clubs"}, {"primary": false, "id": 1686, "name": "Bars & Pubs"}, {"primary": true, "id": 1722, "name": "Restaurants"}], "fax_number": null, "expansion": {"count": null, "uri": null}, "impression_id": "000b000000574d022a93d449ca80818e4e32d334cb", "profile": "http://www.citysearch.com/profile/647336140/marietta_ga/stadium_bar_grill.html", "address": {"city": "Marietta", "state": "GA", "street": "2550 Sandy Plains Rd", "postal_code": "30066"}, "capProviderId": null, "distance": null, "has_offers": false, "name": "Stadium Bar & Grill", "longitude": -84.495056, "has_menu": false, "awards": null, "user_review_count": 0}, {"business_operation_status": 0, "rating": null, "neighborhood": null, "image": null, "scorecard": null, "featured": false, "sample_categories": "Restaurants", "public_id": "la-dona-taqueria-atlanta", "id": 682406640, "votes": null, "tagline": null, "has_video": false, "website": null, "offers": null, "latitude": 33.910461, "politanName": "Atlanta, GA Metro ", "phone_number": "4045315957", "tags": [{"primary": true, "id": 1722, "name": "Restaurants"}], "fax_number": null, "expansion": {"count": null, "uri": null}, "impression_id": "000b000000583581c1ca644432bade2e8687fe2bbd", "profile": "http://www.citysearch.com/profile/682406640/atlanta_ga/la_dona_taqueria.html", "address": {"city": "Atlanta", "state": "GA", "street": "215 Northwood Dr Ne # 8", "postal_code": "30342"}, "capProviderId": null, "distance": null, "has_offers": false, "name": "La Dona Taqueria", "longitude": -84.379872, "has_menu": false, "awards": null, "user_review_count": 0}, {"business_operation_status": 1, "rating": null, "neighborhood": null, "image": null, "scorecard": null, "featured": false, "sample_categories": "Ice Cream Parlors", "public_id": "tropicanna-billiards-grill-smyrna", "id": 614553874, "votes": null, "tagline": null, "has_video": false, "website": null, "offers": null, "latitude": 33.890202, "politanName": "Atlanta, GA Metro ", "phone_number": "7704320051", "tags": [{"primary": true, "id": 1730, "name": "Ice Cream Parlors"}], "fax_number": null, "expansion": {"count": null, "uri": null}, "impression_id": "000b00000098a8022b64f34dc7bb942d68f25ba5ab", "profile": "http://www.citysearch.com/profile/614553874/smyrna_ga/tropicanna_billiards_grill.html", "address": {"city": "Smyrna", "state": "GA", "street": "2570 Atlanta Rd SE", "postal_code": "30080"}, "capProviderId": null, "distance": null, "has_offers": false, "name": "Tropicanna Billiards & Grill", "longitude": -84.517036, "has_menu": false, "awards": null, "user_review_count": 0}, {"business_operation_status": 1, "rating": null, "neighborhood": null, "image": null, "scorecard": null, "featured": false, "sample_categories": "Restaurants", "public_id": "stiffys-llc-padriacs-atlanta", "id": 614692654, "votes": null, "tagline": null, "has_video": false, "website": "http://www.citysearch.com/profile/external/614692654/atlanta_ga/stiffys_llc_padriacs.html", "offers": null, "latitude": 33.86409, "politanName": "Atlanta, GA Metro ", "phone_number": "7704332398", "tags": [{"primary": true, "id": 1722, "name": "Restaurants"}], "fax_number": null, "expansion": {"count": null, "uri": null}, "impression_id": "000b000000be1518e6ffa8403da788c7f4599154b5", "profile": "http://www.citysearch.com/profile/614692654/atlanta_ga/stiffys_llc_padriacs.html", "address": {"city": "Atlanta", "state": "GA", "street": "2460 Cumberland Pkwy SE # Ste 110", "postal_code": "30339"}, "capProviderId": null, "distance": null, "has_offers": false, "name": "Stiffys LLC Padriacs", "longitude": -84.476528, "has_menu": false, "awards": null, "user_review_count": 0}, {"business_operation_status": 1, "rating": null, "neighborhood": null, "image": null, "scorecard": null, "featured": false, "sample_categories": "Restaurants", "public_id": "cafe-d-atlanta", "id": 3020321, "votes": null, "tagline": null, "has_video": false, "website": null, "offers": null, "latitude": 33.91273, "politanName": "Atlanta, GA Metro ", "phone_number": "4042550238", "tags": [{"primary": true, "id": 1722, "name": "Restaurants"}], "fax_number": null, "expansion": {"count": null, "uri": null}, "impression_id": "000b00000074d079dd512e4b49995c42b97e980591", "profile": "http://www.citysearch.com/profile/3020321/atlanta_ga/cafe_d.html", "address": {"city": "Atlanta", "state": "GA", "street": "5775 Glenridge Dr NE", "postal_code": "30328"}, "capProviderId": null, "distance": null, "has_offers": false, "name": "Cafe D", "longitude": -84.360431, "has_menu": true, "awards": null, "user_review_count": 0}, {"business_operation_status": 1, "rating": null, "neighborhood": null, "image": null, "scorecard": null, "featured": false, "sample_categories": "Juice & Smoothie Shops, Health Food Stores, Restaurants", "public_id": "robeks-marietta", "id": 43845240, "votes": null, "tagline": null, "has_video": false, "website": "http://www.citysearch.com/profile/external/43845240/marietta_ga/robeks_juice.html", "offers": null, "latitude": 33.982884, "politanName": "Atlanta, GA Metro ", "phone_number": "7705651932", "tags": [{"primary": false, "id": 1716, "name": "Health Food Stores"}, {"primary": false, "id": 1722, "name": "Restaurants"}, {"primary": true, "id": 1735, "name": "Juice & Smoothie Shops"}], "fax_number": null, "expansion": {"count": null, "uri": null}, "impression_id": "000b00000033cce970b89a467fbc1a5113f2f08d5a", "profile": "http://www.citysearch.com/profile/43845240/marietta_ga/robeks_juice.html", "address": {"city": "Marietta", "state": "GA", "street": "4244 Roswell Rd 300", "postal_code": "30062"}, "capProviderId": null, "distance": null, "has_offers": false, "name": "Robeks Juice", "longitude": -84.427528, "has_menu": false, "awards": null, "user_review_count": 0}, {"business_operation_status": 1, "rating": null, "neighborhood": null, "image": null, "scorecard": null, "featured": false, "sample_categories": "Bakeries, Restaurants", "public_id": "mountain-biscuits-llc-marietta", "id": 638789660, "votes": null, "tagline": null, "has_video": false, "website": null, "offers": null, "latitude": 33.983382, "politanName": "Atlanta, GA Metro ", "phone_number": "7704193311", "tags": [{"primary": false, "id": 1685, "name": "Bakeries"}, {"primary": true, "id": 1722, "name": "Restaurants"}], "fax_number": null, "expansion": {"count": null, "uri": null}, "impression_id": "000b000000558d5ec36beb4f83bc25b06dfa79cd97", "profile": "http://www.citysearch.com/profile/638789660/marietta_ga/mountain_biscuits_llc.html", "address": {"city": "Marietta", "state": "GA", "street": "1718 Old 41 Hwy Nw", "postal_code": "30060"}, "capProviderId": null, "distance": null, "has_offers": false, "name": "Mountain Biscuits Llc", "longitude": -84.570123, "has_menu": false, "awards": null, "user_review_count": 0}, {"business_operation_status": 1, "rating": null, "neighborhood": null, "image": null, "scorecard": null, "featured": false, "sample_categories": "Restaurants, Barbecue Restaurants", "public_id": "wings-express-smyrna", "id": 655890370, "votes": null, "tagline": null, "has_video": false, "website": null, "offers": null, "latitude": 33.887226, "politanName": "Atlanta, GA Metro ", "phone_number": "6783059522", "tags": [{"primary": false, "id": 1724, "name": "Barbecue Restaurants"}, {"primary": true, "id": 1722, "name": "Restaurants"}], "fax_number": null, "expansion": {"count": null, "uri": null}, "impression_id": "000b000000096bd0b1b21a4b06ac77f963725c1b0d", "profile": "http://www.citysearch.com/profile/655890370/smyrna_ga/wings_express.html", "address": {"city": "Smyrna", "state": "GA", "street": "2711 S Cobb Dr Se", "postal_code": "30080"}, "capProviderId": null, "distance": null, "has_offers": false, "name": "Wings Express", "longitude": -84.535161, "has_menu": false, "awards": null, "user_review_count": 0}, {"business_operation_status": 1, "rating": null, "neighborhood": null, "image": null, "scorecard": null, "featured": false, "sample_categories": "Restaurants, Traditional American, Carry Out, American Express, Discover", "public_id": "arbys-marietta-13", "id": 682479030, "votes": null, "tagline": null, "has_video": false, "website": "http://www.citysearch.com/profile/external/682479030/marietta_ga/arby_s.html", "offers": null, "latitude": 34.01427, "politanName": "Atlanta, GA Metro ", "phone_number": "7709730642", "tags": [{"primary": false, "id": 11190, "name": "Traditional American"}, {"primary": false, "id": 11247, "name": "Carry Out"}, {"primary": false, "id": 11333, "name": "American Express"}, {"primary": false, "id": 11349, "name": "Discover"}, {"primary": false, "id": 11361, "name": "MasterCard"}, {"primary": false, "id": 11382, "name": "Visa"}, {"primary": true, "id": 1722, "name": "Restaurants"}], "fax_number": null, "expansion": {"count": null, "uri": null}, "impression_id": "000b000000d69e0046945745fc8c8904caa68196de", "profile": "http://www.citysearch.com/profile/682479030/marietta_ga/arby_s.html", "address": {"city": "Marietta", "state": "GA", "street": "2626 Sandy Plains Rd", "postal_code": "30066"}, "capProviderId": null, "distance": null, "has_offers": false, "name": "Arby's", "longitude": -84.494182, "has_menu": true, "awards": null, "user_review_count": 0}, {"business_operation_status": 0, "rating": null, "neighborhood": null, "image": null, "scorecard": null, "featured": false, "sample_categories": "Restaurants, Carry Out", "public_id": "mc-donalds-smyrna-11", "id": 682428720, "votes": null, "tagline": null, "has_video": false, "website": "http://www.citysearch.com/profile/external/682428720/smyrna_ga/mc_donald_s.html", "offers": null, "latitude": 33.855476, "politanName": "Atlanta, GA Metro ", "phone_number": "7708019353", "tags": [{"primary": false, "id": 11247, "name": "Carry Out"}, {"primary": true, "id": 1722, "name": "Restaurants"}], "fax_number": null, "expansion": {"count": null, "uri": null}, "impression_id": "000b000000b5a24cd6ee0841c7995fc0508991b5cf", "profile": "http://www.citysearch.com/profile/682428720/smyrna_ga/mc_donald_s.html", "address": {"city": "Smyrna", "state": "GA", "street": "4301 Ridgehurst Dr Se", "postal_code": "30080"}, "capProviderId": null, "distance": null, "has_offers": false, "name": "Mc Donald's", "longitude": -84.505022, "has_menu": false, "awards": null, "user_review_count": 0}, {"business_operation_status": 1, "rating": null, "neighborhood": null, "image": null, "scorecard": null, "featured": false, "sample_categories": "Restaurants, Traditional American, American Express, Discover, MasterCard", "public_id": "j-christophers-atlanta-5", "id": 713497760, "votes": null, "tagline": null, "has_video": false, "website": "http://www.citysearch.com/profile/external/713497760/atlanta_ga/j_christopher_s.html", "offers": null, "latitude": 33.919103, "politanName": "Atlanta, GA Metro ", "phone_number": "4045310242", "tags": [{"primary": false, "id": 11190, "name": "Traditional American"}, {"primary": false, "id": 11333, "name": "American Express"}, {"primary": false, "id": 11349, "name": "Discover"}, {"primary": false, "id": 11361, "name": "MasterCard"}, {"primary": false, "id": 11382, "name": "Visa"}, {"primary": true, "id": 1722, "name": "Restaurants"}], "fax_number": null, "expansion": {"count": null, "uri": null}, "impression_id": "000b000000142f6bffd6f94ef39aae96d2f119155f", "profile": "http://www.citysearch.com/profile/713497760/atlanta_ga/j_christopher_s.html", "address": {"city": "Atlanta", "state": "GA", "street": "230 Hammond Dr Ne # A", "postal_code": "30328"}, "capProviderId": null, "distance": null, "has_offers": false, "name": "J Christopher's", "longitude": -84.382649, "has_menu": false, "awards": null, "user_review_count": 1}, {"business_operation_status": 1, "rating": null, "neighborhood": null, "image": null, "scorecard": null, "featured": false, "sample_categories": "Restaurants, Bars & Clubs", "public_id": "dr-munchies-sports-bar-grill-atlanta", "id": 821847360, "votes": null, "tagline": null, "has_video": false, "website": null, "offers": null, "latitude": 33.961512, "politanName": "Atlanta, GA Metro ", "phone_number": "7703944446", "tags": [{"primary": false, "id": 164, "name": "Bars & Clubs"}, {"primary": true, "id": 1722, "name": "Restaurants"}], "fax_number": null, "expansion": {"count": null, "uri": null}, "impression_id": "000b000000ad422c3bfcad40d6b7e92e829e3d14ca", "profile": "http://www.citysearch.com/profile/821847360/atlanta_ga/dr_munchies_sports_bar_grill.html", "address": {"city": "Atlanta", "state": "GA", "street": "7537 Roswell Rd", "postal_code": "30350"}, "capProviderId": null, "distance": null, "has_offers": false, "name": "Dr Munchies Sports Bar & Grill", "longitude": -84.365719, "has_menu": false, "awards": null, "user_review_count": 0}, {"business_operation_status": 1, "rating": null, "neighborhood": null, "image": null, "scorecard": null, "featured": false, "sample_categories": "Restaurants, Carry Out", "public_id": "atlanta-bread-co-smyrna-3", "id": 822894330, "votes": null, "tagline": null, "has_video": false, "website": null, "offers": null, "latitude": 33.844924, "politanName": "Atlanta, GA Metro ", "phone_number": "6785030710", "tags": [{"primary": false, "id": 11247, "name": "Carry Out"}, {"primary": true, "id": 1722, "name": "Restaurants"}], "fax_number": null, "expansion": {"count": null, "uri": null}, "impression_id": "000b000000b293a63a296d4963838568f513bcaef4", "profile": "http://www.citysearch.com/profile/822894330/smyrna_ga/atlanta_bread_co.html", "address": {"city": "Smyrna", "state": "GA", "street": "1270 Winchester Pkwy SE # 219", "postal_code": "30080"}, "capProviderId": null, "distance": null, "has_offers": false, "name": "Atlanta Bread Co", "longitude": -84.489021, "has_menu": false, "awards": null, "user_review_count": 0}, {"business_operation_status": 1, "rating": null, "neighborhood": null, "image": null, "scorecard": null, "featured": false, "sample_categories": "Restaurants", "public_id": "savories-bistro-atlanta", "id": 823498670, "votes": null, "tagline": null, "has_video": false, "website": null, "offers": null, "latitude": 33.926376, "politanName": "Atlanta, GA Metro ", "phone_number": "4043890333", "tags": [{"primary": true, "id": 1722, "name": "Restaurants"}], "fax_number": null, "expansion": {"count": null, "uri": null}, "impression_id": "000b000000368a006fa30b42b296f56f01ee2eb3b2", "profile": "http://www.citysearch.com/profile/823498670/atlanta_ga/savories_bistro.html", "address": {"city": "Atlanta", "state": "GA", "street": "206 Johnson Ferry Rd NE", "postal_code": "30328"}, "capProviderId": null, "distance": null, "has_offers": false, "name": "Savories Bistro", "longitude": -84.381856, "has_menu": false, "awards": null, "user_review_count": 0}, {"business_operation_status": 1, "rating": null, "neighborhood": null, "image": null, "scorecard": null, "featured": false, "sample_categories": "Restaurants", "public_id": "cafe-803-marietta", "id": 838064280, "votes": null, "tagline": null, "has_video": false, "website": null, "offers": null, "latitude": 33.933132, "politanName": "Atlanta, GA Metro ", "phone_number": "7707925579", "tags": [{"primary": true, "id": 1722, "name": "Restaurants"}], "fax_number": null, "expansion": {"count": null, "uri": null}, "impression_id": "000b000000ad5d4851474947f3b8698923b16b7bdc", "profile": "http://www.citysearch.com/profile/838064280/marietta_ga/cafe_803.html", "address": {"city": "Marietta", "state": "GA", "street": "803 Powder Springs St", "postal_code": "30064"}, "capProviderId": null, "distance": null, "has_offers": false, "name": "Cafe 803", "longitude": -84.559871, "has_menu": false, "awards": null, "user_review_count": 0}, {"business_operation_status": 1, "rating": null, "neighborhood": null, "image": null, "scorecard": null, "featured": false, "sample_categories": "Restaurants", "public_id": "italian-kitchen-atlanta", "id": 839778230, "votes": null, "tagline": null, "has_video": false, "website": null, "offers": null, "latitude": 33.881743, "politanName": "Atlanta, GA Metro ", "phone_number": "7704324357", "tags": [{"primary": true, "id": 1722, "name": "Restaurants"}], "fax_number": null, "expansion": {"count": null, "uri": null}, "impression_id": "000b00000075c116cac5f84c38bde5ffea16de1641", "profile": "http://www.citysearch.com/profile/839778230/atlanta_ga/italian_kitchen.html", "address": {"city": "Atlanta", "state": "GA", "street": "1000 Cumberland Mall SE", "postal_code": "30339"}, "capProviderId": null, "distance": null, "has_offers": false, "name": "Italian Kitchen", "longitude": -84.470084, "has_menu": false, "awards": null, "user_review_count": 0}, {"business_operation_status": 1, "rating": null, "neighborhood": null, "image": null, "scorecard": null, "featured": false, "sample_categories": "Restaurants", "public_id": "carlyles-restaurant-atlanta", "id": 43881121, "votes": null, "tagline": null, "has_video": false, "website": null, "offers": null, "latitude": 33.934076, "politanName": "Atlanta, GA Metro ", "phone_number": "4046682202", "tags": [{"primary": true, "id": 1722, "name": "Restaurants"}], "fax_number": null, "expansion": {"count": null, "uri": null}, "impression_id": "000b000000e64cd234edd04d4793b7e78048064624", "profile": "http://www.citysearch.com/profile/43881121/atlanta_ga/carlyle_s_restaurant.html", "address": {"city": "Atlanta", "state": "GA", "street": "1000 Abernathy Rd NE", "postal_code": "30328"}, "capProviderId": null, "distance": null, "has_offers": false, "name": "Carlyle's Restaurant", "longitude": -84.354444, "has_menu": false, "awards": null, "user_review_count": 0}, {"business_operation_status": 1, "rating": null, "neighborhood": null, "image": null, "scorecard": null, "featured": false, "sample_categories": "Restaurants", "public_id": "tme-enterprises-i-ltd-marietta-3", "id": 793319820, "votes": null, "tagline": null, "has_video": false, "website": null, "offers": null, "latitude": 33.924583, "politanName": "Atlanta, GA Metro ", "phone_number": "7704198081", "tags": [{"primary": true, "id": 1722, "name": "Restaurants"}], "fax_number": null, "expansion": {"count": null, "uri": null}, "impression_id": "000b0000008999856e49c8419a894b8f59bb8d5a28", "profile": "http://www.citysearch.com/profile/793319820/marietta_ga/tme_enterprises_i_ltd.html", "address": {"city": "Marietta", "state": "GA", "street": "1180 Powder Springs St", "postal_code": "30064"}, "capProviderId": null, "distance": null, "has_offers": false, "name": "Tme Enterprises I LTD", "longitude": -84.575231, "has_menu": false, "awards": null, "user_review_count": 0}, {"business_operation_status": 1, "rating": null, "neighborhood": null, "image": null, "scorecard": null, "featured": false, "sample_categories": "Restaurants", "public_id": "soba-asian-bistro-marietta-2", "id": 809491560, "votes": null, "tagline": null, "has_video": false, "website": null, "offers": null, "latitude": 33.977233, "politanName": "Atlanta, GA Metro ", "phone_number": "7709711888", "tags": [{"primary": true, "id": 1722, "name": "Restaurants"}], "fax_number": null, "expansion": {"count": null, "uri": null}, "impression_id": "000b0000007fa1a220db3d4224b66da09fc8b113fa", "profile": "http://www.citysearch.com/profile/809491560/marietta_ga/soba_asian_bistro.html", "address": {"city": "Marietta", "state": "GA", "street": "1060 E Piedmont Rd", "postal_code": "30062"}, "capProviderId": null, "distance": null, "has_offers": false, "name": "Soba Asian Bistro", "longitude": -84.479764, "has_menu": false, "awards": null, "user_review_count": 0}, {"business_operation_status": 1, "rating": null, "neighborhood": null, "image": null, "scorecard": null, "featured": false, "sample_categories": "Restaurants", "public_id": "overlook-iii-cafe-atlanta", "id": 812600250, "votes": null, "tagline": null, "has_video": false, "website": null, "offers": null, "latitude": 33.867607, "politanName": "Atlanta, GA Metro ", "phone_number": "4042305555", "tags": [{"primary": true, "id": 1722, "name": "Restaurants"}], "fax_number": null, "expansion": {"count": null, "uri": null}, "impression_id": "000b00000092df9335340a4dedb2458961a3da5143", "profile": "http://www.citysearch.com/profile/812600250/atlanta_ga/overlook_iii_cafe.html", "address": {"city": "Atlanta", "state": "GA", "street": "2859 Paces Ferry Rd SE", "postal_code": "30339"}, "capProviderId": null, "distance": null, "has_offers": false, "name": "Overlook III Cafe", "longitude": -84.468552, "has_menu": false, "awards": null, "user_review_count": 0}, {"business_operation_status": 1, "rating": null, "neighborhood": null, "image": null, "scorecard": null, "featured": false, "sample_categories": "Restaurants", "public_id": "barkers-hot-charcaol-broiled-marietta", "id": 817747590, "votes": null, "tagline": null, "has_video": false, "website": null, "offers": null, "latitude": 33.964344, "politanName": "Atlanta, GA Metro ", "phone_number": "7705140806", "tags": [{"primary": true, "id": 1722, "name": "Restaurants"}], "fax_number": null, "expansion": {"count": null, "uri": null}, "impression_id": "000b0000003a9731e291074bcd8751c0f39bf937a7", "profile": "http://www.citysearch.com/profile/817747590/marietta_ga/barkers_hot_charcaol_broiled.html", "address": {"city": "Marietta", "state": "GA", "street": "84 Radium St NW", "postal_code": "30060"}, "capProviderId": null, "distance": null, "has_offers": false, "name": "Barkers Hot Charcaol Broiled", "longitude": -84.554127, "has_menu": false, "awards": null, "user_review_count": 0}, {"business_operation_status": 1, "rating": null, "neighborhood": null, "image": null, "scorecard": null, "featured": false, "sample_categories": "Restaurants", "public_id": "andrews-arbys-rico-atlanta", "id": 607265084, "votes": null, "tagline": null, "has_video": false, "website": null, "offers": null, "latitude": 33.876131, "politanName": "Atlanta, GA Metro ", "phone_number": "6785038868", "tags": [{"primary": true, "id": 1722, "name": "Restaurants"}], "fax_number": null, "expansion": {"count": null, "uri": null}, "impression_id": "000b000000dd281951f0c94ca68e0de228b9cc64fa", "profile": "http://www.citysearch.com/profile/607265084/atlanta_ga/andrews_arbys_rico.html", "address": {"city": "Atlanta", "state": "GA", "street": "3151 Stillhouse Creek Dr SE", "postal_code": "30339"}, "capProviderId": null, "distance": null, "has_offers": false, "name": "Andrews Arbys Rico", "longitude": -84.46228, "has_menu": false, "awards": null, "user_review_count": 0}, {"business_operation_status": 1, "rating": null, "neighborhood": null, "image": null, "scorecard": null, "featured": false, "sample_categories": "Grocery Stores, Convenience Stores, Pizza", "public_id": "muhamed-firoj-roswell", "id": 764835080, "votes": null, "tagline": null, "has_video": false, "website": "http://www.citysearch.com/profile/external/764835080/roswell_ga/muhamed_firoj.html", "offers": null, "latitude": 34.005292, "politanName": "Atlanta, GA Metro ", "phone_number": "7705186000", "tags": [{"primary": false, "id": 1714, "name": "Convenience Stores"}, {"primary": false, "id": 11299, "name": "Pizza"}, {"primary": true, "id": 1713, "name": "Grocery Stores"}], "fax_number": null, "expansion": {"count": null, "uri": null}, "impression_id": "000b0000009fd4fb46814c4f69b669732c61c33373", "profile": "http://www.citysearch.com/profile/764835080/roswell_ga/muhamed_firoj.html", "address": {"city": "Roswell", "state": "GA", "street": "1000 Marietta Hwy", "postal_code": "30075"}, "capProviderId": null, "distance": null, "has_offers": false, "name": "Muhamed Firoj", "longitude": -84.390859, "has_menu": false, "awards": null, "user_review_count": 0}, {"business_operation_status": 1, "rating": null, "neighborhood": null, "image": null, "scorecard": null, "featured": false, "sample_categories": "Ice Cream Parlors", "public_id": "talenti-gelato-marietta", "id": 766766740, "votes": null, "tagline": null, "has_video": false, "website": null, "offers": null, "latitude": 33.977334, "politanName": "Atlanta, GA Metro ", "phone_number": "7704990442", "tags": [{"primary": true, "id": 1730, "name": "Ice Cream Parlors"}], "fax_number": null, "expansion": {"count": null, "uri": null}, "impression_id": "000b000000682eac6f89024e73a10852590ad36b68", "profile": "http://www.citysearch.com/profile/766766740/marietta_ga/talenti_gelato.html", "address": {"city": "Marietta", "state": "GA", "street": "1058 King Industrial Dr", "postal_code": "30062"}, "capProviderId": null, "distance": null, "has_offers": false, "name": "Talenti Gelato", "longitude": -84.539884, "has_menu": false, "awards": null, "user_review_count": 0}, {"business_operation_status": 1, "rating": null, "neighborhood": null, "image": null, "scorecard": null, "featured": false, "sample_categories": "Restaurants, Delis And Delicatessens", "public_id": "planet-sub-marietta", "id": 770774340, "votes": null, "tagline": null, "has_video": false, "website": null, "offers": null, "latitude": 34.013859, "politanName": "Atlanta, GA Metro ", "phone_number": "7705750206", "tags": [{"primary": false, "id": 1727, "name": "Delis And Delicatessens"}, {"primary": true, "id": 1722, "name": "Restaurants"}], "fax_number": null, "expansion": {"count": null, "uri": null}, "impression_id": "000b000000c927ada6536b4d13b960abe91be9632d", "profile": "http://www.citysearch.com/profile/770774340/marietta_ga/planet_sub.html", "address": {"city": "Marietta", "state": "GA", "street": "125 Barrett Pkwy", "postal_code": "30066"}, "capProviderId": null, "distance": null, "has_offers": false, "name": "Planet Sub", "longitude": -84.554543, "has_menu": false, "awards": null, "user_review_count": 0}, {"business_operation_status": 1, "rating": null, "neighborhood": null, "image": null, "scorecard": null, "featured": false, "sample_categories": "Restaurants, Pizza", "public_id": "pizza-k-atlanta-2", "id": 43872017, "votes": null, "tagline": null, "has_video": false, "website": null, "offers": null, "latitude": 33.911481, "politanName": "Atlanta, GA Metro ", "phone_number": "4048479130", "tags": [{"primary": false, "id": 11299, "name": "Pizza"}, {"primary": true, "id": 1722, "name": "Restaurants"}], "fax_number": null, "expansion": {"count": null, "uri": null}, "impression_id": "000b0000004c62c209b5af46fead0f8b646e5e8643", "profile": "http://www.citysearch.com/profile/43872017/atlanta_ga/pizza_k.html", "address": {"city": "Atlanta", "state": "GA", "street": "120 Northwood Dr NE", "postal_code": "30342"}, "capProviderId": null, "distance": null, "has_offers": false, "name": "Pizza K", "longitude": -84.382763, "has_menu": true, "awards": null, "user_review_count": 0}, {"business_operation_status": 1, "rating": null, "neighborhood": null, "image": null, "scorecard": null, "featured": false, "sample_categories": "Restaurants", "public_id": "las-tortas-locas-marietta", "id": 43851541, "votes": null, "tagline": null, "has_video": false, "website": null, "offers": null, "latitude": 33.902096, "politanName": "Atlanta, GA Metro ", "phone_number": "7708030303", "tags": [{"primary": true, "id": 1722, "name": "Restaurants"}], "fax_number": null, "expansion": {"count": null, "uri": null}, "impression_id": "000b00000011de1ad8afc44c91809eb03d89a584b8", "profile": "http://www.citysearch.com/profile/43851541/marietta_ga/las_tortas_locas.html", "address": {"city": "Marietta", "state": "GA", "street": "345 Pat Mell Rd SE", "postal_code": "30060"}, "capProviderId": null, "distance": null, "has_offers": false, "name": "Las Tortas Locas", "longitude": -84.546397, "has_menu": false, "awards": null, "user_review_count": 0}, {"business_operation_status": 1, "rating": null, "neighborhood": null, "image": null, "scorecard": null, "featured": false, "sample_categories": "Ice Cream Parlors, Debit Card, Discover, MasterCard, Visa", "public_id": "frozyogo-frozen-yogurt-sandy", "id": 790606540, "votes": null, "tagline": null, "has_video": false, "website": null, "offers": null, "latitude": 33.918169, "politanName": "Atlanta, GA Metro ", "phone_number": "4049635367", "tags": [{"primary": false, "id": 11347, "name": "Debit Card"}, {"primary": false, "id": 11349, "name": "Discover"}, {"primary": false, "id": 11361, "name": "MasterCard"}, {"primary": false, "id": 11382, "name": "Visa"}, {"primary": true, "id": 1730, "name": "Ice Cream Parlors"}], "fax_number": null, "expansion": {"count": null, "uri": null}, "impression_id": "000b000000af8ea1dd42784a4d9a0617807bea61f4", "profile": "http://www.citysearch.com/profile/790606540/sandy_springs_ga/frozyogo_frozen_yogurt.html", "address": {"city": "Sandy Springs", "state": "GA", "street": "5980 Roswell Rd", "postal_code": "30328"}, "capProviderId": null, "distance": null, "has_offers": false, "name": "Frozyogo Frozen Yogurt", "longitude": -84.379098, "has_menu": false, "awards": null, "user_review_count": 0}], "histograms": [], "tag_ids": [1722], "uri": "http://api.citygridmedia.com:8080/search/places/v2/search/where?has_offers=false&type=restaurant&format=json&page=34&where=30067&rpp=50&histograms=false&publisher=10000009598&region_type=circle", "did_you_mean": "", "regions": [{"latitude": 33.930575, "default_radius": 3.78, "type": "postal_code", "name": "30067", "longitude": -84.463162}], "call_id": "000b0000008daa1acfade24c6f8f1ba8a41a1517eb", "first_hit": 1651, "total_hits": 1972, "geo_ids": [26295], "page": 34, "last_hit": 1700}}