{"results": {"rpp": 50, "locations": [{"business_operation_status": 1, "rating": null, "neighborhood": null, "image": null, "scorecard": null, "featured": false, "sample_categories": "Soda Fountain Shops", "public_id": "soda-stream-marietta", "id": 655833090, "votes": null, "tagline": null, "has_video": false, "website": null, "offers": null, "latitude": 33.916607, "politanName": "Atlanta, GA Metro ", "phone_number": "7709521637", "tags": [{"primary": true, "id": 1731, "name": "Soda Fountain Shops"}], "fax_number": null, "expansion": {"count": null, "uri": null}, "impression_id": "000b000000f019046f0ffe4563a8dd8dad2bb567af", "profile": "http://www.citysearch.com/profile/655833090/marietta_ga/soda_stream.html", "address": {"city": "Marietta", "state": "GA", "street": "2051 Franklin Way Se", "postal_code": "30067"}, "capProviderId": null, "distance": null, "has_offers": false, "name": "Soda Stream", "longitude": -84.491622, "has_menu": false, "awards": null, "user_review_count": 0}, {"business_operation_status": 1, "rating": null, "neighborhood": null, "image": null, "scorecard": null, "featured": false, "sample_categories": "Delis And Delicatessens", "public_id": "kroger-deli-marietta-6", "id": 699835210, "votes": null, "tagline": null, "has_video": false, "website": "http://www.citysearch.com/profile/external/699835210/marietta_ga/kroger_deli.html", "offers": null, "latitude": 33.923629, "politanName": "Atlanta, GA Metro ", "phone_number": "7709551692", "tags": [{"primary": true, "id": 1727, "name": "Delis And Delicatessens"}], "fax_number": null, "expansion": {"count": null, "uri": null}, "impression_id": "000b000000f95d6f8798e44a61a53913f28dae6f77", "profile": "http://www.citysearch.com/profile/699835210/marietta_ga/kroger_deli.html", "address": {"city": "Marietta", "state": "GA", "street": "1122 Powers Ferry Rd Se", "postal_code": "30067"}, "capProviderId": null, "distance": null, "has_offers": false, "name": "Kroger Deli", "longitude": -84.468586, "has_menu": false, "awards": null, "user_review_count": 0}, {"business_operation_status": 1, "rating": null, "neighborhood": null, "image": null, "scorecard": null, "featured": false, "sample_categories": "Restaurants", "public_id": "cafe-ventures-inc-marietta", "id": 766783500, "votes": null, "tagline": null, "has_video": false, "website": null, "offers": null, "latitude": 33.939834, "politanName": "Atlanta, GA Metro ", "phone_number": "7704230045", "tags": [{"primary": true, "id": 1722, "name": "Restaurants"}], "fax_number": null, "expansion": {"count": null, "uri": null}, "impression_id": "000b000000e4b2435fcc484fde8ddc945dc219011d", "profile": "http://www.citysearch.com/profile/766783500/marietta_ga/cafe_ventures_inc.html", "address": {"city": "Marietta", "state": "GA", "street": "490 Franklin Rd SE", "postal_code": "30067"}, "capProviderId": null, "distance": null, "has_offers": false, "name": "Cafe Ventures Inc", "longitude": -84.50842, "has_menu": false, "awards": null, "user_review_count": 0}, {"business_operation_status": 1, "rating": null, "neighborhood": null, "image": null, "scorecard": null, "featured": false, "sample_categories": "Restaurants, Mexican", "public_id": "taqueria-la-avelita-marietta", "id": 793328060, "votes": null, "tagline": null, "has_video": false, "website": null, "offers": null, "latitude": 33.934292, "politanName": "Atlanta, GA Metro ", "phone_number": "7707944551", "tags": [{"primary": false, "id": 11208, "name": "Mexican"}, {"primary": true, "id": 1722, "name": "Restaurants"}], "fax_number": null, "expansion": {"count": null, "uri": null}, "impression_id": "000b000000c2a25bfe24f7417ea5404d6f33686a98", "profile": "http://www.citysearch.com/profile/793328060/marietta_ga/taqueria_la_avelita.html", "address": {"city": "Marietta", "state": "GA", "street": "739 Franklin Rd Se # C", "postal_code": "30067"}, "capProviderId": null, "distance": null, "has_offers": false, "name": "Taqueria La Avelita", "longitude": -84.502546, "has_menu": false, "awards": null, "user_review_count": 0}, {"business_operation_status": 1, "rating": null, "neighborhood": null, "image": null, "scorecard": null, "featured": false, "sample_categories": "Restaurants", "public_id": "purple-restaurant-ent-marietta", "id": 793332920, "votes": null, "tagline": null, "has_video": false, "website": null, "offers": null, "latitude": 33.931495, "politanName": "Atlanta, GA Metro ", "phone_number": "7706727087", "tags": [{"primary": true, "id": 1722, "name": "Restaurants"}], "fax_number": null, "expansion": {"count": null, "uri": null}, "impression_id": "000b00000036b3a7ab23c5499a9843cb8ec6051295", "profile": "http://www.citysearch.com/profile/793332920/marietta_ga/purple_restaurant_ent.html", "address": {"city": "Marietta", "state": "GA", "street": "2012 Powers Ferry Trce Se", "postal_code": "30067"}, "capProviderId": null, "distance": null, "has_offers": false, "name": "Purple Restaurant Ent", "longitude": -84.478312, "has_menu": false, "awards": null, "user_review_count": 0}, {"business_operation_status": 1, "rating": null, "neighborhood": null, "image": null, "scorecard": null, "featured": false, "sample_categories": "Grocery Stores, Restaurants", "public_id": "genji-express-marietta", "id": 836645200, "votes": null, "tagline": null, "has_video": false, "website": null, "offers": null, "latitude": 33.948194, "politanName": "Atlanta, GA Metro ", "phone_number": "7705784400", "tags": [{"primary": false, "id": 1722, "name": "Restaurants"}, {"primary": true, "id": 1713, "name": "Grocery Stores"}], "fax_number": null, "expansion": {"count": null, "uri": null}, "impression_id": "000b00000069b39dfd3bff47f48f13e684a246d82e", "profile": "http://www.citysearch.com/profile/836645200/marietta_ga/genji_express.html", "address": {"city": "Marietta", "state": "GA", "street": "70 Powers Ferry Rd SE", "postal_code": "30067"}, "capProviderId": null, "distance": null, "has_offers": false, "name": "Genji Express", "longitude": -84.513268, "has_menu": true, "awards": null, "user_review_count": 0}, {"business_operation_status": 1, "rating": null, "neighborhood": null, "image": null, "scorecard": null, "featured": false, "sample_categories": "Restaurants, Carry Out, Pizza", "public_id": "jet-pizza-marietta", "id": 757958610, "votes": null, "tagline": null, "has_video": false, "website": "http://www.citysearch.com/profile/external/757958610/marietta_ga/jet_pizza.html", "offers": null, "latitude": 33.92306, "politanName": "Atlanta, GA Metro ", "phone_number": "7709521711", "tags": [{"primary": false, "id": 11247, "name": "Carry Out"}, {"primary": false, "id": 11299, "name": "Pizza"}, {"primary": true, "id": 1722, "name": "Restaurants"}], "fax_number": null, "expansion": {"count": null, "uri": null}, "impression_id": "000b0000007d799c469fdd426cbcdfc510ccfa01e4", "profile": "http://www.citysearch.com/profile/757958610/marietta_ga/jet_pizza.html", "address": {"city": "Marietta", "state": "GA", "street": "2900 Delk Rd SE", "postal_code": "30067"}, "capProviderId": null, "distance": null, "has_offers": false, "name": "Jet Pizza", "longitude": -84.467405, "has_menu": false, "awards": null, "user_review_count": 0}, {"business_operation_status": 1, "rating": null, "neighborhood": null, "image": null, "scorecard": null, "featured": false, "sample_categories": "Restaurants, Barbecue Restaurants", "public_id": "hot-wings-marietta-2", "id": 764883190, "votes": null, "tagline": null, "has_video": false, "website": null, "offers": null, "latitude": 33.922673, "politanName": "Atlanta, GA Metro ", "phone_number": "6784013756", "tags": [{"primary": false, "id": 1724, "name": "Barbecue Restaurants"}, {"primary": true, "id": 1722, "name": "Restaurants"}], "fax_number": null, "expansion": {"count": null, "uri": null}, "impression_id": "000b000000d55e8e3dceb9462c99a6eaf8a95e4abb", "profile": "http://www.citysearch.com/profile/764883190/marietta_ga/hot_wings.html", "address": {"city": "Marietta", "state": "GA", "street": "2555 Delk Rd SE # A8", "postal_code": "30067"}, "capProviderId": null, "distance": null, "has_offers": false, "name": "Hot Wings", "longitude": -84.478383, "has_menu": false, "awards": null, "user_review_count": 0}, {"business_operation_status": 1, "rating": null, "neighborhood": null, "image": null, "scorecard": null, "featured": false, "sample_categories": "Restaurants", "public_id": "pjs-coffee-marietta", "id": 672260010, "votes": null, "tagline": null, "has_video": false, "website": null, "offers": null, "latitude": 33.963578, "politanName": "Atlanta, GA Metro ", "phone_number": null, "tags": [{"primary": true, "id": 1722, "name": "Restaurants"}], "fax_number": null, "expansion": {"count": null, "uri": null}, "impression_id": "000b0000005404c8571a484ee881d5899b15e931b4", "profile": "http://www.citysearch.com/profile/672260010/marietta_ga/pj_s_coffee.html", "address": {"city": "Marietta", "state": "GA", "street": "611 Johnson Ferry Rd NE", "postal_code": "30068"}, "capProviderId": null, "distance": null, "has_offers": false, "name": "Pj's Coffee", "longitude": -84.412402, "has_menu": false, "awards": null, "user_review_count": 0}, {"business_operation_status": 1, "rating": null, "neighborhood": null, "image": null, "scorecard": null, "featured": false, "sample_categories": "Restaurants", "public_id": "kouzina-christos-marietta", "id": 764881650, "votes": null, "tagline": null, "has_video": false, "website": null, "offers": null, "latitude": 33.91616, "politanName": "Atlanta, GA Metro ", "phone_number": "7709521950", "tags": [{"primary": true, "id": 1722, "name": "Restaurants"}], "fax_number": null, "expansion": {"count": null, "uri": null}, "impression_id": "000b0000005d237ded797d4bb0a957435a1d5e3a9d", "profile": "http://www.citysearch.com/profile/764881650/marietta_ga/kouzina_christos.html", "address": {"city": "Marietta", "state": "GA", "street": "1453 Terrell Mill Rd SE # 113", "postal_code": "30067"}, "capProviderId": null, "distance": null, "has_offers": false, "name": "Kouzina Christos", "longitude": -84.467925, "has_menu": false, "awards": null, "user_review_count": 0}, {"business_operation_status": 1, "rating": null, "neighborhood": null, "image": null, "scorecard": null, "featured": false, "sample_categories": "Restaurants", "public_id": "los-reyes-mexican-marietta", "id": 827063900, "votes": null, "tagline": null, "has_video": false, "website": null, "offers": null, "latitude": 33.906963, "politanName": "Atlanta, GA Metro ", "phone_number": "7709534150", "tags": [{"primary": true, "id": 1722, "name": "Restaurants"}], "fax_number": null, "expansion": {"count": null, "uri": null}, "impression_id": "000b000000831b4e028aa447b8814d68cab860ddfb", "profile": "http://www.citysearch.com/profile/827063900/marietta_ga/los_reyes_mexican.html", "address": {"city": "Marietta", "state": "GA", "street": "1869 Cobb Pkwy S", "postal_code": "30060"}, "capProviderId": null, "distance": null, "has_offers": false, "name": "Los Reyes Mexican", "longitude": -84.488987, "has_menu": false, "awards": null, "user_review_count": 0}, {"business_operation_status": 1, "rating": null, "neighborhood": null, "image": null, "scorecard": null, "featured": false, "sample_categories": "Restaurants", "public_id": "gulf-street-grille-atlanta", "id": 37653138, "votes": null, "tagline": null, "has_video": false, "website": null, "offers": null, "latitude": 33.902397, "politanName": "Atlanta, GA Metro ", "phone_number": "7709539300", "tags": [{"primary": true, "id": 1722, "name": "Restaurants"}], "fax_number": null, "expansion": {"count": null, "uri": null}, "impression_id": "000b0000005c3d82a1abf646e1bda146dcaf1d6101", "profile": "http://www.citysearch.com/profile/37653138/atlanta_ga/gulf_street_grille.html", "address": {"city": "Atlanta", "state": "GA", "street": "2055 S Park Pl SE", "postal_code": "30339"}, "capProviderId": null, "distance": null, "has_offers": false, "name": "Gulf Street Grille", "longitude": -84.476611, "has_menu": false, "awards": null, "user_review_count": 0}, {"business_operation_status": 0, "rating": null, "neighborhood": null, "image": null, "scorecard": null, "featured": false, "sample_categories": "Restaurants", "public_id": "metanoya-cafe-marietta-2", "id": 621947010, "votes": null, "tagline": null, "has_video": false, "website": null, "offers": null, "latitude": 33.950996, "politanName": "Atlanta, GA Metro ", "phone_number": "7709889262", "tags": [{"primary": true, "id": 1722, "name": "Restaurants"}], "fax_number": null, "expansion": {"count": null, "uri": null}, "impression_id": "000b000000f0c6eb0ac22a4bddbd487b31451cb668", "profile": "http://www.citysearch.com/profile/621947010/marietta_ga/metanoya_cafe.html", "address": {"city": "Marietta", "state": "GA", "street": "255 Village Pkwy Ne", "postal_code": "30067"}, "capProviderId": null, "distance": null, "has_offers": false, "name": "Metanoya Cafe", "longitude": -84.413999, "has_menu": false, "awards": null, "user_review_count": 3}, {"business_operation_status": 1, "rating": null, "neighborhood": null, "image": null, "scorecard": null, "featured": false, "sample_categories": "Restaurants, Delis And Delicatessens, Cafes", "public_id": "75-cafe-atlanta", "id": 601370475, "votes": null, "tagline": null, "has_video": false, "website": null, "offers": null, "latitude": 33.898561, "politanName": "Atlanta, GA Metro ", "phone_number": "7709524452", "tags": [{"primary": false, "id": 1727, "name": "Delis And Delicatessens"}, {"primary": false, "id": 6190, "name": "Cafes"}, {"primary": true, "id": 1722, "name": "Restaurants"}], "fax_number": null, "expansion": {"count": null, "uri": null}, "impression_id": "000b000000f705cd8c33f342339d787593d2586b8e", "profile": "http://www.citysearch.com/profile/601370475/atlanta_ga/75_cafe.html", "address": {"city": "Atlanta", "state": "GA", "street": "4501 Circle 75 Pkwy Se", "postal_code": "30339"}, "capProviderId": null, "distance": null, "has_offers": false, "name": "75 Cafe", "longitude": -84.475059, "has_menu": false, "awards": null, "user_review_count": 0}, {"business_operation_status": 1, "rating": null, "neighborhood": null, "image": null, "scorecard": null, "featured": false, "sample_categories": "Restaurants, Barbecue Restaurants, Carry Out, Pizza", "public_id": "wing-street-marietta-2", "id": 764937860, "votes": null, "tagline": null, "has_video": false, "website": "http://www.citysearch.com/profile/external/764937860/marietta_ga/wing_street.html", "offers": null, "latitude": 33.917361, "politanName": "Atlanta, GA Metro ", "phone_number": "7709538900", "tags": [{"primary": false, "id": 1724, "name": "Barbecue Restaurants"}, {"primary": false, "id": 11247, "name": "Carry Out"}, {"primary": false, "id": 11299, "name": "Pizza"}, {"primary": true, "id": 1722, "name": "Restaurants"}], "fax_number": null, "expansion": {"count": null, "uri": null}, "impression_id": "000b000000485bd65896114cbabe1b859ef7701f48", "profile": "http://www.citysearch.com/profile/764937860/marietta_ga/wing_street.html", "address": {"city": "Marietta", "state": "GA", "street": "1480 Terrell Mill Rd SE", "postal_code": "30067"}, "capProviderId": null, "distance": null, "has_offers": false, "name": "Wing Street", "longitude": -84.46861, "has_menu": false, "awards": null, "user_review_count": 0}, {"business_operation_status": 1, "rating": null, "neighborhood": null, "image": null, "scorecard": null, "featured": false, "sample_categories": "Restaurants", "public_id": "cafe-internet-marietta", "id": 775213360, "votes": null, "tagline": null, "has_video": false, "website": null, "offers": null, "latitude": 33.938913, "politanName": "Atlanta, GA Metro ", "phone_number": "6785940304", "tags": [{"primary": true, "id": 1722, "name": "Restaurants"}], "fax_number": null, "expansion": {"count": null, "uri": null}, "impression_id": "000b0000002ea10d2e210d4ea291b21dd0c1f760b5", "profile": "http://www.citysearch.com/profile/775213360/marietta_ga/cafe_internet.html", "address": {"city": "Marietta", "state": "GA", "street": "550 Franklin Rd SE", "postal_code": "30067"}, "capProviderId": null, "distance": null, "has_offers": false, "name": "Cafe Internet", "longitude": -84.507658, "has_menu": false, "awards": null, "user_review_count": 0}, {"business_operation_status": 1, "rating": null, "neighborhood": null, "image": null, "scorecard": null, "featured": false, "sample_categories": "Restaurants, Food Service Management", "public_id": "eurest-dining-svc-marietta", "id": 632989390, "votes": null, "tagline": null, "has_video": false, "website": "http://www.citysearch.com/profile/external/632989390/marietta_ga/eurest_dining_svc.html", "offers": null, "latitude": 33.929162, "politanName": "Atlanta, GA Metro ", "phone_number": "7706443211", "tags": [{"primary": false, "id": 11120, "name": "Food Service Management"}, {"primary": true, "id": 1722, "name": "Restaurants"}], "fax_number": null, "expansion": {"count": null, "uri": null}, "impression_id": "000b000000f13d220bcbd24f079d8d74a36f0559c2", "profile": "http://www.citysearch.com/profile/632989390/marietta_ga/eurest_dining_svc.html", "address": {"city": "Marietta", "state": "GA", "street": "814 Livingston Ct Se", "postal_code": "30067"}, "capProviderId": null, "distance": null, "has_offers": false, "name": "Eurest Dining Svc", "longitude": -84.499949, "has_menu": false, "awards": null, "user_review_count": 0}, {"business_operation_status": 1, "rating": null, "neighborhood": null, "image": null, "scorecard": null, "featured": false, "sample_categories": "Restaurants", "public_id": "loya-soriano-llc-marietta", "id": 790674770, "votes": null, "tagline": null, "has_video": false, "website": null, "offers": null, "latitude": 33.904705, "politanName": "Atlanta, GA Metro ", "phone_number": "7704348888", "tags": [{"primary": true, "id": 1722, "name": "Restaurants"}], "fax_number": null, "expansion": {"count": null, "uri": null}, "impression_id": "000b000000f9e9cdd76a37441494f55bc44bf0244a", "profile": "http://www.citysearch.com/profile/790674770/marietta_ga/loya_soriano_llc.html", "address": {"city": "Marietta", "state": "GA", "street": "2359 Windy Hill Rd Se # 340", "postal_code": "30067"}, "capProviderId": null, "distance": null, "has_offers": false, "name": "Loya Soriano LLC", "longitude": -84.484545, "has_menu": false, "awards": null, "user_review_count": 0}, {"business_operation_status": 0, "rating": null, "neighborhood": null, "image": null, "scorecard": null, "featured": false, "sample_categories": "Restaurants, Delis And Delicatessens, Sandwich Shops, Carry Out", "public_id": "subway-marietta-5", "id": 631969710, "votes": null, "tagline": null, "has_video": false, "website": "http://www.citysearch.com/profile/external/631969710/marietta_ga/subway.html", "offers": null, "latitude": 33.9495, "politanName": "Atlanta, GA Metro ", "phone_number": "7704240520", "tags": [{"primary": false, "id": 1727, "name": "Delis And Delicatessens"}, {"primary": false, "id": 1736, "name": "Sandwich Shops"}, {"primary": false, "id": 11247, "name": "Carry Out"}, {"primary": true, "id": 1722, "name": "Restaurants"}], "fax_number": null, "expansion": {"count": null, "uri": null}, "impression_id": "000b000000375a0a2bbc5a478489922d7da69c35ec", "profile": "http://www.citysearch.com/profile/631969710/marietta_ga/subway.html", "address": {"city": "Marietta", "state": "GA", "street": "51 Cobb Pkwy S", "postal_code": "30060"}, "capProviderId": null, "distance": null, "has_offers": false, "name": "Subway", "longitude": -84.519437, "has_menu": true, "awards": null, "user_review_count": 0}, {"business_operation_status": 1, "rating": null, "neighborhood": null, "image": null, "scorecard": null, "featured": false, "sample_categories": "Restaurants, Pizza, American Express, Discover, MasterCard", "public_id": "pizza-more-marietta", "id": 601298901, "votes": null, "tagline": null, "has_video": false, "website": null, "offers": null, "latitude": 33.90778, "politanName": "Atlanta, GA Metro ", "phone_number": "7706122922", "tags": [{"primary": false, "id": 1722, "name": "Restaurants"}, {"primary": false, "id": 11333, "name": "American Express"}, {"primary": false, "id": 11349, "name": "Discover"}, {"primary": false, "id": 11361, "name": "MasterCard"}, {"primary": false, "id": 11382, "name": "Visa"}, {"primary": true, "id": 11299, "name": "Pizza"}], "fax_number": null, "expansion": {"count": null, "uri": null}, "impression_id": "000b0000003ba80397b8874df68c6f1c6b498ea23c", "profile": "http://www.citysearch.com/profile/601298901/marietta_ga/pizza_more.html", "address": {"city": "Marietta", "state": "GA", "street": "1853 Terrell Mill Rd Se", "postal_code": "30067"}, "capProviderId": null, "distance": null, "has_offers": false, "name": "Pizza & More", "longitude": -84.487669, "has_menu": false, "awards": null, "user_review_count": 0}, {"business_operation_status": 1, "rating": null, "neighborhood": null, "image": null, "scorecard": null, "featured": false, "sample_categories": "Restaurants, Delis And Delicatessens, Sandwich Shops, Carry Out", "public_id": "subway-marietta-56", "id": 609620714, "votes": null, "tagline": null, "has_video": false, "website": "http://www.citysearch.com/profile/external/609620714/marietta_ga/subway.html", "offers": null, "latitude": 33.901237, "politanName": "Atlanta, GA Metro ", "phone_number": "7706937005", "tags": [{"primary": false, "id": 1727, "name": "Delis And Delicatessens"}, {"primary": false, "id": 1736, "name": "Sandwich Shops"}, {"primary": false, "id": 11247, "name": "Carry Out"}, {"primary": true, "id": 1722, "name": "Restaurants"}], "fax_number": null, "expansion": {"count": null, "uri": null}, "impression_id": "000b000000b5b53ead90514fc3affd8a4c4f415aaf", "profile": "http://www.citysearch.com/profile/609620714/marietta_ga/subway.html", "address": {"city": "Marietta", "state": "GA", "street": "2697 Windy Hill Rd SE", "postal_code": "30067"}, "capProviderId": null, "distance": null, "has_offers": false, "name": "Subway", "longitude": -84.476184, "has_menu": false, "awards": null, "user_review_count": 0}, {"business_operation_status": 1, "rating": null, "neighborhood": null, "image": null, "scorecard": null, "featured": false, "sample_categories": "Restaurants, Steakhouse", "public_id": "copacabana-steakhouse-marietta", "id": 775221780, "votes": null, "tagline": null, "has_video": false, "website": null, "offers": null, "latitude": 33.923141, "politanName": "Atlanta, GA Metro ", "phone_number": "7709840057", "tags": [{"primary": false, "id": 11316, "name": "Steakhouse"}, {"primary": true, "id": 1722, "name": "Restaurants"}], "fax_number": null, "expansion": {"count": null, "uri": null}, "impression_id": "000b000000ad6aa8b25a4045a1962b7bf62dd1d8a3", "profile": "http://www.citysearch.com/profile/775221780/marietta_ga/copacabana_steakhouse.html", "address": {"city": "Marietta", "state": "GA", "street": "2555 Delk Rd SE # A7", "postal_code": "30067"}, "capProviderId": null, "distance": null, "has_offers": false, "name": "Copacabana Steakhouse", "longitude": -84.478026, "has_menu": false, "awards": null, "user_review_count": 0}, {"business_operation_status": 1, "rating": null, "neighborhood": null, "image": null, "scorecard": null, "featured": false, "sample_categories": "Restaurants", "public_id": "slate-grill-marietta", "id": 777808910, "votes": null, "tagline": null, "has_video": false, "website": null, "offers": null, "latitude": 33.940805, "politanName": "Atlanta, GA Metro ", "phone_number": "7704269777", "tags": [{"primary": true, "id": 1722, "name": "Restaurants"}], "fax_number": null, "expansion": {"count": null, "uri": null}, "impression_id": "000b000000de8843fba70d439084e7b6e1778ac3ff", "profile": "http://www.citysearch.com/profile/777808910/marietta_ga/slate_grill.html", "address": {"city": "Marietta", "state": "GA", "street": "3348 Farrier Walk Se", "postal_code": "30067"}, "capProviderId": null, "distance": null, "has_offers": false, "name": "Slate Grill", "longitude": -84.45506, "has_menu": false, "awards": null, "user_review_count": 0}, {"business_operation_status": 1, "rating": null, "neighborhood": null, "image": null, "scorecard": null, "featured": false, "sample_categories": "Restaurants, South American", "public_id": "el-hondureno-billares-marietta", "id": 777670670, "votes": null, "tagline": null, "has_video": false, "website": null, "offers": null, "latitude": 33.928458, "politanName": "Atlanta, GA Metro ", "phone_number": "7709532737", "tags": [{"primary": false, "id": 15490, "name": "South American"}, {"primary": true, "id": 1722, "name": "Restaurants"}], "fax_number": null, "expansion": {"count": null, "uri": null}, "impression_id": "000b0000008896ab821dfa4aaf9a3c70f2a809b024", "profile": "http://www.citysearch.com/profile/777670670/marietta_ga/el_hondureno_billares.html", "address": {"city": "Marietta", "state": "GA", "street": "1033 Franklin Rd Se", "postal_code": "30067"}, "capProviderId": null, "distance": null, "has_offers": false, "name": "El Hondureno Billares", "longitude": -84.492995, "has_menu": false, "awards": null, "user_review_count": 0}, {"business_operation_status": 1, "rating": null, "neighborhood": null, "image": null, "scorecard": null, "featured": false, "sample_categories": "Restaurants, Japanese", "public_id": "japanese-engine-line-marietta", "id": 775183550, "votes": null, "tagline": null, "has_video": false, "website": null, "offers": null, "latitude": 33.910751, "politanName": "Atlanta, GA Metro ", "phone_number": "7709521200", "tags": [{"primary": false, "id": 11202, "name": "Japanese"}, {"primary": true, "id": 1722, "name": "Restaurants"}], "fax_number": null, "expansion": {"count": null, "uri": null}, "impression_id": "000b0000007377c4f251d24d0da60c622e89927273", "profile": "http://www.citysearch.com/profile/775183550/marietta_ga/japanese_engine_line.html", "address": {"city": "Marietta", "state": "GA", "street": "1735 Cobb Pkwy S", "postal_code": "30060"}, "capProviderId": null, "distance": null, "has_offers": false, "name": "Japanese Engine Line", "longitude": -84.493702, "has_menu": false, "awards": null, "user_review_count": 0}, {"business_operation_status": 1, "rating": null, "neighborhood": null, "image": null, "scorecard": null, "featured": false, "sample_categories": "Restaurants", "public_id": "cosmopolitan-marietta", "id": 793243310, "votes": null, "tagline": null, "has_video": false, "website": null, "offers": null, "latitude": 33.92362, "politanName": "Atlanta, GA Metro ", "phone_number": "7704859213", "tags": [{"primary": true, "id": 1722, "name": "Restaurants"}], "fax_number": null, "expansion": {"count": null, "uri": null}, "impression_id": "000b000000116ac9c02e00405e8315707d3c5f78a4", "profile": "http://www.citysearch.com/profile/793243310/marietta_ga/cosmopolitan.html", "address": {"city": "Marietta", "state": "GA", "street": "2475 Delk Rd Se", "postal_code": "30067"}, "capProviderId": null, "distance": null, "has_offers": false, "name": "Cosmopolitan", "longitude": -84.479496, "has_menu": false, "awards": null, "user_review_count": 0}, {"business_operation_status": 1, "rating": null, "neighborhood": null, "image": null, "scorecard": null, "featured": false, "sample_categories": "Restaurants", "public_id": "j-gumbos-marietta", "id": 713632110, "votes": null, "tagline": null, "has_video": false, "website": null, "offers": null, "latitude": 33.903919, "politanName": "Atlanta, GA Metro ", "phone_number": "7706121810", "tags": [{"primary": true, "id": 1722, "name": "Restaurants"}], "fax_number": null, "expansion": {"count": null, "uri": null}, "impression_id": "000b0000001b098d803ccc452da1a7a2de88b5fca6", "profile": "http://www.citysearch.com/profile/713632110/marietta_ga/j_gumbo_s.html", "address": {"city": "Marietta", "state": "GA", "street": "3000 Windy Hill Rd Se", "postal_code": "30067"}, "capProviderId": null, "distance": null, "has_offers": false, "name": "J Gumbo's", "longitude": -84.4706, "has_menu": true, "awards": null, "user_review_count": 0}, {"business_operation_status": 1, "rating": null, "neighborhood": null, "image": null, "scorecard": null, "featured": false, "sample_categories": "Restaurants", "public_id": "folia-brazilian-steakhouse-marietta", "id": 831979230, "votes": null, "tagline": null, "has_video": false, "website": "http://www.citysearch.com/profile/external/831979230/marietta_ga/folia_brazilian_steakhouse.html", "offers": null, "latitude": 33.918527, "politanName": "Atlanta, GA Metro ", "phone_number": "7706273170", "tags": [{"primary": true, "id": 1722, "name": "Restaurants"}], "fax_number": null, "expansion": {"count": null, "uri": null}, "impression_id": "000b00000016edb63576a54d0da8384e3a993064f9", "profile": "http://www.citysearch.com/profile/831979230/marietta_ga/folia_brazilian_steakhouse.html", "address": {"city": "Marietta", "state": "GA", "street": "1360 Powers Ferry Rd SE # B165", "postal_code": "30067"}, "capProviderId": null, "distance": null, "has_offers": false, "name": "Folia Brazilian Steakhouse", "longitude": -84.468586, "has_menu": false, "awards": null, "user_review_count": 0}, {"business_operation_status": 1, "rating": null, "neighborhood": null, "image": null, "scorecard": null, "featured": false, "sample_categories": "Restaurants", "public_id": "grain-works-marietta", "id": 621976160, "votes": null, "tagline": null, "has_video": false, "website": "http://www.citysearch.com/profile/external/621976160/marietta_ga/grain_works.html", "offers": null, "latitude": 33.923408, "politanName": "Atlanta, GA Metro ", "phone_number": "7709800081", "tags": [{"primary": true, "id": 1722, "name": "Restaurants"}], "fax_number": null, "expansion": {"count": null, "uri": null}, "impression_id": "000b00000085752946076648c6a27d185ae36c83a4", "profile": "http://www.citysearch.com/profile/621976160/marietta_ga/grain_works.html", "address": {"city": "Marietta", "state": "GA", "street": "2160 Kingston Ct Se", "postal_code": "30067"}, "capProviderId": null, "distance": null, "has_offers": false, "name": "Grain Works", "longitude": -84.489216, "has_menu": false, "awards": null, "user_review_count": 0}, {"business_operation_status": 1, "rating": null, "neighborhood": null, "image": null, "scorecard": null, "featured": false, "sample_categories": "Restaurants, Mediterranean", "public_id": "316-cafe-kabob-more-marietta", "id": 672208690, "votes": null, "tagline": null, "has_video": false, "website": null, "offers": null, "latitude": 33.921284, "politanName": "Atlanta, GA Metro ", "phone_number": "7709550804", "tags": [{"primary": false, "id": 11289, "name": "Mediterranean"}, {"primary": true, "id": 1722, "name": "Restaurants"}], "fax_number": null, "expansion": {"count": null, "uri": null}, "impression_id": "000b00000061d39cb567464ce684fd7b1fbd37fbce", "profile": "http://www.citysearch.com/profile/672208690/marietta_ga/316_cafe_kabob_more.html", "address": {"city": "Marietta", "state": "GA", "street": "1260 Powers Ferry Road", "postal_code": "30067"}, "capProviderId": null, "distance": null, "has_offers": false, "name": "316 Cafe Kabob & More", "longitude": -84.467848, "has_menu": false, "awards": null, "user_review_count": 0}, {"business_operation_status": 1, "rating": null, "neighborhood": null, "image": null, "scorecard": null, "featured": false, "sample_categories": "Restaurants, Pizza, Carry Out", "public_id": "dominos-pizza-smyrna-7", "id": 713334440, "votes": null, "tagline": null, "has_video": false, "website": "http://www.citysearch.com/profile/external/713334440/smyrna_ga/domino_s_pizza.html", "offers": null, "latitude": 33.921069, "politanName": "Atlanta, GA Metro ", "phone_number": "7709844540", "tags": [{"primary": false, "id": 1722, "name": "Restaurants"}, {"primary": false, "id": 11247, "name": "Carry Out"}, {"primary": true, "id": 11299, "name": "Pizza"}], "fax_number": null, "expansion": {"count": null, "uri": null}, "impression_id": "000b00000073339f9507044d57b747565a969b660d", "profile": "http://www.citysearch.com/profile/713334440/smyrna_ga/domino_s_pizza.html", "address": {"city": "Smyrna", "state": "GA", "street": "1230 Powers Rd", "postal_code": "30080"}, "capProviderId": null, "distance": null, "has_offers": false, "name": "Domino's Pizza", "longitude": -84.467591, "has_menu": false, "awards": null, "user_review_count": 0}, {"business_operation_status": 1, "rating": null, "neighborhood": null, "image": null, "scorecard": null, "featured": false, "sample_categories": "Restaurants, Delis And Delicatessens, Sandwich Shops, Carry Out, MasterCard", "public_id": "subway-marietta-4", "id": 601296783, "votes": null, "tagline": null, "has_video": false, "website": "http://www.citysearch.com/profile/external/601296783/marietta_ga/subway.html", "offers": null, "latitude": 33.906428, "politanName": "Atlanta, GA Metro ", "phone_number": "7709530023", "tags": [{"primary": false, "id": 1727, "name": "Delis And Delicatessens"}, {"primary": false, "id": 1736, "name": "Sandwich Shops"}, {"primary": false, "id": 11247, "name": "Carry Out"}, {"primary": false, "id": 11361, "name": "MasterCard"}, {"primary": false, "id": 11382, "name": "Visa"}, {"primary": true, "id": 1722, "name": "Restaurants"}], "fax_number": null, "expansion": {"count": null, "uri": null}, "impression_id": "000b000000fd2969c16df64f02971e28447b818301", "profile": "http://www.citysearch.com/profile/601296783/marietta_ga/subway.html", "address": {"city": "Marietta", "state": "GA", "street": "1871 Cobb Pkwy S # 400", "postal_code": "30060"}, "capProviderId": null, "distance": null, "has_offers": false, "name": "Subway", "longitude": -84.489855, "has_menu": true, "awards": null, "user_review_count": 0}, {"business_operation_status": 1, "rating": null, "neighborhood": null, "image": null, "scorecard": null, "featured": false, "sample_categories": "Restaurants, Coffee & Tea Shops, Italian, Shop Online", "public_id": "caffe-fortunato-marietta", "id": 713374520, "votes": null, "tagline": null, "has_video": false, "website": "http://www.citysearch.com/profile/external/713374520/marietta_ga/caffe_fortunato.html", "offers": null, "latitude": 33.950996, "politanName": "Atlanta, GA Metro ", "phone_number": "7709511394", "tags": [{"primary": false, "id": 1711, "name": "Coffee & Tea Shops"}, {"primary": false, "id": 11279, "name": "Italian"}, {"primary": false, "id": 11375, "name": "Shop Online"}, {"primary": true, "id": 1722, "name": "Restaurants"}], "fax_number": null, "expansion": {"count": null, "uri": null}, "impression_id": "000b000000c13dc71913784debb176e2c14fe56732", "profile": "http://www.citysearch.com/profile/713374520/marietta_ga/caffe_fortunato.html", "address": {"city": "Marietta", "state": "GA", "street": "255 Village Pkwy Ne", "postal_code": "30067"}, "capProviderId": null, "distance": null, "has_offers": false, "name": "Caffe Fortunato", "longitude": -84.413999, "has_menu": false, "awards": null, "user_review_count": 0}, {"business_operation_status": 1, "rating": null, "neighborhood": null, "image": null, "scorecard": null, "featured": false, "sample_categories": "Restaurants, Pizza", "public_id": "christos-pizza-marietta-2", "id": 620835184, "votes": null, "tagline": null, "has_video": false, "website": null, "offers": null, "latitude": 33.91616, "politanName": "Atlanta, GA Metro ", "phone_number": "7709521965", "tags": [{"primary": false, "id": 11299, "name": "Pizza"}, {"primary": true, "id": 1722, "name": "Restaurants"}], "fax_number": null, "expansion": {"count": null, "uri": null}, "impression_id": "000b00000063124b53cf7e4e67af9b5cd5f58457cf", "profile": "http://www.citysearch.com/profile/620835184/marietta_ga/christos_pizza.html", "address": {"city": "Marietta", "state": "GA", "street": "1453 Terrell Mill Rd SE", "postal_code": "30067"}, "capProviderId": null, "distance": null, "has_offers": false, "name": "Christos Pizza", "longitude": -84.467925, "has_menu": false, "awards": null, "user_review_count": 0}, {"business_operation_status": 1, "rating": null, "neighborhood": null, "image": null, "scorecard": null, "featured": false, "sample_categories": "Restaurants, Shop Online", "public_id": "killer-concepts-management-inc-marietta-2", "id": 627641050, "votes": null, "tagline": null, "has_video": false, "website": "http://www.citysearch.com/profile/external/627641050/marietta_ga/killer_concepts_management_inc.html", "offers": null, "latitude": 33.922016, "politanName": "Atlanta, GA Metro ", "phone_number": "7709846350", "tags": [{"primary": false, "id": 11375, "name": "Shop Online"}, {"primary": true, "id": 1722, "name": "Restaurants"}], "fax_number": null, "expansion": {"count": null, "uri": null}, "impression_id": "000b000000b11bbf4f76ec4f19b79b46c4dbb5bc93", "profile": "http://www.citysearch.com/profile/627641050/marietta_ga/killer_concepts_management_inc.html", "address": {"city": "Marietta", "state": "GA", "street": "2700 Delk Rd Se # 135", "postal_code": "30067"}, "capProviderId": null, "distance": null, "has_offers": false, "name": "Killer Concepts Management Inc", "longitude": -84.475071, "has_menu": false, "awards": null, "user_review_count": 0}, {"business_operation_status": 1, "rating": null, "neighborhood": null, "image": null, "scorecard": null, "featured": false, "sample_categories": "Restaurants, Delis And Delicatessens", "public_id": "wildwood-cafe-marietta", "id": 787135220, "votes": null, "tagline": null, "has_video": false, "website": null, "offers": null, "latitude": 33.905878, "politanName": "Atlanta, GA Metro ", "phone_number": "7709160069", "tags": [{"primary": false, "id": 1727, "name": "Delis And Delicatessens"}, {"primary": true, "id": 1722, "name": "Restaurants"}], "fax_number": null, "expansion": {"count": null, "uri": null}, "impression_id": "000b000000663022dd64794f3291e86e1e66c682b6", "profile": "http://www.citysearch.com/profile/787135220/marietta_ga/wildwood_cafe.html", "address": {"city": "Marietta", "state": "GA", "street": "2300 Windy Ridge Pkwy Se", "postal_code": "30067"}, "capProviderId": null, "distance": null, "has_offers": false, "name": "Wildwood Cafe", "longitude": -84.459393, "has_menu": false, "awards": null, "user_review_count": 0}, {"business_operation_status": 1, "rating": null, "neighborhood": null, "image": null, "scorecard": null, "featured": false, "sample_categories": "Restaurants", "public_id": "bridge-smoke-grill-marietta", "id": 838772530, "votes": null, "tagline": null, "has_video": false, "website": null, "offers": null, "latitude": 33.927554, "politanName": "Atlanta, GA Metro ", "phone_number": "6789033043", "tags": [{"primary": true, "id": 1722, "name": "Restaurants"}], "fax_number": null, "expansion": {"count": null, "uri": null}, "impression_id": "000b000000af18a0720b2d4d638f60a22af5fdd5fd", "profile": "http://www.citysearch.com/profile/838772530/marietta_ga/bridge_smoke_grill.html", "address": {"city": "Marietta", "state": "GA", "street": "1038 Franklin Rd SE", "postal_code": "30067"}, "capProviderId": null, "distance": null, "has_offers": false, "name": "Bridge Smoke Grill", "longitude": -84.493666, "has_menu": false, "awards": null, "user_review_count": 0}, {"business_operation_status": 1, "rating": null, "neighborhood": null, "image": null, "scorecard": null, "featured": false, "sample_categories": "Restaurants, Traditional American, Hot Dogs", "public_id": "shoneys-restaurant-marietta-2", "id": 39887498, "votes": null, "tagline": null, "has_video": false, "website": null, "offers": null, "latitude": 33.905998, "politanName": "Atlanta, GA Metro ", "phone_number": "7709926060", "tags": [{"primary": false, "id": 1722, "name": "Restaurants"}, {"primary": false, "id": 11274, "name": "Hot Dogs"}, {"primary": true, "id": 11190, "name": "Traditional American"}], "fax_number": null, "expansion": {"count": null, "uri": null}, "impression_id": "000b00000095c16527a7d345819f311f4903622e3f", "profile": "http://www.citysearch.com/profile/39887498/marietta_ga/shoney_s_restaurant.html", "address": {"city": "Marietta", "state": "GA", "street": "1950 Spectrum Cir SE", "postal_code": "30067"}, "capProviderId": null, "distance": null, "has_offers": false, "name": "Shoney's Restaurant", "longitude": -84.467685, "has_menu": true, "awards": null, "user_review_count": 0}, {"business_operation_status": 1, "rating": null, "neighborhood": null, "image": null, "scorecard": null, "featured": false, "sample_categories": "Restaurants, Thai, MasterCard, Visa", "public_id": "salah-thai-cuisine-marietta", "id": 605552940, "votes": null, "tagline": null, "has_video": false, "website": "http://www.citysearch.com/profile/external/605552940/marietta_ga/salah_thai_cuisine.html", "offers": null, "latitude": 33.904328, "politanName": "Atlanta, GA Metro ", "phone_number": "7709801890", "tags": [{"primary": false, "id": 11319, "name": "Thai"}, {"primary": false, "id": 11361, "name": "MasterCard"}, {"primary": false, "id": 11382, "name": "Visa"}, {"primary": true, "id": 1722, "name": "Restaurants"}], "fax_number": null, "expansion": {"count": null, "uri": null}, "impression_id": "000b000000be22cc84785942bbb2833a9afab125c7", "profile": "http://www.citysearch.com/profile/605552940/marietta_ga/salah_thai_cuisine.html", "address": {"city": "Marietta", "state": "GA", "street": "3000 Windy Hill Rd Se # A1", "postal_code": "30067"}, "capProviderId": null, "distance": null, "has_offers": false, "name": "Salah Thai Cuisine", "longitude": -84.466526, "has_menu": false, "awards": null, "user_review_count": 0}, {"business_operation_status": 1, "rating": null, "neighborhood": null, "image": null, "scorecard": null, "featured": false, "sample_categories": "Restaurants, Chinese", "public_id": "wok-express-marietta", "id": 2910527, "votes": null, "tagline": null, "has_video": false, "website": null, "offers": null, "latitude": 33.920792, "politanName": "Atlanta, GA Metro ", "phone_number": "7709331888", "tags": [{"primary": false, "id": 11252, "name": "Chinese"}, {"primary": true, "id": 1722, "name": "Restaurants"}], "fax_number": null, "expansion": {"count": null, "uri": null}, "impression_id": "000b000000b9f596c08ed548fe9e5000e0410a54a1", "profile": "http://www.citysearch.com/profile/2910527/marietta_ga/wok_express.html", "address": {"city": "Marietta", "state": "GA", "street": "1270 Powers Ferry Rd SE", "postal_code": "30067"}, "capProviderId": null, "distance": null, "has_offers": false, "name": "Wok Express", "longitude": -84.467912, "has_menu": false, "awards": null, "user_review_count": 1}, {"business_operation_status": 1, "rating": 8.0, "neighborhood": null, "image": null, "scorecard": null, "featured": false, "sample_categories": "Crowd Control, Generators, Household Appliances, Seafood", "public_id": "joes-crab-shack-smyrna", "id": 2922308, "votes": null, "tagline": null, "has_video": false, "website": "http://www.citysearch.com/profile/external/2922308/smyrna_ga/joe_s_crab_shack.html", "offers": null, "latitude": 33.897929, "politanName": "Atlanta, GA Metro ", "phone_number": "7709552722", "tags": [{"primary": false, "id": 26380, "name": "Crowd Control"}, {"primary": false, "id": 26420, "name": "Generators"}, {"primary": false, "id": 11228, "name": "Seafood"}, {"primary": true, "id": 3937, "name": "Household Appliances"}], "fax_number": null, "expansion": {"count": null, "uri": null}, "impression_id": "000b000000a7eb88df6fdd4a13a2dce4feb2e9a267", "profile": "http://www.citysearch.com/profile/2922308/smyrna_ga/joe_s_crab_shack.html", "address": {"city": "Smyrna", "state": "GA", "street": "2175 Cobb Pkwy SE", "postal_code": "30080"}, "capProviderId": null, "distance": null, "has_offers": false, "name": "Joe's Crab Shack", "longitude": -84.482808, "has_menu": true, "awards": null, "user_review_count": 0}, {"business_operation_status": 1, "rating": null, "neighborhood": null, "image": null, "scorecard": null, "featured": false, "sample_categories": "Restaurants, Carry Out, Hamburgers", "public_id": "in-n-out-wings-n-burger-marietta", "id": 745593160, "votes": null, "tagline": null, "has_video": false, "website": "http://www.citysearch.com/profile/external/745593160/marietta_ga/in_n_out_wings_n_burger.html", "offers": null, "latitude": 33.923677, "politanName": "Atlanta, GA Metro ", "phone_number": "7705411960", "tags": [{"primary": false, "id": 11247, "name": "Carry Out"}, {"primary": false, "id": 11270, "name": "Hamburgers"}, {"primary": true, "id": 1722, "name": "Restaurants"}], "fax_number": null, "expansion": {"count": null, "uri": null}, "impression_id": "000b000000a5be388e60374945943b6937994244de", "profile": "http://www.citysearch.com/profile/745593160/marietta_ga/in_n_out_wings_n_burger.html", "address": {"city": "Marietta", "state": "GA", "street": "2856 Delk Rd SE", "postal_code": "30067"}, "capProviderId": null, "distance": null, "has_offers": false, "name": "In N Out Wings N Burger", "longitude": -84.471351, "has_menu": false, "awards": null, "user_review_count": 0}, {"business_operation_status": 0, "rating": null, "neighborhood": null, "image": null, "scorecard": null, "featured": false, "sample_categories": "Restaurants, Carry Out", "public_id": "burger-king-marietta-12", "id": 764902020, "votes": null, "tagline": null, "has_video": false, "website": null, "offers": null, "latitude": 33.948063, "politanName": "Atlanta, GA Metro ", "phone_number": "7709714626", "tags": [{"primary": false, "id": 11247, "name": "Carry Out"}, {"primary": true, "id": 1722, "name": "Restaurants"}], "fax_number": null, "expansion": {"count": null, "uri": null}, "impression_id": "000b00000084e1c4e16a8c4411b681731e7ee2df65", "profile": "http://www.citysearch.com/profile/764902020/marietta_ga/burger_king.html", "address": {"city": "Marietta", "state": "GA", "street": "3470 Sheridan Chase SE", "postal_code": "30067"}, "capProviderId": null, "distance": null, "has_offers": false, "name": "Burger King", "longitude": -84.448601, "has_menu": false, "awards": null, "user_review_count": 0}, {"business_operation_status": 1, "rating": null, "neighborhood": null, "image": null, "scorecard": null, "featured": false, "sample_categories": "Restaurants, Hamburgers", "public_id": "moxie-burger-marietta", "id": 748274780, "votes": null, "tagline": null, "has_video": false, "website": "http://www.citysearch.com/profile/external/748274780/marietta_ga/moxie_burger.html", "offers": null, "latitude": 33.950996, "politanName": "Atlanta, GA Metro ", "phone_number": "7704851432", "tags": [{"primary": false, "id": 11270, "name": "Hamburgers"}, {"primary": true, "id": 1722, "name": "Restaurants"}], "fax_number": null, "expansion": {"count": null, "uri": null}, "impression_id": "000b0000004c953f21c8db4009b22cf4d6df617d05", "profile": "http://www.citysearch.com/profile/748274780/marietta_ga/moxie_burger.html", "address": {"city": "Marietta", "state": "GA", "street": "255 Village Pkwy NE", "postal_code": "30067"}, "capProviderId": null, "distance": null, "has_offers": false, "name": "Moxie Burger", "longitude": -84.413999, "has_menu": false, "awards": null, "user_review_count": 0}, {"business_operation_status": 1, "rating": null, "neighborhood": null, "image": null, "scorecard": null, "featured": false, "sample_categories": "Restaurants, Asian, Chinese", "public_id": "magic-china-marietta", "id": 777698190, "votes": null, "tagline": null, "has_video": false, "website": null, "offers": null, "latitude": 33.918666, "politanName": "Atlanta, GA Metro ", "phone_number": "7709330933", "tags": [{"primary": false, "id": 11235, "name": "Asian"}, {"primary": false, "id": 11252, "name": "Chinese"}, {"primary": true, "id": 1722, "name": "Restaurants"}], "fax_number": null, "expansion": {"count": null, "uri": null}, "impression_id": "000b0000003fe34f54f0a14fee84682f88c642d4f4", "profile": "http://www.citysearch.com/profile/777698190/marietta_ga/magic_china.html", "address": {"city": "Marietta", "state": "GA", "street": "1360 Powers Ferry Rd Se", "postal_code": "30067"}, "capProviderId": null, "distance": null, "has_offers": false, "name": "Magic China", "longitude": -84.469414, "has_menu": false, "awards": null, "user_review_count": 0}, {"business_operation_status": 1, "rating": null, "neighborhood": null, "image": null, "scorecard": null, "featured": false, "sample_categories": "Restaurants, Steakhouse", "public_id": "villa-steak-house-marietta", "id": 793373220, "votes": null, "tagline": null, "has_video": false, "website": null, "offers": null, "latitude": 33.930541, "politanName": "Atlanta, GA Metro ", "phone_number": "7706358252", "tags": [{"primary": false, "id": 11316, "name": "Steakhouse"}, {"primary": true, "id": 1722, "name": "Restaurants"}], "fax_number": null, "expansion": {"count": null, "uri": null}, "impression_id": "000b00000011df72f8d67845edb162974b916a23c9", "profile": "http://www.citysearch.com/profile/793373220/marietta_ga/villa_steak_house.html", "address": {"city": "Marietta", "state": "GA", "street": "2658 Stoney Creek Rd Se", "postal_code": "30067"}, "capProviderId": null, "distance": null, "has_offers": false, "name": "Villa Steak House", "longitude": -84.476561, "has_menu": false, "awards": null, "user_review_count": 0}, {"business_operation_status": 1, "rating": null, "neighborhood": null, "image": null, "scorecard": null, "featured": false, "sample_categories": "Restaurants", "public_id": "baker-brothers-installations-marietta", "id": 601298983, "votes": null, "tagline": null, "has_video": false, "website": "http://www.citysearch.com/profile/external/601298983/marietta_ga/baker_brothers_installations.html", "offers": null, "latitude": 33.919512, "politanName": "Atlanta, GA Metro ", "phone_number": "7705630281", "tags": [{"primary": true, "id": 1722, "name": "Restaurants"}], "fax_number": null, "expansion": {"count": null, "uri": null}, "impression_id": "000b000000c38387b560704c68ae25410f81f9ddad", "profile": "http://www.citysearch.com/profile/601298983/marietta_ga/baker_brothers_installations.html", "address": {"city": "Marietta", "state": "GA", "street": "2152 Northwest Pkwy Se # F", "postal_code": "30067"}, "capProviderId": null, "distance": null, "has_offers": false, "name": "Baker Brothers Installations", "longitude": -84.487991, "has_menu": false, "awards": null, "user_review_count": 0}, {"business_operation_status": 1, "rating": null, "neighborhood": null, "image": null, "scorecard": null, "featured": false, "sample_categories": "Restaurants", "public_id": "h-y-co-marietta", "id": 732213150, "votes": null, "tagline": null, "has_video": false, "website": null, "offers": null, "latitude": 33.917272, "politanName": "Atlanta, GA Metro ", "phone_number": "7703670759", "tags": [{"primary": true, "id": 1722, "name": "Restaurants"}], "fax_number": null, "expansion": {"count": null, "uri": null}, "impression_id": "000b000000c8d3bd1d019e4166b1f90e8facc114c9", "profile": "http://www.citysearch.com/profile/732213150/marietta_ga/h_y_co.html", "address": {"city": "Marietta", "state": "GA", "street": "1487 Bentley Ln SE", "postal_code": "30067"}, "capProviderId": null, "distance": null, "has_offers": false, "name": "H & Y Co", "longitude": -84.47374, "has_menu": false, "awards": null, "user_review_count": 0}, {"business_operation_status": 0, "rating": null, "neighborhood": null, "image": null, "scorecard": null, "featured": false, "sample_categories": "Restaurants, Bars & Pubs, Carry Out", "public_id": "tgi-fridays-marietta", "id": 764911090, "votes": null, "tagline": null, "has_video": false, "website": null, "offers": null, "latitude": 33.931553, "politanName": "Atlanta, GA Metro ", "phone_number": "7709510821", "tags": [{"primary": false, "id": 1686, "name": "Bars & Pubs"}, {"primary": false, "id": 11247, "name": "Carry Out"}, {"primary": true, "id": 1722, "name": "Restaurants"}], "fax_number": null, "expansion": {"count": null, "uri": null}, "impression_id": "000b000000a337ae460968448db5e0c3bc15f4f8ef", "profile": "http://www.citysearch.com/profile/764911090/marietta_ga/tgi_friday_s.html", "address": {"city": "Marietta", "state": "GA", "street": "1925 Powers Ferry Trce SE", "postal_code": "30067"}, "capProviderId": null, "distance": null, "has_offers": false, "name": "Tgi Friday's", "longitude": -84.4784, "has_menu": false, "awards": null, "user_review_count": 0}, {"business_operation_status": 1, "rating": null, "neighborhood": null, "image": null, "scorecard": null, "featured": false, "sample_categories": "Restaurants, Cajun & Creole, Carry Out, Food Delivery, American Express", "public_id": "folks-southern-kitchen-marietta-2", "id": 2901678, "votes": null, "tagline": null, "has_video": false, "website": "http://www.citysearch.com/profile/external/2901678/marietta_ga/folks_southern_kitchen.html", "offers": null, "latitude": 33.903775, "politanName": "Atlanta, GA Metro ", "phone_number": "7709525111", "tags": [{"primary": false, "id": 11245, "name": "Cajun & Creole"}, {"primary": false, "id": 11247, "name": "Carry Out"}, {"primary": false, "id": 11267, "name": "Food Delivery"}, {"primary": false, "id": 11333, "name": "American Express"}, {"primary": false, "id": 11349, "name": "Discover"}, {"primary": false, "id": 11361, "name": "MasterCard"}, {"primary": false, "id": 11382, "name": "Visa"}, {"primary": true, "id": 1722, "name": "Restaurants"}], "fax_number": null, "expansion": {"count": null, "uri": null}, "impression_id": "000b0000009ef8f9f954f34bbab7f2471c51090d06", "profile": "http://www.citysearch.com/profile/2901678/marietta_ga/folks_southern_kitchen.html", "address": {"city": "Marietta", "state": "GA", "street": "2031 Cobb Pkwy S", "postal_code": "30060"}, "capProviderId": null, "distance": null, "has_offers": false, "name": "Folks Southern Kitchen", "longitude": -84.487499, "has_menu": true, "awards": null, "user_review_count": 1}], "histograms": [], "tag_ids": [1722], "uri": "http://api.citygridmedia.com:8080/search/places/v2/search/where?has_offers=false&type=restaurant&format=json&page=4&where=30067&rpp=50&histograms=false&publisher=10000009598&region_type=circle", "did_you_mean": "", "regions": [{"latitude": 33.930575, "default_radius": 3.78, "type": "postal_code", "name": "30067", "longitude": -84.463162}], "call_id": "000b000000933720e57ac94e8e99dbaa08e1b4f0d6", "first_hit": 151, "total_hits": 1972, "geo_ids": [26295], "page": 4, "last_hit": 200}}