{"results": {"rpp": 50, "locations": [{"business_operation_status": 1, "rating": null, "neighborhood": null, "image": null, "scorecard": null, "featured": false, "sample_categories": "Restaurants, Gourmet Foods", "public_id": "gourmet-curiosities-roswell", "id": 787113350, "votes": null, "tagline": null, "has_video": false, "website": null, "offers": null, "latitude": 34.021931, "politanName": "Atlanta, GA Metro ", "phone_number": "4049158987", "tags": [{"primary": false, "id": 11169, "name": "Gourmet Foods"}, {"primary": true, "id": 1722, "name": "Restaurants"}], "fax_number": null, "expansion": {"count": null, "uri": null}, "impression_id": "000b000000925d895b7d6f4400a4d9d30a2b6bbe69", "profile": "http://www.citysearch.com/profile/787113350/roswell_ga/gourmet_curiosities.html", "address": {"city": "Roswell", "state": "GA", "street": "859 Mimosa Blvd", "postal_code": "30075"}, "capProviderId": null, "distance": null, "has_offers": false, "name": "Gourmet Curiosities", "longitude": -84.362912, "has_menu": false, "awards": null, "user_review_count": 0}, {"business_operation_status": 1, "rating": null, "neighborhood": null, "image": null, "scorecard": null, "featured": false, "sample_categories": "Restaurants", "public_id": "el-sarape-marietta", "id": 815403830, "votes": null, "tagline": null, "has_video": false, "website": null, "offers": null, "latitude": 33.969085, "politanName": "Atlanta, GA Metro ", "phone_number": "7705908887", "tags": [{"primary": true, "id": 1722, "name": "Restaurants"}], "fax_number": null, "expansion": {"count": null, "uri": null}, "impression_id": "000b00000091e9d2c3a4be4f5b84f7d166df8efbef", "profile": "http://www.citysearch.com/profile/815403830/marietta_ga/el_sarape.html", "address": {"city": "Marietta", "state": "GA", "street": "745 Cobb Pkwy N", "postal_code": "30062"}, "capProviderId": null, "distance": null, "has_offers": false, "name": "El Sarape", "longitude": -84.538349, "has_menu": false, "awards": null, "user_review_count": 0}, {"business_operation_status": 1, "rating": null, "neighborhood": null, "image": null, "scorecard": null, "featured": false, "sample_categories": "Restaurants", "public_id": "j-mann-cafe-grille-marietta", "id": 815522810, "votes": null, "tagline": null, "has_video": false, "website": null, "offers": null, "latitude": 33.948544, "politanName": "Atlanta, GA Metro ", "phone_number": "7705280262", "tags": [{"primary": true, "id": 1722, "name": "Restaurants"}], "fax_number": null, "expansion": {"count": null, "uri": null}, "impression_id": "000b0000001ab9a6a3107c41c683bcc41d3a655061", "profile": "http://www.citysearch.com/profile/815522810/marietta_ga/j_mann_cafe_grille.html", "address": {"city": "Marietta", "state": "GA", "street": "191 S Marietta Pkwy SW", "postal_code": "30064"}, "capProviderId": null, "distance": null, "has_offers": false, "name": "J Mann Cafe & Grille", "longitude": -84.550204, "has_menu": false, "awards": null, "user_review_count": 0}, {"business_operation_status": 1, "rating": null, "neighborhood": null, "image": null, "scorecard": null, "featured": false, "sample_categories": "Restaurants", "public_id": "sydneys-steakhouse-grille-roswell", "id": 809524430, "votes": null, "tagline": null, "has_video": false, "website": null, "offers": null, "latitude": 34.018694, "politanName": "Atlanta, GA Metro ", "phone_number": "7705186448", "tags": [{"primary": true, "id": 1722, "name": "Restaurants"}], "fax_number": null, "expansion": {"count": null, "uri": null}, "impression_id": "000b000000f5b0ec074ea544f59ccf5188f58636a4", "profile": "http://www.citysearch.com/profile/809524430/roswell_ga/sydneys_steakhouse_grille.html", "address": {"city": "Roswell", "state": "GA", "street": "9835 Old Dogwood Rd", "postal_code": "30075"}, "capProviderId": null, "distance": null, "has_offers": false, "name": "Sydneys Steakhouse & Grille", "longitude": -84.327737, "has_menu": false, "awards": null, "user_review_count": 0}, {"business_operation_status": 1, "rating": null, "neighborhood": null, "image": null, "scorecard": null, "featured": false, "sample_categories": "Doughnut Shops", "public_id": "dunkin-donuts-shirinathji-marietta", "id": 815095050, "votes": null, "tagline": null, "has_video": false, "website": null, "offers": null, "latitude": 34.046062, "politanName": "Atlanta, GA Metro ", "phone_number": "6783550473", "tags": [{"primary": true, "id": 1734, "name": "Doughnut Shops"}], "fax_number": null, "expansion": {"count": null, "uri": null}, "impression_id": "000b000000078a7c8d8e1545aebb70b1a924b1005e", "profile": "http://www.citysearch.com/profile/815095050/marietta_ga/dunkin_donuts_shirinathji.html", "address": {"city": "Marietta", "state": "GA", "street": "3926 Straton Hall Way", "postal_code": "30066"}, "capProviderId": null, "distance": null, "has_offers": false, "name": "Dunkin Donuts Shirinathji", "longitude": -84.477282, "has_menu": false, "awards": null, "user_review_count": 0}, {"business_operation_status": 1, "rating": null, "neighborhood": null, "image": null, "scorecard": null, "featured": false, "sample_categories": "Restaurants", "public_id": "miramcho-marietta", "id": 815118630, "votes": null, "tagline": null, "has_video": false, "website": null, "offers": null, "latitude": 33.933881, "politanName": "Atlanta, GA Metro ", "phone_number": "7707940330", "tags": [{"primary": true, "id": 1722, "name": "Restaurants"}], "fax_number": null, "expansion": {"count": null, "uri": null}, "impression_id": "000b0000006a84ef45d8fb4ad0bf847a3bd0facc45", "profile": "http://www.citysearch.com/profile/815118630/marietta_ga/miramcho.html", "address": {"city": "Marietta", "state": "GA", "street": "760 Sandtown Rd SW", "postal_code": "30008"}, "capProviderId": null, "distance": null, "has_offers": false, "name": "Miramcho", "longitude": -84.555669, "has_menu": false, "awards": null, "user_review_count": 1}, {"business_operation_status": 1, "rating": null, "neighborhood": null, "image": null, "scorecard": null, "featured": false, "sample_categories": "Restaurants", "public_id": "b-a-b-smokehouse-marietta", "id": 818380670, "votes": null, "tagline": null, "has_video": false, "website": null, "offers": null, "latitude": 34.02684, "politanName": "Atlanta, GA Metro ", "phone_number": "7704220604", "tags": [{"primary": true, "id": 1722, "name": "Restaurants"}], "fax_number": null, "expansion": {"count": null, "uri": null}, "impression_id": "000b00000073f3894b5814470991f24a7564f80e77", "profile": "http://www.citysearch.com/profile/818380670/marietta_ga/b_a_b_smokehouse.html", "address": {"city": "Marietta", "state": "GA", "street": "3050 Canton Rd", "postal_code": "30066"}, "capProviderId": null, "distance": null, "has_offers": false, "name": "B A B Smokehouse", "longitude": -84.527483, "has_menu": false, "awards": null, "user_review_count": 0}, {"business_operation_status": 1, "rating": null, "neighborhood": null, "image": null, "scorecard": null, "featured": false, "sample_categories": "Restaurants, Pizza", "public_id": "bella-bocca-marietta", "id": 822361720, "votes": null, "tagline": null, "has_video": false, "website": null, "offers": null, "latitude": 33.951001, "politanName": "Atlanta, GA Metro ", "phone_number": "7707958984", "tags": [{"primary": false, "id": 1722, "name": "Restaurants"}, {"primary": true, "id": 11299, "name": "Pizza"}], "fax_number": null, "expansion": {"count": null, "uri": null}, "impression_id": "000b000000e35e70a8eb0a4915b6615de96e0667fe", "profile": "http://www.citysearch.com/profile/822361720/marietta_ga/bella_bocca.html", "address": {"city": "Marietta", "state": "GA", "street": "999 Whitlock Ave SW", "postal_code": "30064"}, "capProviderId": null, "distance": null, "has_offers": false, "name": "Bella Bocca", "longitude": -84.57917, "has_menu": false, "awards": null, "user_review_count": 1}, {"business_operation_status": 1, "rating": null, "neighborhood": null, "image": null, "scorecard": null, "featured": false, "sample_categories": "Restaurants", "public_id": "rowlands-sandy", "id": 811786860, "votes": null, "tagline": null, "has_video": false, "website": null, "offers": null, "latitude": 33.920558, "politanName": "Atlanta, GA Metro ", "phone_number": "7702524500", "tags": [{"primary": true, "id": 1722, "name": "Restaurants"}], "fax_number": null, "expansion": {"count": null, "uri": null}, "impression_id": "000b000000b0b9abf0a2c94086a37afe6bb610652f", "profile": "http://www.citysearch.com/profile/811786860/sandy_springs_ga/rowland_s.html", "address": {"city": "Sandy Springs", "state": "GA", "street": "6066 Sandy Springs Cir", "postal_code": "30328"}, "capProviderId": null, "distance": null, "has_offers": false, "name": "Rowland's", "longitude": -84.384411, "has_menu": false, "awards": null, "user_review_count": 0}, {"business_operation_status": 1, "rating": null, "neighborhood": null, "image": null, "scorecard": null, "featured": false, "sample_categories": "Restaurants", "public_id": "fish-bowl-asian-bistro-roswell", "id": 827476940, "votes": null, "tagline": null, "has_video": false, "website": null, "offers": null, "latitude": 34.047226, "politanName": "Atlanta, GA Metro ", "phone_number": "6784618765", "tags": [{"primary": true, "id": 1722, "name": "Restaurants"}], "fax_number": null, "expansion": {"count": null, "uri": null}, "impression_id": "000b0000004cc67054c77e4c86a36ce35785ce4544", "profile": "http://www.citysearch.com/profile/827476940/roswell_ga/fish_bowl_asian_bistro.html", "address": {"city": "Roswell", "state": "GA", "street": "10930 Crabapple Rd # 5", "postal_code": "30075"}, "capProviderId": null, "distance": null, "has_offers": false, "name": "Fish Bowl Asian Bistro", "longitude": -84.362959, "has_menu": false, "awards": null, "user_review_count": 0}, {"business_operation_status": 1, "rating": null, "neighborhood": null, "image": null, "scorecard": null, "featured": false, "sample_categories": "Restaurants", "public_id": "finca-bonita-mexican-grill-marietta", "id": 838631820, "votes": null, "tagline": null, "has_video": false, "website": null, "offers": null, "latitude": 33.951258, "politanName": "Atlanta, GA Metro ", "phone_number": "7704198290", "tags": [{"primary": true, "id": 1722, "name": "Restaurants"}], "fax_number": null, "expansion": {"count": null, "uri": null}, "impression_id": "000b000000ce16bdeadd6e435bbedafe91f69bc583", "profile": "http://www.citysearch.com/profile/838631820/marietta_ga/finca_bonita_mexican_grill.html", "address": {"city": "Marietta", "state": "GA", "street": "1157 Roswell Rd", "postal_code": "30062"}, "capProviderId": null, "distance": null, "has_offers": false, "name": "Finca Bonita Mexican Grill", "longitude": -84.517723, "has_menu": false, "awards": null, "user_review_count": 1}, {"business_operation_status": 1, "rating": null, "neighborhood": null, "image": null, "scorecard": null, "featured": false, "sample_categories": "Restaurants, Carry Out", "public_id": "wendys-marietta-19", "id": 819069510, "votes": null, "tagline": null, "has_video": false, "website": null, "offers": null, "latitude": 33.951502, "politanName": "Atlanta, GA Metro ", "phone_number": "7706507335", "tags": [{"primary": false, "id": 11247, "name": "Carry Out"}, {"primary": true, "id": 1722, "name": "Restaurants"}], "fax_number": null, "expansion": {"count": null, "uri": null}, "impression_id": "000b000000d5cbc10233244adea9a26d2b38169e16", "profile": "http://www.citysearch.com/profile/819069510/marietta_ga/wendy_s.html", "address": {"city": "Marietta", "state": "GA", "street": "600 Village Trce NE", "postal_code": "30067"}, "capProviderId": null, "distance": null, "has_offers": false, "name": "Wendy's", "longitude": -84.414411, "has_menu": false, "awards": null, "user_review_count": 0}, {"business_operation_status": 1, "rating": null, "neighborhood": null, "image": null, "scorecard": null, "featured": false, "sample_categories": "Restaurants", "public_id": "lunch-south-atlanta", "id": 809842640, "votes": null, "tagline": null, "has_video": false, "website": null, "offers": null, "latitude": 33.942305, "politanName": "Atlanta, GA Metro ", "phone_number": "7708041384", "tags": [{"primary": true, "id": 1722, "name": "Restaurants"}], "fax_number": null, "expansion": {"count": null, "uri": null}, "impression_id": "000b000000df9852aff0544757b273f5f2a41ae46a", "profile": "http://www.citysearch.com/profile/809842640/atlanta_ga/lunch_south.html", "address": {"city": "Atlanta", "state": "GA", "street": "200 Ashford Ctr N", "postal_code": "30338"}, "capProviderId": null, "distance": null, "has_offers": false, "name": "Lunch South", "longitude": -84.33688, "has_menu": false, "awards": null, "user_review_count": 0}, {"business_operation_status": 1, "rating": null, "neighborhood": null, "image": null, "scorecard": null, "featured": false, "sample_categories": "Restaurants", "public_id": "carlyles-atlanta-4", "id": 809880620, "votes": null, "tagline": null, "has_video": false, "website": null, "offers": null, "latitude": 33.934375, "politanName": "Atlanta, GA Metro ", "phone_number": "7703932536", "tags": [{"primary": true, "id": 1722, "name": "Restaurants"}], "fax_number": null, "expansion": {"count": null, "uri": null}, "impression_id": "000b00000017944ac848574892bbd230a97803be38", "profile": "http://www.citysearch.com/profile/809880620/atlanta_ga/carlyle_s.html", "address": {"city": "Atlanta", "state": "GA", "street": "1100 Abernathy Rd", "postal_code": "30328"}, "capProviderId": null, "distance": null, "has_offers": false, "name": "Carlyle's", "longitude": -84.352796, "has_menu": false, "awards": null, "user_review_count": 0}, {"business_operation_status": 1, "rating": null, "neighborhood": null, "image": null, "scorecard": null, "featured": false, "sample_categories": "Restaurants", "public_id": "whitcher-street-caf-marietta", "id": 713628600, "votes": null, "tagline": null, "has_video": false, "website": null, "offers": null, "latitude": 33.967469, "politanName": "Atlanta, GA Metro ", "phone_number": "6785813888", "tags": [{"primary": true, "id": 1722, "name": "Restaurants"}], "fax_number": null, "expansion": {"count": null, "uri": null}, "impression_id": "000b000000a0cbc0a6ae42495286690464686ee264", "profile": "http://www.citysearch.com/profile/713628600/marietta_ga/whitcher_street_caf.html", "address": {"city": "Marietta", "state": "GA", "street": "55 Whitcher St Ne", "postal_code": "30060"}, "capProviderId": null, "distance": null, "has_offers": false, "name": "Whitcher Street Caf", "longitude": -84.551412, "has_menu": false, "awards": null, "user_review_count": 0}, {"business_operation_status": 1, "rating": null, "neighborhood": null, "image": null, "scorecard": null, "featured": false, "sample_categories": "Restaurants, Delis And Delicatessens", "public_id": "d-w-cafe-marietta", "id": 775198490, "votes": null, "tagline": null, "has_video": false, "website": null, "offers": null, "latitude": 33.972386, "politanName": "Atlanta, GA Metro ", "phone_number": "6784018966", "tags": [{"primary": false, "id": 1727, "name": "Delis And Delicatessens"}, {"primary": true, "id": 1722, "name": "Restaurants"}], "fax_number": null, "expansion": {"count": null, "uri": null}, "impression_id": "000b000000ba3060df3e154edca5f181284e0b2e26", "profile": "http://www.citysearch.com/profile/775198490/marietta_ga/d_w_cafe.html", "address": {"city": "Marietta", "state": "GA", "street": "833 Campbell Hill St NW", "postal_code": "30060"}, "capProviderId": null, "distance": null, "has_offers": false, "name": "D W Cafe", "longitude": -84.552023, "has_menu": false, "awards": null, "user_review_count": 0}, {"business_operation_status": 1, "rating": null, "neighborhood": null, "image": null, "scorecard": null, "featured": false, "sample_categories": "Restaurants", "public_id": "nations-cafe-atlanta-4", "id": 732130340, "votes": null, "tagline": null, "has_video": false, "website": null, "offers": null, "latitude": 33.981228, "politanName": "Atlanta, GA Metro ", "phone_number": "6786914382", "tags": [{"primary": true, "id": 1722, "name": "Restaurants"}], "fax_number": null, "expansion": {"count": null, "uri": null}, "impression_id": "000b0000005577dbb37f824957b6ea169157746325", "profile": "http://www.citysearch.com/profile/732130340/atlanta_ga/nation_s_cafe.html", "address": {"city": "Atlanta", "state": "GA", "street": "8290 Roswell Rd", "postal_code": "30350"}, "capProviderId": null, "distance": null, "has_offers": false, "name": "Nation's Cafe", "longitude": -84.351122, "has_menu": false, "awards": null, "user_review_count": 0}, {"business_operation_status": 1, "rating": null, "neighborhood": null, "image": null, "scorecard": null, "featured": false, "sample_categories": "Restaurants, Carry Out, Chicken", "public_id": "zaxbys-marietta-6", "id": 787134660, "votes": null, "tagline": null, "has_video": false, "website": "http://www.citysearch.com/profile/external/787134660/marietta_ga/zaxby_s.html", "offers": null, "latitude": 33.952602, "politanName": "Atlanta, GA Metro ", "phone_number": "6788521483", "tags": [{"primary": false, "id": 11247, "name": "Carry Out"}, {"primary": false, "id": 12839, "name": "Chicken"}, {"primary": true, "id": 1722, "name": "Restaurants"}], "fax_number": null, "expansion": {"count": null, "uri": null}, "impression_id": "000b000000d1d0c991741749528ff45b7d0bb1d339", "profile": "http://www.citysearch.com/profile/787134660/marietta_ga/zaxby_s.html", "address": {"city": "Marietta", "state": "GA", "street": "2756 Sandy Plains Rd", "postal_code": "30066"}, "capProviderId": null, "distance": null, "has_offers": false, "name": "Zaxby's", "longitude": -84.549933, "has_menu": true, "awards": null, "user_review_count": 0}, {"business_operation_status": 1, "rating": 8.0, "neighborhood": null, "image": null, "scorecard": null, "featured": false, "sample_categories": "Restaurants, Chinese", "public_id": "new-china-house-marietta", "id": 2904692, "votes": null, "tagline": null, "has_video": false, "website": "http://www.citysearch.com/profile/external/2904692/marietta_ga/new_china_house.html", "offers": null, "latitude": 33.971616, "politanName": "Atlanta, GA Metro ", "phone_number": "7704286409", "tags": [{"primary": false, "id": 11252, "name": "Chinese"}, {"primary": true, "id": 1722, "name": "Restaurants"}], "fax_number": null, "expansion": {"count": null, "uri": null}, "impression_id": "000b0000002e626d3a74084994a8d3c5bdb61343f5", "profile": "http://www.citysearch.com/profile/2904692/marietta_ga/new_china_house.html", "address": {"city": "Marietta", "state": "GA", "street": "803 Cobb Pkwy N", "postal_code": "30062"}, "capProviderId": null, "distance": null, "has_offers": false, "name": "New China House", "longitude": -84.540539, "has_menu": true, "awards": null, "user_review_count": 1}, {"business_operation_status": 1, "rating": null, "neighborhood": null, "image": null, "scorecard": null, "featured": false, "sample_categories": "Restaurants, Carry Out", "public_id": "waffle-house-atlanta-31", "id": 840536100, "votes": null, "tagline": null, "has_video": false, "website": "http://www.citysearch.com/profile/external/840536100/atlanta_ga/waffle_house.html", "offers": null, "latitude": 33.930995, "politanName": "Atlanta, GA Metro ", "phone_number": "4042553911", "tags": [{"primary": false, "id": 11247, "name": "Carry Out"}, {"primary": true, "id": 1722, "name": "Restaurants"}], "fax_number": null, "expansion": {"count": null, "uri": null}, "impression_id": "000b00000018154131f0f34124b4bc45fc9dd0a011", "profile": "http://www.citysearch.com/profile/840536100/atlanta_ga/waffle_house.html", "address": {"city": "Atlanta", "state": "GA", "street": "6445 Roswell Rd", "postal_code": "30328"}, "capProviderId": null, "distance": null, "has_offers": false, "name": "Waffle House", "longitude": -84.379191, "has_menu": false, "awards": null, "user_review_count": 0}, {"business_operation_status": 1, "rating": null, "neighborhood": null, "image": null, "scorecard": null, "featured": false, "sample_categories": "Food Stores, Restaurants", "public_id": "atlanta-smokehouse-prodcuts-marietta", "id": 793290190, "votes": null, "tagline": null, "has_video": false, "website": null, "offers": null, "latitude": 33.912568, "politanName": "Atlanta, GA Metro ", "phone_number": "7706934435", "tags": [{"primary": false, "id": 1722, "name": "Restaurants"}, {"primary": true, "id": 1706, "name": "Food Stores"}], "fax_number": null, "expansion": {"count": null, "uri": null}, "impression_id": "000b000000c68fe03af3724a95b12d48a724626d68", "profile": "http://www.citysearch.com/profile/793290190/marietta_ga/atlanta_smokehouse_prodcuts.html", "address": {"city": "Marietta", "state": "GA", "street": "1700 Enterprise Way Se", "postal_code": "30067"}, "capProviderId": null, "distance": null, "has_offers": false, "name": "Atlanta Smokehouse Prodcuts", "longitude": -84.492151, "has_menu": false, "awards": null, "user_review_count": 0}, {"business_operation_status": 1, "rating": 8.0, "neighborhood": null, "image": null, "scorecard": null, "featured": false, "sample_categories": "Restaurants", "public_id": "jocks-jills-sports-grill-atlanta", "id": 3037892, "votes": null, "tagline": null, "has_video": false, "website": null, "offers": null, "latitude": 33.907557, "politanName": "Atlanta, GA Metro ", "phone_number": "4048439444", "tags": [{"primary": true, "id": 1722, "name": "Restaurants"}], "fax_number": null, "expansion": {"count": null, "uri": null}, "impression_id": "000b0000003a5d4373c8c446b1881ff5bede80605b", "profile": "http://www.citysearch.com/profile/3037892/atlanta_ga/jock_s_jills_sports_grill.html", "address": {"city": "Atlanta", "state": "GA", "street": "5600 Roswell Road NE", "postal_code": "30342"}, "capProviderId": null, "distance": null, "has_offers": false, "name": "Jock's & Jills Sports Grill", "longitude": -84.378776, "has_menu": true, "awards": null, "user_review_count": 0}, {"business_operation_status": 1, "rating": null, "neighborhood": null, "image": null, "scorecard": null, "featured": false, "sample_categories": "Restaurants, Diners, Cafes", "public_id": "campus-cafe-marietta", "id": 33669246, "votes": null, "tagline": null, "has_video": false, "website": null, "offers": null, "latitude": 33.930756, "politanName": "Atlanta, GA Metro ", "phone_number": "7707926042", "tags": [{"primary": false, "id": 1732, "name": "Diners"}, {"primary": false, "id": 6190, "name": "Cafes"}, {"primary": true, "id": 1722, "name": "Restaurants"}], "fax_number": null, "expansion": {"count": null, "uri": null}, "impression_id": "000b0000008c6b6ba94d4b4e358a7fcb4666725480", "profile": "http://www.citysearch.com/profile/33669246/marietta_ga/campus_cafe.html", "address": {"city": "Marietta", "state": "GA", "street": "1269 Barclay Cir SE", "postal_code": "30060"}, "capProviderId": null, "distance": null, "has_offers": false, "name": "Campus Cafe", "longitude": -84.514539, "has_menu": false, "awards": null, "user_review_count": 0}, {"business_operation_status": 1, "rating": null, "neighborhood": null, "image": null, "scorecard": null, "featured": false, "sample_categories": "Restaurants, Delis And Delicatessens, Sandwich Shops, Carry Out", "public_id": "subway-sandy-10", "id": 781231300, "votes": null, "tagline": null, "has_video": false, "website": "http://www.citysearch.com/profile/external/781231300/sandy_springs_ga/subway.html", "offers": null, "latitude": 33.916242, "politanName": "Atlanta, GA Metro ", "phone_number": "4042550306", "tags": [{"primary": false, "id": 1727, "name": "Delis And Delicatessens"}, {"primary": false, "id": 1736, "name": "Sandwich Shops"}, {"primary": false, "id": 11247, "name": "Carry Out"}, {"primary": true, "id": 1722, "name": "Restaurants"}], "fax_number": null, "expansion": {"count": null, "uri": null}, "impression_id": "000b000000b9b505d508e14a63b58cd70d35265b25", "profile": "http://www.citysearch.com/profile/781231300/sandy_springs_ga/subway.html", "address": {"city": "Sandy Springs", "state": "GA", "street": "5590 Roswell Rd", "postal_code": "30342"}, "capProviderId": null, "distance": null, "has_offers": false, "name": "SUBWAY", "longitude": -84.379244, "has_menu": false, "awards": null, "user_review_count": 0}, {"business_operation_status": 1, "rating": null, "neighborhood": null, "image": null, "scorecard": null, "featured": false, "sample_categories": "Restaurants, Mexican", "public_id": "pappasitos-cantina-marietta-2", "id": 787083440, "votes": null, "tagline": null, "has_video": false, "website": "http://www.citysearch.com/profile/external/787083440/marietta_ga/pappasito_s_cantina.html", "offers": null, "latitude": 34.019839, "politanName": "Atlanta, GA Metro ", "phone_number": "7709518409", "tags": [{"primary": false, "id": 11208, "name": "Mexican"}, {"primary": true, "id": 1722, "name": "Restaurants"}], "fax_number": null, "expansion": {"count": null, "uri": null}, "impression_id": "000b000000e7f28150e5db42278e553f673f73d10b", "profile": "http://www.citysearch.com/profile/787083440/marietta_ga/pappasito_s_cantina.html", "address": {"city": "Marietta", "state": "GA", "street": "2788 Wendy Ln", "postal_code": "30062"}, "capProviderId": null, "distance": null, "has_offers": false, "name": "Pappasito's Cantina", "longitude": -84.459525, "has_menu": false, "awards": null, "user_review_count": 0}, {"business_operation_status": 1, "rating": 10.0, "neighborhood": null, "image": null, "scorecard": null, "featured": false, "sample_categories": "Catering, Restaurants", "public_id": "williamson-brothers-catering-marietta", "id": 2901685, "votes": null, "tagline": null, "has_video": false, "website": "http://www.citysearch.com/profile/external/2901685/marietta_ga/williamson_brothers_catering.html", "offers": null, "latitude": 33.942617, "politanName": "Atlanta, GA Metro ", "phone_number": "7704251739", "tags": [{"primary": false, "id": 1705, "name": "Catering"}, {"primary": true, "id": 1722, "name": "Restaurants"}], "fax_number": null, "expansion": {"count": null, "uri": null}, "impression_id": "000b000000aaec10dd4686416c90a51e40334aa538", "profile": "http://www.citysearch.com/profile/2901685/marietta_ga/williamson_brothers_catering.html", "address": {"city": "Marietta", "state": "GA", "street": "403 Sycamore St SE", "postal_code": "30060"}, "capProviderId": null, "distance": null, "has_offers": false, "name": "Williamson Brothers Catering", "longitude": -84.541082, "has_menu": false, "awards": null, "user_review_count": 1}, {"business_operation_status": 1, "rating": null, "neighborhood": null, "image": null, "scorecard": null, "featured": false, "sample_categories": "Restaurants, Chinese, MasterCard, Visa", "public_id": "mr-won-ton-marietta", "id": 2908318, "votes": null, "tagline": null, "has_video": false, "website": "http://www.citysearch.com/profile/external/2908318/marietta_ga/mr_won_ton.html", "offers": null, "latitude": 34.038928, "politanName": "Atlanta, GA Metro ", "phone_number": "7705917706", "tags": [{"primary": false, "id": 11252, "name": "Chinese"}, {"primary": false, "id": 11361, "name": "MasterCard"}, {"primary": false, "id": 11382, "name": "Visa"}, {"primary": true, "id": 1722, "name": "Restaurants"}], "fax_number": null, "expansion": {"count": null, "uri": null}, "impression_id": "000b000000f064a5e72dc7464f82a3e71ff2b677d1", "profile": "http://www.citysearch.com/profile/2908318/marietta_ga/mr_won_ton.html", "address": {"city": "Marietta", "state": "GA", "street": "3595 Canton Rd # Ste 328", "postal_code": "30066"}, "capProviderId": null, "distance": null, "has_offers": false, "name": "Mr Won Ton", "longitude": -84.530249, "has_menu": false, "awards": null, "user_review_count": 0}, {"business_operation_status": 1, "rating": null, "neighborhood": null, "image": null, "scorecard": null, "featured": false, "sample_categories": "Restaurants", "public_id": "drive-time-marrietta", "id": 831886880, "votes": null, "tagline": null, "has_video": false, "website": null, "offers": null, "latitude": 33.939976, "politanName": "Atlanta, GA Metro ", "phone_number": "7705773077", "tags": [{"primary": true, "id": 1722, "name": "Restaurants"}], "fax_number": null, "expansion": {"count": null, "uri": null}, "impression_id": "000b000000272179a6631447a2a045f3e8311986c4", "profile": "http://www.citysearch.com/profile/831886880/marrietta_ga/drive_time.html", "address": {"city": "Marrietta", "state": "GA", "street": "502 S Cobb Parkway", "postal_code": "30060"}, "capProviderId": null, "distance": null, "has_offers": false, "name": "Drive Time", "longitude": -84.515396, "has_menu": false, "awards": null, "user_review_count": 0}, {"business_operation_status": 1, "rating": null, "neighborhood": null, "image": null, "scorecard": null, "featured": false, "sample_categories": "Restaurants", "public_id": "xengo-restaurant-marietta", "id": 836195130, "votes": null, "tagline": null, "has_video": false, "website": null, "offers": null, "latitude": 34.027287, "politanName": "Atlanta, GA Metro ", "phone_number": "6787950505", "tags": [{"primary": true, "id": 1722, "name": "Restaurants"}], "fax_number": null, "expansion": {"count": null, "uri": null}, "impression_id": "000b0000002c8d63c37d774678a9c5e3eda9dc981f", "profile": "http://www.citysearch.com/profile/836195130/marietta_ga/xengo_restaurant.html", "address": {"city": "Marietta", "state": "GA", "street": "3612 Johnson Ferry Rd # 420", "postal_code": "30062"}, "capProviderId": null, "distance": null, "has_offers": false, "name": "Xengo Restaurant", "longitude": -84.423832, "has_menu": false, "awards": null, "user_review_count": 0}, {"business_operation_status": 1, "rating": null, "neighborhood": null, "image": null, "scorecard": null, "featured": false, "sample_categories": "Ice Cream Parlors", "public_id": "little-blue-ice-cream-truck-marietta", "id": 793367130, "votes": null, "tagline": null, "has_video": false, "website": null, "offers": null, "latitude": 33.966843, "politanName": "Atlanta, GA Metro ", "phone_number": "7702897011", "tags": [{"primary": true, "id": 1730, "name": "Ice Cream Parlors"}], "fax_number": null, "expansion": {"count": null, "uri": null}, "impression_id": "000b000000eb7d755bdd8c4f63865b74871276f6a8", "profile": "http://www.citysearch.com/profile/793367130/marietta_ga/little_blue_ice_cream_truck.html", "address": {"city": "Marietta", "state": "GA", "street": "737 Johnson Ferry Road", "postal_code": "30068"}, "capProviderId": null, "distance": null, "has_offers": false, "name": "Little Blue Ice Cream Truck", "longitude": -84.412484, "has_menu": false, "awards": null, "user_review_count": 0}, {"business_operation_status": 1, "rating": null, "neighborhood": null, "image": null, "scorecard": null, "featured": false, "sample_categories": "Restaurants", "public_id": "j-christophers-corporate-marietta", "id": 838483640, "votes": null, "tagline": null, "has_video": false, "website": null, "offers": null, "latitude": 33.921701, "politanName": "Atlanta, GA Metro ", "phone_number": "7707381170", "tags": [{"primary": true, "id": 1722, "name": "Restaurants"}], "fax_number": null, "expansion": {"count": null, "uri": null}, "impression_id": "000b00000098b4ce3f22194c7ab96d53faf8aec126", "profile": "http://www.citysearch.com/profile/838483640/marietta_ga/j_christopher_s_corporate.html", "address": {"city": "Marietta", "state": "GA", "street": "1275 Powers Ferry Rd SE", "postal_code": "30067"}, "capProviderId": null, "distance": null, "has_offers": false, "name": "J Christopher's Corporate", "longitude": -84.466483, "has_menu": false, "awards": null, "user_review_count": 0}, {"business_operation_status": 1, "rating": null, "neighborhood": null, "image": null, "scorecard": null, "featured": false, "sample_categories": "Restaurants, Asian", "public_id": "sushi-mori-roswell", "id": 793293420, "votes": null, "tagline": null, "has_video": false, "website": null, "offers": null, "latitude": 34.073107, "politanName": "Atlanta, GA Metro ", "phone_number": "7706433884", "tags": [{"primary": false, "id": 11235, "name": "Asian"}, {"primary": true, "id": 1722, "name": "Restaurants"}], "fax_number": null, "expansion": {"count": null, "uri": null}, "impression_id": "000b0000002ab08919bbbe4f5da2611bfe67d0f0a5", "profile": "http://www.citysearch.com/profile/793293420/roswell_ga/sushi_mori.html", "address": {"city": "Roswell", "state": "GA", "street": "12040 Etris Rd", "postal_code": "30075"}, "capProviderId": null, "distance": null, "has_offers": false, "name": "Sushi Mori", "longitude": -84.362585, "has_menu": false, "awards": null, "user_review_count": 0}, {"business_operation_status": 1, "rating": null, "neighborhood": null, "image": null, "scorecard": null, "featured": false, "sample_categories": "Restaurants", "public_id": "taquito-expressarnold-mill-alpharetta", "id": 839477420, "votes": null, "tagline": null, "has_video": false, "website": null, "offers": null, "latitude": 34.082713, "politanName": "Atlanta, GA Metro ", "phone_number": "6782060868", "tags": [{"primary": true, "id": 1722, "name": "Restaurants"}], "fax_number": null, "expansion": {"count": null, "uri": null}, "impression_id": "000b00000097f62f86f16d4388907fe34a1b8b6494", "profile": "http://www.citysearch.com/profile/839477420/alpharetta_ga/taquito_express_arnold_mill.html", "address": {"city": "Alpharetta", "state": "GA", "street": "12335 Arnold Mill Rd", "postal_code": "30004"}, "capProviderId": null, "distance": null, "has_offers": false, "name": "Taquito Express-Arnold Mill", "longitude": -84.357709, "has_menu": false, "awards": null, "user_review_count": 0}, {"business_operation_status": 1, "rating": null, "neighborhood": null, "image": null, "scorecard": null, "featured": false, "sample_categories": "Restaurants", "public_id": "red-mango-dunwoody-dunwoody", "id": 604323582, "votes": null, "tagline": null, "has_video": false, "website": "http://www.citysearch.com/profile/external/604323582/dunwoody_ga/red_mango_dunwoody.html", "offers": null, "latitude": 33.94751, "politanName": "Atlanta, GA Metro ", "phone_number": "6783957366", "tags": [{"primary": true, "id": 1722, "name": "Restaurants"}], "fax_number": null, "expansion": {"count": null, "uri": null}, "impression_id": "000b0000009af3e465b9504adfafd77f98230b6997", "profile": "http://www.citysearch.com/profile/604323582/dunwoody_ga/red_mango_dunwoody.html", "address": {"city": "Dunwoody", "state": "GA", "street": "5568 Chamblee Dunwoody Rd", "postal_code": "30338"}, "capProviderId": null, "distance": null, "has_offers": false, "name": "Red Mango Dunwoody", "longitude": -84.33541, "has_menu": false, "awards": null, "user_review_count": 0}, {"business_operation_status": 1, "rating": null, "neighborhood": null, "image": null, "scorecard": null, "featured": false, "sample_categories": "Restaurants", "public_id": "eat-fresh-atlanta", "id": 612191784, "votes": null, "tagline": null, "has_video": false, "website": null, "offers": null, "latitude": 33.934777, "politanName": "Atlanta, GA Metro ", "phone_number": "6788861788", "tags": [{"primary": true, "id": 1722, "name": "Restaurants"}], "fax_number": null, "expansion": {"count": null, "uri": null}, "impression_id": "000b0000001d4a67764f1d4f8184a98cc2b47f789d", "profile": "http://www.citysearch.com/profile/612191784/atlanta_ga/eat_fresh.html", "address": {"city": "Atlanta", "state": "GA", "street": "1000 Abernathy Rd", "postal_code": "30328"}, "capProviderId": null, "distance": null, "has_offers": false, "name": "Eat Fresh", "longitude": -84.354582, "has_menu": false, "awards": null, "user_review_count": 0}, {"business_operation_status": 1, "rating": 6.0, "neighborhood": null, "image": null, "scorecard": null, "featured": false, "sample_categories": "Food Stores, Restaurants, Dessert Shops", "public_id": "frizbeez-frozen-custard-marietta", "id": 43841514, "votes": null, "tagline": null, "has_video": false, "website": null, "offers": null, "latitude": 34.021599, "politanName": "Atlanta, GA Metro ", "phone_number": "7706499863", "tags": [{"primary": false, "id": 1722, "name": "Restaurants"}, {"primary": false, "id": 1728, "name": "Dessert Shops"}, {"primary": true, "id": 1706, "name": "Food Stores"}], "fax_number": null, "expansion": {"count": null, "uri": null}, "impression_id": "000b000000dccd6f6889a940bda706e09e43a1582a", "profile": "http://www.citysearch.com/profile/43841514/marietta_ga/frizbeez_frozen_custard.html", "address": {"city": "Marietta", "state": "GA", "street": "2986 Johnson Ferry Rd", "postal_code": "30062"}, "capProviderId": null, "distance": null, "has_offers": false, "name": "Frizbeez Frozen Custard", "longitude": -84.426314, "has_menu": false, "awards": null, "user_review_count": 0}, {"business_operation_status": 1, "rating": null, "neighborhood": null, "image": null, "scorecard": null, "featured": false, "sample_categories": "Coffeehouses, Restaurants", "public_id": "starbucks-coffee-roswell", "id": 43851270, "votes": null, "tagline": null, "has_video": false, "website": "http://www.citysearch.com/profile/external/43851270/roswell_ga/starbucks_coffee.html", "offers": null, "latitude": 34.062472, "politanName": "Atlanta, GA Metro ", "phone_number": "7706650144", "tags": [{"primary": false, "id": 1722, "name": "Restaurants"}, {"primary": true, "id": 1726, "name": "Coffeehouses"}], "fax_number": null, "expansion": {"count": null, "uri": null}, "impression_id": "000b0000001e3daf6e6dfe42e688f27ee2b97c474c", "profile": "http://www.citysearch.com/profile/43851270/roswell_ga/starbucks_coffee.html", "address": {"city": "Roswell", "state": "GA", "street": "1135 Woodstock Rd", "postal_code": "30075"}, "capProviderId": null, "distance": null, "has_offers": false, "name": "Starbucks Coffee", "longitude": -84.396255, "has_menu": true, "awards": null, "user_review_count": 0}, {"business_operation_status": 1, "rating": null, "neighborhood": null, "image": null, "scorecard": null, "featured": false, "sample_categories": "Restaurants", "public_id": "silver-lodestone-inc-marietta-2", "id": 682289320, "votes": null, "tagline": null, "has_video": false, "website": null, "offers": null, "latitude": 33.938198, "politanName": "Atlanta, GA Metro ", "phone_number": "7705907778", "tags": [{"primary": true, "id": 1722, "name": "Restaurants"}], "fax_number": null, "expansion": {"count": null, "uri": null}, "impression_id": "000b000000bd2bcdd70fa345a89fbff14c87710116", "profile": "http://www.citysearch.com/profile/682289320/marietta_ga/silver_lodestone_inc.html", "address": {"city": "Marietta", "state": "GA", "street": "10 Garrison Rd Se", "postal_code": "30008"}, "capProviderId": null, "distance": null, "has_offers": false, "name": "Silver Lodestone INC", "longitude": -84.553364, "has_menu": false, "awards": null, "user_review_count": 0}, {"business_operation_status": 1, "rating": null, "neighborhood": null, "image": null, "scorecard": null, "featured": false, "sample_categories": "Coffeehouses", "public_id": "starbucks-smyrna-4", "id": 627612690, "votes": null, "tagline": null, "has_video": false, "website": "http://www.citysearch.com/profile/external/627612690/smyrna_ga/starbucks.html", "offers": null, "latitude": 33.895705, "politanName": "Atlanta, GA Metro ", "phone_number": "7709522241", "tags": [{"primary": true, "id": 1726, "name": "Coffeehouses"}], "fax_number": null, "expansion": {"count": null, "uri": null}, "impression_id": "000b0000009974d64b1256494c909e64314cbca2a5", "profile": "http://www.citysearch.com/profile/627612690/smyrna_ga/starbucks.html", "address": {"city": "Smyrna", "state": "GA", "street": "2201 Cobb Pkwy Se", "postal_code": "30080"}, "capProviderId": null, "distance": null, "has_offers": false, "name": "Starbucks", "longitude": -84.480749, "has_menu": true, "awards": null, "user_review_count": 0}, {"business_operation_status": 1, "rating": null, "neighborhood": null, "image": null, "scorecard": null, "featured": false, "sample_categories": "Restaurants, Barbecue Restaurants", "public_id": "city-wings-marietta", "id": 45550254, "votes": null, "tagline": null, "has_video": false, "website": null, "offers": null, "latitude": 34.03261, "politanName": "Atlanta, GA Metro ", "phone_number": "6783543412", "tags": [{"primary": false, "id": 1724, "name": "Barbecue Restaurants"}, {"primary": true, "id": 1722, "name": "Restaurants"}], "fax_number": null, "expansion": {"count": null, "uri": null}, "impression_id": "000b00000094249f22832f40ca945c1e44020421ae", "profile": "http://www.citysearch.com/profile/45550254/marietta_ga/city_wings.html", "address": {"city": "Marietta", "state": "GA", "street": "3349 Canton Rd Ste 8", "postal_code": "30066"}, "capProviderId": null, "distance": null, "has_offers": false, "name": "City Wings", "longitude": -84.528907, "has_menu": true, "awards": null, "user_review_count": 0}, {"business_operation_status": 1, "rating": null, "neighborhood": null, "image": null, "scorecard": null, "featured": false, "sample_categories": "Restaurants", "public_id": "brazil-restaurant-atlanta", "id": 46007894, "votes": null, "tagline": null, "has_video": false, "website": null, "offers": null, "latitude": 33.988814, "politanName": "Atlanta, GA Metro ", "phone_number": "6782055205", "tags": [{"primary": true, "id": 1722, "name": "Restaurants"}], "fax_number": null, "expansion": {"count": null, "uri": null}, "impression_id": "000b0000001a9bc79b0d0b4d9a80a57f269f3af925", "profile": "http://www.citysearch.com/profile/46007894/atlanta_ga/brazil_restaurant.html", "address": {"city": "Atlanta", "state": "GA", "street": "8599 Roswell Rd", "postal_code": "30350"}, "capProviderId": null, "distance": null, "has_offers": false, "name": "Brazil Restaurant", "longitude": -84.351452, "has_menu": false, "awards": null, "user_review_count": 0}, {"business_operation_status": 0, "rating": null, "neighborhood": null, "image": null, "scorecard": null, "featured": false, "sample_categories": "Child Care, Restaurants, Doctors, Personnel Consultants, Restaurant Management", "public_id": "el-pollo-loco-regional-office-atlanta", "id": 46008848, "votes": null, "tagline": null, "has_video": false, "website": null, "offers": null, "latitude": 33.901114, "politanName": "Atlanta, GA Metro ", "phone_number": "6785787960", "tags": [{"primary": false, "id": 1722, "name": "Restaurants"}, {"primary": false, "id": 1833, "name": "Doctors"}, {"primary": false, "id": 392, "name": "Personnel Consultants"}, {"primary": false, "id": 11122, "name": "Restaurant Management"}, {"primary": false, "id": 11199, "name": "Fast Food"}, {"primary": false, "id": 11208, "name": "Mexican"}, {"primary": true, "id": 581, "name": "Child Care"}], "fax_number": null, "expansion": {"count": null, "uri": null}, "impression_id": "000b00000090b4190db6f7448e93e47fb7b1071ff3", "profile": "http://www.citysearch.com/profile/46008848/atlanta_ga/el_pollo_loco_regional_office.html", "address": {"city": "Atlanta", "state": "GA", "street": "2110 Powers Ferry Rd SE", "postal_code": "30339"}, "capProviderId": null, "distance": null, "has_offers": false, "name": "El Pollo Loco Regional Office", "longitude": -84.45113, "has_menu": false, "awards": null, "user_review_count": 0}, {"business_operation_status": 1, "rating": null, "neighborhood": null, "image": null, "scorecard": null, "featured": false, "sample_categories": "Restaurants, Pizza", "public_id": "marcos-pizza-atlanta-3", "id": 618603224, "votes": null, "tagline": null, "has_video": false, "website": "http://www.citysearch.com/profile/external/618603224/atlanta_ga/marco_s_pizza.html", "offers": null, "latitude": 33.919609, "politanName": "Atlanta, GA Metro ", "phone_number": "4702251839", "tags": [{"primary": false, "id": 1722, "name": "Restaurants"}, {"primary": true, "id": 11299, "name": "Pizza"}], "fax_number": null, "expansion": {"count": null, "uri": null}, "impression_id": "000b000000542d92a1f197404db3d2b88685d7c63b", "profile": "http://www.citysearch.com/profile/618603224/atlanta_ga/marco_s_pizza.html", "address": {"city": "Atlanta", "state": "GA", "street": "227 Sandy Springs Pl", "postal_code": "30328"}, "capProviderId": null, "distance": null, "has_offers": false, "name": "Marco's Pizza", "longitude": -84.382757, "has_menu": false, "awards": null, "user_review_count": 0}, {"business_operation_status": 1, "rating": null, "neighborhood": null, "image": null, "scorecard": null, "featured": false, "sample_categories": "Restaurants", "public_id": "hammocks-restaurant-atlanta", "id": 622859974, "votes": null, "tagline": null, "has_video": false, "website": null, "offers": null, "latitude": 33.953864, "politanName": "Atlanta, GA Metro ", "phone_number": "7703959592", "tags": [{"primary": true, "id": 1722, "name": "Restaurants"}], "fax_number": null, "expansion": {"count": null, "uri": null}, "impression_id": "000b00000056bfd140fa474a6192a712bcb470625d", "profile": "http://www.citysearch.com/profile/622859974/atlanta_ga/hammocks_restaurant.html", "address": {"city": "Atlanta", "state": "GA", "street": "7285 Roswell Rd", "postal_code": "30328"}, "capProviderId": null, "distance": null, "has_offers": false, "name": "Hammocks Restaurant", "longitude": -84.365277, "has_menu": false, "awards": null, "user_review_count": 0}, {"business_operation_status": 1, "rating": null, "neighborhood": null, "image": null, "scorecard": null, "featured": false, "sample_categories": "Restaurants", "public_id": "smoothie-fit-atlanta", "id": 748251070, "votes": null, "tagline": null, "has_video": false, "website": null, "offers": null, "latitude": 33.934532, "politanName": "Atlanta, GA Metro ", "phone_number": "6787319770", "tags": [{"primary": true, "id": 1722, "name": "Restaurants"}], "fax_number": null, "expansion": {"count": null, "uri": null}, "impression_id": "000b00000049542d5eccf34a8f9843fe9ffa8ffd0b", "profile": "http://www.citysearch.com/profile/748251070/atlanta_ga/smoothie_fit.html", "address": {"city": "Atlanta", "state": "GA", "street": "1155 Mount Vernon Hwy", "postal_code": "30338"}, "capProviderId": null, "distance": null, "has_offers": false, "name": "Smoothie Fit", "longitude": -84.349806, "has_menu": false, "awards": null, "user_review_count": 0}, {"business_operation_status": 1, "rating": null, "neighborhood": null, "image": null, "scorecard": null, "featured": false, "sample_categories": "Restaurants, Italian", "public_id": "ippolitos-family-style-roswell", "id": 766769240, "votes": null, "tagline": null, "has_video": false, "website": null, "offers": null, "latitude": 34.02072, "politanName": "Atlanta, GA Metro ", "phone_number": "7709920781", "tags": [{"primary": false, "id": 11279, "name": "Italian"}, {"primary": true, "id": 1722, "name": "Restaurants"}], "fax_number": null, "expansion": {"count": null, "uri": null}, "impression_id": "000b000000928fd3a908b448b1b0915b379f4b0c1e", "profile": "http://www.citysearch.com/profile/766769240/roswell_ga/ippolito_s_family_style.html", "address": {"city": "Roswell", "state": "GA", "street": "1375 Holcomb Bridge Rd", "postal_code": "30076"}, "capProviderId": null, "distance": null, "has_offers": false, "name": "Ippolito's Family Style", "longitude": -84.320321, "has_menu": true, "awards": null, "user_review_count": 0}, {"business_operation_status": 1, "rating": null, "neighborhood": null, "image": null, "scorecard": null, "featured": false, "sample_categories": "Restaurants", "public_id": "southern-style-cooking-to-go-atlanta", "id": 3037859, "votes": null, "tagline": null, "has_video": false, "website": null, "offers": null, "latitude": 33.909471, "politanName": "Atlanta, GA Metro ", "phone_number": "4042524819", "tags": [{"primary": true, "id": 1722, "name": "Restaurants"}], "fax_number": null, "expansion": {"count": null, "uri": null}, "impression_id": "000b0000006b00e0af27914b0f9941f41892f2d1aa", "profile": "http://www.citysearch.com/profile/3037859/atlanta_ga/southern_style_cooking_to_go.html", "address": {"city": "Atlanta", "state": "GA", "street": "5674 Roswell Rd NE", "postal_code": "30342"}, "capProviderId": null, "distance": null, "has_offers": false, "name": "Southern Style Cooking To Go", "longitude": -84.378895, "has_menu": false, "awards": null, "user_review_count": 0}, {"business_operation_status": 1, "rating": null, "neighborhood": null, "image": null, "scorecard": null, "featured": false, "sample_categories": "Restaurants", "public_id": "big-joy-marietta", "id": 772195860, "votes": null, "tagline": null, "has_video": false, "website": "http://www.citysearch.com/profile/external/772195860/marietta_ga/big_joy.html", "offers": null, "latitude": 33.923982, "politanName": "Atlanta, GA Metro ", "phone_number": "7706931907", "tags": [{"primary": true, "id": 1722, "name": "Restaurants"}], "fax_number": null, "expansion": {"count": null, "uri": null}, "impression_id": "000b000000a12d62129a914433b5ab311fb02bea24", "profile": "http://www.citysearch.com/profile/772195860/marietta_ga/big_joy.html", "address": {"city": "Marietta", "state": "GA", "street": "2852 Delk Rd SE", "postal_code": "30067"}, "capProviderId": null, "distance": null, "has_offers": false, "name": "Big Joy", "longitude": -84.47056, "has_menu": false, "awards": null, "user_review_count": 0}, {"business_operation_status": 0, "rating": null, "neighborhood": null, "image": null, "scorecard": null, "featured": false, "sample_categories": "Restaurants, Carry Out", "public_id": "checkers-drivein-restaurant-marietta-4", "id": 728005600, "votes": null, "tagline": null, "has_video": false, "website": "http://www.citysearch.com/profile/external/728005600/marietta_ga/checkers_drive_in_restaurant.html", "offers": null, "latitude": 33.920788, "politanName": "Atlanta, GA Metro ", "phone_number": "7709527121", "tags": [{"primary": false, "id": 11247, "name": "Carry Out"}, {"primary": true, "id": 1722, "name": "Restaurants"}], "fax_number": null, "expansion": {"count": null, "uri": null}, "impression_id": "000b00000004251654d8494cbab7e9a1cbc3332a58", "profile": "http://www.citysearch.com/profile/728005600/marietta_ga/checkers_drive_in_restaurant.html", "address": {"city": "Marietta", "state": "GA", "street": "1280 Powers Ferry Rd Se", "postal_code": "30067"}, "capProviderId": null, "distance": null, "has_offers": false, "name": "Checkers Drive-In Restaurant", "longitude": -84.467507, "has_menu": false, "awards": null, "user_review_count": 0}, {"business_operation_status": 1, "rating": null, "neighborhood": null, "image": null, "scorecard": null, "featured": false, "sample_categories": "Restaurants", "public_id": "moxie-burger-roswell", "id": 839995050, "votes": null, "tagline": null, "has_video": false, "website": null, "offers": null, "latitude": 34.013259, "politanName": "Atlanta, GA Metro ", "phone_number": "6788784411", "tags": [{"primary": true, "id": 1722, "name": "Restaurants"}], "fax_number": null, "expansion": {"count": null, "uri": null}, "impression_id": "000b000000799766a2869c4ab7b356043769888a85", "profile": "http://www.citysearch.com/profile/839995050/roswell_ga/moxie_burger.html", "address": {"city": "Roswell", "state": "GA", "street": "555 S Atlanta St", "postal_code": "30075"}, "capProviderId": null, "distance": null, "has_offers": false, "name": "Moxie Burger", "longitude": -84.362854, "has_menu": false, "awards": null, "user_review_count": 0}], "histograms": [], "tag_ids": [1722], "uri": "http://api.citygridmedia.com:8080/search/places/v2/search/where?has_offers=false&type=restaurant&format=json&page=23&where=30068&rpp=50&histograms=false&publisher=10000009598&region_type=circle", "did_you_mean": "", "regions": [{"latitude": 33.967813, "default_radius": 3.91, "type": "postal_code", "name": "30068", "longitude": -84.433422}], "call_id": "000b000000dffad510da874534a84f36338bee6bd3", "first_hit": 1101, "total_hits": 2028, "geo_ids": [26296], "page": 23, "last_hit": 1150}}