{"results": {"rpp": 50, "locations": [{"business_operation_status": 0, "rating": null, "neighborhood": null, "image": null, "scorecard": null, "featured": false, "sample_categories": "Restaurants, MasterCard, Visa", "public_id": "mexicali-grill-atlanta", "id": 45569985, "votes": null, "tagline": null, "has_video": false, "website": null, "offers": null, "latitude": 33.936313, "politanName": "Atlanta, GA Metro ", "phone_number": "4042566394", "tags": [{"primary": false, "id": 11361, "name": "MasterCard"}, {"primary": false, "id": 11382, "name": "Visa"}, {"primary": true, "id": 1722, "name": "Restaurants"}], "fax_number": null, "expansion": {"count": null, "uri": null}, "impression_id": "000b00000045a231d3e3034a4d8271ff07c888c94a", "profile": "http://www.citysearch.com/profile/45569985/atlanta_ga/mexicali_grill.html", "address": {"city": "Atlanta", "state": "GA", "street": "6631 Roswell Rd NE", "postal_code": "30328"}, "capProviderId": null, "distance": null, "has_offers": false, "name": "Mexicali Grill", "longitude": -84.378811, "has_menu": true, "awards": null, "user_review_count": 1}, {"business_operation_status": 1, "rating": null, "neighborhood": null, "image": null, "scorecard": null, "featured": false, "sample_categories": "Restaurants, Pizza, Carry Out, American Express, Discover", "public_id": "papa-johns-pizza-marietta-9", "id": 682340070, "votes": null, "tagline": null, "has_video": false, "website": "http://www.citysearch.com/profile/external/682340070/marietta_ga/papa_john_s_pizza.html", "offers": null, "latitude": 34.025761, "politanName": "Atlanta, GA Metro ", "phone_number": "7705879072", "tags": [{"primary": false, "id": 1722, "name": "Restaurants"}, {"primary": false, "id": 11247, "name": "Carry Out"}, {"primary": false, "id": 11333, "name": "American Express"}, {"primary": false, "id": 11349, "name": "Discover"}, {"primary": false, "id": 11361, "name": "MasterCard"}, {"primary": false, "id": 11382, "name": "Visa"}, {"primary": true, "id": 11299, "name": "Pizza"}], "fax_number": null, "expansion": {"count": null, "uri": null}, "impression_id": "000b000000df38c3e52c364d1eb6afd51e9e8bbc43", "profile": "http://www.citysearch.com/profile/682340070/marietta_ga/papa_john_s_pizza.html", "address": {"city": "Marietta", "state": "GA", "street": "3154 Johnson Ferry Rd # 108", "postal_code": "30062"}, "capProviderId": null, "distance": null, "has_offers": false, "name": "Papa John's Pizza", "longitude": -84.424252, "has_menu": true, "awards": null, "user_review_count": 0}, {"business_operation_status": 1, "rating": null, "neighborhood": null, "image": null, "scorecard": null, "featured": false, "sample_categories": "Restaurants", "public_id": "wing-zone-atlanta", "id": 775256470, "votes": null, "tagline": null, "has_video": false, "website": "http://www.citysearch.com/profile/external/775256470/atlanta_ga/wing_zone.html", "offers": null, "latitude": 33.887519, "politanName": "Atlanta, GA Metro ", "phone_number": "4048755045", "tags": [{"primary": true, "id": 1722, "name": "Restaurants"}], "fax_number": null, "expansion": {"count": null, "uri": null}, "impression_id": "000b0000000c1c517cf07a4b88bf3d63a64a6e5f8f", "profile": "http://www.citysearch.com/profile/775256470/atlanta_ga/wing_zone.html", "address": {"city": "Atlanta", "state": "GA", "street": "900 Circle 75 Pkwy SE", "postal_code": "30339"}, "capProviderId": null, "distance": null, "has_offers": false, "name": "Wing Zone", "longitude": -84.467593, "has_menu": false, "awards": null, "user_review_count": 0}, {"business_operation_status": 1, "rating": null, "neighborhood": null, "image": null, "scorecard": null, "featured": false, "sample_categories": "Catering, Restaurants, Delis And Delicatessens, Carry Out, Pizza", "public_id": "johnnys-new-york-style-pizza-marietta-2", "id": 33644147, "votes": null, "tagline": null, "has_video": false, "website": "http://www.citysearch.com/profile/external/33644147/marietta_ga/johnny_s_new_york_style_pizza.html", "offers": null, "latitude": 33.965815, "politanName": "Atlanta, GA Metro ", "phone_number": "6785602228", "tags": [{"primary": false, "id": 1705, "name": "Catering"}, {"primary": false, "id": 1722, "name": "Restaurants"}, {"primary": false, "id": 1727, "name": "Delis And Delicatessens"}, {"primary": false, "id": 11299, "name": "Pizza"}, {"primary": false, "id": 11333, "name": "American Express"}, {"primary": false, "id": 11349, "name": "Discover"}, {"primary": false, "id": 11361, "name": "MasterCard"}, {"primary": false, "id": 11382, "name": "Visa"}, {"primary": true, "id": 11247, "name": "Carry Out"}], "fax_number": null, "expansion": {"count": null, "uri": null}, "impression_id": "000b000000e1dae33739594cadb2b8f408c71f4ba8", "profile": "http://www.citysearch.com/profile/33644147/marietta_ga/johnny_s_new_york_style_pizza.html", "address": {"city": "Marietta", "state": "GA", "street": "4880 Lower Roswell Rd Suite 155", "postal_code": "30068"}, "capProviderId": null, "distance": null, "has_offers": false, "name": "Johnny's New York Style Pizza", "longitude": -84.410214, "has_menu": true, "awards": null, "user_review_count": 0}, {"business_operation_status": 1, "rating": null, "neighborhood": null, "image": null, "scorecard": null, "featured": false, "sample_categories": "Restaurants, French", "public_id": "la-madeleine-atlanta-3", "id": 777814890, "votes": null, "tagline": null, "has_video": false, "website": null, "offers": null, "latitude": 33.904695, "politanName": "Atlanta, GA Metro ", "phone_number": "7709528426", "tags": [{"primary": false, "id": 11219, "name": "French"}, {"primary": true, "id": 1722, "name": "Restaurants"}], "fax_number": null, "expansion": {"count": null, "uri": null}, "impression_id": "000b000000dd2c645c87774fc1a226ba8b6d1fc627", "profile": "http://www.citysearch.com/profile/777814890/atlanta_ga/la_madeleine.html", "address": {"city": "Atlanta", "state": "GA", "street": "1931 Powers Ferry Rd Se", "postal_code": "30339"}, "capProviderId": null, "distance": null, "has_offers": false, "name": "La Madeleine", "longitude": -84.46178, "has_menu": false, "awards": null, "user_review_count": 0}, {"business_operation_status": 1, "rating": null, "neighborhood": null, "image": null, "scorecard": null, "featured": false, "sample_categories": "Bars & Clubs, Wine Bars, Tapas / Small Plates", "public_id": "stem-wine-bar-marietta", "id": 779787950, "votes": null, "tagline": null, "has_video": false, "website": "http://www.citysearch.com/profile/external/779787950/marietta_ga/stem_wine_bar.html", "offers": null, "latitude": 33.980091, "politanName": "Atlanta, GA Metro ", "phone_number": "6782146888", "tags": [{"primary": false, "id": 164, "name": "Bars & Clubs"}, {"primary": false, "id": 1704, "name": "Wine Bars"}, {"primary": true, "id": 11317, "name": "Tapas / Small Plates"}], "fax_number": null, "expansion": {"count": null, "uri": null}, "impression_id": "000b000000793b124e8a5841848171be8e6d8d8687", "profile": "http://www.citysearch.com/profile/779787950/marietta_ga/stem_wine_bar.html", "address": {"city": "Marietta", "state": "GA", "street": "1311 Johnson Ferry Road Suite 516", "postal_code": "30068"}, "capProviderId": null, "distance": null, "has_offers": false, "name": "Stem Wine Bar", "longitude": -84.428346, "has_menu": true, "awards": null, "user_review_count": 0}, {"business_operation_status": 1, "rating": null, "neighborhood": null, "image": null, "scorecard": null, "featured": false, "sample_categories": "Restaurants", "public_id": "lakeview-cafe-atlanta-3", "id": 33613919, "votes": null, "tagline": null, "has_video": false, "website": null, "offers": null, "latitude": 33.935801, "politanName": "Atlanta, GA Metro ", "phone_number": "6785790028", "tags": [{"primary": true, "id": 1722, "name": "Restaurants"}], "fax_number": null, "expansion": {"count": null, "uri": null}, "impression_id": "000b000000a1a40d6fe4e04611939c59e2b0219dc6", "profile": "http://www.citysearch.com/profile/33613919/atlanta_ga/lakeview_cafe.html", "address": {"city": "Atlanta", "state": "GA", "street": "10 Glenlake Pkwy NE", "postal_code": "30328"}, "capProviderId": null, "distance": null, "has_offers": false, "name": "Lakeview Cafe", "longitude": -84.361369, "has_menu": false, "awards": null, "user_review_count": 0}, {"business_operation_status": 1, "rating": null, "neighborhood": null, "image": null, "scorecard": null, "featured": false, "sample_categories": "Restaurants", "public_id": "curbside-cafe-marietta", "id": 787133600, "votes": null, "tagline": null, "has_video": false, "website": null, "offers": null, "latitude": 33.996594, "politanName": "Atlanta, GA Metro ", "phone_number": "7709920705", "tags": [{"primary": true, "id": 1722, "name": "Restaurants"}], "fax_number": null, "expansion": {"count": null, "uri": null}, "impression_id": "000b000000b7db1f897f734843b00e6f35cb25ae9c", "profile": "http://www.citysearch.com/profile/787133600/marietta_ga/curbside_cafe.html", "address": {"city": "Marietta", "state": "GA", "street": "1907 Denton Walk Ct", "postal_code": "30062"}, "capProviderId": null, "distance": null, "has_offers": false, "name": "Curbside Cafe", "longitude": -84.416995, "has_menu": false, "awards": null, "user_review_count": 0}, {"business_operation_status": 1, "rating": null, "neighborhood": null, "image": null, "scorecard": null, "featured": false, "sample_categories": "Restaurants", "public_id": "davids-gourmet-grille-iii-atlanta", "id": 40947163, "votes": null, "tagline": null, "has_video": false, "website": null, "offers": null, "latitude": 33.916903, "politanName": "Atlanta, GA Metro ", "phone_number": "7708040008", "tags": [{"primary": true, "id": 1722, "name": "Restaurants"}], "fax_number": null, "expansion": {"count": null, "uri": null}, "impression_id": "000b000000cee0cbca8777451fb3fa0cf3adb2cf63", "profile": "http://www.citysearch.com/profile/40947163/atlanta_ga/david_s_gourmet_grille_iii.html", "address": {"city": "Atlanta", "state": "GA", "street": "5 Concourse Pkwy NE", "postal_code": "30328"}, "capProviderId": null, "distance": null, "has_offers": false, "name": "David's Gourmet Grille Iii", "longitude": -84.354615, "has_menu": false, "awards": null, "user_review_count": 0}, {"business_operation_status": 0, "rating": null, "neighborhood": null, "image": null, "scorecard": null, "featured": false, "sample_categories": "Restaurants, Mexican", "public_id": "el-cangrejo-atlanta", "id": 40947162, "votes": null, "tagline": null, "has_video": false, "website": null, "offers": null, "latitude": 33.952274, "politanName": "Atlanta, GA Metro ", "phone_number": "7703929991", "tags": [{"primary": false, "id": 11208, "name": "Mexican"}, {"primary": true, "id": 1722, "name": "Restaurants"}], "fax_number": null, "expansion": {"count": null, "uri": null}, "impression_id": "000b0000007de259672907457c9321fb9ef46b483e", "profile": "http://www.citysearch.com/profile/40947162/atlanta_ga/el_cangrejo.html", "address": {"city": "Atlanta", "state": "GA", "street": "7310 Roswell Rd NE", "postal_code": "30328"}, "capProviderId": null, "distance": null, "has_offers": false, "name": "El Cangrejo", "longitude": -84.367201, "has_menu": false, "awards": null, "user_review_count": 0}, {"business_operation_status": 1, "rating": null, "neighborhood": null, "image": null, "scorecard": null, "featured": false, "sample_categories": "Restaurants", "public_id": "americn-cafe-the-inc-marietta", "id": 811839690, "votes": null, "tagline": null, "has_video": false, "website": null, "offers": null, "latitude": 33.96436, "politanName": "Atlanta, GA Metro ", "phone_number": "7705651366", "tags": [{"primary": true, "id": 1722, "name": "Restaurants"}], "fax_number": null, "expansion": {"count": null, "uri": null}, "impression_id": "000b0000005e4a6f277a50400b9fcaa3c9a809c4d9", "profile": "http://www.citysearch.com/profile/811839690/marietta_ga/americn_cafe_the_inc.html", "address": {"city": "Marietta", "state": "GA", "street": "640 Johnson Ferry Rd", "postal_code": "30068"}, "capProviderId": null, "distance": null, "has_offers": false, "name": "Americn Cafe The Inc", "longitude": -84.411149, "has_menu": false, "awards": null, "user_review_count": 0}, {"business_operation_status": 0, "rating": null, "neighborhood": null, "image": null, "scorecard": null, "featured": false, "sample_categories": "Restaurants", "public_id": "south-beach-bistro-atlanta", "id": 45569984, "votes": null, "tagline": null, "has_video": false, "website": null, "offers": null, "latitude": 33.916678, "politanName": "Atlanta, GA Metro ", "phone_number": "4042528262", "tags": [{"primary": true, "id": 1722, "name": "Restaurants"}], "fax_number": null, "expansion": {"count": null, "uri": null}, "impression_id": "000b0000000dbe419a03004fb89b1f932a132af5b1", "profile": "http://www.citysearch.com/profile/45569984/atlanta_ga/south_beach_bistro.html", "address": {"city": "Atlanta", "state": "GA", "street": "5920 Roswell Rd NE", "postal_code": "30328"}, "capProviderId": null, "distance": null, "has_offers": false, "name": "South Beach Bistro", "longitude": -84.381718, "has_menu": false, "awards": null, "user_review_count": 0}, {"business_operation_status": 1, "rating": null, "neighborhood": null, "image": null, "scorecard": null, "featured": false, "sample_categories": "Restaurants", "public_id": "leo-franco-chef-marietta", "id": 824426470, "votes": null, "tagline": null, "has_video": false, "website": null, "offers": null, "latitude": 33.948481, "politanName": "Atlanta, GA Metro ", "phone_number": "7704999439", "tags": [{"primary": true, "id": 1722, "name": "Restaurants"}], "fax_number": null, "expansion": {"count": null, "uri": null}, "impression_id": "000b000000dfc4e56f80054bdc8f5e4ac36ac8e268", "profile": "http://www.citysearch.com/profile/824426470/marietta_ga/leo_franco_chef.html", "address": {"city": "Marietta", "state": "GA", "street": "20 Emerson Hill Sq", "postal_code": "30060"}, "capProviderId": null, "distance": null, "has_offers": false, "name": "Leo Franco Chef", "longitude": -84.542181, "has_menu": false, "awards": null, "user_review_count": 0}, {"business_operation_status": 1, "rating": null, "neighborhood": null, "image": null, "scorecard": null, "featured": false, "sample_categories": "Restaurants, Barbecue Restaurants", "public_id": "barbeque-bills-smyrna", "id": 825550660, "votes": null, "tagline": null, "has_video": false, "website": null, "offers": null, "latitude": 33.877641, "politanName": "Atlanta, GA Metro ", "phone_number": "7703841227", "tags": [{"primary": false, "id": 1724, "name": "Barbecue Restaurants"}, {"primary": true, "id": 1722, "name": "Restaurants"}], "fax_number": null, "expansion": {"count": null, "uri": null}, "impression_id": "000b00000033f3106fd594433c8c79e38b13704ca6", "profile": "http://www.citysearch.com/profile/825550660/smyrna_ga/barbeque_bill_s.html", "address": {"city": "Smyrna", "state": "GA", "street": "3120 S Cobb Dr SE", "postal_code": "30080"}, "capProviderId": null, "distance": null, "has_offers": false, "name": "Barbeque Bill's", "longitude": -84.532789, "has_menu": false, "awards": null, "user_review_count": 0}, {"business_operation_status": 0, "rating": null, "neighborhood": null, "image": null, "scorecard": null, "featured": false, "sample_categories": "Restaurants", "public_id": "paris-bistro-atlanta-2", "id": 605601560, "votes": null, "tagline": null, "has_video": false, "website": null, "offers": null, "latitude": 33.867677, "politanName": "Atlanta, GA Metro ", "phone_number": "6788420603", "tags": [{"primary": true, "id": 1722, "name": "Restaurants"}], "fax_number": null, "expansion": {"count": null, "uri": null}, "impression_id": "000b0000003f37d9fcd08741198589919012b36416", "profile": "http://www.citysearch.com/profile/605601560/atlanta_ga/paris_bistro.html", "address": {"city": "Atlanta", "state": "GA", "street": "2859 Paces Ferry Rd Se", "postal_code": "30339"}, "capProviderId": null, "distance": null, "has_offers": false, "name": "Paris Bistro", "longitude": -84.468631, "has_menu": false, "awards": null, "user_review_count": 0}, {"business_operation_status": 1, "rating": null, "neighborhood": null, "image": null, "scorecard": null, "featured": false, "sample_categories": "Restaurants", "public_id": "cafe-overton-atlanta", "id": 611320744, "votes": null, "tagline": null, "has_video": false, "website": null, "offers": null, "latitude": 33.884117, "politanName": "Atlanta, GA Metro ", "phone_number": "7706938591", "tags": [{"primary": true, "id": 1722, "name": "Restaurants"}], "fax_number": null, "expansion": {"count": null, "uri": null}, "impression_id": "000b00000010a0073f9b004de3b8d79e7f3c79996b", "profile": "http://www.citysearch.com/profile/611320744/atlanta_ga/cafe_overton.html", "address": {"city": "Atlanta", "state": "GA", "street": "3625 Cumberland Blvd SE", "postal_code": "30339"}, "capProviderId": null, "distance": null, "has_offers": false, "name": "Cafe Overton", "longitude": -84.453917, "has_menu": false, "awards": null, "user_review_count": 0}, {"business_operation_status": 1, "rating": null, "neighborhood": null, "image": null, "scorecard": null, "featured": false, "sample_categories": "Ice Cream Parlors, Frozen Yogurt Shops", "public_id": "baskinrobbins-marietta", "id": 627670240, "votes": null, "tagline": null, "has_video": false, "website": "http://www.citysearch.com/profile/external/627670240/marietta_ga/baskin_robbins.html", "offers": null, "latitude": 34.021176, "politanName": "Atlanta, GA Metro ", "phone_number": "7704223375", "tags": [{"primary": false, "id": 1729, "name": "Frozen Yogurt Shops"}, {"primary": true, "id": 1730, "name": "Ice Cream Parlors"}], "fax_number": null, "expansion": {"count": null, "uri": null}, "impression_id": "000b0000002b15bbde1a954d00843d0c783389c732", "profile": "http://www.citysearch.com/profile/627670240/marietta_ga/baskin_robbins.html", "address": {"city": "Marietta", "state": "GA", "street": "2885 Canton Rd", "postal_code": "30066"}, "capProviderId": null, "distance": null, "has_offers": false, "name": "Baskin-Robbins", "longitude": -84.529098, "has_menu": true, "awards": null, "user_review_count": 2}, {"business_operation_status": 1, "rating": null, "neighborhood": null, "image": null, "scorecard": null, "featured": false, "sample_categories": "Restaurants, Delis And Delicatessens, Carry Out, Shop Online", "public_id": "jimmy-johns-atlanta-10", "id": 653623400, "votes": null, "tagline": null, "has_video": false, "website": "http://www.citysearch.com/profile/external/653623400/atlanta_ga/jimmy_john_s.html", "offers": null, "latitude": 33.866524, "politanName": "Atlanta, GA Metro ", "phone_number": "7708743285", "tags": [{"primary": false, "id": 1727, "name": "Delis And Delicatessens"}, {"primary": false, "id": 11247, "name": "Carry Out"}, {"primary": false, "id": 11375, "name": "Shop Online"}, {"primary": true, "id": 1722, "name": "Restaurants"}], "fax_number": null, "expansion": {"count": null, "uri": null}, "impression_id": "000b0000003e401f7f1c0043fcb2778e8feceb2250", "profile": "http://www.citysearch.com/profile/653623400/atlanta_ga/jimmy_john_s.html", "address": {"city": "Atlanta", "state": "GA", "street": "2941 Paces Ferry Rd Se", "postal_code": "30339"}, "capProviderId": null, "distance": null, "has_offers": false, "name": "Jimmy John's", "longitude": -84.466985, "has_menu": false, "awards": null, "user_review_count": 0}, {"business_operation_status": 1, "rating": null, "neighborhood": null, "image": null, "scorecard": null, "featured": false, "sample_categories": "Restaurants, Delis And Delicatessens, Sandwich Shops", "public_id": "my-friends-place-atlanta-10", "id": 682312750, "votes": null, "tagline": null, "has_video": false, "website": "http://www.citysearch.com/profile/external/682312750/atlanta_ga/my_friend_s_place.html", "offers": null, "latitude": 33.88074, "politanName": "Atlanta, GA Metro ", "phone_number": "7708501431", "tags": [{"primary": false, "id": 1727, "name": "Delis And Delicatessens"}, {"primary": false, "id": 1736, "name": "Sandwich Shops"}, {"primary": true, "id": 1722, "name": "Restaurants"}], "fax_number": null, "expansion": {"count": null, "uri": null}, "impression_id": "000b000000fc19c3a0a7ee4ed681a0e04f2db02f5a", "profile": "http://www.citysearch.com/profile/682312750/atlanta_ga/my_friend_s_place.html", "address": {"city": "Atlanta", "state": "GA", "street": "2955 Cobb Pkwy Se # 280", "postal_code": "30339"}, "capProviderId": null, "distance": null, "has_offers": false, "name": "My Friend's Place", "longitude": -84.462229, "has_menu": false, "awards": null, "user_review_count": 3}, {"business_operation_status": 1, "rating": null, "neighborhood": null, "image": null, "scorecard": null, "featured": false, "sample_categories": "Restaurants", "public_id": "cool-water-cafe-atlanta", "id": 682535400, "votes": null, "tagline": null, "has_video": false, "website": null, "offers": null, "latitude": 33.906954, "politanName": "Atlanta, GA Metro ", "phone_number": "7709840944", "tags": [{"primary": true, "id": 1722, "name": "Restaurants"}], "fax_number": null, "expansion": {"count": null, "uri": null}, "impression_id": "000b000000d914fee3c0624326a1b85485d0bbc67e", "profile": "http://www.citysearch.com/profile/682535400/atlanta_ga/cool_water_cafe.html", "address": {"city": "Atlanta", "state": "GA", "street": "5500 Interstate North Pkwy NW", "postal_code": "30328"}, "capProviderId": null, "distance": null, "has_offers": false, "name": "Cool Water Cafe", "longitude": -84.434288, "has_menu": false, "awards": null, "user_review_count": 0}, {"business_operation_status": 1, "rating": null, "neighborhood": null, "image": null, "scorecard": null, "featured": false, "sample_categories": "Ice Cream Parlors, Restaurants", "public_id": "pino-gelalo-of-marietta-marietta", "id": 713581850, "votes": null, "tagline": null, "has_video": false, "website": null, "offers": null, "latitude": 33.952532, "politanName": "Atlanta, GA Metro ", "phone_number": "7702182525", "tags": [{"primary": false, "id": 1722, "name": "Restaurants"}, {"primary": true, "id": 1730, "name": "Ice Cream Parlors"}], "fax_number": null, "expansion": {"count": null, "uri": null}, "impression_id": "000b0000004d0ebb9b57b44fc7ba152fb8de7edd59", "profile": "http://www.citysearch.com/profile/713581850/marietta_ga/pino_gelalo_of_marietta.html", "address": {"city": "Marietta", "state": "GA", "street": "21 W Park Sq Ne", "postal_code": "30060"}, "capProviderId": null, "distance": null, "has_offers": false, "name": "Pino Gelalo of Marietta", "longitude": -84.550467, "has_menu": false, "awards": null, "user_review_count": 0}, {"business_operation_status": 1, "rating": null, "neighborhood": null, "image": null, "scorecard": null, "featured": false, "sample_categories": "Restaurants", "public_id": "willamsonbros-marietta-2", "id": 609749214, "votes": null, "tagline": null, "has_video": false, "website": null, "offers": null, "latitude": 33.977691, "politanName": "Atlanta, GA Metro ", "phone_number": "7704999797", "tags": [{"primary": true, "id": 1722, "name": "Restaurants"}], "fax_number": null, "expansion": {"count": null, "uri": null}, "impression_id": "000b00000048039549c8e348a28ad08922d7c6f5d1", "profile": "http://www.citysearch.com/profile/609749214/marietta_ga/willamsonbros.html", "address": {"city": "Marietta", "state": "GA", "street": "1160 Hayes Industrial Dr", "postal_code": "30062"}, "capProviderId": null, "distance": null, "has_offers": false, "name": "Willamsonbros", "longitude": -84.542327, "has_menu": false, "awards": null, "user_review_count": 0}, {"business_operation_status": 1, "rating": null, "neighborhood": null, "image": null, "scorecard": null, "featured": false, "sample_categories": "Restaurants", "public_id": "hg-regency-inc-atlanta", "id": 732204460, "votes": null, "tagline": null, "has_video": false, "website": null, "offers": null, "latitude": 33.94104, "politanName": "Atlanta, GA Metro ", "phone_number": "4048438119", "tags": [{"primary": true, "id": 1722, "name": "Restaurants"}], "fax_number": null, "expansion": {"count": null, "uri": null}, "impression_id": "000b000000c07d0e9e9487415cb039eaf92f77dc18", "profile": "http://www.citysearch.com/profile/732204460/atlanta_ga/hg_regency_inc.html", "address": {"city": "Atlanta", "state": "GA", "street": "150 Landsdowne Dr NW", "postal_code": "30328"}, "capProviderId": null, "distance": null, "has_offers": false, "name": "HG Regency Inc", "longitude": -84.39226, "has_menu": false, "awards": null, "user_review_count": 0}, {"business_operation_status": 1, "rating": null, "neighborhood": null, "image": null, "scorecard": null, "featured": false, "sample_categories": "Restaurants, Carry Out", "public_id": "kfc-marietta-10", "id": 713491660, "votes": null, "tagline": null, "has_video": false, "website": "http://www.citysearch.com/profile/external/713491660/marietta_ga/kfc.html", "offers": null, "latitude": 33.999161, "politanName": "Atlanta, GA Metro ", "phone_number": "7704276866", "tags": [{"primary": false, "id": 11247, "name": "Carry Out"}, {"primary": true, "id": 1722, "name": "Restaurants"}], "fax_number": null, "expansion": {"count": null, "uri": null}, "impression_id": "000b0000000eae97e78da34c509bfa3258dfd1811f", "profile": "http://www.citysearch.com/profile/713491660/marietta_ga/kfc.html", "address": {"city": "Marietta", "state": "GA", "street": "2012 Canton Rd", "postal_code": "30066"}, "capProviderId": null, "distance": null, "has_offers": false, "name": "KFC", "longitude": -84.523794, "has_menu": false, "awards": null, "user_review_count": 0}, {"business_operation_status": 1, "rating": null, "neighborhood": null, "image": null, "scorecard": null, "featured": false, "sample_categories": "Delis And Delicatessens, Restaurants", "public_id": "european-deli-marietta", "id": 713573470, "votes": null, "tagline": null, "has_video": false, "website": null, "offers": null, "latitude": 33.980787, "politanName": "Atlanta, GA Metro ", "phone_number": "7706939409", "tags": [{"primary": false, "id": 1722, "name": "Restaurants"}, {"primary": true, "id": 1727, "name": "Delis And Delicatessens"}], "fax_number": null, "expansion": {"count": null, "uri": null}, "impression_id": "000b000000690c8b7350c44725ac80302fdcfe4609", "profile": "http://www.citysearch.com/profile/713573470/marietta_ga/european_deli.html", "address": {"city": "Marietta", "state": "GA", "street": "3101 Roswell Rd # F1", "postal_code": "30062"}, "capProviderId": null, "distance": null, "has_offers": false, "name": "European Deli", "longitude": -84.464028, "has_menu": false, "awards": null, "user_review_count": 0}, {"business_operation_status": 1, "rating": null, "neighborhood": null, "image": null, "scorecard": null, "featured": false, "sample_categories": "Restaurants", "public_id": "baja-fresh-sandy", "id": 818471980, "votes": null, "tagline": null, "has_video": false, "website": null, "offers": null, "latitude": 33.918575, "politanName": "Atlanta, GA Metro ", "phone_number": "4042565187", "tags": [{"primary": true, "id": 1722, "name": "Restaurants"}], "fax_number": null, "expansion": {"count": null, "uri": null}, "impression_id": "000b000000997d7714ba7f4163bc21433900d597c9", "profile": "http://www.citysearch.com/profile/818471980/sandy_springs_ga/baja_fresh.html", "address": {"city": "Sandy Springs", "state": "GA", "street": "5992 Roswell Rd", "postal_code": "30328"}, "capProviderId": null, "distance": null, "has_offers": false, "name": "Baja Fresh", "longitude": -84.381854, "has_menu": false, "awards": null, "user_review_count": 0}, {"business_operation_status": 1, "rating": null, "neighborhood": null, "image": null, "scorecard": null, "featured": false, "sample_categories": "Bars & Clubs, Restaurants", "public_id": "two-monkeys-llc-marietta", "id": 823894470, "votes": null, "tagline": null, "has_video": false, "website": null, "offers": null, "latitude": 33.951907, "politanName": "Atlanta, GA Metro ", "phone_number": "7704220108", "tags": [{"primary": false, "id": 1722, "name": "Restaurants"}, {"primary": true, "id": 164, "name": "Bars & Clubs"}], "fax_number": null, "expansion": {"count": null, "uri": null}, "impression_id": "000b0000009a76568188d84ff8974a79df0ebd3f47", "profile": "http://www.citysearch.com/profile/823894470/marietta_ga/two_monkeys_llc.html", "address": {"city": "Marietta", "state": "GA", "street": "688 Whitlock Ave NW # G", "postal_code": "30064"}, "capProviderId": null, "distance": null, "has_offers": false, "name": "Two Monkeys LLC", "longitude": -84.572199, "has_menu": false, "awards": null, "user_review_count": 0}, {"business_operation_status": 1, "rating": null, "neighborhood": null, "image": null, "scorecard": null, "featured": false, "sample_categories": "Restaurants", "public_id": "salar-restaurant-bakery-sandy", "id": 820552420, "votes": null, "tagline": null, "has_video": false, "website": null, "offers": null, "latitude": 33.925302, "politanName": "Atlanta, GA Metro ", "phone_number": "4042528181", "tags": [{"primary": true, "id": 1722, "name": "Restaurants"}], "fax_number": null, "expansion": {"count": null, "uri": null}, "impression_id": "000b000000662e4677a2f34871aa0972283a446f12", "profile": "http://www.citysearch.com/profile/820552420/sandy_springs_ga/salar_restaurant_bakery.html", "address": {"city": "Sandy Springs", "state": "GA", "street": "5920 Roswell Rd", "postal_code": "30328"}, "capProviderId": null, "distance": null, "has_offers": false, "name": "Salar Restaurant & Bakery", "longitude": -84.385744, "has_menu": false, "awards": null, "user_review_count": 0}, {"business_operation_status": 1, "rating": null, "neighborhood": null, "image": null, "scorecard": null, "featured": false, "sample_categories": "Restaurants", "public_id": "tasting-roomsandy-springs-sandy", "id": 839906810, "votes": null, "tagline": null, "has_video": false, "website": null, "offers": null, "latitude": 33.9202, "politanName": "Atlanta, GA Metro ", "phone_number": "4042528170", "tags": [{"primary": true, "id": 1722, "name": "Restaurants"}], "fax_number": null, "expansion": {"count": null, "uri": null}, "impression_id": "000b0000005ec89e26411947558a04072f98035425", "profile": "http://www.citysearch.com/profile/839906810/sandy_springs_ga/tasting_room_sandy_springs.html", "address": {"city": "Sandy Springs", "state": "GA", "street": "6010 Sandy Springs Cir", "postal_code": "30328"}, "capProviderId": null, "distance": null, "has_offers": false, "name": "Tasting Room-Sandy Springs", "longitude": -84.384878, "has_menu": false, "awards": null, "user_review_count": 0}, {"business_operation_status": 1, "rating": null, "neighborhood": null, "image": null, "scorecard": null, "featured": false, "sample_categories": "Restaurants, Delis And Delicatessens, Sandwich Shops, Carry Out, American Express", "public_id": "quiznos-marietta-3", "id": 43840232, "votes": null, "tagline": null, "has_video": false, "website": null, "offers": null, "latitude": 33.917126, "politanName": "Atlanta, GA Metro ", "phone_number": "6785947600", "tags": [{"primary": false, "id": 1727, "name": "Delis And Delicatessens"}, {"primary": false, "id": 1736, "name": "Sandwich Shops"}, {"primary": false, "id": 11247, "name": "Carry Out"}, {"primary": false, "id": 11333, "name": "American Express"}, {"primary": false, "id": 11347, "name": "Debit Card"}, {"primary": false, "id": 11349, "name": "Discover"}, {"primary": false, "id": 11361, "name": "MasterCard"}, {"primary": false, "id": 11382, "name": "Visa"}, {"primary": true, "id": 1722, "name": "Restaurants"}], "fax_number": null, "expansion": {"count": null, "uri": null}, "impression_id": "000b0000004f870398a7414cd9a236d7e7fe4cba32", "profile": "http://www.citysearch.com/profile/43840232/marietta_ga/quiznos.html", "address": {"city": "Marietta", "state": "GA", "street": "125 Barrett Pkwy Ste 104", "postal_code": "30066"}, "capProviderId": null, "distance": null, "has_offers": false, "name": "Quiznos", "longitude": -84.563854, "has_menu": true, "awards": null, "user_review_count": 0}, {"business_operation_status": 1, "rating": null, "neighborhood": null, "image": null, "scorecard": null, "featured": false, "sample_categories": "Restaurants, Pizza, Carry Out", "public_id": "pizzza-hut-atlanta", "id": 773048570, "votes": null, "tagline": null, "has_video": false, "website": "http://www.citysearch.com/profile/external/773048570/atlanta_ga/pizzza_hut.html", "offers": null, "latitude": 33.878815, "politanName": "Atlanta, GA Metro ", "phone_number": "4044614123", "tags": [{"primary": false, "id": 1722, "name": "Restaurants"}, {"primary": false, "id": 11247, "name": "Carry Out"}, {"primary": true, "id": 11299, "name": "Pizza"}], "fax_number": null, "expansion": {"count": null, "uri": null}, "impression_id": "000b00000087becc3dbf794827a84707ab97dc3638", "profile": "http://www.citysearch.com/profile/773048570/atlanta_ga/pizzza_hut.html", "address": {"city": "Atlanta", "state": "GA", "street": "6000 Atlanta Hartsfield Airpt", "postal_code": "30339"}, "capProviderId": null, "distance": null, "has_offers": false, "name": "Pizzza Hut", "longitude": -84.464518, "has_menu": false, "awards": null, "user_review_count": 0}, {"business_operation_status": 0, "rating": null, "neighborhood": null, "image": null, "scorecard": null, "featured": false, "sample_categories": "Restaurants", "public_id": "yellow-house-roswell", "id": 44771210, "votes": null, "tagline": null, "has_video": false, "website": null, "offers": null, "latitude": 34.028147, "politanName": "Atlanta, GA Metro ", "phone_number": "7709925383", "tags": [{"primary": true, "id": 1722, "name": "Restaurants"}], "fax_number": null, "expansion": {"count": null, "uri": null}, "impression_id": "000b000000f72da95e13fe45838119eda08495a323", "profile": "http://www.citysearch.com/profile/44771210/roswell_ga/yellow_house.html", "address": {"city": "Roswell", "state": "GA", "street": "1088 Green St", "postal_code": "30075"}, "capProviderId": null, "distance": null, "has_offers": false, "name": "Yellow House", "longitude": -84.360335, "has_menu": false, "awards": null, "user_review_count": 2}, {"business_operation_status": 1, "rating": null, "neighborhood": null, "image": null, "scorecard": null, "featured": false, "sample_categories": "Restaurants, Delis And Delicatessens, Sandwich Shops, Carry Out, Soups", "public_id": "subway-atlanta-50", "id": 45113615, "votes": null, "tagline": null, "has_video": false, "website": "http://www.citysearch.com/profile/external/45113615/atlanta_ga/subway.html", "offers": null, "latitude": 33.872557, "politanName": "Atlanta, GA Metro ", "phone_number": "7709512331", "tags": [{"primary": false, "id": 1727, "name": "Delis And Delicatessens"}, {"primary": false, "id": 1736, "name": "Sandwich Shops"}, {"primary": false, "id": 11247, "name": "Carry Out"}, {"primary": false, "id": 11311, "name": "Soups"}, {"primary": false, "id": 11361, "name": "MasterCard"}, {"primary": false, "id": 11382, "name": "Visa"}, {"primary": true, "id": 1722, "name": "Restaurants"}], "fax_number": null, "expansion": {"count": null, "uri": null}, "impression_id": "000b000000429565f9dfad45018ad3dba56ea41629", "profile": "http://www.citysearch.com/profile/45113615/atlanta_ga/subway.html", "address": {"city": "Atlanta", "state": "GA", "street": "4355 Cobb Pkwy Ste K", "postal_code": "30339"}, "capProviderId": null, "distance": null, "has_offers": false, "name": "Subway", "longitude": -84.456317, "has_menu": true, "awards": null, "user_review_count": 0}, {"business_operation_status": 1, "rating": null, "neighborhood": null, "image": null, "scorecard": null, "featured": false, "sample_categories": "Restaurants", "public_id": "old-dixie-diner-atlanta", "id": 43879798, "votes": null, "tagline": null, "has_video": false, "website": null, "offers": null, "latitude": 33.91426, "politanName": "Atlanta, GA Metro ", "phone_number": "4049430435", "tags": [{"primary": true, "id": 1722, "name": "Restaurants"}], "fax_number": null, "expansion": {"count": null, "uri": null}, "impression_id": "000b0000001b59010b37324194b772dae9efe63c08", "profile": "http://www.citysearch.com/profile/43879798/atlanta_ga/old_dixie_diner.html", "address": {"city": "Atlanta", "state": "GA", "street": "5825 Roswell Rd NE", "postal_code": "30328"}, "capProviderId": null, "distance": null, "has_offers": false, "name": "Old Dixie Diner", "longitude": -84.379139, "has_menu": false, "awards": null, "user_review_count": 0}, {"business_operation_status": 1, "rating": null, "neighborhood": null, "image": null, "scorecard": null, "featured": false, "sample_categories": "Restaurants, Pizza", "public_id": "johnnys-pizza-subs-marietta", "id": 2904727, "votes": null, "tagline": null, "has_video": false, "website": null, "offers": null, "latitude": 33.968758, "politanName": "Atlanta, GA Metro ", "phone_number": "7705658665", "tags": [{"primary": false, "id": 11299, "name": "Pizza"}, {"primary": true, "id": 1722, "name": "Restaurants"}], "fax_number": null, "expansion": {"count": null, "uri": null}, "impression_id": "000b000000a6c1c97468724913a41666fcca124088", "profile": "http://www.citysearch.com/profile/2904727/marietta_ga/johnny_s_pizza_subs.html", "address": {"city": "Marietta", "state": "GA", "street": "2100 Roswell Rd", "postal_code": "30062"}, "capProviderId": null, "distance": null, "has_offers": false, "name": "Johnny's Pizza & Subs", "longitude": -84.488447, "has_menu": true, "awards": null, "user_review_count": 0}, {"business_operation_status": 1, "rating": null, "neighborhood": null, "image": null, "scorecard": null, "featured": false, "sample_categories": "Restaurants", "public_id": "galleria-bar-grille-atlanta", "id": 798855850, "votes": null, "tagline": null, "has_video": false, "website": null, "offers": null, "latitude": 33.88416, "politanName": "Atlanta, GA Metro ", "phone_number": "7705419583", "tags": [{"primary": true, "id": 1722, "name": "Restaurants"}], "fax_number": null, "expansion": {"count": null, "uri": null}, "impression_id": "000b00000058265892125842ac904a459fbd684d4f", "profile": "http://www.citysearch.com/profile/798855850/atlanta_ga/galleria_bar_grille.html", "address": {"city": "Atlanta", "state": "GA", "street": "1 Galleria Pkwy Se", "postal_code": "30339"}, "capProviderId": null, "distance": null, "has_offers": false, "name": "Galleria Bar & Grille", "longitude": -84.463727, "has_menu": false, "awards": null, "user_review_count": 0}, {"business_operation_status": 1, "rating": null, "neighborhood": null, "image": null, "scorecard": null, "featured": false, "sample_categories": "Restaurants, Pizza, Carry Out", "public_id": "little-caesars-pizza-marietta-14", "id": 607327154, "votes": null, "tagline": null, "has_video": false, "website": "http://www.citysearch.com/profile/external/607327154/marietta_ga/little_caesars_pizza.html", "offers": null, "latitude": 33.951081, "politanName": "Atlanta, GA Metro ", "phone_number": "7709195595", "tags": [{"primary": false, "id": 1722, "name": "Restaurants"}, {"primary": false, "id": 11247, "name": "Carry Out"}, {"primary": true, "id": 11299, "name": "Pizza"}], "fax_number": null, "expansion": {"count": null, "uri": null}, "impression_id": "000b000000558ca9abf72746b6ab4254e07d16bbfc", "profile": "http://www.citysearch.com/profile/607327154/marietta_ga/little_caesars_pizza.html", "address": {"city": "Marietta", "state": "GA", "street": "36 Powder Springs St", "postal_code": "30064"}, "capProviderId": null, "distance": null, "has_offers": false, "name": "Little Caesars Pizza", "longitude": -84.55027, "has_menu": false, "awards": null, "user_review_count": 0}, {"business_operation_status": 1, "rating": null, "neighborhood": null, "image": null, "scorecard": null, "featured": false, "sample_categories": "Restaurants", "public_id": "grain-works-smyrna", "id": 815926420, "votes": null, "tagline": null, "has_video": false, "website": null, "offers": null, "latitude": 33.844924, "politanName": "Atlanta, GA Metro ", "phone_number": "6785030710", "tags": [{"primary": true, "id": 1722, "name": "Restaurants"}], "fax_number": null, "expansion": {"count": null, "uri": null}, "impression_id": "000b0000003d0b1797d26340aab689cbcb80fab6d5", "profile": "http://www.citysearch.com/profile/815926420/smyrna_ga/grain_works.html", "address": {"city": "Smyrna", "state": "GA", "street": "1270 Winchester Pkwy SE # 219", "postal_code": "30080"}, "capProviderId": null, "distance": null, "has_offers": false, "name": "Grain Works", "longitude": -84.489021, "has_menu": false, "awards": null, "user_review_count": 0}, {"business_operation_status": 1, "rating": null, "neighborhood": null, "image": null, "scorecard": null, "featured": false, "sample_categories": "Restaurants", "public_id": "angels-burrito-on-the-square-marietta", "id": 609728344, "votes": null, "tagline": null, "has_video": false, "website": null, "offers": null, "latitude": 33.952259, "politanName": "Atlanta, GA Metro ", "phone_number": "6785943352", "tags": [{"primary": true, "id": 1722, "name": "Restaurants"}], "fax_number": null, "expansion": {"count": null, "uri": null}, "impression_id": "000b000000a133c785065840b884ff356872409c9b", "profile": "http://www.citysearch.com/profile/609728344/marietta_ga/angel_s_burrito_on_the_square.html", "address": {"city": "Marietta", "state": "GA", "street": "154 Roswell St SE", "postal_code": "30060"}, "capProviderId": null, "distance": null, "has_offers": false, "name": "Angel's Burrito On The Square", "longitude": -84.548687, "has_menu": false, "awards": null, "user_review_count": 0}, {"business_operation_status": 1, "rating": null, "neighborhood": null, "image": null, "scorecard": null, "featured": false, "sample_categories": "Coffeehouses", "public_id": "gold-cup-coffee-service-inc-smyrna", "id": 817382800, "votes": null, "tagline": null, "has_video": false, "website": null, "offers": null, "latitude": 33.897454, "politanName": "Atlanta, GA Metro ", "phone_number": "7703199067", "tags": [{"primary": true, "id": 1726, "name": "Coffeehouses"}], "fax_number": null, "expansion": {"count": null, "uri": null}, "impression_id": "000b000000f9a9d4fae8894791b587e658e186d4e6", "profile": "http://www.citysearch.com/profile/817382800/smyrna_ga/gold_cup_coffee_service_inc.html", "address": {"city": "Smyrna", "state": "GA", "street": "2301 Benson Poole Rd SE", "postal_code": "30082"}, "capProviderId": null, "distance": null, "has_offers": false, "name": "Gold Cup Coffee Service Inc", "longitude": -84.541681, "has_menu": false, "awards": null, "user_review_count": 0}, {"business_operation_status": 1, "rating": null, "neighborhood": null, "image": null, "scorecard": null, "featured": false, "sample_categories": "Restaurants", "public_id": "china-key-development-llc-atlanta", "id": 817168600, "votes": null, "tagline": null, "has_video": false, "website": null, "offers": null, "latitude": 33.863183, "politanName": "Atlanta, GA Metro ", "phone_number": "4047687087", "tags": [{"primary": true, "id": 1722, "name": "Restaurants"}], "fax_number": null, "expansion": {"count": null, "uri": null}, "impression_id": "000b0000009e99b1f8c3734bec91b041a510aba89b", "profile": "http://www.citysearch.com/profile/817168600/atlanta_ga/china_key_development_llc.html", "address": {"city": "Atlanta", "state": "GA", "street": "2451 Cumberland Pkwy SE # 300", "postal_code": "30339"}, "capProviderId": null, "distance": null, "has_offers": false, "name": "China Key Development LLC", "longitude": -84.478702, "has_menu": false, "awards": null, "user_review_count": 0}, {"business_operation_status": 1, "rating": null, "neighborhood": null, "image": null, "scorecard": null, "featured": false, "sample_categories": "Restaurants, Delis And Delicatessens, Sandwich Shops, Carry Out", "public_id": "subway-atlanta-120", "id": 612019644, "votes": null, "tagline": null, "has_video": false, "website": "http://www.citysearch.com/profile/external/612019644/atlanta_ga/subway.html", "offers": null, "latitude": 33.919963, "politanName": "Atlanta, GA Metro ", "phone_number": "6783200901", "tags": [{"primary": false, "id": 1727, "name": "Delis And Delicatessens"}, {"primary": false, "id": 1736, "name": "Sandwich Shops"}, {"primary": false, "id": 11247, "name": "Carry Out"}, {"primary": true, "id": 1722, "name": "Restaurants"}], "fax_number": null, "expansion": {"count": null, "uri": null}, "impression_id": "000b0000006a493fffde1b47c489453ff6189a8052", "profile": "http://www.citysearch.com/profile/612019644/atlanta_ga/subway.html", "address": {"city": "Atlanta", "state": "GA", "street": "1100 Hammond Dr # 410A", "postal_code": "30328"}, "capProviderId": null, "distance": null, "has_offers": false, "name": "Subway", "longitude": -84.352249, "has_menu": false, "awards": null, "user_review_count": 0}, {"business_operation_status": 1, "rating": null, "neighborhood": null, "image": null, "scorecard": null, "featured": false, "sample_categories": "Restaurants", "public_id": "village-cafe-gourmet-smyrna", "id": 614556564, "votes": null, "tagline": null, "has_video": false, "website": null, "offers": null, "latitude": 33.869097, "politanName": "Atlanta, GA Metro ", "phone_number": "7704319620", "tags": [{"primary": true, "id": 1722, "name": "Restaurants"}], "fax_number": null, "expansion": {"count": null, "uri": null}, "impression_id": "000b000000ffe6b562462249f797d7d3de2b2d7676", "profile": "http://www.citysearch.com/profile/614556564/smyrna_ga/village_cafe_gourmet.html", "address": {"city": "Smyrna", "state": "GA", "street": "1265 W Spring St SE", "postal_code": "30080"}, "capProviderId": null, "distance": null, "has_offers": false, "name": "Village Cafe & Gourmet", "longitude": -84.495999, "has_menu": false, "awards": null, "user_review_count": 1}, {"business_operation_status": 1, "rating": null, "neighborhood": null, "image": null, "scorecard": null, "featured": false, "sample_categories": "Health Food Stores, Produce Markets, Juice & Smoothie Shops, Health Food Stores, Vitamins", "public_id": "juice-plus-roswell", "id": 2871440, "votes": null, "tagline": null, "has_video": false, "website": null, "offers": null, "latitude": 34.011678, "politanName": "Atlanta, GA Metro ", "phone_number": "7709935526", "tags": [{"primary": false, "id": 1716, "name": "Health Food Stores"}, {"primary": false, "id": 1717, "name": "Produce Markets"}, {"primary": false, "id": 1735, "name": "Juice & Smoothie Shops"}, {"primary": false, "id": 17570, "name": "Health Food Stores"}, {"primary": true, "id": 11164, "name": "Vitamins"}], "fax_number": null, "expansion": {"count": null, "uri": null}, "impression_id": "000b0000003aa24dca889c43c3b13b6be8a0e62069", "profile": "http://www.citysearch.com/profile/2871440/roswell_ga/juice_plus.html", "address": {"city": "Roswell", "state": "GA", "street": "479 S Atlanta St", "postal_code": "30075"}, "capProviderId": null, "distance": null, "has_offers": false, "name": "Juice Plus", "longitude": -84.362706, "has_menu": false, "awards": null, "user_review_count": 1}, {"business_operation_status": 1, "rating": 8.0, "neighborhood": null, "image": null, "scorecard": null, "featured": false, "sample_categories": "Restaurants, Mexican", "public_id": "el-toro-marietta-2", "id": 2903732, "votes": null, "tagline": null, "has_video": false, "website": null, "offers": null, "latitude": 33.977237, "politanName": "Atlanta, GA Metro ", "phone_number": "7709733173", "tags": [{"primary": false, "id": 1722, "name": "Restaurants"}, {"primary": true, "id": 11208, "name": "Mexican"}], "fax_number": null, "expansion": {"count": null, "uri": null}, "impression_id": "000b000000d78221d77f7946e998831940b950d1ac", "profile": "http://www.citysearch.com/profile/2903732/marietta_ga/el_toro.html", "address": {"city": "Marietta", "state": "GA", "street": "1060 E Piedmont Rd", "postal_code": "30062"}, "capProviderId": null, "distance": null, "has_offers": false, "name": "El Toro", "longitude": -84.479761, "has_menu": true, "awards": null, "user_review_count": 0}, {"business_operation_status": 1, "rating": null, "neighborhood": null, "image": null, "scorecard": null, "featured": false, "sample_categories": "Restaurants, Traditional American, Carry Out", "public_id": "arbys-atlanta-16", "id": 742194410, "votes": null, "tagline": null, "has_video": false, "website": "http://www.citysearch.com/profile/external/742194410/atlanta_ga/arby_s.html", "offers": null, "latitude": 33.908945, "politanName": "Atlanta, GA Metro ", "phone_number": "4047625088", "tags": [{"primary": false, "id": 11190, "name": "Traditional American"}, {"primary": false, "id": 11247, "name": "Carry Out"}, {"primary": true, "id": 1722, "name": "Restaurants"}], "fax_number": null, "expansion": {"count": null, "uri": null}, "impression_id": "000b000000abdcd5ebccae4a93a8f0fedef720a538", "profile": "http://www.citysearch.com/profile/742194410/atlanta_ga/arby_s.html", "address": {"city": "Atlanta", "state": "GA", "street": "1700 the Exchange SE # 200", "postal_code": "30339"}, "capProviderId": null, "distance": null, "has_offers": false, "name": "Arby's", "longitude": -84.484196, "has_menu": false, "awards": null, "user_review_count": 0}, {"business_operation_status": 1, "rating": null, "neighborhood": null, "image": null, "scorecard": null, "featured": false, "sample_categories": "Restaurants, Pizza", "public_id": "capozzis-pizza-marietta", "id": 748319980, "votes": null, "tagline": null, "has_video": false, "website": null, "offers": null, "latitude": 33.985529, "politanName": "Atlanta, GA Metro ", "phone_number": "7703215550", "tags": [{"primary": false, "id": 1722, "name": "Restaurants"}, {"primary": true, "id": 11299, "name": "Pizza"}], "fax_number": null, "expansion": {"count": null, "uri": null}, "impression_id": "000b00000078faa12d40ce4ed9b60e8d63be5913a1", "profile": "http://www.citysearch.com/profile/748319980/marietta_ga/capozzi_s_pizza.html", "address": {"city": "Marietta", "state": "GA", "street": "4285 Roswell Rd", "postal_code": "30062"}, "capProviderId": null, "distance": null, "has_offers": false, "name": "Capozzi's Pizza", "longitude": -84.424063, "has_menu": true, "awards": null, "user_review_count": 0}, {"business_operation_status": 1, "rating": null, "neighborhood": null, "image": null, "scorecard": null, "featured": false, "sample_categories": "Bars & Pubs, Bars & Clubs, Restaurants", "public_id": "roswell-tap-llc-roswell", "id": 764900040, "votes": null, "tagline": null, "has_video": false, "website": "http://www.citysearch.com/profile/external/764900040/roswell_ga/roswell_tap_llc.html", "offers": null, "latitude": 34.028365, "politanName": "Atlanta, GA Metro ", "phone_number": "7709929206", "tags": [{"primary": false, "id": 164, "name": "Bars & Clubs"}, {"primary": false, "id": 1722, "name": "Restaurants"}, {"primary": true, "id": 1686, "name": "Bars & Pubs"}], "fax_number": null, "expansion": {"count": null, "uri": null}, "impression_id": "000b0000003151a06b975f49fabf0f0f63a46fff45", "profile": "http://www.citysearch.com/profile/764900040/roswell_ga/roswell_tap_llc.html", "address": {"city": "Roswell", "state": "GA", "street": "1090 Alpharetta St", "postal_code": "30075"}, "capProviderId": null, "distance": null, "has_offers": false, "name": "Roswell Tap Llc", "longitude": -84.358404, "has_menu": false, "awards": null, "user_review_count": 0}, {"business_operation_status": 1, "rating": null, "neighborhood": null, "image": null, "scorecard": null, "featured": false, "sample_categories": "Restaurants", "public_id": "ragamuffin-ice-cream-parlor-coffeehouse-roswell", "id": 672972420, "votes": null, "tagline": null, "has_video": false, "website": null, "offers": null, "latitude": 34.014811, "politanName": "Atlanta, GA Metro ", "phone_number": "7706567137", "tags": [{"primary": true, "id": 1722, "name": "Restaurants"}], "fax_number": null, "expansion": {"count": null, "uri": null}, "impression_id": "000b00000029aa3c4c15ce4a3a9592a7203267e8bf", "profile": "http://www.citysearch.com/profile/672972420/roswell_ga/ragamuffin_ice_cream_parlor_coffeehouse.html", "address": {"city": "Roswell", "state": "GA", "street": "585 Atlanta Street", "postal_code": "30075"}, "capProviderId": null, "distance": null, "has_offers": false, "name": "Ragamuffin Ice Cream Parlor & Coffeehouse", "longitude": -84.362391, "has_menu": false, "awards": null, "user_review_count": 0}, {"business_operation_status": 1, "rating": null, "neighborhood": null, "image": null, "scorecard": null, "featured": false, "sample_categories": "Restaurants", "public_id": "healthy-eating-restaurant-smyrna", "id": 672835080, "votes": null, "tagline": null, "has_video": false, "website": null, "offers": null, "latitude": 33.883443, "politanName": "Atlanta, GA Metro ", "phone_number": "7704357155", "tags": [{"primary": true, "id": 1722, "name": "Restaurants"}], "fax_number": null, "expansion": {"count": null, "uri": null}, "impression_id": "000b00000040fb181034fc4d40b2ea843de1a308dd", "profile": "http://www.citysearch.com/profile/672835080/smyrna_ga/healthy_eating_restaurant.html", "address": {"city": "Smyrna", "state": "GA", "street": "2517 Spring Road", "postal_code": "30080"}, "capProviderId": null, "distance": null, "has_offers": false, "name": "Healthy Eating Restaurant", "longitude": -84.480608, "has_menu": false, "awards": null, "user_review_count": 0}], "histograms": [], "tag_ids": [1722], "uri": "http://api.citygridmedia.com:8080/search/places/v2/search/where?has_offers=false&type=restaurant&format=json&page=32&where=30067&rpp=50&histograms=false&publisher=10000009598&region_type=circle", "did_you_mean": "", "regions": [{"latitude": 33.930575, "default_radius": 3.78, "type": "postal_code", "name": "30067", "longitude": -84.463162}], "call_id": "000b000000da9b8ae0ca05448fb53a3ee0b2f68877", "first_hit": 1551, "total_hits": 1972, "geo_ids": [26295], "page": 32, "last_hit": 1600}}