{"results": {"rpp": 50, "locations": [{"business_operation_status": 1, "rating": null, "neighborhood": null, "image": null, "scorecard": null, "featured": false, "sample_categories": "Restaurants", "public_id": "restaurante-cuernabaca-y-tqr-atlanta", "id": 801111960, "votes": null, "tagline": null, "has_video": false, "website": null, "offers": null, "latitude": 33.911481, "politanName": "Atlanta, GA Metro ", "phone_number": "4042521202", "tags": [{"primary": true, "id": 1722, "name": "Restaurants"}], "fax_number": null, "expansion": {"count": null, "uri": null}, "impression_id": "000b000000f13adca372aa43d6892f6f0c8a0c9e9f", "profile": "http://www.citysearch.com/profile/801111960/atlanta_ga/restaurante_cuernabaca_y_tqr.html", "address": {"city": "Atlanta", "state": "GA", "street": "120 Northwood Dr", "postal_code": "30342"}, "capProviderId": null, "distance": null, "has_offers": false, "name": "Restaurante Cuernabaca Y Tqr", "longitude": -84.382763, "has_menu": false, "awards": null, "user_review_count": 0}, {"business_operation_status": 1, "rating": null, "neighborhood": null, "image": null, "scorecard": null, "featured": false, "sample_categories": "Restaurants, Carry Out", "public_id": "red-lobster-marietta-2", "id": 823429220, "votes": null, "tagline": null, "has_video": false, "website": null, "offers": null, "latitude": 33.933612, "politanName": "Atlanta, GA Metro ", "phone_number": "7704276554", "tags": [{"primary": false, "id": 11247, "name": "Carry Out"}, {"primary": true, "id": 1722, "name": "Restaurants"}], "fax_number": null, "expansion": {"count": null, "uri": null}, "impression_id": "000b000000279189e225ea4a0a95b13bf96bba42da", "profile": "http://www.citysearch.com/profile/823429220/marietta_ga/red_lobster.html", "address": {"city": "Marietta", "state": "GA", "street": "780 Cobb Pkwy S", "postal_code": "30060"}, "capProviderId": null, "distance": null, "has_offers": false, "name": "Red Lobster", "longitude": -84.512296, "has_menu": true, "awards": null, "user_review_count": 0}, {"business_operation_status": 1, "rating": null, "neighborhood": null, "image": null, "scorecard": null, "featured": false, "sample_categories": "Restaurants", "public_id": "ocharleys-regional-office-marietta", "id": 826459340, "votes": null, "tagline": null, "has_video": false, "website": null, "offers": null, "latitude": 34.009709, "politanName": "Atlanta, GA Metro ", "phone_number": "7705098868", "tags": [{"primary": true, "id": 1722, "name": "Restaurants"}], "fax_number": null, "expansion": {"count": null, "uri": null}, "impression_id": "000b000000ef241e5cd2cb440498dc51e248414785", "profile": "http://www.citysearch.com/profile/826459340/marietta_ga/o_charley_s_regional_office.html", "address": {"city": "Marietta", "state": "GA", "street": "2440 Sandy Plains Rd", "postal_code": "30066"}, "capProviderId": null, "distance": null, "has_offers": false, "name": "O'Charley's Regional Office", "longitude": -84.496627, "has_menu": true, "awards": null, "user_review_count": 0}, {"business_operation_status": 1, "rating": null, "neighborhood": null, "image": null, "scorecard": null, "featured": false, "sample_categories": "Coffeehouses", "public_id": "hotlanta-coffee-llc-atlanta", "id": 827183750, "votes": null, "tagline": null, "has_video": false, "website": null, "offers": null, "latitude": 33.910872, "politanName": "Atlanta, GA Metro ", "phone_number": "4042501955", "tags": [{"primary": true, "id": 1726, "name": "Coffeehouses"}], "fax_number": null, "expansion": {"count": null, "uri": null}, "impression_id": "000b000000c3b30815c07246c2bb789b1078bb7de5", "profile": "http://www.citysearch.com/profile/827183750/atlanta_ga/hotlanta_coffee_llc.html", "address": {"city": "Atlanta", "state": "GA", "street": "5655 Glen Errol Rd", "postal_code": "30327"}, "capProviderId": null, "distance": null, "has_offers": false, "name": "Hotlanta Coffee LLC", "longitude": -84.398102, "has_menu": false, "awards": null, "user_review_count": 0}, {"business_operation_status": 1, "rating": null, "neighborhood": null, "image": null, "scorecard": null, "featured": false, "sample_categories": "Restaurants", "public_id": "doc-greens-gourmet-salads-marietta", "id": 828744880, "votes": null, "tagline": null, "has_video": false, "website": null, "offers": null, "latitude": 33.983296, "politanName": "Atlanta, GA Metro ", "phone_number": "7703212241", "tags": [{"primary": true, "id": 1722, "name": "Restaurants"}], "fax_number": null, "expansion": {"count": null, "uri": null}, "impression_id": "000b000000fe6e1ecd6bff42f28392aff6429a3b54", "profile": "http://www.citysearch.com/profile/828744880/marietta_ga/doc_green_s_gourmet_salads.html", "address": {"city": "Marietta", "state": "GA", "street": "4250 Roswell Rd", "postal_code": "30062"}, "capProviderId": null, "distance": null, "has_offers": false, "name": "Doc Green's Gourmet Salads", "longitude": -84.42626, "has_menu": false, "awards": null, "user_review_count": 0}, {"business_operation_status": 1, "rating": null, "neighborhood": null, "image": null, "scorecard": null, "featured": false, "sample_categories": "Restaurants", "public_id": "philly-connection-marietta-5", "id": 833997530, "votes": null, "tagline": null, "has_video": false, "website": null, "offers": null, "latitude": 34.037983, "politanName": "Atlanta, GA Metro ", "phone_number": "7709263120", "tags": [{"primary": true, "id": 1722, "name": "Restaurants"}], "fax_number": null, "expansion": {"count": null, "uri": null}, "impression_id": "000b0000001495629208fd4fba887f5c707496bb41", "profile": "http://www.citysearch.com/profile/833997530/marietta_ga/philly_connection.html", "address": {"city": "Marietta", "state": "GA", "street": "3545 Canton Rd", "postal_code": "30066"}, "capProviderId": null, "distance": null, "has_offers": false, "name": "Philly Connection", "longitude": -84.528616, "has_menu": true, "awards": null, "user_review_count": 0}, {"business_operation_status": 1, "rating": null, "neighborhood": null, "image": null, "scorecard": null, "featured": false, "sample_categories": "Restaurants, Italian", "public_id": "mirko-pasta-atlanta-2", "id": 768805320, "votes": null, "tagline": null, "has_video": false, "website": null, "offers": null, "latitude": 33.99151, "politanName": "Atlanta, GA Metro ", "phone_number": "7709929002", "tags": [{"primary": false, "id": 11279, "name": "Italian"}, {"primary": true, "id": 1722, "name": "Restaurants"}], "fax_number": null, "expansion": {"count": null, "uri": null}, "impression_id": "000b000000b3e8d8228e8c43668240b52e505d2a3c", "profile": "http://www.citysearch.com/profile/768805320/atlanta_ga/mirko_pasta.html", "address": {"city": "Atlanta", "state": "GA", "street": "8601 Dunwoody Pl", "postal_code": "30350"}, "capProviderId": null, "distance": null, "has_offers": false, "name": "Mirko Pasta", "longitude": -84.342154, "has_menu": false, "awards": null, "user_review_count": 0}, {"business_operation_status": 1, "rating": null, "neighborhood": null, "image": null, "scorecard": null, "featured": false, "sample_categories": "Restaurants, Mexican", "public_id": "tacos-vista-mexican-grill-roswell", "id": 772190300, "votes": null, "tagline": null, "has_video": false, "website": null, "offers": null, "latitude": 34.036112, "politanName": "Atlanta, GA Metro ", "phone_number": "6783520990", "tags": [{"primary": false, "id": 11208, "name": "Mexican"}, {"primary": true, "id": 1722, "name": "Restaurants"}], "fax_number": null, "expansion": {"count": null, "uri": null}, "impression_id": "000b000000c9f400fccb6d4075804ce53fb363d763", "profile": "http://www.citysearch.com/profile/772190300/roswell_ga/tacos_vista_mexican_grill.html", "address": {"city": "Roswell", "state": "GA", "street": "10495 Alpharetta St", "postal_code": "30075"}, "capProviderId": null, "distance": null, "has_offers": false, "name": "Tacos & Vista Mexican Grill", "longitude": -84.343723, "has_menu": false, "awards": null, "user_review_count": 0}, {"business_operation_status": 1, "rating": null, "neighborhood": null, "image": null, "scorecard": null, "featured": false, "sample_categories": "Restaurants, Jamaican", "public_id": "jamaican-restaurant-cntrystyl-marietta", "id": 775206370, "votes": null, "tagline": null, "has_video": false, "website": null, "offers": null, "latitude": 34.032429, "politanName": "Atlanta, GA Metro ", "phone_number": "7704251004", "tags": [{"primary": false, "id": 11193, "name": "Jamaican"}, {"primary": true, "id": 1722, "name": "Restaurants"}], "fax_number": null, "expansion": {"count": null, "uri": null}, "impression_id": "000b000000a6dbb0b72b7a4975b806ab9d532f4073", "profile": "http://www.citysearch.com/profile/775206370/marietta_ga/jamaican_restaurant_cntrystyl.html", "address": {"city": "Marietta", "state": "GA", "street": "3349 Canton Rd", "postal_code": "30066"}, "capProviderId": null, "distance": null, "has_offers": false, "name": "Jamaican Restaurant Cntrystyl", "longitude": -84.528135, "has_menu": false, "awards": null, "user_review_count": 0}, {"business_operation_status": 1, "rating": null, "neighborhood": null, "image": null, "scorecard": null, "featured": false, "sample_categories": "Restaurants", "public_id": "lazaros-roswell", "id": 777645540, "votes": null, "tagline": null, "has_video": false, "website": null, "offers": null, "latitude": 34.031818, "politanName": "Atlanta, GA Metro ", "phone_number": "6782779661", "tags": [{"primary": true, "id": 1722, "name": "Restaurants"}], "fax_number": null, "expansion": {"count": null, "uri": null}, "impression_id": "000b0000002522b56ddac74765b28c2a205ff64e05", "profile": "http://www.citysearch.com/profile/777645540/roswell_ga/lazaro_s.html", "address": {"city": "Roswell", "state": "GA", "street": "25 Woodstock Rd", "postal_code": "30075"}, "capProviderId": null, "distance": null, "has_offers": false, "name": "Lazaro's", "longitude": -84.362029, "has_menu": false, "awards": null, "user_review_count": 0}, {"business_operation_status": 1, "rating": null, "neighborhood": null, "image": null, "scorecard": null, "featured": false, "sample_categories": "Restaurants, Organic", "public_id": "meliora-organic-restaurant-llc-atlanta", "id": 777701970, "votes": null, "tagline": null, "has_video": false, "website": null, "offers": null, "latitude": 33.99994, "politanName": "Atlanta, GA Metro ", "phone_number": "7706451411", "tags": [{"primary": false, "id": 14910, "name": "Organic"}, {"primary": true, "id": 1722, "name": "Restaurants"}], "fax_number": null, "expansion": {"count": null, "uri": null}, "impression_id": "000b000000b123c294c5e04ffdbcd2a8706552f70c", "profile": "http://www.citysearch.com/profile/777701970/atlanta_ga/meliora_organic_restaurant_llc.html", "address": {"city": "Atlanta", "state": "GA", "street": "235 Summer Xing", "postal_code": "30350"}, "capProviderId": null, "distance": null, "has_offers": false, "name": "Meliora Organic Restaurant LLC", "longitude": -84.334279, "has_menu": false, "awards": null, "user_review_count": 0}, {"business_operation_status": 1, "rating": null, "neighborhood": null, "image": null, "scorecard": null, "featured": false, "sample_categories": "Restaurants, Steakhouse", "public_id": "fishmonger-steak-seafood-sandy", "id": 777802950, "votes": null, "tagline": null, "has_video": false, "website": null, "offers": null, "latitude": 33.91986, "politanName": "Atlanta, GA Metro ", "phone_number": "4048433474", "tags": [{"primary": false, "id": 11316, "name": "Steakhouse"}, {"primary": true, "id": 1722, "name": "Restaurants"}], "fax_number": null, "expansion": {"count": null, "uri": null}, "impression_id": "000b000000a86cbddb0f174bb4a9660fef33ace1cf", "profile": "http://www.citysearch.com/profile/777802950/sandy_springs_ga/fishmonger_steak_seafood.html", "address": {"city": "Sandy Springs", "state": "GA", "street": "6017 Sandy Springs Cir Ne", "postal_code": "30328"}, "capProviderId": null, "distance": null, "has_offers": false, "name": "Fishmonger Steak & Seafood", "longitude": -84.383898, "has_menu": false, "awards": null, "user_review_count": 0}, {"business_operation_status": 1, "rating": null, "neighborhood": null, "image": null, "scorecard": null, "featured": false, "sample_categories": "Restaurants", "public_id": "byblos-restaurant-roswell", "id": 777806550, "votes": null, "tagline": null, "has_video": false, "website": null, "offers": null, "latitude": 34.040134, "politanName": "Atlanta, GA Metro ", "phone_number": "6783520321", "tags": [{"primary": true, "id": 1722, "name": "Restaurants"}], "fax_number": null, "expansion": {"count": null, "uri": null}, "impression_id": "000b0000006e4f2bc2135946c098c4bd4f9c4f48d6", "profile": "http://www.citysearch.com/profile/777806550/roswell_ga/byblos_restaurant.html", "address": {"city": "Roswell", "state": "GA", "street": "10684 Alpharetta Hwy # 500", "postal_code": "30076"}, "capProviderId": null, "distance": null, "has_offers": false, "name": "Byblos Restaurant", "longitude": -84.342945, "has_menu": true, "awards": null, "user_review_count": 0}, {"business_operation_status": 0, "rating": 8.0, "neighborhood": null, "image": null, "scorecard": null, "featured": false, "sample_categories": "Restaurants, Barbecue Restaurants, American Express, Discover, MasterCard", "public_id": "k-c-pit-bbq-atlanta", "id": 36616448, "votes": null, "tagline": null, "has_video": false, "website": null, "offers": null, "latitude": 33.92302, "politanName": "Atlanta, GA Metro ", "phone_number": "4044596497", "tags": [{"primary": false, "id": 1724, "name": "Barbecue Restaurants"}, {"primary": false, "id": 11333, "name": "American Express"}, {"primary": false, "id": 11349, "name": "Discover"}, {"primary": false, "id": 11361, "name": "MasterCard"}, {"primary": false, "id": 11382, "name": "Visa"}, {"primary": true, "id": 1722, "name": "Restaurants"}], "fax_number": null, "expansion": {"count": null, "uri": null}, "impression_id": "000b000000ce27395df2f244ae8a25a57bdc0c8197", "profile": "http://www.citysearch.com/profile/36616448/atlanta_ga/k_c_pit_bbq.html", "address": {"city": "Atlanta", "state": "GA", "street": "234 Hilderbrand Dr NE", "postal_code": "30328"}, "capProviderId": null, "distance": null, "has_offers": false, "name": "K C Pit Bbq", "longitude": -84.37981, "has_menu": false, "awards": null, "user_review_count": 1}, {"business_operation_status": 1, "rating": null, "neighborhood": null, "image": null, "scorecard": null, "featured": false, "sample_categories": "Coffeehouses", "public_id": "barista-express-gourmet-coffee-atlanta", "id": 802523940, "votes": null, "tagline": null, "has_video": false, "website": null, "offers": null, "latitude": 33.886437, "politanName": "Atlanta, GA Metro ", "phone_number": "4046971006", "tags": [{"primary": true, "id": 1726, "name": "Coffeehouses"}], "fax_number": null, "expansion": {"count": null, "uri": null}, "impression_id": "000b000000cca62a8849164a9f9f47cff4c7e009cb", "profile": "http://www.citysearch.com/profile/802523940/atlanta_ga/barista_express_gourmet_coffee.html", "address": {"city": "Atlanta", "state": "GA", "street": "4756 Woodvale Dr", "postal_code": "30327"}, "capProviderId": null, "distance": null, "has_offers": false, "name": "Barista Express Gourmet Coffee", "longitude": -84.421372, "has_menu": false, "awards": null, "user_review_count": 0}, {"business_operation_status": 0, "rating": null, "neighborhood": null, "image": null, "scorecard": null, "featured": false, "sample_categories": "Restaurants, Delis And Delicatessens, Sandwich Shops, Carry Out", "public_id": "subway-marietta-5", "id": 631969710, "votes": null, "tagline": null, "has_video": false, "website": "http://www.citysearch.com/profile/external/631969710/marietta_ga/subway.html", "offers": null, "latitude": 33.9495, "politanName": "Atlanta, GA Metro ", "phone_number": "7704240520", "tags": [{"primary": false, "id": 1727, "name": "Delis And Delicatessens"}, {"primary": false, "id": 1736, "name": "Sandwich Shops"}, {"primary": false, "id": 11247, "name": "Carry Out"}, {"primary": true, "id": 1722, "name": "Restaurants"}], "fax_number": null, "expansion": {"count": null, "uri": null}, "impression_id": "000b000000c6d1476b0f3549eaac81edfa7f09468e", "profile": "http://www.citysearch.com/profile/631969710/marietta_ga/subway.html", "address": {"city": "Marietta", "state": "GA", "street": "51 Cobb Pkwy S", "postal_code": "30060"}, "capProviderId": null, "distance": null, "has_offers": false, "name": "Subway", "longitude": -84.519437, "has_menu": true, "awards": null, "user_review_count": 0}, {"business_operation_status": 1, "rating": null, "neighborhood": null, "image": null, "scorecard": null, "featured": false, "sample_categories": "Barbecue Restaurants, Restaurants", "public_id": "sherrals-bbq-marietta", "id": 601297218, "votes": null, "tagline": null, "has_video": false, "website": null, "offers": null, "latitude": 33.952909, "politanName": "Atlanta, GA Metro ", "phone_number": "6782752014", "tags": [{"primary": false, "id": 1722, "name": "Restaurants"}, {"primary": true, "id": 1724, "name": "Barbecue Restaurants"}], "fax_number": null, "expansion": {"count": null, "uri": null}, "impression_id": "000b000000dd6a75d9302d4cf7ada4a1e15575a020", "profile": "http://www.citysearch.com/profile/601297218/marietta_ga/sherral_s_bbq.html", "address": {"city": "Marietta", "state": "GA", "street": "79 N Fairground St Ne", "postal_code": "30060"}, "capProviderId": null, "distance": null, "has_offers": false, "name": "Sherral's Bbq", "longitude": -84.53505, "has_menu": false, "awards": null, "user_review_count": 0}, {"business_operation_status": 1, "rating": null, "neighborhood": null, "image": null, "scorecard": null, "featured": false, "sample_categories": "Restaurants, Pizza, American Express, Discover, MasterCard", "public_id": "pizza-more-marietta", "id": 601298901, "votes": null, "tagline": null, "has_video": false, "website": null, "offers": null, "latitude": 33.90778, "politanName": "Atlanta, GA Metro ", "phone_number": "7706122922", "tags": [{"primary": false, "id": 1722, "name": "Restaurants"}, {"primary": false, "id": 11333, "name": "American Express"}, {"primary": false, "id": 11349, "name": "Discover"}, {"primary": false, "id": 11361, "name": "MasterCard"}, {"primary": false, "id": 11382, "name": "Visa"}, {"primary": true, "id": 11299, "name": "Pizza"}], "fax_number": null, "expansion": {"count": null, "uri": null}, "impression_id": "000b0000009be2083db12648289139195c4d0e7d9c", "profile": "http://www.citysearch.com/profile/601298901/marietta_ga/pizza_more.html", "address": {"city": "Marietta", "state": "GA", "street": "1853 Terrell Mill Rd Se", "postal_code": "30067"}, "capProviderId": null, "distance": null, "has_offers": false, "name": "Pizza & More", "longitude": -84.487669, "has_menu": false, "awards": null, "user_review_count": 0}, {"business_operation_status": 1, "rating": 6.0, "neighborhood": null, "image": null, "scorecard": null, "featured": false, "sample_categories": "Delis And Delicatessens", "public_id": "wildwood-cafe-atlanta", "id": 2911217, "votes": null, "tagline": null, "has_video": false, "website": null, "offers": null, "latitude": 33.906254, "politanName": "Atlanta, GA Metro ", "phone_number": "7709160069", "tags": [{"primary": true, "id": 1727, "name": "Delis And Delicatessens"}], "fax_number": null, "expansion": {"count": null, "uri": null}, "impression_id": "000b00000062ce55a385674d1594ea5ec82d6e4bd9", "profile": "http://www.citysearch.com/profile/2911217/atlanta_ga/wildwood_cafe.html", "address": {"city": "Atlanta", "state": "GA", "street": "2300 Windy Ridge Pkwy SE Ste 3", "postal_code": "30339"}, "capProviderId": null, "distance": null, "has_offers": false, "name": "Wildwood Cafe", "longitude": -84.460402, "has_menu": true, "awards": null, "user_review_count": 1}, {"business_operation_status": 1, "rating": null, "neighborhood": null, "image": null, "scorecard": null, "featured": false, "sample_categories": "Restaurants", "public_id": "cheeseburger-bobbys-marietta", "id": 672561730, "votes": null, "tagline": null, "has_video": false, "website": "http://www.citysearch.com/profile/external/672561730/marietta_ga/cheeseburger_bobby_s.html", "offers": null, "latitude": 34.013539, "politanName": "Atlanta, GA Metro ", "phone_number": "7709199110", "tags": [{"primary": true, "id": 1722, "name": "Restaurants"}], "fax_number": null, "expansion": {"count": null, "uri": null}, "impression_id": "000b000000d31d5c4510254d6287a71d358b8c7963", "profile": "http://www.citysearch.com/profile/672561730/marietta_ga/cheeseburger_bobby_s.html", "address": {"city": "Marietta", "state": "GA", "street": "125 Barrett Parkway", "postal_code": "30066"}, "capProviderId": null, "distance": null, "has_offers": false, "name": "Cheeseburger Bobby's", "longitude": -84.552923, "has_menu": true, "awards": null, "user_review_count": 0}, {"business_operation_status": 1, "rating": null, "neighborhood": null, "image": null, "scorecard": null, "featured": false, "sample_categories": "Catering, Restaurants", "public_id": "sweet-art-of-cateringparkside-atlanta", "id": 3030557, "votes": null, "tagline": null, "has_video": false, "website": null, "offers": null, "latitude": 33.906442, "politanName": "Atlanta, GA Metro ", "phone_number": "7709330089", "tags": [{"primary": false, "id": 1722, "name": "Restaurants"}, {"primary": true, "id": 1705, "name": "Catering"}], "fax_number": null, "expansion": {"count": null, "uri": null}, "impression_id": "000b0000002865e941caa448858073a82b0886f64a", "profile": "http://www.citysearch.com/profile/3030557/atlanta_ga/sweet_art_of_catering_parkside.html", "address": {"city": "Atlanta", "state": "GA", "street": "2500 Windy Rdg Pkwy SE Ste 100", "postal_code": "30339"}, "capProviderId": null, "distance": null, "has_offers": false, "name": "Sweet Art Of Catering-Parkside", "longitude": -84.46162, "has_menu": false, "awards": null, "user_review_count": 0}, {"business_operation_status": 1, "rating": null, "neighborhood": null, "image": null, "scorecard": null, "featured": false, "sample_categories": "Restaurants", "public_id": "rojo-cocina-mexicana-cantina-roswell", "id": 617503554, "votes": null, "tagline": null, "has_video": false, "website": "http://www.citysearch.com/profile/external/617503554/roswell_ga/rojo_cocina_mexicana_and_cantina.html", "offers": null, "latitude": 34.061428, "politanName": "Atlanta, GA Metro ", "phone_number": "7708200111", "tags": [{"primary": true, "id": 1722, "name": "Restaurants"}], "fax_number": null, "expansion": {"count": null, "uri": null}, "impression_id": "000b0000005fea76cdfe754dbe8b205b648524770c", "profile": "http://www.citysearch.com/profile/617503554/roswell_ga/rojo_cocina_mexicana_and_cantina.html", "address": {"city": "Roswell", "state": "GA", "street": "885 Woodstock Rd 410", "postal_code": "30075"}, "capProviderId": null, "distance": null, "has_offers": false, "name": "Rojo Cocina Mexicana And Cantina", "longitude": -84.384932, "has_menu": false, "awards": null, "user_review_count": 0}, {"business_operation_status": 0, "rating": null, "neighborhood": null, "image": null, "scorecard": null, "featured": false, "sample_categories": "Restaurants, Traditional American", "public_id": "barkers-red-hots-roswell", "id": 713390300, "votes": null, "tagline": null, "has_video": false, "website": null, "offers": null, "latitude": 34.058649, "politanName": "Atlanta, GA Metro ", "phone_number": "7706431833", "tags": [{"primary": false, "id": 11190, "name": "Traditional American"}, {"primary": true, "id": 1722, "name": "Restaurants"}], "fax_number": null, "expansion": {"count": null, "uri": null}, "impression_id": "000b0000002b98fc646a5a4b2ebf141f615b0aafdc", "profile": "http://www.citysearch.com/profile/713390300/roswell_ga/barker_s_red_hots.html", "address": {"city": "Roswell", "state": "GA", "street": "725 W Crossville Rd", "postal_code": "30075"}, "capProviderId": null, "distance": null, "has_offers": false, "name": "Barker's Red Hots", "longitude": -84.381702, "has_menu": false, "awards": null, "user_review_count": 0}, {"business_operation_status": 1, "rating": null, "neighborhood": null, "image": null, "scorecard": null, "featured": false, "sample_categories": "Restaurants", "public_id": "nagoya-roswell", "id": 625538904, "votes": null, "tagline": null, "has_video": false, "website": null, "offers": null, "latitude": 34.004732, "politanName": "Atlanta, GA Metro ", "phone_number": "7709988899", "tags": [{"primary": true, "id": 1722, "name": "Restaurants"}], "fax_number": null, "expansion": {"count": null, "uri": null}, "impression_id": "000b000000a4d5a863e29c4dd595986aada8a1a37a", "profile": "http://www.citysearch.com/profile/625538904/roswell_ga/nagoya.html", "address": {"city": "Roswell", "state": "GA", "street": "910 Marietta Hwy", "postal_code": "30075"}, "capProviderId": null, "distance": null, "has_offers": false, "name": "Nagoya", "longitude": -84.389163, "has_menu": false, "awards": null, "user_review_count": 0}, {"business_operation_status": 1, "rating": null, "neighborhood": null, "image": null, "scorecard": null, "featured": false, "sample_categories": "Restaurants, Chinese", "public_id": "wok-star-roswell", "id": 739069330, "votes": null, "tagline": null, "has_video": false, "website": null, "offers": null, "latitude": 34.04631, "politanName": "Atlanta, GA Metro ", "phone_number": "7706450444", "tags": [{"primary": false, "id": 11252, "name": "Chinese"}, {"primary": true, "id": 1722, "name": "Restaurants"}], "fax_number": null, "expansion": {"count": null, "uri": null}, "impression_id": "000b000000e621d44417ba4c168e44471f12f7382b", "profile": "http://www.citysearch.com/profile/739069330/roswell_ga/wok_star.html", "address": {"city": "Roswell", "state": "GA", "street": "10930 Crabapple Rd", "postal_code": "30075"}, "capProviderId": null, "distance": null, "has_offers": false, "name": "Wok Star", "longitude": -84.361208, "has_menu": false, "awards": null, "user_review_count": 0}, {"business_operation_status": 1, "rating": null, "neighborhood": null, "image": null, "scorecard": null, "featured": false, "sample_categories": "Restaurants, Pizza", "public_id": "pizza-314-marietta", "id": 754799300, "votes": null, "tagline": null, "has_video": false, "website": null, "offers": null, "latitude": 34.011742, "politanName": "Atlanta, GA Metro ", "phone_number": "7709712929", "tags": [{"primary": false, "id": 11299, "name": "Pizza"}, {"primary": true, "id": 1722, "name": "Restaurants"}], "fax_number": null, "expansion": {"count": null, "uri": null}, "impression_id": "000b0000004086970bd8ec454caebb44982b24fb62", "profile": "http://www.citysearch.com/profile/754799300/marietta_ga/pizza_314.html", "address": {"city": "Marietta", "state": "GA", "street": "2550 Sandy Plains Rd", "postal_code": "30066"}, "capProviderId": null, "distance": null, "has_offers": false, "name": "Pizza 314", "longitude": -84.495056, "has_menu": false, "awards": null, "user_review_count": 0}, {"business_operation_status": 1, "rating": null, "neighborhood": null, "image": null, "scorecard": null, "featured": false, "sample_categories": "Restaurants", "public_id": "reveille-cafe-marietta", "id": 768805900, "votes": null, "tagline": null, "has_video": false, "website": null, "offers": null, "latitude": 34.03494, "politanName": "Atlanta, GA Metro ", "phone_number": "7709716800", "tags": [{"primary": true, "id": 1722, "name": "Restaurants"}], "fax_number": null, "expansion": {"count": null, "uri": null}, "impression_id": "000b000000ee86b049a85f432896550614d648359f", "profile": "http://www.citysearch.com/profile/768805900/marietta_ga/reveille_cafe.html", "address": {"city": "Marietta", "state": "GA", "street": "2960 Shallowford Rd", "postal_code": "30066"}, "capProviderId": null, "distance": null, "has_offers": false, "name": "Reveille Cafe", "longitude": -84.466773, "has_menu": false, "awards": null, "user_review_count": 0}, {"business_operation_status": 0, "rating": null, "neighborhood": null, "image": null, "scorecard": null, "featured": false, "sample_categories": "Restaurants, Traditional American", "public_id": "magnolia-cafe-roswell", "id": 41779065, "votes": null, "tagline": null, "has_video": false, "website": null, "offers": null, "latitude": 34.024666, "politanName": "Atlanta, GA Metro ", "phone_number": "7705186011", "tags": [{"primary": false, "id": 1722, "name": "Restaurants"}, {"primary": true, "id": 11190, "name": "Traditional American"}], "fax_number": null, "expansion": {"count": null, "uri": null}, "impression_id": "000b000000177fb1c35eba4d24adbc311963c1924f", "profile": "http://www.citysearch.com/profile/41779065/roswell_ga/magnolia_cafe.html", "address": {"city": "Roswell", "state": "GA", "street": "957 Canton St", "postal_code": "30075"}, "capProviderId": null, "distance": null, "has_offers": false, "name": "Magnolia Cafe", "longitude": -84.361254, "has_menu": true, "awards": null, "user_review_count": 0}, {"business_operation_status": 1, "rating": 10.0, "neighborhood": null, "image": null, "scorecard": null, "featured": false, "sample_categories": "Catering, Restaurants", "public_id": "a-delightful-bitefull-catering-marietta", "id": 43855795, "votes": null, "tagline": null, "has_video": false, "website": "http://www.citysearch.com/profile/external/43855795/marietta_ga/a_delightful_bitefull_catering.html", "offers": null, "latitude": 33.973087, "politanName": "Atlanta, GA Metro ", "phone_number": "7705654146", "tags": [{"primary": false, "id": 1705, "name": "Catering"}, {"primary": true, "id": 1722, "name": "Restaurants"}], "fax_number": null, "expansion": {"count": null, "uri": null}, "impression_id": "000b000000f09ae9fc320e4450aaa56d0a74444036", "profile": "http://www.citysearch.com/profile/43855795/marietta_ga/a_delightful_bitefull_catering.html", "address": {"city": "Marietta", "state": "GA", "street": "2235 Sewell Mill Rd", "postal_code": "30062"}, "capProviderId": null, "distance": null, "has_offers": false, "name": "A Delightful Bitefull Catering", "longitude": -84.486914, "has_menu": false, "awards": null, "user_review_count": 1}, {"business_operation_status": 0, "rating": null, "neighborhood": null, "image": null, "scorecard": null, "featured": false, "sample_categories": "Restaurants", "public_id": "san-francisco-raps-atlanta", "id": 44776990, "votes": null, "tagline": null, "has_video": false, "website": null, "offers": null, "latitude": 33.994607, "politanName": "Atlanta, GA Metro ", "phone_number": "7709933999", "tags": [{"primary": true, "id": 1722, "name": "Restaurants"}], "fax_number": null, "expansion": {"count": null, "uri": null}, "impression_id": "000b000000604ed234207544feab3ba5e61020184f", "profile": "http://www.citysearch.com/profile/44776990/atlanta_ga/san_francisco_raps.html", "address": {"city": "Atlanta", "state": "GA", "street": "8725 Roswell Rd", "postal_code": "30350"}, "capProviderId": null, "distance": null, "has_offers": false, "name": "San Francisco RAPS", "longitude": -84.349559, "has_menu": false, "awards": null, "user_review_count": 0}, {"business_operation_status": 1, "rating": null, "neighborhood": null, "image": null, "scorecard": null, "featured": false, "sample_categories": "Restaurants, Business Services, Construction & Remodeling", "public_id": "franchiseopportunitiescom-atlanta", "id": 44776973, "votes": null, "tagline": null, "has_video": false, "website": "http://www.citysearch.com/profile/external/44776973/atlanta_ga/franchiseopportunities_com.html", "offers": null, "latitude": 33.971517, "politanName": "Atlanta, GA Metro ", "phone_number": "7706649733", "tags": [{"primary": false, "id": 1722, "name": "Restaurants"}, {"primary": false, "id": 747, "name": "Construction & Remodeling"}, {"primary": true, "id": 354, "name": "Business Services"}], "fax_number": null, "expansion": {"count": null, "uri": null}, "impression_id": "000b000000136a2c069df843779d92dca36db0fa09", "profile": "http://www.citysearch.com/profile/44776973/atlanta_ga/franchiseopportunities_com.html", "address": {"city": "Atlanta", "state": "GA", "street": "7840 Roswell Rd", "postal_code": "30350"}, "capProviderId": null, "distance": null, "has_offers": false, "name": "Franchiseopportunities.com", "longitude": -84.361203, "has_menu": false, "awards": null, "user_review_count": 0}, {"business_operation_status": 1, "rating": null, "neighborhood": null, "image": null, "scorecard": null, "featured": false, "sample_categories": "Restaurants", "public_id": "the-crepe-chefs-roswell", "id": 826309590, "votes": null, "tagline": null, "has_video": false, "website": null, "offers": null, "latitude": 34.056687, "politanName": "Atlanta, GA Metro ", "phone_number": "7706490261", "tags": [{"primary": true, "id": 1722, "name": "Restaurants"}], "fax_number": null, "expansion": {"count": null, "uri": null}, "impression_id": "000b0000004f00632ca3104d2987f60dd8a14edfd3", "profile": "http://www.citysearch.com/profile/826309590/roswell_ga/the_crepe_chefs.html", "address": {"city": "Roswell", "state": "GA", "street": "11405 West Rd", "postal_code": "30075"}, "capProviderId": null, "distance": null, "has_offers": false, "name": "The Crepe Chefs", "longitude": -84.413411, "has_menu": false, "awards": null, "user_review_count": 0}, {"business_operation_status": 1, "rating": null, "neighborhood": null, "image": null, "scorecard": null, "featured": false, "sample_categories": "Restaurants, Cajun & Creole", "public_id": "cajun-johns-restaurant-marietta", "id": 45988795, "votes": null, "tagline": null, "has_video": false, "website": null, "offers": null, "latitude": 33.937014, "politanName": "Atlanta, GA Metro ", "phone_number": "7704998700", "tags": [{"primary": false, "id": 11245, "name": "Cajun & Creole"}, {"primary": true, "id": 1722, "name": "Restaurants"}], "fax_number": null, "expansion": {"count": null, "uri": null}, "impression_id": "000b000000c8bee4d504c24e0ea51a5d4d12b1f02c", "profile": "http://www.citysearch.com/profile/45988795/marietta_ga/cajun_john_s_restaurant.html", "address": {"city": "Marietta", "state": "GA", "street": "1123 Powder Springs St", "postal_code": "30064"}, "capProviderId": null, "distance": null, "has_offers": false, "name": "Cajun John's Restaurant", "longitude": -84.554706, "has_menu": false, "awards": null, "user_review_count": 0}, {"business_operation_status": 1, "rating": null, "neighborhood": null, "image": null, "scorecard": null, "featured": false, "sample_categories": "Restaurants, Chinese", "public_id": "lucky-dragon-marietta-2", "id": 45989668, "votes": null, "tagline": null, "has_video": false, "website": null, "offers": null, "latitude": 34.032215, "politanName": "Atlanta, GA Metro ", "phone_number": "7702188889", "tags": [{"primary": false, "id": 11252, "name": "Chinese"}, {"primary": true, "id": 1722, "name": "Restaurants"}], "fax_number": null, "expansion": {"count": null, "uri": null}, "impression_id": "000b000000813e14f1984442228f0cbd0860910e2c", "profile": "http://www.citysearch.com/profile/45989668/marietta_ga/lucky_dragon.html", "address": {"city": "Marietta", "state": "GA", "street": "3402 Canton Rd", "postal_code": "30066"}, "capProviderId": null, "distance": null, "has_offers": false, "name": "Lucky Dragon", "longitude": -84.527765, "has_menu": true, "awards": null, "user_review_count": 0}, {"business_operation_status": 1, "rating": null, "neighborhood": null, "image": null, "scorecard": null, "featured": false, "sample_categories": "Restaurants", "public_id": "china-town-gourmet-marietta", "id": 827846610, "votes": null, "tagline": null, "has_video": false, "website": null, "offers": null, "latitude": 34.032195, "politanName": "Atlanta, GA Metro ", "phone_number": "7704291387", "tags": [{"primary": true, "id": 1722, "name": "Restaurants"}], "fax_number": null, "expansion": {"count": null, "uri": null}, "impression_id": "000b000000690173c642cd4166935b5eed9b2e3578", "profile": "http://www.citysearch.com/profile/827846610/marietta_ga/china_town_gourmet.html", "address": {"city": "Marietta", "state": "GA", "street": "3402 Canton Rd", "postal_code": "30066"}, "capProviderId": null, "distance": null, "has_offers": false, "name": "China Town Gourmet", "longitude": -84.527689, "has_menu": false, "awards": null, "user_review_count": 0}, {"business_operation_status": 1, "rating": null, "neighborhood": null, "image": null, "scorecard": null, "featured": false, "sample_categories": "Restaurants, Pizza", "public_id": "the-real-fix-pizzeria-roswell", "id": 608445304, "votes": null, "tagline": null, "has_video": false, "website": null, "offers": null, "latitude": 34.024111, "politanName": "Atlanta, GA Metro ", "phone_number": "7702991657", "tags": [{"primary": false, "id": 11299, "name": "Pizza"}, {"primary": true, "id": 1722, "name": "Restaurants"}], "fax_number": null, "expansion": {"count": null, "uri": null}, "impression_id": "000b000000bee541aba6c24ac4bda9026293e69991", "profile": "http://www.citysearch.com/profile/608445304/roswell_ga/the_real_fix_pizzeria.html", "address": {"city": "Roswell", "state": "GA", "street": "14 Elizabeth Way", "postal_code": "30075"}, "capProviderId": null, "distance": null, "has_offers": false, "name": "The Real Fix Pizzeria", "longitude": -84.361099, "has_menu": false, "awards": null, "user_review_count": 0}, {"business_operation_status": 1, "rating": null, "neighborhood": null, "image": null, "scorecard": null, "featured": false, "sample_categories": "Restaurants", "public_id": "hola-taqueria-roswell", "id": 609010694, "votes": null, "tagline": null, "has_video": false, "website": null, "offers": null, "latitude": 34.033044, "politanName": "Atlanta, GA Metro ", "phone_number": "4702425661", "tags": [{"primary": true, "id": 1722, "name": "Restaurants"}], "fax_number": null, "expansion": {"count": null, "uri": null}, "impression_id": "000b0000006a48bedd30ef4510a3651661f8dea591", "profile": "http://www.citysearch.com/profile/609010694/roswell_ga/hola_taqueria.html", "address": {"city": "Roswell", "state": "GA", "street": "688 Holcomb Bridge Rd", "postal_code": "30076"}, "capProviderId": null, "distance": null, "has_offers": false, "name": "Hola Taqueria", "longitude": -84.340545, "has_menu": false, "awards": null, "user_review_count": 0}, {"business_operation_status": 1, "rating": null, "neighborhood": null, "image": null, "scorecard": null, "featured": false, "sample_categories": "Delis And Delicatessens", "public_id": "kroger-deli-sandy-spg", "id": 697913860, "votes": null, "tagline": null, "has_video": false, "website": null, "offers": null, "latitude": 33.982685, "politanName": "Atlanta, GA Metro ", "phone_number": "7709983040", "tags": [{"primary": true, "id": 1727, "name": "Delis And Delicatessens"}], "fax_number": null, "expansion": {"count": null, "uri": null}, "impression_id": "000b00000021806dda05424e47ad4409225f3defa2", "profile": "http://www.citysearch.com/profile/697913860/sandy_springs_ga/kroger_deli.html", "address": {"city": "Sandy Springs", "state": "GA", "street": "8331 Roswell Rd", "postal_code": "30350"}, "capProviderId": null, "distance": null, "has_offers": false, "name": "Kroger Deli", "longitude": -84.348132, "has_menu": false, "awards": null, "user_review_count": 0}, {"business_operation_status": 0, "rating": null, "neighborhood": null, "image": null, "scorecard": null, "featured": false, "sample_categories": "Restaurants, Asian", "public_id": "asia-latin-buffet-atlanta", "id": 3045205, "votes": null, "tagline": null, "has_video": false, "website": null, "offers": null, "latitude": 34.001579, "politanName": "Atlanta, GA Metro ", "phone_number": "7709923993", "tags": [{"primary": false, "id": 11235, "name": "Asian"}, {"primary": true, "id": 1722, "name": "Restaurants"}], "fax_number": null, "expansion": {"count": null, "uri": null}, "impression_id": "000b0000007532ce4fe34f47b4bf8a767b3e5bd768", "profile": "http://www.citysearch.com/profile/3045205/atlanta_ga/asia_latin_buffet.html", "address": {"city": "Atlanta", "state": "GA", "street": "8803 Roswell Rd", "postal_code": "30350"}, "capProviderId": null, "distance": null, "has_offers": false, "name": "Asia & Latin Buffet", "longitude": -84.350422, "has_menu": false, "awards": null, "user_review_count": 0}, {"business_operation_status": 1, "rating": null, "neighborhood": null, "image": null, "scorecard": null, "featured": false, "sample_categories": "Restaurants", "public_id": "bound-south-inc-marietta", "id": 728020120, "votes": null, "tagline": null, "has_video": false, "website": null, "offers": null, "latitude": 33.977868, "politanName": "Atlanta, GA Metro ", "phone_number": "7704223953", "tags": [{"primary": true, "id": 1722, "name": "Restaurants"}], "fax_number": null, "expansion": {"count": null, "uri": null}, "impression_id": "000b0000007d90f2e2a9fb4a268b7221bff35ef43e", "profile": "http://www.citysearch.com/profile/728020120/marietta_ga/bound_south_inc.html", "address": {"city": "Marietta", "state": "GA", "street": "850 Kennesaw Ave NW # C6", "postal_code": "30060"}, "capProviderId": null, "distance": null, "has_offers": false, "name": "Bound South INC", "longitude": -84.568453, "has_menu": false, "awards": null, "user_review_count": 0}, {"business_operation_status": 1, "rating": null, "neighborhood": null, "image": null, "scorecard": null, "featured": false, "sample_categories": "Restaurants, Carry Out, Hamburgers", "public_id": "mc-donalds-marietta-6", "id": 621871240, "votes": null, "tagline": null, "has_video": false, "website": "http://www.citysearch.com/profile/external/621871240/marietta_ga/mc_donald_s.html", "offers": null, "latitude": 33.908723, "politanName": "Atlanta, GA Metro ", "phone_number": "7709801194", "tags": [{"primary": false, "id": 11247, "name": "Carry Out"}, {"primary": false, "id": 11270, "name": "Hamburgers"}, {"primary": true, "id": 1722, "name": "Restaurants"}], "fax_number": null, "expansion": {"count": null, "uri": null}, "impression_id": "000b00000060b049f93aec4a24bc634fe3d5c9428e", "profile": "http://www.citysearch.com/profile/621871240/marietta_ga/mc_donald_s.html", "address": {"city": "Marietta", "state": "GA", "street": "1785 Cobb Pkwy S", "postal_code": "30060"}, "capProviderId": null, "distance": null, "has_offers": false, "name": "Mc Donald's", "longitude": -84.492745, "has_menu": true, "awards": null, "user_review_count": 0}, {"business_operation_status": 1, "rating": null, "neighborhood": null, "image": null, "scorecard": null, "featured": false, "sample_categories": "Restaurants", "public_id": "jerk-pan-marietta", "id": 732188760, "votes": null, "tagline": null, "has_video": false, "website": null, "offers": null, "latitude": 34.032215, "politanName": "Atlanta, GA Metro ", "phone_number": "7706757069", "tags": [{"primary": true, "id": 1722, "name": "Restaurants"}], "fax_number": null, "expansion": {"count": null, "uri": null}, "impression_id": "000b00000090532e0205104c19bfee324b7701795f", "profile": "http://www.citysearch.com/profile/732188760/marietta_ga/jerk_pan.html", "address": {"city": "Marietta", "state": "GA", "street": "3402 Canton Rd", "postal_code": "30066"}, "capProviderId": null, "distance": null, "has_offers": false, "name": "Jerk Pan", "longitude": -84.527765, "has_menu": false, "awards": null, "user_review_count": 0}, {"business_operation_status": 1, "rating": null, "neighborhood": null, "image": null, "scorecard": null, "featured": false, "sample_categories": "Restaurants", "public_id": "twisted-kitchen-marietta", "id": 745026280, "votes": null, "tagline": null, "has_video": false, "website": null, "offers": null, "latitude": 34.013539, "politanName": "Atlanta, GA Metro ", "phone_number": "4049929432", "tags": [{"primary": true, "id": 1722, "name": "Restaurants"}], "fax_number": null, "expansion": {"count": null, "uri": null}, "impression_id": "000b000000457e6f314b6449459c0e0cd663e51efb", "profile": "http://www.citysearch.com/profile/745026280/marietta_ga/twisted_kitchen.html", "address": {"city": "Marietta", "state": "GA", "street": "125 Barrett Pkwy # 111", "postal_code": "30066"}, "capProviderId": null, "distance": null, "has_offers": false, "name": "Twisted Kitchen", "longitude": -84.552923, "has_menu": true, "awards": null, "user_review_count": 0}, {"business_operation_status": 1, "rating": null, "neighborhood": null, "image": null, "scorecard": null, "featured": false, "sample_categories": "Restaurants, Thai", "public_id": "erawan-thai-restaurant-atlanta", "id": 748277610, "votes": null, "tagline": null, "has_video": false, "website": null, "offers": null, "latitude": 33.961554, "politanName": "Atlanta, GA Metro ", "phone_number": "7703993042", "tags": [{"primary": false, "id": 11319, "name": "Thai"}, {"primary": true, "id": 1722, "name": "Restaurants"}], "fax_number": null, "expansion": {"count": null, "uri": null}, "impression_id": "000b000000063b4649d4104efeb0b3dbd8ac3a4067", "profile": "http://www.citysearch.com/profile/748277610/atlanta_ga/erawan_thai_restaurant.html", "address": {"city": "Atlanta", "state": "GA", "street": "7537 Roswell Rd", "postal_code": "30350"}, "capProviderId": null, "distance": null, "has_offers": false, "name": "Erawan Thai Restaurant", "longitude": -84.365754, "has_menu": false, "awards": null, "user_review_count": 0}, {"business_operation_status": 1, "rating": null, "neighborhood": null, "image": null, "scorecard": null, "featured": false, "sample_categories": "Delis And Delicatessens", "public_id": "psycha-deli-marietta", "id": 748309660, "votes": null, "tagline": null, "has_video": false, "website": null, "offers": null, "latitude": 33.964105, "politanName": "Atlanta, GA Metro ", "phone_number": "7707921320", "tags": [{"primary": true, "id": 1727, "name": "Delis And Delicatessens"}], "fax_number": null, "expansion": {"count": null, "uri": null}, "impression_id": "000b00000013680b204a3b4580945a22b931dfa3b4", "profile": "http://www.citysearch.com/profile/748309660/marietta_ga/psycha_deli.html", "address": {"city": "Marietta", "state": "GA", "street": "531 Roselane St NW # 520", "postal_code": "30060"}, "capProviderId": null, "distance": null, "has_offers": false, "name": "Psycha Deli", "longitude": -84.557337, "has_menu": false, "awards": null, "user_review_count": 0}, {"business_operation_status": 1, "rating": null, "neighborhood": null, "image": null, "scorecard": null, "featured": false, "sample_categories": "Ice Cream Parlors, Restaurants", "public_id": "yoforia-sandy", "id": 748336750, "votes": null, "tagline": null, "has_video": false, "website": null, "offers": null, "latitude": 33.899687, "politanName": "Atlanta, GA Metro ", "phone_number": "7703529555", "tags": [{"primary": false, "id": 1722, "name": "Restaurants"}, {"primary": true, "id": 1730, "name": "Ice Cream Parlors"}], "fax_number": null, "expansion": {"count": null, "uri": null}, "impression_id": "000b0000006640d519e56c4f738d97ca11f9c5aa21", "profile": "http://www.citysearch.com/profile/748336750/sandy_springs_ga/yoforia.html", "address": {"city": "Sandy Springs", "state": "GA", "street": "1155 Mount Vernon Hwy NW", "postal_code": "30327"}, "capProviderId": null, "distance": null, "has_offers": false, "name": "Yoforia", "longitude": -84.423806, "has_menu": false, "awards": null, "user_review_count": 0}, {"business_operation_status": 1, "rating": null, "neighborhood": null, "image": null, "scorecard": null, "featured": false, "sample_categories": "Liquor Stores, Grocery Stores, Restaurants", "public_id": "frankies-food-sports-spirits-atlanta", "id": 762748670, "votes": null, "tagline": null, "has_video": false, "website": null, "offers": null, "latitude": 33.907706, "politanName": "Atlanta, GA Metro ", "phone_number": "4048439444", "tags": [{"primary": false, "id": 1713, "name": "Grocery Stores"}, {"primary": false, "id": 1722, "name": "Restaurants"}, {"primary": true, "id": 1720, "name": "Liquor Stores"}], "fax_number": null, "expansion": {"count": null, "uri": null}, "impression_id": "000b0000001e83fede703246f3afd99c3a9ea7ce39", "profile": "http://www.citysearch.com/profile/762748670/atlanta_ga/frankies_food_sports_spirits.html", "address": {"city": "Atlanta", "state": "GA", "street": "5600 Roswell Rd", "postal_code": "30342"}, "capProviderId": null, "distance": null, "has_offers": false, "name": "Frankies Food Sports & Spirits", "longitude": -84.378787, "has_menu": false, "awards": null, "user_review_count": 1}, {"business_operation_status": 1, "rating": null, "neighborhood": null, "image": null, "scorecard": null, "featured": false, "sample_categories": "Traditional American", "public_id": "moderna-sandy", "id": 772508020, "votes": null, "tagline": null, "has_video": false, "website": null, "offers": null, "latitude": 33.986593, "politanName": "Atlanta, GA Metro ", "phone_number": "4045808885", "tags": [{"primary": true, "id": 11190, "name": "Traditional American"}], "fax_number": null, "expansion": {"count": null, "uri": null}, "impression_id": "000b0000000a9fd15d8add4ccb9af679b38a8f8a36", "profile": "http://www.citysearch.com/profile/772508020/sandy_springs_ga/moderna.html", "address": {"city": "Sandy Springs", "state": "GA", "street": "8540 Roswell Road Suite 100", "postal_code": "30350"}, "capProviderId": null, "distance": null, "has_offers": false, "name": "Moderna", "longitude": -84.351062, "has_menu": false, "awards": null, "user_review_count": 0}, {"business_operation_status": 1, "rating": null, "neighborhood": null, "image": null, "scorecard": null, "featured": false, "sample_categories": "Restaurants, Steakhouse", "public_id": "copacabana-steakhouse-marietta", "id": 775221780, "votes": null, "tagline": null, "has_video": false, "website": null, "offers": null, "latitude": 33.923141, "politanName": "Atlanta, GA Metro ", "phone_number": "7709840057", "tags": [{"primary": false, "id": 11316, "name": "Steakhouse"}, {"primary": true, "id": 1722, "name": "Restaurants"}], "fax_number": null, "expansion": {"count": null, "uri": null}, "impression_id": "000b000000ddbdcc6d180f4fb5a65fcac2ac53211c", "profile": "http://www.citysearch.com/profile/775221780/marietta_ga/copacabana_steakhouse.html", "address": {"city": "Marietta", "state": "GA", "street": "2555 Delk Rd SE # A7", "postal_code": "30067"}, "capProviderId": null, "distance": null, "has_offers": false, "name": "Copacabana Steakhouse", "longitude": -84.478026, "has_menu": false, "awards": null, "user_review_count": 0}, {"business_operation_status": 1, "rating": null, "neighborhood": null, "image": null, "scorecard": null, "featured": false, "sample_categories": "Restaurants", "public_id": "cajun-johns-marietta", "id": 672215460, "votes": null, "tagline": null, "has_video": false, "website": null, "offers": null, "latitude": 33.937014, "politanName": "Atlanta, GA Metro ", "phone_number": null, "tags": [{"primary": true, "id": 1722, "name": "Restaurants"}], "fax_number": null, "expansion": {"count": null, "uri": null}, "impression_id": "000b00000038255c5c51ab48f5806585e7f44035dd", "profile": "http://www.citysearch.com/profile/672215460/marietta_ga/cajun_john_s.html", "address": {"city": "Marietta", "state": "GA", "street": "1123 Powder Springs St. SE", "postal_code": "30064"}, "capProviderId": null, "distance": null, "has_offers": false, "name": "Cajun John's", "longitude": -84.554706, "has_menu": false, "awards": null, "user_review_count": 0}], "histograms": [], "tag_ids": [1722], "uri": "http://api.citygridmedia.com:8080/search/places/v2/search/where?has_offers=false&type=restaurant&format=json&page=29&where=30068&rpp=50&histograms=false&publisher=10000009598&region_type=circle", "did_you_mean": "", "regions": [{"latitude": 33.967813, "default_radius": 3.91, "type": "postal_code", "name": "30068", "longitude": -84.433422}], "call_id": "000b000000742a5b60ad8b41479f3dbfb1a51cca39", "first_hit": 1401, "total_hits": 2028, "geo_ids": [26296], "page": 29, "last_hit": 1450}}