{"results": {"rpp": 50, "locations": [{"business_operation_status": 1, "rating": null, "neighborhood": null, "image": null, "scorecard": null, "featured": false, "sample_categories": "Delis And Delicatessens", "public_id": "kroger-deli-marietta-7", "id": 702370900, "votes": null, "tagline": null, "has_video": false, "website": "http://www.citysearch.com/profile/external/702370900/marietta_ga/kroger_deli.html", "offers": null, "latitude": 33.908085, "politanName": "Atlanta, GA Metro ", "phone_number": "7702185699", "tags": [{"primary": true, "id": 1727, "name": "Delis And Delicatessens"}], "fax_number": null, "expansion": {"count": null, "uri": null}, "impression_id": "000b000000badeee7c0e7145659a8b94610892cf4f", "profile": "http://www.citysearch.com/profile/702370900/marietta_ga/kroger_deli.html", "address": {"city": "Marietta", "state": "GA", "street": "1690 Powder Springs Rd Sw #200", "postal_code": "30064"}, "capProviderId": null, "distance": null, "has_offers": false, "name": "Kroger Deli", "longitude": -84.602757, "has_menu": false, "awards": null, "user_review_count": 0}, {"business_operation_status": 1, "rating": null, "neighborhood": null, "image": null, "scorecard": null, "featured": false, "sample_categories": "Restaurants", "public_id": "el-caporal-marietta", "id": 35902760, "votes": null, "tagline": null, "has_video": false, "website": null, "offers": null, "latitude": 33.955116, "politanName": "Atlanta, GA Metro ", "phone_number": "7704261422", "tags": [{"primary": true, "id": 1722, "name": "Restaurants"}], "fax_number": null, "expansion": {"count": null, "uri": null}, "impression_id": "000b000000ad48776976224d90b4c721cbf1b63951", "profile": "http://www.citysearch.com/profile/35902760/marietta_ga/el_caporal.html", "address": {"city": "Marietta", "state": "GA", "street": "3600 Dallas Hwy.", "postal_code": "30064"}, "capProviderId": null, "distance": null, "has_offers": false, "name": "El Caporal", "longitude": -84.656027, "has_menu": false, "awards": null, "user_review_count": 0}, {"business_operation_status": 1, "rating": null, "neighborhood": null, "image": null, "scorecard": null, "featured": false, "sample_categories": "Restaurants, Eclectic & International", "public_id": "eagle-cafe-intl-marietta", "id": 775215710, "votes": null, "tagline": null, "has_video": false, "website": null, "offers": null, "latitude": 33.924963, "politanName": "Atlanta, GA Metro ", "phone_number": "7704222056", "tags": [{"primary": false, "id": 11259, "name": "Eclectic & International"}, {"primary": true, "id": 1722, "name": "Restaurants"}], "fax_number": null, "expansion": {"count": null, "uri": null}, "impression_id": "000b000000d5aa3f3a8fc34b75b8470e0438a93722", "profile": "http://www.citysearch.com/profile/775215710/marietta_ga/eagle_cafe_intl.html", "address": {"city": "Marietta", "state": "GA", "street": "1150 Powder Springs St", "postal_code": "30064"}, "capProviderId": null, "distance": null, "has_offers": false, "name": "Eagle Cafe Intl", "longitude": -84.573919, "has_menu": false, "awards": null, "user_review_count": 0}, {"business_operation_status": 1, "rating": null, "neighborhood": null, "image": null, "scorecard": null, "featured": false, "sample_categories": "Restaurants", "public_id": "t-n-restaurant-group-marietta", "id": 764858770, "votes": null, "tagline": null, "has_video": false, "website": null, "offers": null, "latitude": 33.948575, "politanName": "Atlanta, GA Metro ", "phone_number": "7704255074", "tags": [{"primary": true, "id": 1722, "name": "Restaurants"}], "fax_number": null, "expansion": {"count": null, "uri": null}, "impression_id": "000b00000051fc2a05ac76429784ad54aea1a0ca72", "profile": "http://www.citysearch.com/profile/764858770/marietta_ga/t_n_restaurant_group.html", "address": {"city": "Marietta", "state": "GA", "street": "2650 Dallas Hwy SW", "postal_code": "30064"}, "capProviderId": null, "distance": null, "has_offers": false, "name": "T N Restaurant Group", "longitude": -84.628298, "has_menu": false, "awards": null, "user_review_count": 0}, {"business_operation_status": 1, "rating": null, "neighborhood": null, "image": null, "scorecard": null, "featured": false, "sample_categories": "Restaurants", "public_id": "open-door-pediatrics-therapy-marietta", "id": 621872460, "votes": null, "tagline": null, "has_video": false, "website": "http://www.citysearch.com/profile/external/621872460/marietta_ga/open_door_pediatrics_therapy.html", "offers": null, "latitude": 33.950209, "politanName": "Atlanta, GA Metro ", "phone_number": "6782908910", "tags": [{"primary": true, "id": 1722, "name": "Restaurants"}], "fax_number": null, "expansion": {"count": null, "uri": null}, "impression_id": "000b000000c106ddc9048c44d791e1faa3011a4051", "profile": "http://www.citysearch.com/profile/621872460/marietta_ga/open_door_pediatrics_therapy.html", "address": {"city": "Marietta", "state": "GA", "street": "707 Whitlock Ave Sw # A41", "postal_code": "30064"}, "capProviderId": null, "distance": null, "has_offers": false, "name": "Open Door Pediatrics Therapy", "longitude": -84.573437, "has_menu": false, "awards": null, "user_review_count": 0}, {"business_operation_status": 1, "rating": null, "neighborhood": null, "image": null, "scorecard": null, "featured": false, "sample_categories": "Catering, Restaurants", "public_id": "ala-cart-market-marietta", "id": 601298037, "votes": null, "tagline": null, "has_video": false, "website": "http://www.citysearch.com/profile/external/601298037/marietta_ga/ala_cart_market.html", "offers": null, "latitude": 33.967672, "politanName": "Atlanta, GA Metro ", "phone_number": "6783545221", "tags": [{"primary": false, "id": 1722, "name": "Restaurants"}, {"primary": true, "id": 1705, "name": "Catering"}], "fax_number": null, "expansion": {"count": null, "uri": null}, "impression_id": "000b0000006b0c783024064f8d99fd349cb5f5ffe6", "profile": "http://www.citysearch.com/profile/601298037/marietta_ga/ala_cart_market.html", "address": {"city": "Marietta", "state": "GA", "street": "3960 Mary Eliza Trce Nw # 600", "postal_code": "30064"}, "capProviderId": null, "distance": null, "has_offers": false, "name": "Ala Cart Market", "longitude": -84.667328, "has_menu": false, "awards": null, "user_review_count": 2}, {"business_operation_status": 1, "rating": null, "neighborhood": null, "image": null, "scorecard": null, "featured": false, "sample_categories": "Restaurants", "public_id": "puntacana-dominican-bargrill-marietta", "id": 802510780, "votes": null, "tagline": null, "has_video": false, "website": null, "offers": null, "latitude": 33.901077, "politanName": "Atlanta, GA Metro ", "phone_number": "7707954500", "tags": [{"primary": true, "id": 1722, "name": "Restaurants"}], "fax_number": null, "expansion": {"count": null, "uri": null}, "impression_id": "000b0000004328c565679446f0a89202ba53854b9d", "profile": "http://www.citysearch.com/profile/802510780/marietta_ga/puntacana_dominican_bar_grill.html", "address": {"city": "Marietta", "state": "GA", "street": "1812 Powder Springs Rd Sw", "postal_code": "30064"}, "capProviderId": null, "distance": null, "has_offers": false, "name": "Puntacana Dominican Bar-Grill", "longitude": -84.606768, "has_menu": false, "awards": null, "user_review_count": 0}, {"business_operation_status": 1, "rating": null, "neighborhood": null, "image": null, "scorecard": null, "featured": false, "sample_categories": "Restaurants", "public_id": "grazie-marietta", "id": 818460400, "votes": null, "tagline": null, "has_video": false, "website": null, "offers": null, "latitude": 33.953111, "politanName": "Atlanta, GA Metro ", "phone_number": "7704998585", "tags": [{"primary": true, "id": 1722, "name": "Restaurants"}], "fax_number": null, "expansion": {"count": null, "uri": null}, "impression_id": "000b000000bd07d85ff2274efba6aa6ea2e7f7e2ea", "profile": "http://www.citysearch.com/profile/818460400/marietta_ga/grazie.html", "address": {"city": "Marietta", "state": "GA", "street": "1000 Whitlock Ave NW", "postal_code": "30064"}, "capProviderId": null, "distance": null, "has_offers": false, "name": "Grazie", "longitude": -84.581272, "has_menu": false, "awards": null, "user_review_count": 0}, {"business_operation_status": 1, "rating": null, "neighborhood": null, "image": null, "scorecard": null, "featured": false, "sample_categories": "Restaurants", "public_id": "beefobradys-marietta-2", "id": 822120610, "votes": null, "tagline": null, "has_video": false, "website": "http://www.citysearch.com/profile/external/822120610/marietta_ga/beef_o_brady_s.html", "offers": null, "latitude": 33.951824, "politanName": "Atlanta, GA Metro ", "phone_number": "7704243001", "tags": [{"primary": true, "id": 1722, "name": "Restaurants"}], "fax_number": null, "expansion": {"count": null, "uri": null}, "impression_id": "000b0000002d2d04d76e9c4a398da529e3e02d779d", "profile": "http://www.citysearch.com/profile/822120610/marietta_ga/beef_o_brady_s.html", "address": {"city": "Marietta", "state": "GA", "street": "3178 Dallas Hwy SW", "postal_code": "30064"}, "capProviderId": null, "distance": null, "has_offers": false, "name": "Beef'O'Brady's", "longitude": -84.644184, "has_menu": false, "awards": null, "user_review_count": 0}, {"business_operation_status": 1, "rating": null, "neighborhood": null, "image": null, "scorecard": null, "featured": false, "sample_categories": "Restaurants, Catering, Carry Out, Italian, Pizza", "public_id": "marietta-pizza-hdk-inc-marietta", "id": 739063740, "votes": null, "tagline": null, "has_video": false, "website": null, "offers": null, "latitude": 33.967002, "politanName": "Atlanta, GA Metro ", "phone_number": "6783240028", "tags": [{"primary": false, "id": 1705, "name": "Catering"}, {"primary": false, "id": 11247, "name": "Carry Out"}, {"primary": false, "id": 11279, "name": "Italian"}, {"primary": false, "id": 11299, "name": "Pizza"}, {"primary": true, "id": 1722, "name": "Restaurants"}], "fax_number": null, "expansion": {"count": null, "uri": null}, "impression_id": "000b000000253c5a531d88403eb89425e9fa3cb456", "profile": "http://www.citysearch.com/profile/739063740/marietta_ga/marietta_pizza_hdk_inc.html", "address": {"city": "Marietta", "state": "GA", "street": "3901 Mary Eliza Trce NW", "postal_code": "30064"}, "capProviderId": null, "distance": null, "has_offers": false, "name": "Marietta Pizza Hdk INC", "longitude": -84.665443, "has_menu": true, "awards": null, "user_review_count": 0}, {"business_operation_status": 1, "rating": null, "neighborhood": null, "image": null, "scorecard": null, "featured": false, "sample_categories": "Restaurants", "public_id": "okinawa-restaurant-marietta", "id": 739065820, "votes": null, "tagline": null, "has_video": false, "website": null, "offers": null, "latitude": 33.953523, "politanName": "Atlanta, GA Metro ", "phone_number": "7702180982", "tags": [{"primary": true, "id": 1722, "name": "Restaurants"}], "fax_number": null, "expansion": {"count": null, "uri": null}, "impression_id": "000b000000db0f3f07360d42649a304d36a41e15fa", "profile": "http://www.citysearch.com/profile/739065820/marietta_ga/okinawa_restaurant.html", "address": {"city": "Marietta", "state": "GA", "street": "3718 Dallas Hwy SW", "postal_code": "30064"}, "capProviderId": null, "distance": null, "has_offers": false, "name": "Okinawa Restaurant", "longitude": -84.661012, "has_menu": false, "awards": null, "user_review_count": 0}, {"business_operation_status": 1, "rating": null, "neighborhood": null, "image": null, "scorecard": null, "featured": false, "sample_categories": "Restaurants", "public_id": "hoboken-cafe-marietta", "id": 777676340, "votes": null, "tagline": null, "has_video": false, "website": null, "offers": null, "latitude": 33.951914, "politanName": "Atlanta, GA Metro ", "phone_number": "6789093375", "tags": [{"primary": true, "id": 1722, "name": "Restaurants"}], "fax_number": null, "expansion": {"count": null, "uri": null}, "impression_id": "000b000000c38b9388b155485097bfbb34a24ebe5c", "profile": "http://www.citysearch.com/profile/777676340/marietta_ga/hoboken_cafe.html", "address": {"city": "Marietta", "state": "GA", "street": "688 Whitlock Ave NW", "postal_code": "30064"}, "capProviderId": null, "distance": null, "has_offers": false, "name": "Hoboken Cafe", "longitude": -84.57265, "has_menu": false, "awards": null, "user_review_count": 0}, {"business_operation_status": 1, "rating": null, "neighborhood": null, "image": null, "scorecard": null, "featured": false, "sample_categories": "Restaurants", "public_id": "great-panda-restaurant-marietta", "id": 814222940, "votes": null, "tagline": null, "has_video": false, "website": null, "offers": null, "latitude": 33.953111, "politanName": "Atlanta, GA Metro ", "phone_number": "7704282831", "tags": [{"primary": true, "id": 1722, "name": "Restaurants"}], "fax_number": null, "expansion": {"count": null, "uri": null}, "impression_id": "000b0000001ca24cc9dd124437abf7736064e3a633", "profile": "http://www.citysearch.com/profile/814222940/marietta_ga/great_panda_restaurant.html", "address": {"city": "Marietta", "state": "GA", "street": "1000 Whitlock Ave NW", "postal_code": "30064"}, "capProviderId": null, "distance": null, "has_offers": false, "name": "Great Panda Restaurant", "longitude": -84.581272, "has_menu": false, "awards": null, "user_review_count": 0}, {"business_operation_status": 1, "rating": null, "neighborhood": null, "image": null, "scorecard": null, "featured": false, "sample_categories": "Restaurants", "public_id": "planet-smoothie-marietta-8", "id": 819890580, "votes": null, "tagline": null, "has_video": false, "website": null, "offers": null, "latitude": 33.947326, "politanName": "Atlanta, GA Metro ", "phone_number": "7704272700", "tags": [{"primary": true, "id": 1722, "name": "Restaurants"}], "fax_number": null, "expansion": {"count": null, "uri": null}, "impression_id": "000b000000478d6e8f08934b0a9968ecf2366b9573", "profile": "http://www.citysearch.com/profile/819890580/marietta_ga/planet_smoothie.html", "address": {"city": "Marietta", "state": "GA", "street": "3451 Barrett Pkwy NW # 145", "postal_code": "30064"}, "capProviderId": null, "distance": null, "has_offers": false, "name": "Planet Smoothie", "longitude": -84.622965, "has_menu": false, "awards": null, "user_review_count": 0}, {"business_operation_status": 1, "rating": null, "neighborhood": null, "image": null, "scorecard": null, "featured": false, "sample_categories": "Restaurants", "public_id": "chicken-boss-llc-marietta", "id": 627930504, "votes": null, "tagline": null, "has_video": false, "website": null, "offers": null, "latitude": 33.933122, "politanName": "Atlanta, GA Metro ", "phone_number": "7705080980", "tags": [{"primary": true, "id": 1722, "name": "Restaurants"}], "fax_number": null, "expansion": {"count": null, "uri": null}, "impression_id": "000b0000001b25212373fb411bab1547a6c83e0b65", "profile": "http://www.citysearch.com/profile/627930504/marietta_ga/chicken_boss_llc.html", "address": {"city": "Marietta", "state": "GA", "street": "803 Powder Springs St", "postal_code": "30064"}, "capProviderId": null, "distance": null, "has_offers": false, "name": "Chicken Boss LLC", "longitude": -84.559881, "has_menu": false, "awards": null, "user_review_count": 0}, {"business_operation_status": 1, "rating": null, "neighborhood": null, "image": null, "scorecard": null, "featured": false, "sample_categories": "Restaurants, Carry Out, Shop Online, Chicken", "public_id": "kfc-marietta-11", "id": 801057620, "votes": null, "tagline": null, "has_video": false, "website": "http://www.citysearch.com/profile/external/801057620/marietta_ga/kfc.html", "offers": null, "latitude": 33.951359, "politanName": "Atlanta, GA Metro ", "phone_number": "7704274291", "tags": [{"primary": false, "id": 11247, "name": "Carry Out"}, {"primary": false, "id": 11375, "name": "Shop Online"}, {"primary": false, "id": 12839, "name": "Chicken"}, {"primary": true, "id": 1722, "name": "Restaurants"}], "fax_number": null, "expansion": {"count": null, "uri": null}, "impression_id": "000b00000091775f61cf094e12b8abfead39fa33a0", "profile": "http://www.citysearch.com/profile/801057620/marietta_ga/kfc.html", "address": {"city": "Marietta", "state": "GA", "street": "37 Powder Springs St", "postal_code": "30064"}, "capProviderId": null, "distance": null, "has_offers": false, "name": "KFC", "longitude": -84.550223, "has_menu": true, "awards": null, "user_review_count": 0}, {"business_operation_status": 1, "rating": null, "neighborhood": null, "image": null, "scorecard": null, "featured": false, "sample_categories": "Restaurants, Barbecue Restaurants", "public_id": "wings-xpress-marietta", "id": 803550980, "votes": null, "tagline": null, "has_video": false, "website": null, "offers": null, "latitude": 33.933132, "politanName": "Atlanta, GA Metro ", "phone_number": "6784621167", "tags": [{"primary": false, "id": 1724, "name": "Barbecue Restaurants"}, {"primary": true, "id": 1722, "name": "Restaurants"}], "fax_number": null, "expansion": {"count": null, "uri": null}, "impression_id": "000b000000d8f7a6de02364cac866fc9c970a0dd54", "profile": "http://www.citysearch.com/profile/803550980/marietta_ga/wings_xpress.html", "address": {"city": "Marietta", "state": "GA", "street": "803 Powder Springs St # 2", "postal_code": "30064"}, "capProviderId": null, "distance": null, "has_offers": false, "name": "Wings Xpress", "longitude": -84.559871, "has_menu": false, "awards": null, "user_review_count": 0}, {"business_operation_status": 1, "rating": null, "neighborhood": null, "image": null, "scorecard": null, "featured": false, "sample_categories": "Restaurants, Food Delivery, Pizza", "public_id": "peace-love-pizzamarietta-marietta", "id": 801118720, "votes": null, "tagline": null, "has_video": false, "website": null, "offers": null, "latitude": 33.96754, "politanName": "Atlanta, GA Metro ", "phone_number": "7703215000", "tags": [{"primary": false, "id": 11267, "name": "Food Delivery"}, {"primary": false, "id": 11299, "name": "Pizza"}, {"primary": true, "id": 1722, "name": "Restaurants"}], "fax_number": null, "expansion": {"count": null, "uri": null}, "impression_id": "000b000000461ec9616cc54cdf9acba3ec38acf758", "profile": "http://www.citysearch.com/profile/801118720/marietta_ga/peace_love_and_pizza.html", "address": {"city": "Marietta", "state": "GA", "street": "3960 Mary Eliza Trce NW 1100", "postal_code": "30064"}, "capProviderId": null, "distance": null, "has_offers": false, "name": "Peace Love and Pizza", "longitude": -84.667248, "has_menu": false, "awards": null, "user_review_count": 0}, {"business_operation_status": 1, "rating": null, "neighborhood": null, "image": null, "scorecard": null, "featured": false, "sample_categories": "Restaurants", "public_id": "comida-marietta", "id": 810200100, "votes": null, "tagline": null, "has_video": false, "website": null, "offers": null, "latitude": 33.952164, "politanName": "Atlanta, GA Metro ", "phone_number": "6782130707", "tags": [{"primary": true, "id": 1722, "name": "Restaurants"}], "fax_number": null, "expansion": {"count": null, "uri": null}, "impression_id": "000b00000037aed85eecc24f4182b65bfac598cc3c", "profile": "http://www.citysearch.com/profile/810200100/marietta_ga/comida.html", "address": {"city": "Marietta", "state": "GA", "street": "3625 Dallas Hwy SW", "postal_code": "30064"}, "capProviderId": null, "distance": null, "has_offers": false, "name": "Comida", "longitude": -84.657799, "has_menu": false, "awards": null, "user_review_count": 0}, {"business_operation_status": 1, "rating": 9.0, "neighborhood": null, "image": "http://images.citysearch.net/assets/imgdb/merchant/2010/2/1/0/XGFGRqdH1.jpeg", "scorecard": null, "featured": false, "sample_categories": "Catering, Restaurants, Barbecue Restaurants, $, Cheap Eats", "public_id": "williamson-brothers-barbq-marietta", "id": 11340779, "votes": null, "tagline": "Country barbecue smoked up just right in Marietta.", "has_video": false, "website": "http://www.citysearch.com/profile/external/11340779/marietta_ga/williamson_bros_bar_b_q.html", "offers": null, "latitude": 33.950897, "politanName": "Atlanta, GA Metro ", "phone_number": "7709713201", "tags": [{"primary": false, "id": 1722, "name": "Restaurants"}, {"primary": false, "id": 1724, "name": "Barbecue Restaurants"}, {"primary": false, "id": 11231, "name": "$"}, {"primary": false, "id": 11249, "name": "Cheap Eats"}, {"primary": false, "id": 11263, "name": "Family-Friendly Dining"}, {"primary": false, "id": 11269, "name": "Group Dining"}, {"primary": false, "id": 11286, "name": "Lunch Spot"}, {"primary": false, "id": 11333, "name": "American Express"}, {"primary": false, "id": 11349, "name": "Discover"}, {"primary": false, "id": 11361, "name": "MasterCard"}, {"primary": false, "id": 11382, "name": "Visa"}, {"primary": true, "id": 1705, "name": "Catering"}], "fax_number": null, "expansion": {"count": null, "uri": null}, "impression_id": "000b00000078fd0bb52eb54fcd9e5a9d8785cb5c25", "profile": "http://www.citysearch.com/profile/11340779/marietta_ga/williamson_bros_bar_b_q.html", "address": {"city": "Marietta", "state": "GA", "street": "1425 Roswell Rd", "postal_code": "30062"}, "capProviderId": null, "distance": null, "has_offers": false, "name": "Williamson Bros. Bar-B-Q", "longitude": -84.510219, "has_menu": true, "awards": null, "user_review_count": 65}, {"business_operation_status": 1, "rating": 7.0, "neighborhood": null, "image": "http://images.citysearch.net/assets/imgdb/merchant/2015/3/3/0/XbDaJnPm123.jpeg", "scorecard": null, "featured": true, "sample_categories": "Restaurants, New American, Carry Out, Family Style Dining, Family-Friendly Dining", "public_id": "olive-garden-kennesaw", "id": 2955103, "votes": null, "tagline": "Buy One Take One is Back! Starting at $12.99", "has_video": false, "website": "http://www.citysearch.com/profile/external/2955103/kennesaw_ga/olive_garden.html", "offers": null, "latitude": 34.01221, "politanName": "Atlanta, GA Metro ", "phone_number": "7704243668", "tags": [{"primary": false, "id": 11189, "name": "New American"}, {"primary": false, "id": 11247, "name": "Carry Out"}, {"primary": false, "id": 11262, "name": "Family Style Dining"}, {"primary": false, "id": 11263, "name": "Family-Friendly Dining"}, {"primary": false, "id": 11279, "name": "Italian"}, {"primary": false, "id": 11286, "name": "Lunch Spot"}, {"primary": false, "id": 11333, "name": "American Express"}, {"primary": false, "id": 11349, "name": "Discover"}, {"primary": false, "id": 11361, "name": "MasterCard"}, {"primary": false, "id": 11382, "name": "Visa"}, {"primary": true, "id": 1722, "name": "Restaurants"}], "fax_number": null, "expansion": {"count": null, "uri": null}, "impression_id": "000b00000008081e78621f49ec9e745174e7014125", "profile": "http://www.citysearch.com/profile/2955103/kennesaw_ga/olive_garden.html", "address": {"city": "Kennesaw", "state": "GA", "street": "429 Barrett Pkwy", "postal_code": "30144"}, "capProviderId": 1, "distance": null, "has_offers": false, "name": "Olive Garden", "longitude": -84.562972, "has_menu": true, "awards": null, "user_review_count": 4}, {"business_operation_status": 1, "rating": 9.0, "neighborhood": null, "image": "http://images.citysearch.net/assets/imgdb2/reinvent/profile/2012/9/4/14/hxsDTKwo.jpg", "scorecard": null, "featured": false, "sample_categories": "Restaurants, Wine Bars, Organic Foods, Asian, Thai", "public_id": "lthai-west-organic-cuisine-wine-bar-smyrna", "id": 603158332, "votes": null, "tagline": "Same great menu, brand new location in Smyrna", "has_video": false, "website": "http://www.citysearch.com/profile/external/603158332/smyrna_ga/l_thai_west_organic_cuisine_wine_bar.html", "offers": null, "latitude": 33.842892, "politanName": "Atlanta, GA Metro ", "phone_number": "7704344344", "tags": [{"primary": false, "id": 1704, "name": "Wine Bars"}, {"primary": false, "id": 11173, "name": "Organic Foods"}, {"primary": false, "id": 11235, "name": "Asian"}, {"primary": false, "id": 11319, "name": "Thai"}, {"primary": false, "id": 11333, "name": "American Express"}, {"primary": false, "id": 11339, "name": "Cash"}, {"primary": false, "id": 11361, "name": "MasterCard"}, {"primary": false, "id": 11382, "name": "Visa"}, {"primary": false, "id": 14910, "name": "Organic"}, {"primary": true, "id": 1722, "name": "Restaurants"}], "fax_number": null, "expansion": {"count": null, "uri": null}, "impression_id": "000b000000b5aa1397db184617aaedff14e56da15d", "profile": "http://www.citysearch.com/profile/603158332/smyrna_ga/l_thai_west_organic_cuisine_wine_bar.html", "address": {"city": "Smyrna", "state": "GA", "street": "4500 W Village Pl SE Ste 1017", "postal_code": "30080"}, "capProviderId": null, "distance": null, "has_offers": false, "name": "L'Thai West Organic Cuisine & Wine Bar", "longitude": -84.490261, "has_menu": false, "awards": null, "user_review_count": 19}, {"business_operation_status": 1, "rating": 9.0, "neighborhood": null, "image": "http://o2.aolcdn.com/dims-shared/dims3/PATCH/resize/600x450/http://hss-prod.hss.aol.com/hss/storage/patch/67219c44c72e23a9b493eb9aaf9c695b", "scorecard": null, "featured": false, "sample_categories": "Bakeries, Restaurants, French, $, Cheap Eats", "public_id": "douceur-de-france-marietta", "id": 11642899, "votes": null, "tagline": null, "has_video": false, "website": "http://www.citysearch.com/profile/external/11642899/marietta_ga/douceur_de_france.html", "offers": null, "latitude": 33.938896, "politanName": "Atlanta, GA Metro ", "phone_number": "7704255050", "tags": [{"primary": false, "id": 1722, "name": "Restaurants"}, {"primary": false, "id": 11219, "name": "French"}, {"primary": false, "id": 11231, "name": "$"}, {"primary": false, "id": 11249, "name": "Cheap Eats"}, {"primary": false, "id": 11339, "name": "Cash"}, {"primary": true, "id": 1685, "name": "Bakeries"}], "fax_number": null, "expansion": {"count": null, "uri": null}, "impression_id": "000b00000021a8eef1469b4865906c2bb9ebbadefd", "profile": "http://www.citysearch.com/profile/11642899/marietta_ga/douceur_de_france.html", "address": {"city": "Marietta", "state": "GA", "street": "367 Glover St SE", "postal_code": "30060"}, "capProviderId": null, "distance": null, "has_offers": false, "name": "Douceur De France", "longitude": -84.542509, "has_menu": true, "awards": null, "user_review_count": 17}, {"business_operation_status": 1, "rating": 8.0, "neighborhood": null, "image": null, "scorecard": null, "featured": false, "sample_categories": "Restaurants, Traditional American, $$, Cajun & Creole, Family-Friendly Dining", "public_id": "copelands-of-new-orleans-kennesaw", "id": 11526325, "votes": null, "tagline": null, "has_video": false, "website": "http://www.citysearch.com/profile/external/11526325/kennesaw_ga/copeland_s_of_new_orleans.html", "offers": null, "latitude": 34.001836, "politanName": "Atlanta, GA Metro ", "phone_number": "7709199612", "tags": [{"primary": false, "id": 11190, "name": "Traditional American"}, {"primary": false, "id": 11232, "name": "$$"}, {"primary": false, "id": 11245, "name": "Cajun & Creole"}, {"primary": false, "id": 11263, "name": "Family-Friendly Dining"}, {"primary": false, "id": 11269, "name": "Group Dining"}, {"primary": false, "id": 11333, "name": "American Express"}, {"primary": false, "id": 11349, "name": "Discover"}, {"primary": false, "id": 11361, "name": "MasterCard"}, {"primary": false, "id": 11382, "name": "Visa"}, {"primary": true, "id": 1722, "name": "Restaurants"}], "fax_number": null, "expansion": {"count": null, "uri": null}, "impression_id": "000b00000093a3d05f65a741f19f905684c91f759d", "profile": "http://www.citysearch.com/profile/11526325/kennesaw_ga/copeland_s_of_new_orleans.html", "address": {"city": "Kennesaw", "state": "GA", "street": "1142 Ernest W Barrett Pkwy NW", "postal_code": "30144"}, "capProviderId": null, "distance": null, "has_offers": false, "name": "Copeland's Of New Orleans", "longitude": -84.582883, "has_menu": true, "awards": null, "user_review_count": 14}, {"business_operation_status": 1, "rating": 9.0, "neighborhood": null, "image": "http://images.citysearch.net/assets/imgdb/merchant/2010/12/15/0/sdOYfRSY93.jpeg", "scorecard": null, "featured": false, "sample_categories": "Restaurants, Bars & Pubs, Pubs, Irish Pubs, English Pubs", "public_id": "keegans-public-house-kennesaw", "id": 622065270, "votes": null, "tagline": "\" Kennesaw's Best Pub\"", "has_video": false, "website": "http://www.citysearch.com/profile/external/622065270/kennesaw_ga/keegans_public_house.html", "offers": null, "latitude": 33.994278, "politanName": "Atlanta, GA Metro ", "phone_number": "6782132460", "tags": [{"primary": false, "id": 1686, "name": "Bars & Pubs"}, {"primary": false, "id": 1687, "name": "Pubs"}, {"primary": false, "id": 1688, "name": "Irish Pubs"}, {"primary": false, "id": 1689, "name": "English Pubs"}, {"primary": false, "id": 1698, "name": "Neighborhood Bars"}, {"primary": false, "id": 1701, "name": "Sports Bars"}, {"primary": false, "id": 1702, "name": "Taverns"}, {"primary": false, "id": 10034, "name": "Late-Night Scene"}, {"primary": false, "id": 10035, "name": "Live Music"}, {"primary": false, "id": 10037, "name": "Outdoor Seating"}, {"primary": false, "id": 11070, "name": "Darts"}, {"primary": false, "id": 11086, "name": "Drink Specials"}, {"primary": false, "id": 11090, "name": "Happy Hour"}, {"primary": false, "id": 11102, "name": "Notable Beer List"}, {"primary": false, "id": 11221, "name": "Irish"}, {"primary": false, "id": 11232, "name": "$$"}, {"primary": false, "id": 11269, "name": "Group Dining"}, {"primary": false, "id": 11283, "name": "Live Music"}, {"primary": false, "id": 11284, "name": "Local Favorite"}, {"primary": false, "id": 11286, "name": "Lunch Spot"}, {"primary": false, "id": 11296, "name": "Outdoor Dining"}, {"primary": false, "id": 11324, "name": "Upscale Casual Dining"}, {"primary": false, "id": 11333, "name": "American Express"}, {"primary": false, "id": 11339, "name": "Cash"}, {"primary": false, "id": 11349, "name": "Discover"}, {"primary": false, "id": 11361, "name": "MasterCard"}, {"primary": false, "id": 11382, "name": "Visa"}, {"primary": false, "id": 12821, "name": "Casual Date Spot"}, {"primary": false, "id": 14890, "name": "Comfort Food"}, {"primary": true, "id": 1722, "name": "Restaurants"}], "fax_number": null, "expansion": {"count": null, "uri": null}, "impression_id": "000b000000fd7c4167014d40ed9059155edebc6cb5", "profile": "http://www.citysearch.com/profile/622065270/kennesaw_ga/keegans_public_house.html", "address": {"city": "Kennesaw", "state": "GA", "street": "1625 Ridenour Blvd NW 301", "postal_code": "30152"}, "capProviderId": null, "distance": null, "has_offers": false, "name": "Keegans Public House", "longitude": -84.592498, "has_menu": true, "awards": null, "user_review_count": 3}, {"business_operation_status": 1, "rating": 10.0, "neighborhood": null, "image": "http://images.citysearch.net/assets/imgdb/merchant/2010/11/9/0/CrLmmmpZ212.jpeg", "scorecard": null, "featured": false, "sample_categories": "Restaurants, Corporate Catering, Catering, Delis And Delicatessens, Sandwich Shops", "public_id": "baldinos-giant-jersey-subs-marietta-2", "id": 2909705, "votes": null, "tagline": "Atlanta's Best Kept Sandwich and Sub Secret - Also Serving Marietta Area!", "has_video": false, "website": "http://www.citysearch.com/profile/external/2909705/marietta_ga/baldinos_giant_jersey_subs.html", "offers": "Home of the Daily Special - $3.49!", "latitude": 33.949818, "politanName": "Atlanta, GA Metro ", "phone_number": "7703211177", "tags": [{"primary": false, "id": 13670, "name": "Corporate Catering"}, {"primary": false, "id": 1705, "name": "Catering"}, {"primary": false, "id": 1727, "name": "Delis And Delicatessens"}, {"primary": false, "id": 1736, "name": "Sandwich Shops"}, {"primary": false, "id": 11189, "name": "New American"}, {"primary": false, "id": 11199, "name": "Fast Food"}, {"primary": false, "id": 11231, "name": "$"}, {"primary": false, "id": 11247, "name": "Carry Out"}, {"primary": false, "id": 11249, "name": "Cheap Eats"}, {"primary": false, "id": 11262, "name": "Family Style Dining"}, {"primary": false, "id": 11263, "name": "Family-Friendly Dining"}, {"primary": false, "id": 11279, "name": "Italian"}, {"primary": false, "id": 11286, "name": "Lunch Spot"}, {"primary": false, "id": 11333, "name": "American Express"}, {"primary": false, "id": 11339, "name": "Cash"}, {"primary": false, "id": 11349, "name": "Discover"}, {"primary": false, "id": 11361, "name": "MasterCard"}, {"primary": false, "id": 11369, "name": "Parking Lot"}, {"primary": false, "id": 11382, "name": "Visa"}, {"primary": true, "id": 1722, "name": "Restaurants"}], "fax_number": null, "expansion": {"count": null, "uri": null}, "impression_id": "000b0000001ec8951994e94a99a2fef0ec6da8b20e", "profile": "http://www.citysearch.com/profile/2909705/marietta_ga/baldinos_giant_jersey_subs.html", "address": {"city": "Marietta", "state": "GA", "street": "80 Powers Ferry Rd Se", "postal_code": "30067"}, "capProviderId": null, "distance": null, "has_offers": true, "name": "Baldinos Giant Jersey Subs", "longitude": -84.511122, "has_menu": true, "awards": null, "user_review_count": 4}, {"business_operation_status": 1, "rating": 10.0, "neighborhood": null, "image": "http://images.citysearch.net/assets/imgdb/merchant/2011/1/20/0/UsWNQgew42.jpeg", "scorecard": null, "featured": false, "sample_categories": "Catering, Restaurants, Pizza, Carry Out, Italian", "public_id": "johnnys-new-york-style-pizza-kennesaw", "id": 622133260, "votes": null, "tagline": "Your Neighborhood Pizzeria in Kennesaw, GA", "has_video": false, "website": null, "offers": "Lunch Specials, $5 off any orders over $25 ", "latitude": 33.99449, "politanName": "Atlanta, GA Metro ", "phone_number": "6789960911", "tags": [{"primary": false, "id": 1705, "name": "Catering"}, {"primary": false, "id": 1722, "name": "Restaurants"}, {"primary": false, "id": 11247, "name": "Carry Out"}, {"primary": false, "id": 11279, "name": "Italian"}, {"primary": false, "id": 11286, "name": "Lunch Spot"}, {"primary": false, "id": 12821, "name": "Casual Date Spot"}, {"primary": false, "id": 12822, "name": "Dining Discounts"}, {"primary": true, "id": 11299, "name": "Pizza"}], "fax_number": null, "expansion": {"count": null, "uri": null}, "impression_id": "000b0000000cf7ac14f00d435a80b13be161062912", "profile": "http://www.citysearch.com/profile/622133260/kennesaw_ga/johnny_s_new_york_style_pizza.html", "address": {"city": "Kennesaw", "state": "GA", "street": "1615 Ridenour Blvd NW", "postal_code": "30152"}, "capProviderId": null, "distance": null, "has_offers": true, "name": "Johnny's New York Style Pizza", "longitude": -84.592515, "has_menu": true, "awards": null, "user_review_count": 3}, {"business_operation_status": 1, "rating": 9.0, "neighborhood": null, "image": "http://images.citysearch.net/assets/imgdb/merchant/2010/10/22/0/RKurtdmV199.jpeg", "scorecard": null, "featured": false, "sample_categories": "Bakeries, Coffee & Tea Shops, Restaurants, Dessert Shops, Sandwich Shops", "public_id": "australian-bakery-cafe-marietta", "id": 37645588, "votes": null, "tagline": "Come enjoy a great dessert or Australian meat pies.", "has_video": false, "website": "http://www.citysearch.com/profile/external/37645588/marietta_ga/australian_bakery_cafe.html", "offers": "Mixed Pie Pack", "latitude": 33.952294, "politanName": "Atlanta, GA Metro ", "phone_number": "6787976222", "tags": [{"primary": false, "id": 1711, "name": "Coffee & Tea Shops"}, {"primary": false, "id": 1722, "name": "Restaurants"}, {"primary": false, "id": 1728, "name": "Dessert Shops"}, {"primary": false, "id": 1736, "name": "Sandwich Shops"}, {"primary": false, "id": 11046, "name": "Bread"}, {"primary": false, "id": 11047, "name": "Breakfast"}, {"primary": false, "id": 11048, "name": "Cake"}, {"primary": false, "id": 11051, "name": "Lunch Spot"}, {"primary": false, "id": 11052, "name": "Muffins"}, {"primary": false, "id": 11053, "name": "Outdoor Dining"}, {"primary": false, "id": 11054, "name": "Pastries"}, {"primary": false, "id": 11055, "name": "Pies"}, {"primary": false, "id": 11231, "name": "$"}, {"primary": false, "id": 11259, "name": "Eclectic & International"}, {"primary": false, "id": 11311, "name": "Soups"}, {"primary": false, "id": 11333, "name": "American Express"}, {"primary": false, "id": 11339, "name": "Cash"}, {"primary": false, "id": 11349, "name": "Discover"}, {"primary": false, "id": 11352, "name": "Gift Certificate"}, {"primary": false, "id": 11361, "name": "MasterCard"}, {"primary": false, "id": 11377, "name": "Street Parking"}, {"primary": false, "id": 11382, "name": "Visa"}, {"primary": true, "id": 1685, "name": "Bakeries"}], "fax_number": null, "expansion": {"count": null, "uri": null}, "impression_id": "000b0000002c05ae0a13d64d1fb3d8a9866de72665", "profile": "http://www.citysearch.com/profile/37645588/marietta_ga/australian_bakery_cafe.html", "address": {"city": "Marietta", "state": "GA", "street": "48 S Park Sq Ne", "postal_code": "30060"}, "capProviderId": null, "distance": null, "has_offers": true, "name": "Australian Bakery Cafe", "longitude": -84.549988, "has_menu": true, "awards": null, "user_review_count": 8}, {"business_operation_status": 1, "rating": 8.0, "neighborhood": null, "image": "http://images.citysearch.net/assets/imgdb/merchant/2010/1/7/0/daEalvab67.jpeg", "scorecard": null, "featured": false, "sample_categories": "Bars & Pubs, Bars & Clubs, Irish Pubs, Sports Bars, Restaurants", "public_id": "paddys-pub-eatery-kennesaw", "id": 603367432, "votes": null, "tagline": "Authentic Irish Pub with a great beer selection", "has_video": false, "website": "http://www.citysearch.com/profile/external/603367432/kennesaw_ga/paddy_s_pub_eatery.html", "offers": null, "latitude": 34.022601, "politanName": "Atlanta, GA Metro ", "phone_number": "7704211234", "tags": [{"primary": false, "id": 164, "name": "Bars & Clubs"}, {"primary": false, "id": 1688, "name": "Irish Pubs"}, {"primary": false, "id": 1701, "name": "Sports Bars"}, {"primary": false, "id": 1722, "name": "Restaurants"}, {"primary": false, "id": 11263, "name": "Family-Friendly Dining"}, {"primary": true, "id": 1686, "name": "Bars & Pubs"}], "fax_number": null, "expansion": {"count": null, "uri": null}, "impression_id": "000b000000cdc2d2f79f7c4b2cb8166213a520c5f2", "profile": "http://www.citysearch.com/profile/603367432/kennesaw_ga/paddy_s_pub_eatery.html", "address": {"city": "Kennesaw", "state": "GA", "street": "2196 Cobb Pkwy NW", "postal_code": "30152"}, "capProviderId": null, "distance": null, "has_offers": false, "name": "Paddy's Pub & Eatery", "longitude": -84.626408, "has_menu": false, "awards": null, "user_review_count": 22}, {"business_operation_status": 1, "rating": null, "neighborhood": null, "image": "http://images.citysearch.net/assets/imgdb/merchant/2010/1/15/0/fDRGhSPG31.jpeg", "scorecard": null, "featured": false, "sample_categories": "Cafes, Bakeries, Catering, Coffee & Tea Shops, Grocery Stores", "public_id": "la-madeleine-marietta", "id": 2903663, "votes": null, "tagline": "A charming cozy atmosphere with a taste of the French countryside. ", "has_video": false, "website": "http://www.citysearch.com/profile/external/2903663/marietta_ga/la_madeleine.html", "offers": "Join our E-club.", "latitude": 33.97947, "politanName": "Atlanta, GA Metro ", "phone_number": "7705793040", "tags": [{"primary": false, "id": 1685, "name": "Bakeries"}, {"primary": false, "id": 1705, "name": "Catering"}, {"primary": false, "id": 1711, "name": "Coffee & Tea Shops"}, {"primary": false, "id": 1713, "name": "Grocery Stores"}, {"primary": false, "id": 1722, "name": "Restaurants"}, {"primary": false, "id": 11054, "name": "Pastries"}, {"primary": false, "id": 11219, "name": "French"}, {"primary": false, "id": 11239, "name": "Breakfast"}, {"primary": false, "id": 11247, "name": "Carry Out"}, {"primary": false, "id": 11266, "name": "Fireplace"}, {"primary": false, "id": 11286, "name": "Lunch Spot"}, {"primary": false, "id": 11311, "name": "Soups"}, {"primary": false, "id": 11333, "name": "American Express"}, {"primary": false, "id": 11349, "name": "Discover"}, {"primary": false, "id": 11361, "name": "MasterCard"}, {"primary": false, "id": 11367, "name": "Open 7 Days"}, {"primary": false, "id": 11382, "name": "Visa"}, {"primary": true, "id": 6190, "name": "Cafes"}], "fax_number": null, "expansion": {"count": null, "uri": null}, "impression_id": "000b0000004b75eb96d13c47188dd7bae99a96fee5", "profile": "http://www.citysearch.com/profile/2903663/marietta_ga/la_madeleine.html", "address": {"city": "Marietta", "state": "GA", "street": "3099 Roswell Rd", "postal_code": "30062"}, "capProviderId": null, "distance": null, "has_offers": true, "name": "la Madeleine", "longitude": -84.46145, "has_menu": true, "awards": null, "user_review_count": 4}, {"business_operation_status": 1, "rating": 10.0, "neighborhood": null, "image": null, "scorecard": null, "featured": false, "sample_categories": "Restaurants, Sushi, Japanese, Asian", "public_id": "yellow-tail-sushi-bar-kennesaw", "id": 602697492, "votes": null, "tagline": "Yellow Fin Sushi  \"The Best Japanese Fusion Restaurant in Kennesaw\"", "has_video": false, "website": null, "offers": null, "latitude": 34.035364, "politanName": "Atlanta, GA Metro ", "phone_number": "7704212918", "tags": [{"primary": false, "id": 11201, "name": "Sushi"}, {"primary": false, "id": 11202, "name": "Japanese"}, {"primary": false, "id": 11235, "name": "Asian"}, {"primary": true, "id": 1722, "name": "Restaurants"}], "fax_number": null, "expansion": {"count": null, "uri": null}, "impression_id": "000b0000006c6f090d4fa6421d8204d4f7b88bbcd6", "profile": "http://www.citysearch.com/profile/602697492/kennesaw_ga/yellow_tail_sushi_bar.html", "address": {"city": "Kennesaw", "state": "GA", "street": "745 Chastain Road NW Suite 1030", "postal_code": "30144"}, "capProviderId": null, "distance": null, "has_offers": false, "name": "Yellow Tail Sushi & Bar", "longitude": -84.570141, "has_menu": false, "awards": null, "user_review_count": 9}, {"business_operation_status": 1, "rating": 10.0, "neighborhood": null, "image": "http://images.citysearch.net/assets/imgdb2/reinvent/profile/2012/7/26/0/bxDByhbm.jpg", "scorecard": null, "featured": false, "sample_categories": "Bakeries, Catering, Restaurants, Delis And Delicatessens, Dessert Shops", "public_id": "la-suprema-bakery-marietta-2", "id": 631965670, "votes": null, "tagline": "Atlanta Wedding Cakes, Marietta Wedding Cakes, Sandy Springs Wedding Cakes, Marietta Bakery, Marietta Sandwich Shops", "has_video": false, "website": "http://www.citysearch.com/profile/external/631965670/marietta_ga/la_suprema_bakery.html", "offers": null, "latitude": 33.951308, "politanName": "Atlanta, GA Metro ", "phone_number": "7707940110", "tags": [{"primary": false, "id": 1705, "name": "Catering"}, {"primary": false, "id": 1722, "name": "Restaurants"}, {"primary": false, "id": 1727, "name": "Delis And Delicatessens"}, {"primary": false, "id": 1728, "name": "Dessert Shops"}, {"primary": false, "id": 1736, "name": "Sandwich Shops"}, {"primary": false, "id": 23220, "name": "Continental"}, {"primary": false, "id": 23260, "name": "Toyo"}, {"primary": false, "id": 23280, "name": "Yokohama"}, {"primary": false, "id": 11048, "name": "Cake"}, {"primary": false, "id": 11057, "name": "Wedding Cakes"}, {"primary": false, "id": 11230, "name": "Vegetarian"}, {"primary": false, "id": 11247, "name": "Carry Out"}, {"primary": false, "id": 11249, "name": "Cheap Eats"}, {"primary": false, "id": 11286, "name": "Lunch Spot"}, {"primary": false, "id": 11290, "name": "Non-Smoking"}, {"primary": false, "id": 11299, "name": "Pizza"}, {"primary": false, "id": 11333, "name": "American Express"}, {"primary": false, "id": 11339, "name": "Cash"}, {"primary": false, "id": 11349, "name": "Discover"}, {"primary": false, "id": 11361, "name": "MasterCard"}, {"primary": false, "id": 11382, "name": "Visa"}, {"primary": false, "id": 12821, "name": "Casual Date Spot"}, {"primary": true, "id": 1685, "name": "Bakeries"}], "fax_number": null, "expansion": {"count": null, "uri": null}, "impression_id": "000b000000296baf7b026246b1846df2adf3c54742", "profile": "http://www.citysearch.com/profile/631965670/marietta_ga/la_suprema_bakery.html", "address": {"city": "Marietta", "state": "GA", "street": "12 Cobb Pkwy S", "postal_code": "30060"}, "capProviderId": null, "distance": null, "has_offers": false, "name": "La Suprema Bakery", "longitude": -84.520744, "has_menu": false, "awards": null, "user_review_count": 2}, {"business_operation_status": 1, "rating": 8.0, "neighborhood": null, "image": "http://images.citysearch.net/assets/imgdb/merchant/2010/8/13/0/QnBUvXuT46.jpeg", "scorecard": null, "featured": false, "sample_categories": "Restaurants, Carry Out, Cheap Eats, Food Delivery, Pizza", "public_id": "papa-johns-pizza-marietta-5", "id": 2903740, "votes": null, "tagline": "Better Ingredients.  Better Pizza.  Papa John's.", "has_video": false, "website": "http://www.citysearch.com/profile/external/2903740/marietta_ga/papa_john_s_pizza.html", "offers": null, "latitude": 33.993849, "politanName": "Atlanta, GA Metro ", "phone_number": "7705653599", "tags": [{"primary": false, "id": 11247, "name": "Carry Out"}, {"primary": false, "id": 11249, "name": "Cheap Eats"}, {"primary": false, "id": 11267, "name": "Food Delivery"}, {"primary": false, "id": 11299, "name": "Pizza"}, {"primary": false, "id": 11333, "name": "American Express"}, {"primary": false, "id": 11349, "name": "Discover"}, {"primary": false, "id": 11361, "name": "MasterCard"}, {"primary": false, "id": 11382, "name": "Visa"}, {"primary": true, "id": 1722, "name": "Restaurants"}], "fax_number": null, "expansion": {"count": null, "uri": null}, "impression_id": "000b000000c1affa7a5f8c448d9a4e6edbc9433d21", "profile": "http://www.citysearch.com/profile/2903740/marietta_ga/papa_john_s_pizza.html", "address": {"city": "Marietta", "state": "GA", "street": "1860 Sandy Plains Rd", "postal_code": "30066"}, "capProviderId": null, "distance": null, "has_offers": false, "name": "Papa John's Pizza", "longitude": -84.509193, "has_menu": true, "awards": null, "user_review_count": 0}, {"business_operation_status": 1, "rating": 10.0, "neighborhood": null, "image": "http://images.citysearch.net/assets/imgdb/merchant/2010/8/19/0/ZenXAKOc169.jpeg", "scorecard": null, "featured": false, "sample_categories": "Restaurants, Sandwich Shops, Pizza, $, Carry Out", "public_id": "g-angelos-marietta", "id": 2908297, "votes": null, "tagline": "We Deliver the Best Pizza, in Marietta, to Your Door Step!", "has_video": false, "website": "http://www.citysearch.com/profile/external/2908297/marietta_ga/g_angelo_s.html", "offers": "Carry Out Special!", "latitude": 34.030179, "politanName": "Atlanta, GA Metro ", "phone_number": "7704241800", "tags": [{"primary": false, "id": 1722, "name": "Restaurants"}, {"primary": false, "id": 1736, "name": "Sandwich Shops"}, {"primary": false, "id": 11231, "name": "$"}, {"primary": false, "id": 11247, "name": "Carry Out"}, {"primary": false, "id": 11249, "name": "Cheap Eats"}, {"primary": false, "id": 11256, "name": "Date Spot"}, {"primary": false, "id": 11262, "name": "Family Style Dining"}, {"primary": false, "id": 11263, "name": "Family-Friendly Dining"}, {"primary": false, "id": 11267, "name": "Food Delivery"}, {"primary": false, "id": 11269, "name": "Group Dining"}, {"primary": false, "id": 11279, "name": "Italian"}, {"primary": false, "id": 11284, "name": "Local Favorite"}, {"primary": false, "id": 11286, "name": "Lunch Spot"}, {"primary": false, "id": 11333, "name": "American Express"}, {"primary": false, "id": 11339, "name": "Cash"}, {"primary": false, "id": 11340, "name": "Casual"}, {"primary": false, "id": 11349, "name": "Discover"}, {"primary": false, "id": 11361, "name": "MasterCard"}, {"primary": false, "id": 11369, "name": "Parking Lot"}, {"primary": false, "id": 11382, "name": "Visa"}, {"primary": false, "id": 12821, "name": "Casual Date Spot"}, {"primary": false, "id": 14890, "name": "Comfort Food"}, {"primary": true, "id": 11299, "name": "Pizza"}], "fax_number": null, "expansion": {"count": null, "uri": null}, "impression_id": "000b00000088bf235f8af64e2781599cc89ded66fe", "profile": "http://www.citysearch.com/profile/2908297/marietta_ga/g_angelo_s.html", "address": {"city": "Marietta", "state": "GA", "street": "3205 Canton Rd 108", "postal_code": "30066"}, "capProviderId": null, "distance": null, "has_offers": true, "name": "G' Angelo's", "longitude": -84.528473, "has_menu": true, "awards": null, "user_review_count": 5}, {"business_operation_status": 0, "rating": null, "neighborhood": null, "image": "http://images.citysearch.net/assets/imgdb/be/2b/5e/ce/3d/91/43/fe/82/af/b4/d3/e5/22/ff/e1.jpg", "scorecard": null, "featured": false, "sample_categories": "Restaurants, Bars & Clubs, Sports Bars, Barbecue Restaurants, Traditional American", "public_id": "smokey-bones-kennesaw", "id": 603147292, "votes": null, "tagline": "Good food, good drinks and good times at Smokey Bones Bar & Fire Grill", "has_video": false, "website": "http://www.citysearch.com/profile/external/603147292/kennesaw_ga/smokey_bones.html", "offers": null, "latitude": 34.012685, "politanName": "Atlanta, GA Metro ", "phone_number": "6782907771", "tags": [{"primary": false, "id": 164, "name": "Bars & Clubs"}, {"primary": false, "id": 1701, "name": "Sports Bars"}, {"primary": false, "id": 1724, "name": "Barbecue Restaurants"}, {"primary": false, "id": 11190, "name": "Traditional American"}, {"primary": false, "id": 11247, "name": "Carry Out"}, {"primary": false, "id": 11375, "name": "Shop Online"}, {"primary": true, "id": 1722, "name": "Restaurants"}], "fax_number": null, "expansion": {"count": null, "uri": null}, "impression_id": "000b000000d98d1a3fbbd440e6b1f7eb77adb53dfe", "profile": "http://www.citysearch.com/profile/603147292/kennesaw_ga/smokey_bones.html", "address": {"city": "Kennesaw", "state": "GA", "street": "2475 George Busbee Parkway", "postal_code": "30144"}, "capProviderId": null, "distance": null, "has_offers": false, "name": "Smokey Bones", "longitude": -84.56563, "has_menu": true, "awards": null, "user_review_count": 7}, {"business_operation_status": 1, "rating": null, "neighborhood": null, "image": "http://images.citysearch.net/assets/imgdb/43/1a/5a/52/85/c6/48/f0/b7/d1/75/98/47/9d/8a/d3.JPG", "scorecard": null, "featured": false, "sample_categories": "Neighborhood Bars, Ethnic Goods, After Work, Notable Beer List, Hispanic Food Products", "public_id": "taco-mac-eastwest-connector-austell", "id": 602949622, "votes": null, "tagline": "Atlanta's original Buffalo wings & largest draught selection in town!", "has_video": false, "website": "http://www.citysearch.com/profile/external/602949622/austell_ga/taco_mac_east_west_connector.html", "offers": null, "latitude": 33.855384, "politanName": "Atlanta, GA Metro ", "phone_number": "7708017708", "tags": [{"primary": false, "id": 6041, "name": "Ethnic Goods"}, {"primary": false, "id": 10015, "name": "After Work"}, {"primary": false, "id": 11102, "name": "Notable Beer List"}, {"primary": false, "id": 11153, "name": "Hispanic Food Products"}, {"primary": false, "id": 11237, "name": "Bar Menu"}, {"primary": false, "id": 11238, "name": "Bar Scene"}, {"primary": false, "id": 11258, "name": "Dine At The Bar"}, {"primary": false, "id": 11263, "name": "Family-Friendly Dining"}, {"primary": false, "id": 11292, "name": "Notable Beer List"}, {"primary": false, "id": 11313, "name": "Southwestern"}, {"primary": false, "id": 11333, "name": "American Express"}, {"primary": false, "id": 11361, "name": "MasterCard"}, {"primary": false, "id": 11382, "name": "Visa"}, {"primary": false, "id": 12821, "name": "Casual Date Spot"}, {"primary": true, "id": 1698, "name": "Neighborhood Bars"}], "fax_number": "7708018781", "expansion": {"count": null, "uri": null}, "impression_id": "000b00000079317d959e744ba88e794e05f390787c", "profile": "http://www.citysearch.com/profile/602949622/austell_ga/taco_mac_east_west_connector.html", "address": {"city": "Austell", "state": "GA", "street": "1025-1 East West Connector SW", "postal_code": "30106"}, "capProviderId": null, "distance": null, "has_offers": false, "name": "Taco Mac East/West Connector", "longitude": -84.583167, "has_menu": false, "awards": null, "user_review_count": 2}, {"business_operation_status": 1, "rating": null, "neighborhood": null, "image": "http://images.citysearch.net/assets/imgdb/merchant/2009/11/19/0/LxacavSr134.jpeg", "scorecard": null, "featured": false, "sample_categories": "Restaurants, Pizza, MasterCard, Visa", "public_id": "saporitos-pizza-marietta", "id": 602690322, "votes": null, "tagline": "Marietta's Authentic Pizza!", "has_video": false, "website": "http://www.citysearch.com/profile/external/602690322/marietta_ga/saporito_s_pizza.html", "offers": null, "latitude": 33.969965, "politanName": "Atlanta, GA Metro ", "phone_number": "7705097797", "tags": [{"primary": false, "id": 11299, "name": "Pizza"}, {"primary": false, "id": 11361, "name": "MasterCard"}, {"primary": false, "id": 11382, "name": "Visa"}, {"primary": true, "id": 1722, "name": "Restaurants"}], "fax_number": null, "expansion": {"count": null, "uri": null}, "impression_id": "000b00000073daca970f5a4651959e3c9a40c8cf08", "profile": "http://www.citysearch.com/profile/602690322/marietta_ga/saporito_s_pizza.html", "address": {"city": "Marietta", "state": "GA", "street": "2201 Roswell Rd 100", "postal_code": "30062"}, "capProviderId": null, "distance": null, "has_offers": false, "name": "Saporito's Pizza", "longitude": -84.489161, "has_menu": true, "awards": null, "user_review_count": 3}, {"business_operation_status": 1, "rating": null, "neighborhood": null, "image": "http://images.citysearch.net/assets/imgdb/merchant/2010/8/13/0/QnBUvXuT46.jpeg", "scorecard": null, "featured": false, "sample_categories": "Restaurants, Carry Out, Cheap Eats, Food Delivery, Pizza", "public_id": "papa-johns-pizza-kennesaw-2", "id": 2957208, "votes": null, "tagline": "Better Ingredients.  Better Pizza.  Papa John's.", "has_video": false, "website": "http://www.citysearch.com/profile/external/2957208/kennesaw_ga/papa_john_s_pizza.html", "offers": null, "latitude": 34.02334, "politanName": "Atlanta, GA Metro ", "phone_number": "7704285333", "tags": [{"primary": false, "id": 11247, "name": "Carry Out"}, {"primary": false, "id": 11249, "name": "Cheap Eats"}, {"primary": false, "id": 11267, "name": "Food Delivery"}, {"primary": false, "id": 11299, "name": "Pizza"}, {"primary": false, "id": 11333, "name": "American Express"}, {"primary": false, "id": 11349, "name": "Discover"}, {"primary": false, "id": 11361, "name": "MasterCard"}, {"primary": false, "id": 11382, "name": "Visa"}, {"primary": true, "id": 1722, "name": "Restaurants"}], "fax_number": null, "expansion": {"count": null, "uri": null}, "impression_id": "000b000000a542ace0de7d43c18b1b0214aa55db3c", "profile": "http://www.citysearch.com/profile/2957208/kennesaw_ga/papa_john_s_pizza.html", "address": {"city": "Kennesaw", "state": "GA", "street": "2774 Cobb Pkwy NW Ste 103", "postal_code": "30152"}, "capProviderId": null, "distance": null, "has_offers": false, "name": "Papa John's Pizza", "longitude": -84.624608, "has_menu": true, "awards": null, "user_review_count": 1}, {"business_operation_status": 1, "rating": null, "neighborhood": null, "image": "http://images.citysearch.net/assets/imgdb/merchant/2010/8/13/0/QnBUvXuT46.jpeg", "scorecard": null, "featured": false, "sample_categories": "Restaurants, Carry Out, Cheap Eats, Food Delivery, Pizza", "public_id": "papa-johns-pizza-mableton", "id": 2949272, "votes": null, "tagline": "Better Ingredients.  Better Pizza.  Papa John's.", "has_video": false, "website": "http://www.citysearch.com/profile/external/2949272/mableton_ga/papa_john_s_pizza.html", "offers": null, "latitude": 33.818355, "politanName": "Atlanta, GA Metro ", "phone_number": "7707395059", "tags": [{"primary": false, "id": 11247, "name": "Carry Out"}, {"primary": false, "id": 11249, "name": "Cheap Eats"}, {"primary": false, "id": 11267, "name": "Food Delivery"}, {"primary": false, "id": 11299, "name": "Pizza"}, {"primary": false, "id": 11333, "name": "American Express"}, {"primary": false, "id": 11349, "name": "Discover"}, {"primary": false, "id": 11361, "name": "MasterCard"}, {"primary": false, "id": 11382, "name": "Visa"}, {"primary": true, "id": 1722, "name": "Restaurants"}], "fax_number": null, "expansion": {"count": null, "uri": null}, "impression_id": "000b00000050f1075c64914f79997af1eeb59cbabe", "profile": "http://www.citysearch.com/profile/2949272/mableton_ga/papa_john_s_pizza.html", "address": {"city": "Mableton", "state": "GA", "street": "853 Veterans Memorial Hwy Sw", "postal_code": "30126"}, "capProviderId": null, "distance": null, "has_offers": false, "name": "Papa John's Pizza", "longitude": -84.579058, "has_menu": true, "awards": null, "user_review_count": 0}, {"business_operation_status": 1, "rating": null, "neighborhood": null, "image": "http://images.citysearch.net/assets/imgdb/merchant/2010/8/13/0/QnBUvXuT46.jpeg", "scorecard": null, "featured": false, "sample_categories": "Restaurants, Carry Out, Cheap Eats, Food Delivery, Pizza", "public_id": "papa-johns-pizza-austell", "id": 2873771, "votes": null, "tagline": "Better Ingredients.  Better Pizza.  Papa John's.", "has_video": false, "website": "http://www.citysearch.com/profile/external/2873771/austell_ga/papa_john_s_pizza.html", "offers": null, "latitude": 33.855802, "politanName": "Atlanta, GA Metro ", "phone_number": "6789454500", "tags": [{"primary": false, "id": 11247, "name": "Carry Out"}, {"primary": false, "id": 11249, "name": "Cheap Eats"}, {"primary": false, "id": 11267, "name": "Food Delivery"}, {"primary": false, "id": 11299, "name": "Pizza"}, {"primary": false, "id": 11333, "name": "American Express"}, {"primary": false, "id": 11349, "name": "Discover"}, {"primary": false, "id": 11361, "name": "MasterCard"}, {"primary": false, "id": 11382, "name": "Visa"}, {"primary": true, "id": 1722, "name": "Restaurants"}], "fax_number": null, "expansion": {"count": null, "uri": null}, "impression_id": "000b00000037410ec818ab4ce99471836907b4a9e6", "profile": "http://www.citysearch.com/profile/2873771/austell_ga/papa_john_s_pizza.html", "address": {"city": "Austell", "state": "GA", "street": "3999 Austell Rd", "postal_code": "30106"}, "capProviderId": null, "distance": null, "has_offers": false, "name": "Papa John's Pizza", "longitude": -84.600338, "has_menu": true, "awards": null, "user_review_count": 0}, {"business_operation_status": 1, "rating": null, "neighborhood": null, "image": "http://images.citysearch.net/assets/imgdb/merchant/2010/1/19/0/VXzuaHXn26.jpeg", "scorecard": null, "featured": false, "sample_categories": "Catering, Restaurants, Pizza, Carry Out, Food Delivery", "public_id": "pizza-hut-marietta", "id": 2900717, "votes": null, "tagline": "Order From Pizza Hut Online Today! Choose Real Taste, and So Much More", "has_video": false, "website": "http://www.citysearch.com/profile/external/2900717/marietta_ga/pizza_hut.html", "offers": null, "latitude": 33.893761, "politanName": "Atlanta, GA Metro ", "phone_number": "7704367000", "tags": [{"primary": false, "id": 1705, "name": "Catering"}, {"primary": false, "id": 11299, "name": "Pizza"}, {"primary": false, "id": 11247, "name": "Carry Out"}, {"primary": false, "id": 11267, "name": "Food Delivery"}, {"primary": false, "id": 11333, "name": "American Express"}, {"primary": false, "id": 11349, "name": "Discover"}, {"primary": false, "id": 11361, "name": "MasterCard"}, {"primary": false, "id": 11382, "name": "Visa"}, {"primary": true, "id": 1722, "name": "Restaurants"}], "fax_number": null, "expansion": {"count": null, "uri": null}, "impression_id": "000b000000643f2917e92b4205a75f352e7ebd1915", "profile": "http://www.citysearch.com/profile/2900717/marietta_ga/pizza_hut.html", "address": {"city": "Marietta", "state": "GA", "street": "250 Windy Hill Rd SE 200", "postal_code": "30060"}, "capProviderId": null, "distance": null, "has_offers": false, "name": "Pizza Hut", "longitude": -84.552374, "has_menu": true, "awards": null, "user_review_count": 0}, {"business_operation_status": 1, "rating": null, "neighborhood": null, "image": "http://images.citysearch.net/assets/imgdb/merchant/2010/1/19/0/VXzuaHXn26.jpeg", "scorecard": null, "featured": false, "sample_categories": "Catering, Restaurants, Pizza, Carry Out, Food Delivery", "public_id": "pizza-hut-marietta-3", "id": 2873750, "votes": null, "tagline": "Order From Pizza Hut Online Today! Choose Real Taste, and So Much More", "has_video": false, "website": "http://www.citysearch.com/profile/external/2873750/marietta_ga/pizza_hut.html", "offers": null, "latitude": 33.864471, "politanName": "Atlanta, GA Metro ", "phone_number": "7704354800", "tags": [{"primary": false, "id": 1705, "name": "Catering"}, {"primary": false, "id": 11299, "name": "Pizza"}, {"primary": false, "id": 11247, "name": "Carry Out"}, {"primary": false, "id": 11267, "name": "Food Delivery"}, {"primary": false, "id": 11333, "name": "American Express"}, {"primary": false, "id": 11349, "name": "Discover"}, {"primary": false, "id": 11361, "name": "MasterCard"}, {"primary": false, "id": 11382, "name": "Visa"}, {"primary": true, "id": 1722, "name": "Restaurants"}], "fax_number": null, "expansion": {"count": null, "uri": null}, "impression_id": "000b000000a4be190bff0847598a9f25c823521057", "profile": "http://www.citysearch.com/profile/2873750/marietta_ga/pizza_hut.html", "address": {"city": "Marietta", "state": "GA", "street": "3660 Austell Rd SW", "postal_code": "30008"}, "capProviderId": null, "distance": null, "has_offers": false, "name": "Pizza Hut", "longitude": -84.595553, "has_menu": true, "awards": null, "user_review_count": 0}, {"business_operation_status": 1, "rating": null, "neighborhood": null, "image": "http://images.citysearch.net/assets/imgdb/merchant/2010/8/13/0/QnBUvXuT46.jpeg", "scorecard": null, "featured": false, "sample_categories": "Restaurants, Carry Out, Cheap Eats, Food Delivery, Pizza", "public_id": "papa-johns-pizza-powder-spgs", "id": 2950207, "votes": null, "tagline": "Better Ingredients.  Better Pizza.  Papa John's.", "has_video": false, "website": "http://www.citysearch.com/profile/external/2950207/powder_springs_ga/papa_john_s_pizza.html", "offers": null, "latitude": 33.941758, "politanName": "Atlanta, GA Metro ", "phone_number": "7705141444", "tags": [{"primary": false, "id": 11247, "name": "Carry Out"}, {"primary": false, "id": 11249, "name": "Cheap Eats"}, {"primary": false, "id": 11267, "name": "Food Delivery"}, {"primary": false, "id": 11299, "name": "Pizza"}, {"primary": true, "id": 1722, "name": "Restaurants"}], "fax_number": null, "expansion": {"count": null, "uri": null}, "impression_id": "000b000000232283ca3f1e4402bce39a120afa434b", "profile": "http://www.citysearch.com/profile/2950207/powder_springs_ga/papa_john_s_pizza.html", "address": {"city": "Powder Springs", "state": "GA", "street": "5200 Dallas Hwy", "postal_code": "30127"}, "capProviderId": null, "distance": null, "has_offers": false, "name": "Papa John's Pizza", "longitude": -84.702798, "has_menu": true, "awards": null, "user_review_count": 0}, {"business_operation_status": 1, "rating": 10.0, "neighborhood": null, "image": "http://o1.aolcdn.com/dims-shared/dims3/PATCH/resize/600x450/http://hss-prod.hss.aol.com/hss/storage/patch/bb71c9d8194b5c913328a0a04237cdaa", "scorecard": null, "featured": false, "sample_categories": "Delis And Delicatessens, Catering, Restaurants, Sandwich Shops, $", "public_id": "blimpie-subs-salads-marietta-4", "id": 36116075, "votes": null, "tagline": "Health-conscious fast-food, including Italian hoagies and salads, keeps sub lovers satisfied.", "has_video": false, "website": "http://www.citysearch.com/profile/external/36116075/marietta_ga/blimpie_subs_salads.html", "offers": null, "latitude": 34.038655, "politanName": "Atlanta, GA Metro ", "phone_number": "7705174850", "tags": [{"primary": false, "id": 1705, "name": "Catering"}, {"primary": false, "id": 1722, "name": "Restaurants"}, {"primary": false, "id": 1736, "name": "Sandwich Shops"}, {"primary": false, "id": 11231, "name": "$"}, {"primary": false, "id": 11247, "name": "Carry Out"}, {"primary": false, "id": 11263, "name": "Family-Friendly Dining"}, {"primary": false, "id": 11286, "name": "Lunch Spot"}, {"primary": true, "id": 1727, "name": "Delis And Delicatessens"}], "fax_number": null, "expansion": {"count": null, "uri": null}, "impression_id": "000b000000360499a3602a41c0aadaa05f29a4ebc5", "profile": "http://www.citysearch.com/profile/36116075/marietta_ga/blimpie_subs_salads.html", "address": {"city": "Marietta", "state": "GA", "street": "3595 Canton Rd C20", "postal_code": "30066"}, "capProviderId": null, "distance": null, "has_offers": false, "name": "Blimpie Subs & Salads", "longitude": -84.53097, "has_menu": true, "awards": null, "user_review_count": 0}, {"business_operation_status": 1, "rating": 6.0, "neighborhood": null, "image": "http://images.citysearch.net/assets/imgdb/9e/3a/86/08/b5/2a/41/dc/87/79/09/e9/33/fe/9e/f4.JPG", "scorecard": null, "featured": false, "sample_categories": "Neighborhood Bars, Restaurants, After Work, Notable Beer List, Mexican", "public_id": "taco-mac-kennesaw-kennesaw", "id": 602949662, "votes": null, "tagline": "Atlanta's original Buffalo wings & largest draught selection in town!", "has_video": false, "website": "http://www.citysearch.com/profile/external/602949662/kennesaw_ga/taco_mac_kennesaw.html", "offers": null, "latitude": 34.037182, "politanName": "Atlanta, GA Metro ", "phone_number": "7708747781", "tags": [{"primary": false, "id": 1722, "name": "Restaurants"}, {"primary": false, "id": 10015, "name": "After Work"}, {"primary": false, "id": 11102, "name": "Notable Beer List"}, {"primary": false, "id": 11208, "name": "Mexican"}, {"primary": false, "id": 11237, "name": "Bar Menu"}, {"primary": false, "id": 11238, "name": "Bar Scene"}, {"primary": false, "id": 11258, "name": "Dine At The Bar"}, {"primary": false, "id": 11263, "name": "Family-Friendly Dining"}, {"primary": false, "id": 11292, "name": "Notable Beer List"}, {"primary": false, "id": 11313, "name": "Southwestern"}, {"primary": false, "id": 11333, "name": "American Express"}, {"primary": false, "id": 11361, "name": "MasterCard"}, {"primary": false, "id": 11382, "name": "Visa"}, {"primary": false, "id": 12821, "name": "Casual Date Spot"}, {"primary": true, "id": 1698, "name": "Neighborhood Bars"}], "fax_number": "7708747783", "expansion": {"count": null, "uri": null}, "impression_id": "000b000000700971aca62a4a38ac7b60b927daecd9", "profile": "http://www.citysearch.com/profile/602949662/kennesaw_ga/taco_mac_kennesaw.html", "address": {"city": "Kennesaw", "state": "GA", "street": "600 Chastain Rd, Suite 310", "postal_code": "30144"}, "capProviderId": null, "distance": null, "has_offers": false, "name": "Taco Mac Kennesaw", "longitude": -84.567518, "has_menu": true, "awards": null, "user_review_count": 1}, {"business_operation_status": 1, "rating": 10.0, "neighborhood": null, "image": "http://images.citysearch.net/assets/imgdb/d4/58/ed/55/77/0b/45/94/9a/47/d3/cf/6d/01/64/7a.jpg", "scorecard": null, "featured": false, "sample_categories": "Restaurants, Catering, Barbecue Restaurants", "public_id": "uncle-cs-rib-joint-acworth", "id": 602895472, "votes": null, "tagline": "When you try it, You just can't Deny it!", "has_video": false, "website": null, "offers": null, "latitude": 34.061102, "politanName": "Atlanta, GA Metro ", "phone_number": "7702564945", "tags": [{"primary": false, "id": 1705, "name": "Catering"}, {"primary": false, "id": 1724, "name": "Barbecue Restaurants"}, {"primary": true, "id": 1722, "name": "Restaurants"}], "fax_number": null, "expansion": {"count": null, "uri": null}, "impression_id": "000b000000a9450568447c46dc93f7ec02f92afef3", "profile": "http://www.citysearch.com/profile/602895472/acworth_ga/uncle_c_s_rib_joint.html", "address": {"city": "Acworth", "state": "GA", "street": "4356 Cobb Parkway Hwy 41", "postal_code": "30101"}, "capProviderId": null, "distance": null, "has_offers": false, "name": "Uncle C's Rib Joint", "longitude": -84.722122, "has_menu": false, "awards": null, "user_review_count": 2}, {"business_operation_status": 1, "rating": null, "neighborhood": null, "image": "http://o5.aolcdn.com/dims-shared/dims3/PATCH/resize/600x450/http://hss-prod.hss.aol.com/hss/storage/patch/7f09b2fe4e154e3980a4ab67d30ef719", "scorecard": null, "featured": false, "sample_categories": "Catering, Restaurants, Pizza, Carry Out, Food Delivery", "public_id": "pizza-hut-acworth-2", "id": 2938878, "votes": null, "tagline": "Order From Pizza Hut Online Today! Choose Real Taste and So Much More.", "has_video": false, "website": "http://www.citysearch.com/profile/external/2938878/dallas_ga/pizza_hut.html", "offers": null, "latitude": 34.01074, "politanName": "Atlanta, GA Metro ", "phone_number": "7709170111", "tags": [{"primary": false, "id": 1705, "name": "Catering"}, {"primary": false, "id": 11299, "name": "Pizza"}, {"primary": false, "id": 11247, "name": "Carry Out"}, {"primary": false, "id": 11267, "name": "Food Delivery"}, {"primary": false, "id": 11333, "name": "American Express"}, {"primary": false, "id": 11349, "name": "Discover"}, {"primary": false, "id": 11361, "name": "MasterCard"}, {"primary": false, "id": 11382, "name": "Visa"}, {"primary": true, "id": 1722, "name": "Restaurants"}], "fax_number": null, "expansion": {"count": null, "uri": null}, "impression_id": "000b000000345ca5b10111470f971453c892c95538", "profile": "http://www.citysearch.com/profile/2938878/dallas_ga/pizza_hut.html", "address": {"city": "Dallas", "state": "GA", "street": "8876 Dallas Acworth Hwy 106", "postal_code": "30132"}, "capProviderId": null, "distance": null, "has_offers": false, "name": "Pizza Hut", "longitude": -84.752136, "has_menu": true, "awards": null, "user_review_count": 0}, {"business_operation_status": 1, "rating": null, "neighborhood": null, "image": "http://images.citysearch.net/assets/imgdb/merchant/2010/1/19/0/VXzuaHXn26.jpeg", "scorecard": null, "featured": false, "sample_categories": "Catering, Restaurants, Pizza, Carry Out, Food Delivery", "public_id": "pizza-hut-powder-spgs", "id": 2950200, "votes": null, "tagline": "Order From Pizza Hut Online Today! Choose Real Taste, and So Much More", "has_video": false, "website": "http://www.citysearch.com/profile/external/2950200/powder_springs_ga/pizza_hut.html", "offers": null, "latitude": 33.873, "politanName": "Atlanta, GA Metro ", "phone_number": "7709433400", "tags": [{"primary": false, "id": 1705, "name": "Catering"}, {"primary": false, "id": 11299, "name": "Pizza"}, {"primary": false, "id": 11247, "name": "Carry Out"}, {"primary": false, "id": 11267, "name": "Food Delivery"}, {"primary": false, "id": 11333, "name": "American Express"}, {"primary": false, "id": 11349, "name": "Discover"}, {"primary": false, "id": 11361, "name": "MasterCard"}, {"primary": false, "id": 11382, "name": "Visa"}, {"primary": true, "id": 1722, "name": "Restaurants"}], "fax_number": null, "expansion": {"count": null, "uri": null}, "impression_id": "000b000000a565c3daa2fe4962bb08a1baaaeada39", "profile": "http://www.citysearch.com/profile/2950200/powder_springs_ga/pizza_hut.html", "address": {"city": "Powder Springs", "state": "GA", "street": "3309 New Macland Rd", "postal_code": "30127"}, "capProviderId": null, "distance": null, "has_offers": false, "name": "Pizza Hut", "longitude": -84.676119, "has_menu": true, "awards": null, "user_review_count": 0}, {"business_operation_status": 1, "rating": 10.0, "neighborhood": null, "image": "http://images.citysearch.net/assets/imgdb/aa/37/c6/4f/01/7c/41/6b/bf/29/e9/64/5f/75/3b/4f.png", "scorecard": null, "featured": false, "sample_categories": "Restaurants, Catering", "public_id": "house-of-seasonin-buffet-catering-marietta", "id": 602890292, "votes": null, "tagline": "All you can eat lunch buffet only $6.60", "has_video": false, "website": null, "offers": null, "latitude": 33.973353, "politanName": "Atlanta, GA Metro ", "phone_number": "7706529073", "tags": [{"primary": false, "id": 1705, "name": "Catering"}, {"primary": true, "id": 1722, "name": "Restaurants"}], "fax_number": null, "expansion": {"count": null, "uri": null}, "impression_id": "000b0000009ce3ac8cd1034267885889b7a25a4782", "profile": "http://www.citysearch.com/profile/602890292/marietta_ga/house_of_seasonin_buffet_catering.html", "address": {"city": "Marietta", "state": "GA", "street": "915 Cobb Pkwy N.", "postal_code": "30062"}, "capProviderId": null, "distance": null, "has_offers": false, "name": "House of Seasonin' Buffet & Catering", "longitude": -84.54318, "has_menu": false, "awards": null, "user_review_count": 1}, {"business_operation_status": 1, "rating": 10.0, "neighborhood": null, "image": null, "scorecard": null, "featured": false, "sample_categories": "Restaurants, Mexican, American Express, Discover, MasterCard", "public_id": "willys-mexicana-grill-kennesaw-kennesaw", "id": 40841225, "votes": null, "tagline": "Local burrito chain mixes college-joint atmosphere and grown-up flavors.", "has_video": false, "website": null, "offers": null, "latitude": 34.005446, "politanName": "Atlanta, GA Metro ", "phone_number": "7704299515", "tags": [{"primary": false, "id": 1722, "name": "Restaurants"}, {"primary": false, "id": 11333, "name": "American Express"}, {"primary": false, "id": 11349, "name": "Discover"}, {"primary": false, "id": 11361, "name": "MasterCard"}, {"primary": false, "id": 11382, "name": "Visa"}, {"primary": true, "id": 11208, "name": "Mexican"}], "fax_number": null, "expansion": {"count": null, "uri": null}, "impression_id": "000b00000072bef4c875ad40349041eba5b5482cde", "profile": "http://www.citysearch.com/profile/40841225/kennesaw_ga/willy_s_mexicana_grill_kennesaw.html", "address": {"city": "Kennesaw", "state": "GA", "street": "840 Barrett Pkwy", "postal_code": "30144"}, "capProviderId": null, "distance": null, "has_offers": false, "name": "Willy's Mexicana Grill - Kennesaw", "longitude": -84.575487, "has_menu": false, "awards": null, "user_review_count": 3}], "histograms": [], "tag_ids": [1722], "uri": "http://api.citygridmedia.com:8080/search/places/v2/search/where?has_offers=false&type=restaurant&format=json&page=5&where=30064&rpp=50&histograms=false&publisher=10000009598&region_type=circle", "did_you_mean": "", "regions": [{"latitude": 33.938860999999996, "default_radius": 5.31, "type": "postal_code", "name": "30064", "longitude": -84.614086}], "call_id": "000b000000bda43bfc12a84ff7b13bcb3551ae7a9a", "first_hit": 201, "total_hits": 1588, "geo_ids": [26293], "page": 5, "last_hit": 250}}