{"results": {"rpp": 50, "locations": [{"business_operation_status": 1, "rating": null, "neighborhood": null, "image": null, "scorecard": null, "featured": false, "sample_categories": "Grocery Stores, Bakeries, Delis And Delicatessens, Florists, Department Stores", "public_id": "kroger-deli-marietta", "id": 621968220, "votes": null, "tagline": null, "has_video": false, "website": "http://www.citysearch.com/profile/external/621968220/marietta_ga/kroger_deli.html", "offers": null, "latitude": 34.038928, "politanName": "Atlanta, GA Metro ", "phone_number": "7709247930", "tags": [{"primary": false, "id": 1685, "name": "Bakeries"}, {"primary": false, "id": 1727, "name": "Delis And Delicatessens"}, {"primary": false, "id": 3921, "name": "Florists"}, {"primary": false, "id": 3924, "name": "Department Stores"}, {"primary": true, "id": 1713, "name": "Grocery Stores"}], "fax_number": null, "expansion": {"count": null, "uri": null}, "impression_id": "000b000000811ff5490e3648dcbb87641a29119612", "profile": "http://www.citysearch.com/profile/621968220/marietta_ga/kroger_deli.html", "address": {"city": "Marietta", "state": "GA", "street": "3595 Canton Rd # B", "postal_code": "30066"}, "capProviderId": null, "distance": null, "has_offers": false, "name": "Kroger Deli", "longitude": -84.530249, "has_menu": false, "awards": null, "user_review_count": 0}, {"business_operation_status": 1, "rating": null, "neighborhood": null, "image": null, "scorecard": null, "featured": false, "sample_categories": "Restaurants", "public_id": "juiceplus-virtual-franchise-marietta", "id": 807686480, "votes": null, "tagline": null, "has_video": false, "website": null, "offers": null, "latitude": 34.069239, "politanName": "Atlanta, GA Metro ", "phone_number": "7709246861", "tags": [{"primary": true, "id": 1722, "name": "Restaurants"}], "fax_number": null, "expansion": {"count": null, "uri": null}, "impression_id": "000b000000d574a75444b6458da2eace18214be7d0", "profile": "http://www.citysearch.com/profile/807686480/marietta_ga/juiceplus_virtual_franchise.html", "address": {"city": "Marietta", "state": "GA", "street": "4953 Turtle Trce NE", "postal_code": "30066"}, "capProviderId": null, "distance": null, "has_offers": false, "name": "Juiceplus Virtual Franchise", "longitude": -84.484219, "has_menu": false, "awards": null, "user_review_count": 0}, {"business_operation_status": 1, "rating": null, "neighborhood": null, "image": null, "scorecard": null, "featured": false, "sample_categories": "Restaurants, Carry Out", "public_id": "atlanta-bread-co-marietta-4", "id": 825753830, "votes": null, "tagline": null, "has_video": false, "website": null, "offers": null, "latitude": 33.948083, "politanName": "Atlanta, GA Metro ", "phone_number": "7704250442", "tags": [{"primary": false, "id": 11247, "name": "Carry Out"}, {"primary": true, "id": 1722, "name": "Restaurants"}], "fax_number": null, "expansion": {"count": null, "uri": null}, "impression_id": "000b000000993b66c95c8b4d529f70a46fa3d9357a", "profile": "http://www.citysearch.com/profile/825753830/marietta_ga/atlanta_bread_co.html", "address": {"city": "Marietta", "state": "GA", "street": "245 Rdgeway Rd NW Ste 200", "postal_code": "30064"}, "capProviderId": null, "distance": null, "has_offers": false, "name": "Atlanta Bread Co", "longitude": -84.626672, "has_menu": false, "awards": null, "user_review_count": 0}, {"business_operation_status": 1, "rating": null, "neighborhood": null, "image": null, "scorecard": null, "featured": false, "sample_categories": "Restaurants", "public_id": "ocharleys-regional-office-marietta", "id": 826459340, "votes": null, "tagline": null, "has_video": false, "website": null, "offers": null, "latitude": 34.009709, "politanName": "Atlanta, GA Metro ", "phone_number": "7705098868", "tags": [{"primary": true, "id": 1722, "name": "Restaurants"}], "fax_number": null, "expansion": {"count": null, "uri": null}, "impression_id": "000b00000036bf8e93c4994d689806941985387765", "profile": "http://www.citysearch.com/profile/826459340/marietta_ga/o_charley_s_regional_office.html", "address": {"city": "Marietta", "state": "GA", "street": "2440 Sandy Plains Rd", "postal_code": "30066"}, "capProviderId": null, "distance": null, "has_offers": false, "name": "O'Charley's Regional Office", "longitude": -84.496627, "has_menu": true, "awards": null, "user_review_count": 0}, {"business_operation_status": 1, "rating": null, "neighborhood": null, "image": null, "scorecard": null, "featured": false, "sample_categories": "Restaurants", "public_id": "taqueria-tecolotes-marietta", "id": 826288150, "votes": null, "tagline": null, "has_video": false, "website": null, "offers": null, "latitude": 34.048278, "politanName": "Atlanta, GA Metro ", "phone_number": "7705921277", "tags": [{"primary": true, "id": 1722, "name": "Restaurants"}], "fax_number": null, "expansion": {"count": null, "uri": null}, "impression_id": "000b000000b90d24f861e641369f788ef0f6008766", "profile": "http://www.citysearch.com/profile/826288150/marietta_ga/taqueria_tecolotes.html", "address": {"city": "Marietta", "state": "GA", "street": "4017 Canton Rd", "postal_code": "30066"}, "capProviderId": null, "distance": null, "has_offers": false, "name": "Taqueria Tecolotes", "longitude": -84.52851, "has_menu": false, "awards": null, "user_review_count": 0}, {"business_operation_status": 1, "rating": null, "neighborhood": null, "image": null, "scorecard": null, "featured": false, "sample_categories": "Restaurants", "public_id": "philly-connection-marietta-5", "id": 833997530, "votes": null, "tagline": null, "has_video": false, "website": null, "offers": null, "latitude": 34.037983, "politanName": "Atlanta, GA Metro ", "phone_number": "7709263120", "tags": [{"primary": true, "id": 1722, "name": "Restaurants"}], "fax_number": null, "expansion": {"count": null, "uri": null}, "impression_id": "000b000000beafbf00d65e47d1b621ad46eb191516", "profile": "http://www.citysearch.com/profile/833997530/marietta_ga/philly_connection.html", "address": {"city": "Marietta", "state": "GA", "street": "3545 Canton Rd", "postal_code": "30066"}, "capProviderId": null, "distance": null, "has_offers": false, "name": "Philly Connection", "longitude": -84.528616, "has_menu": true, "awards": null, "user_review_count": 0}, {"business_operation_status": 1, "rating": null, "neighborhood": null, "image": null, "scorecard": null, "featured": false, "sample_categories": "Restaurants, Jamaican", "public_id": "jamaican-restaurant-cntrystyl-marietta", "id": 775206370, "votes": null, "tagline": null, "has_video": false, "website": null, "offers": null, "latitude": 34.032429, "politanName": "Atlanta, GA Metro ", "phone_number": "7704251004", "tags": [{"primary": false, "id": 11193, "name": "Jamaican"}, {"primary": true, "id": 1722, "name": "Restaurants"}], "fax_number": null, "expansion": {"count": null, "uri": null}, "impression_id": "000b000000c341c82284c846c4ac3b2509c5083ea8", "profile": "http://www.citysearch.com/profile/775206370/marietta_ga/jamaican_restaurant_cntrystyl.html", "address": {"city": "Marietta", "state": "GA", "street": "3349 Canton Rd", "postal_code": "30066"}, "capProviderId": null, "distance": null, "has_offers": false, "name": "Jamaican Restaurant Cntrystyl", "longitude": -84.528135, "has_menu": false, "awards": null, "user_review_count": 0}, {"business_operation_status": 1, "rating": null, "neighborhood": null, "image": null, "scorecard": null, "featured": false, "sample_categories": "Restaurants", "public_id": "cheeseburger-bobbys-marietta", "id": 672561730, "votes": null, "tagline": null, "has_video": false, "website": "http://www.citysearch.com/profile/external/672561730/marietta_ga/cheeseburger_bobby_s.html", "offers": null, "latitude": 34.013539, "politanName": "Atlanta, GA Metro ", "phone_number": "7709199110", "tags": [{"primary": true, "id": 1722, "name": "Restaurants"}], "fax_number": null, "expansion": {"count": null, "uri": null}, "impression_id": "000b000000fd994642ac4b4d5485f3c5019695f4fc", "profile": "http://www.citysearch.com/profile/672561730/marietta_ga/cheeseburger_bobby_s.html", "address": {"city": "Marietta", "state": "GA", "street": "125 Barrett Parkway", "postal_code": "30066"}, "capProviderId": null, "distance": null, "has_offers": false, "name": "Cheeseburger Bobby's", "longitude": -84.552923, "has_menu": true, "awards": null, "user_review_count": 0}, {"business_operation_status": 1, "rating": null, "neighborhood": null, "image": null, "scorecard": null, "featured": false, "sample_categories": "Coffeehouses", "public_id": "viazza-coffee-marietta", "id": 621400894, "votes": null, "tagline": null, "has_video": false, "website": null, "offers": null, "latitude": 34.06925, "politanName": "Atlanta, GA Metro ", "phone_number": "6782476599", "tags": [{"primary": true, "id": 1726, "name": "Coffeehouses"}], "fax_number": null, "expansion": {"count": null, "uri": null}, "impression_id": "000b000000bd697d40b12c4e87ae1242f8d8956e72", "profile": "http://www.citysearch.com/profile/621400894/marietta_ga/viazza_coffee.html", "address": {"city": "Marietta", "state": "GA", "street": "825 Jamerson Rd 528", "postal_code": "30066"}, "capProviderId": null, "distance": null, "has_offers": false, "name": "Viazza Coffee", "longitude": -84.525415, "has_menu": false, "awards": null, "user_review_count": 0}, {"business_operation_status": 1, "rating": null, "neighborhood": null, "image": null, "scorecard": null, "featured": false, "sample_categories": "Restaurants, Pizza", "public_id": "pizza-314-marietta", "id": 754799300, "votes": null, "tagline": null, "has_video": false, "website": null, "offers": null, "latitude": 34.011742, "politanName": "Atlanta, GA Metro ", "phone_number": "7709712929", "tags": [{"primary": false, "id": 11299, "name": "Pizza"}, {"primary": true, "id": 1722, "name": "Restaurants"}], "fax_number": null, "expansion": {"count": null, "uri": null}, "impression_id": "000b0000002fc708d873314d80b4a4c01400c66463", "profile": "http://www.citysearch.com/profile/754799300/marietta_ga/pizza_314.html", "address": {"city": "Marietta", "state": "GA", "street": "2550 Sandy Plains Rd", "postal_code": "30066"}, "capProviderId": null, "distance": null, "has_offers": false, "name": "Pizza 314", "longitude": -84.495056, "has_menu": false, "awards": null, "user_review_count": 0}, {"business_operation_status": 1, "rating": null, "neighborhood": null, "image": null, "scorecard": null, "featured": false, "sample_categories": "Restaurants", "public_id": "reveille-cafe-marietta", "id": 768805900, "votes": null, "tagline": null, "has_video": false, "website": null, "offers": null, "latitude": 34.03494, "politanName": "Atlanta, GA Metro ", "phone_number": "7709716800", "tags": [{"primary": true, "id": 1722, "name": "Restaurants"}], "fax_number": null, "expansion": {"count": null, "uri": null}, "impression_id": "000b0000008e19d00a8c6c4bdbaf83129f5a3a47e5", "profile": "http://www.citysearch.com/profile/768805900/marietta_ga/reveille_cafe.html", "address": {"city": "Marietta", "state": "GA", "street": "2960 Shallowford Rd", "postal_code": "30066"}, "capProviderId": null, "distance": null, "has_offers": false, "name": "Reveille Cafe", "longitude": -84.466773, "has_menu": false, "awards": null, "user_review_count": 0}, {"business_operation_status": 1, "rating": null, "neighborhood": null, "image": null, "scorecard": null, "featured": false, "sample_categories": "Restaurants, Chinese", "public_id": "lucky-dragon-marietta-2", "id": 45989668, "votes": null, "tagline": null, "has_video": false, "website": null, "offers": null, "latitude": 34.032215, "politanName": "Atlanta, GA Metro ", "phone_number": "7702188889", "tags": [{"primary": false, "id": 11252, "name": "Chinese"}, {"primary": true, "id": 1722, "name": "Restaurants"}], "fax_number": null, "expansion": {"count": null, "uri": null}, "impression_id": "000b000000364c222ac098459c9de554efe3247495", "profile": "http://www.citysearch.com/profile/45989668/marietta_ga/lucky_dragon.html", "address": {"city": "Marietta", "state": "GA", "street": "3402 Canton Rd", "postal_code": "30066"}, "capProviderId": null, "distance": null, "has_offers": false, "name": "Lucky Dragon", "longitude": -84.527765, "has_menu": true, "awards": null, "user_review_count": 0}, {"business_operation_status": 1, "rating": null, "neighborhood": null, "image": null, "scorecard": null, "featured": false, "sample_categories": "Restaurants", "public_id": "china-town-gourmet-marietta", "id": 827846610, "votes": null, "tagline": null, "has_video": false, "website": null, "offers": null, "latitude": 34.032195, "politanName": "Atlanta, GA Metro ", "phone_number": "7704291387", "tags": [{"primary": true, "id": 1722, "name": "Restaurants"}], "fax_number": null, "expansion": {"count": null, "uri": null}, "impression_id": "000b0000007a3ba51753404d27894af91fdaf6fce6", "profile": "http://www.citysearch.com/profile/827846610/marietta_ga/china_town_gourmet.html", "address": {"city": "Marietta", "state": "GA", "street": "3402 Canton Rd", "postal_code": "30066"}, "capProviderId": null, "distance": null, "has_offers": false, "name": "China Town Gourmet", "longitude": -84.527689, "has_menu": false, "awards": null, "user_review_count": 0}, {"business_operation_status": 1, "rating": null, "neighborhood": null, "image": null, "scorecard": null, "featured": false, "sample_categories": "Restaurants", "public_id": "jerk-pan-marietta", "id": 732188760, "votes": null, "tagline": null, "has_video": false, "website": null, "offers": null, "latitude": 34.032215, "politanName": "Atlanta, GA Metro ", "phone_number": "7706757069", "tags": [{"primary": true, "id": 1722, "name": "Restaurants"}], "fax_number": null, "expansion": {"count": null, "uri": null}, "impression_id": "000b0000000eddd45a0be542e7b843c168f22901fb", "profile": "http://www.citysearch.com/profile/732188760/marietta_ga/jerk_pan.html", "address": {"city": "Marietta", "state": "GA", "street": "3402 Canton Rd", "postal_code": "30066"}, "capProviderId": null, "distance": null, "has_offers": false, "name": "Jerk Pan", "longitude": -84.527765, "has_menu": false, "awards": null, "user_review_count": 0}, {"business_operation_status": 1, "rating": null, "neighborhood": null, "image": null, "scorecard": null, "featured": false, "sample_categories": "Restaurants", "public_id": "twisted-kitchen-marietta", "id": 745026280, "votes": null, "tagline": null, "has_video": false, "website": null, "offers": null, "latitude": 34.013539, "politanName": "Atlanta, GA Metro ", "phone_number": "4049929432", "tags": [{"primary": true, "id": 1722, "name": "Restaurants"}], "fax_number": null, "expansion": {"count": null, "uri": null}, "impression_id": "000b0000003dc23ab2d79547ee9d20f4fc5496ddbc", "profile": "http://www.citysearch.com/profile/745026280/marietta_ga/twisted_kitchen.html", "address": {"city": "Marietta", "state": "GA", "street": "125 Barrett Pkwy # 111", "postal_code": "30066"}, "capProviderId": null, "distance": null, "has_offers": false, "name": "Twisted Kitchen", "longitude": -84.552923, "has_menu": true, "awards": null, "user_review_count": 0}, {"business_operation_status": 1, "rating": null, "neighborhood": null, "image": null, "scorecard": null, "featured": false, "sample_categories": "Restaurants, Delis And Delicatessens, Sandwich Shops, Carry Out", "public_id": "subway-marietta-54", "id": 779672970, "votes": null, "tagline": null, "has_video": false, "website": "http://www.citysearch.com/profile/external/779672970/marietta_ga/subway.html", "offers": null, "latitude": 34.027594, "politanName": "Atlanta, GA Metro ", "phone_number": "7706934723", "tags": [{"primary": false, "id": 1727, "name": "Delis And Delicatessens"}, {"primary": false, "id": 1736, "name": "Sandwich Shops"}, {"primary": false, "id": 11247, "name": "Carry Out"}, {"primary": true, "id": 1722, "name": "Restaurants"}], "fax_number": null, "expansion": {"count": null, "uri": null}, "impression_id": "000b000000fae2d4ac8a3446398608636f1798e040", "profile": "http://www.citysearch.com/profile/779672970/marietta_ga/subway.html", "address": {"city": "Marietta", "state": "GA", "street": "3079 Hidden Forest Ct", "postal_code": "30066"}, "capProviderId": null, "distance": null, "has_offers": false, "name": "SUBWAY", "longitude": -84.564373, "has_menu": false, "awards": null, "user_review_count": 0}, {"business_operation_status": 1, "rating": 6.0, "neighborhood": null, "image": null, "scorecard": null, "featured": false, "sample_categories": "Restaurants, American Express, Discover, MasterCard, Visa", "public_id": "jimmy-macks-food-spirits-marietta", "id": 35740195, "votes": null, "tagline": null, "has_video": false, "website": "http://www.citysearch.com/profile/external/35740195/marietta_ga/jimmy_mack_s_food_spirits.html", "offers": null, "latitude": 34.030179, "politanName": "Atlanta, GA Metro ", "phone_number": "7707949700", "tags": [{"primary": false, "id": 11333, "name": "American Express"}, {"primary": false, "id": 11349, "name": "Discover"}, {"primary": false, "id": 11361, "name": "MasterCard"}, {"primary": false, "id": 11382, "name": "Visa"}, {"primary": true, "id": 1722, "name": "Restaurants"}], "fax_number": null, "expansion": {"count": null, "uri": null}, "impression_id": "000b0000002a060e2eee234419a62995b7c83670f4", "profile": "http://www.citysearch.com/profile/35740195/marietta_ga/jimmy_mack_s_food_spirits.html", "address": {"city": "Marietta", "state": "GA", "street": "3205 Canton Rd Ste 104-106", "postal_code": "30066"}, "capProviderId": null, "distance": null, "has_offers": false, "name": "Jimmy Mack's Food & Spirits", "longitude": -84.528473, "has_menu": true, "awards": null, "user_review_count": 1}, {"business_operation_status": 1, "rating": null, "neighborhood": null, "image": null, "scorecard": null, "featured": false, "sample_categories": "Restaurants", "public_id": "niche-private-diningcatering-marietta", "id": 773444390, "votes": null, "tagline": null, "has_video": false, "website": null, "offers": null, "latitude": 34.010385, "politanName": "Atlanta, GA Metro ", "phone_number": "4049019840", "tags": [{"primary": true, "id": 1722, "name": "Restaurants"}], "fax_number": null, "expansion": {"count": null, "uri": null}, "impression_id": "000b000000633ed126b7684da3a8e1931c406867ce", "profile": "http://www.citysearch.com/profile/773444390/marietta_ga/niche_private_dining_catering.html", "address": {"city": "Marietta", "state": "GA", "street": "2287 Nottley Dr", "postal_code": "30066"}, "capProviderId": null, "distance": null, "has_offers": false, "name": "Niche Private Dining-Catering", "longitude": -84.557109, "has_menu": false, "awards": null, "user_review_count": 0}, {"business_operation_status": 1, "rating": null, "neighborhood": null, "image": null, "scorecard": null, "featured": false, "sample_categories": "Restaurants, Mexican", "public_id": "desperados-tex-mex-rstrnt-marietta", "id": 775196520, "votes": null, "tagline": null, "has_video": false, "website": null, "offers": null, "latitude": 33.99637, "politanName": "Atlanta, GA Metro ", "phone_number": "7704202550", "tags": [{"primary": false, "id": 11208, "name": "Mexican"}, {"primary": true, "id": 1722, "name": "Restaurants"}], "fax_number": null, "expansion": {"count": null, "uri": null}, "impression_id": "000b000000dd14868f691b4186b04badaf79adedcd", "profile": "http://www.citysearch.com/profile/775196520/marietta_ga/desperado_s_tex_mex_rstrnt.html", "address": {"city": "Marietta", "state": "GA", "street": "700 Sandy Plains Rd", "postal_code": "30066"}, "capProviderId": null, "distance": null, "has_offers": false, "name": "Desperado's Tex Mex Rstrnt", "longitude": -84.528753, "has_menu": false, "awards": null, "user_review_count": 0}, {"business_operation_status": 1, "rating": null, "neighborhood": null, "image": null, "scorecard": null, "featured": false, "sample_categories": "Restaurants", "public_id": "moms-specialties-marietta", "id": 787117300, "votes": null, "tagline": null, "has_video": false, "website": null, "offers": null, "latitude": 34.05296, "politanName": "Atlanta, GA Metro ", "phone_number": "7709284476", "tags": [{"primary": true, "id": 1722, "name": "Restaurants"}], "fax_number": null, "expansion": {"count": null, "uri": null}, "impression_id": "000b000000fc7b4444c79247738a7d8fb221ab4fb3", "profile": "http://www.citysearch.com/profile/787117300/marietta_ga/moms_specialties.html", "address": {"city": "Marietta", "state": "GA", "street": "4193 Inlet Rd", "postal_code": "30066"}, "capProviderId": null, "distance": null, "has_offers": false, "name": "Moms Specialties", "longitude": -84.509403, "has_menu": false, "awards": null, "user_review_count": 0}, {"business_operation_status": 1, "rating": null, "neighborhood": null, "image": null, "scorecard": null, "featured": false, "sample_categories": "Restaurants, Pizza, Carry Out", "public_id": "little-caesars-pizza-marietta-13", "id": 798841470, "votes": null, "tagline": null, "has_video": false, "website": "http://www.citysearch.com/profile/external/798841470/marietta_ga/little_caesars_pizza.html", "offers": null, "latitude": 34.033796, "politanName": "Atlanta, GA Metro ", "phone_number": "7704245051", "tags": [{"primary": false, "id": 1722, "name": "Restaurants"}, {"primary": false, "id": 11247, "name": "Carry Out"}, {"primary": true, "id": 11299, "name": "Pizza"}], "fax_number": null, "expansion": {"count": null, "uri": null}, "impression_id": "000b00000000628aced9c9446485f6d112a9d622b5", "profile": "http://www.citysearch.com/profile/798841470/marietta_ga/little_caesars_pizza.html", "address": {"city": "Marietta", "state": "GA", "street": "3372 Canton Rd", "postal_code": "30066"}, "capProviderId": null, "distance": null, "has_offers": false, "name": "Little Caesars Pizza", "longitude": -84.527673, "has_menu": false, "awards": null, "user_review_count": 0}, {"business_operation_status": 1, "rating": null, "neighborhood": null, "image": null, "scorecard": null, "featured": false, "sample_categories": "Restaurants, Carry Out", "public_id": "firehouse-subs-marietta-4", "id": 621046074, "votes": null, "tagline": null, "has_video": false, "website": null, "offers": null, "latitude": 33.948258, "politanName": "Atlanta, GA Metro ", "phone_number": null, "tags": [{"primary": false, "id": 11247, "name": "Carry Out"}, {"primary": true, "id": 1722, "name": "Restaurants"}], "fax_number": null, "expansion": {"count": null, "uri": null}, "impression_id": "000b000000d96edc1587784976bd22fbb98f972d5b", "profile": "http://www.citysearch.com/profile/621046074/marietta_ga/firehouse_subs.html", "address": {"city": "Marietta", "state": "GA", "street": "2500 Dallas Hwy SW 650", "postal_code": "30064"}, "capProviderId": null, "distance": null, "has_offers": false, "name": "Firehouse Subs", "longitude": -84.62566, "has_menu": false, "awards": null, "user_review_count": 0}, {"business_operation_status": 0, "rating": 8.0, "neighborhood": null, "image": null, "scorecard": null, "featured": false, "sample_categories": "Restaurants, Bars & Pubs", "public_id": "ts-parkside-bar-grill-marietta", "id": 44773749, "votes": null, "tagline": null, "has_video": false, "website": null, "offers": null, "latitude": 34.038148, "politanName": "Atlanta, GA Metro ", "phone_number": "7705784666", "tags": [{"primary": false, "id": 1686, "name": "Bars & Pubs"}, {"primary": true, "id": 1722, "name": "Restaurants"}], "fax_number": null, "expansion": {"count": null, "uri": null}, "impression_id": "000b000000b6949537e83748bb86fdb0e4be915260", "profile": "http://www.citysearch.com/profile/44773749/marietta_ga/t_s_parkside_bar_grill.html", "address": {"city": "Marietta", "state": "GA", "street": "3605 Sandy Plains Rd", "postal_code": "30066"}, "capProviderId": null, "distance": null, "has_offers": false, "name": "T's Parkside Bar & Grill", "longitude": -84.465333, "has_menu": false, "awards": null, "user_review_count": 2}, {"business_operation_status": 1, "rating": null, "neighborhood": null, "image": null, "scorecard": null, "featured": false, "sample_categories": "Restaurants, Catering, Delis And Delicatessens, Sandwich Shops, Carry Out", "public_id": "quiznos-marietta", "id": 45989666, "votes": null, "tagline": null, "has_video": false, "website": "http://www.citysearch.com/profile/external/45989666/marietta_ga/quiznos.html", "offers": null, "latitude": 34.014064, "politanName": "Atlanta, GA Metro ", "phone_number": "7709734979", "tags": [{"primary": false, "id": 1705, "name": "Catering"}, {"primary": false, "id": 1727, "name": "Delis And Delicatessens"}, {"primary": false, "id": 1736, "name": "Sandwich Shops"}, {"primary": false, "id": 11247, "name": "Carry Out"}, {"primary": false, "id": 11375, "name": "Shop Online"}, {"primary": true, "id": 1722, "name": "Restaurants"}], "fax_number": null, "expansion": {"count": null, "uri": null}, "impression_id": "000b000000f5f5698534974c7f903d4849c6206201", "profile": "http://www.citysearch.com/profile/45989666/marietta_ga/quiznos.html", "address": {"city": "Marietta", "state": "GA", "street": "2595 Sandy Plains Rd Ste 4", "postal_code": "30066"}, "capProviderId": null, "distance": null, "has_offers": false, "name": "Quiznos", "longitude": -84.495766, "has_menu": true, "awards": null, "user_review_count": 0}, {"business_operation_status": 1, "rating": null, "neighborhood": null, "image": null, "scorecard": null, "featured": false, "sample_categories": "Restaurants, Traditional American", "public_id": "judys-country-kitchen-ii-marietta", "id": 672819800, "votes": null, "tagline": null, "has_video": false, "website": "http://www.citysearch.com/profile/external/672819800/marietta_ga/judy_s_country_kitchen_ii.html", "offers": null, "latitude": 34.017913, "politanName": "Atlanta, GA Metro ", "phone_number": "6783888680", "tags": [{"primary": false, "id": 11190, "name": "Traditional American"}, {"primary": true, "id": 1722, "name": "Restaurants"}], "fax_number": null, "expansion": {"count": null, "uri": null}, "impression_id": "000b0000004a169c24ff7b4dfb81efa5157d74a409", "profile": "http://www.citysearch.com/profile/672819800/marietta_ga/judy_s_country_kitchen_ii.html", "address": {"city": "Marietta", "state": "GA", "street": "2745 Sandy Plains Road #106", "postal_code": "30066"}, "capProviderId": null, "distance": null, "has_offers": false, "name": "Judy's Country Kitchen II", "longitude": -84.492683, "has_menu": false, "awards": null, "user_review_count": 0}, {"business_operation_status": 1, "rating": null, "neighborhood": null, "image": null, "scorecard": null, "featured": false, "sample_categories": "Restaurants", "public_id": "place-philllps-mr-marietta", "id": 713425060, "votes": null, "tagline": null, "has_video": false, "website": null, "offers": null, "latitude": 34.032215, "politanName": "Atlanta, GA Metro ", "phone_number": "7706720690", "tags": [{"primary": true, "id": 1722, "name": "Restaurants"}], "fax_number": null, "expansion": {"count": null, "uri": null}, "impression_id": "000b000000a4c0eff7c7874e6ebad49264af99174e", "profile": "http://www.citysearch.com/profile/713425060/marietta_ga/place_philllp_s_mr.html", "address": {"city": "Marietta", "state": "GA", "street": "3402 Canton Rd", "postal_code": "30066"}, "capProviderId": null, "distance": null, "has_offers": false, "name": "Place Philllp's Mr", "longitude": -84.527765, "has_menu": false, "awards": null, "user_review_count": 0}, {"business_operation_status": 0, "rating": null, "neighborhood": null, "image": null, "scorecard": null, "featured": false, "sample_categories": "Restaurants", "public_id": "taco-loco-marietta-3", "id": 672859520, "votes": null, "tagline": null, "has_video": false, "website": null, "offers": null, "latitude": 34.038538, "politanName": "Atlanta, GA Metro ", "phone_number": "7709288060", "tags": [{"primary": true, "id": 1722, "name": "Restaurants"}], "fax_number": null, "expansion": {"count": null, "uri": null}, "impression_id": "000b000000b9a7de8645734ee5a4c06815aaf5a3d0", "profile": "http://www.citysearch.com/profile/672859520/marietta_ga/taco_loco.html", "address": {"city": "Marietta", "state": "GA", "street": "3545 Canton Road", "postal_code": "30066"}, "capProviderId": null, "distance": null, "has_offers": false, "name": "Taco Loco", "longitude": -84.528373, "has_menu": true, "awards": null, "user_review_count": 0}, {"business_operation_status": 1, "rating": null, "neighborhood": null, "image": null, "scorecard": null, "featured": false, "sample_categories": "Restaurants", "public_id": "georges-grill-bbq-marietta", "id": 672294490, "votes": null, "tagline": null, "has_video": false, "website": null, "offers": null, "latitude": 33.997727, "politanName": "Atlanta, GA Metro ", "phone_number": null, "tags": [{"primary": true, "id": 1722, "name": "Restaurants"}], "fax_number": null, "expansion": {"count": null, "uri": null}, "impression_id": "000b000000674a16aef4a34fdc93f90346291fb7ff", "profile": "http://www.citysearch.com/profile/672294490/marietta_ga/george_s_grill_bbq.html", "address": {"city": "Marietta", "state": "GA", "street": "1951 Canton Rd NE", "postal_code": "30066"}, "capProviderId": null, "distance": null, "has_offers": false, "name": "George's Grill & BBQ", "longitude": -84.525055, "has_menu": false, "awards": null, "user_review_count": 0}, {"business_operation_status": 1, "rating": null, "neighborhood": null, "image": null, "scorecard": null, "featured": false, "sample_categories": "Restaurants", "public_id": "eat-smart-solutions-marietta", "id": 613912764, "votes": null, "tagline": null, "has_video": false, "website": null, "offers": null, "latitude": 34.041728, "politanName": "Atlanta, GA Metro ", "phone_number": "6782478574", "tags": [{"primary": true, "id": 1722, "name": "Restaurants"}], "fax_number": null, "expansion": {"count": null, "uri": null}, "impression_id": "000b0000007f6a4b9103d146a7bf8d87d3813dab27", "profile": "http://www.citysearch.com/profile/613912764/marietta_ga/eat_smart_solutions.html", "address": {"city": "Marietta", "state": "GA", "street": "3653 Canton Rd", "postal_code": "30066"}, "capProviderId": null, "distance": null, "has_offers": false, "name": "Eat Smart Solutions", "longitude": -84.529523, "has_menu": false, "awards": null, "user_review_count": 0}, {"business_operation_status": 1, "rating": null, "neighborhood": null, "image": null, "scorecard": null, "featured": false, "sample_categories": "Restaurants, Carry Out", "public_id": "waffle-house-marietta-17", "id": 617872834, "votes": null, "tagline": null, "has_video": false, "website": "http://www.citysearch.com/profile/external/617872834/marietta_ga/waffle_house.html", "offers": null, "latitude": 34.067847, "politanName": "Atlanta, GA Metro ", "phone_number": "7709249199", "tags": [{"primary": false, "id": 11247, "name": "Carry Out"}, {"primary": true, "id": 1722, "name": "Restaurants"}], "fax_number": null, "expansion": {"count": null, "uri": null}, "impression_id": "000b000000595d985d94a349cfbe8c6fb840808147", "profile": "http://www.citysearch.com/profile/617872834/marietta_ga/waffle_house.html", "address": {"city": "Marietta", "state": "GA", "street": "4797 Canton Rd", "postal_code": "30066"}, "capProviderId": null, "distance": null, "has_offers": false, "name": "Waffle House", "longitude": -84.521855, "has_menu": false, "awards": null, "user_review_count": 0}, {"business_operation_status": 1, "rating": null, "neighborhood": null, "image": null, "scorecard": null, "featured": false, "sample_categories": "Restaurants, Delis And Delicatessens, Sandwich Shops, Carry Out", "public_id": "subway-marietta-36", "id": 655943030, "votes": null, "tagline": null, "has_video": false, "website": "http://www.citysearch.com/profile/external/655943030/marietta_ga/subway.html", "offers": null, "latitude": 33.995879, "politanName": "Atlanta, GA Metro ", "phone_number": "7703212546", "tags": [{"primary": false, "id": 1727, "name": "Delis And Delicatessens"}, {"primary": false, "id": 1736, "name": "Sandwich Shops"}, {"primary": false, "id": 11247, "name": "Carry Out"}, {"primary": true, "id": 1722, "name": "Restaurants"}], "fax_number": null, "expansion": {"count": null, "uri": null}, "impression_id": "000b0000000c5f6cfdecae47f2b6fc52194051387d", "profile": "http://www.citysearch.com/profile/655943030/marietta_ga/subway.html", "address": {"city": "Marietta", "state": "GA", "street": "1860 Sandy Plains Rd # 301", "postal_code": "30066"}, "capProviderId": null, "distance": null, "has_offers": false, "name": "Subway", "longitude": -84.507715, "has_menu": false, "awards": null, "user_review_count": 0}, {"business_operation_status": 1, "rating": 8.0, "neighborhood": null, "image": null, "scorecard": null, "featured": false, "sample_categories": "Restaurants, Chinese, American Express, Discover, MasterCard", "public_id": "new-lucky-china-marietta", "id": 33572518, "votes": null, "tagline": null, "has_video": false, "website": "http://www.citysearch.com/profile/external/33572518/marietta_ga/new_lucky_china.html", "offers": null, "latitude": 34.03494, "politanName": "Atlanta, GA Metro ", "phone_number": "7705659666", "tags": [{"primary": false, "id": 11252, "name": "Chinese"}, {"primary": false, "id": 11333, "name": "American Express"}, {"primary": false, "id": 11349, "name": "Discover"}, {"primary": false, "id": 11361, "name": "MasterCard"}, {"primary": false, "id": 11382, "name": "Visa"}, {"primary": true, "id": 1722, "name": "Restaurants"}], "fax_number": null, "expansion": {"count": null, "uri": null}, "impression_id": "000b000000910cac97826d4a8d87cd8e11df774646", "profile": "http://www.citysearch.com/profile/33572518/marietta_ga/new_lucky_china.html", "address": {"city": "Marietta", "state": "GA", "street": "2960 Shallowford Rd Ste 201", "postal_code": "30066"}, "capProviderId": null, "distance": null, "has_offers": false, "name": "New Lucky China", "longitude": -84.466773, "has_menu": true, "awards": null, "user_review_count": 4}, {"business_operation_status": 1, "rating": null, "neighborhood": null, "image": null, "scorecard": null, "featured": false, "sample_categories": "Ice Cream Parlors, Frozen Yogurt Shops", "public_id": "baskinrobbins-marietta", "id": 627670240, "votes": null, "tagline": null, "has_video": false, "website": "http://www.citysearch.com/profile/external/627670240/marietta_ga/baskin_robbins.html", "offers": null, "latitude": 34.021176, "politanName": "Atlanta, GA Metro ", "phone_number": "7704223375", "tags": [{"primary": false, "id": 1729, "name": "Frozen Yogurt Shops"}, {"primary": true, "id": 1730, "name": "Ice Cream Parlors"}], "fax_number": null, "expansion": {"count": null, "uri": null}, "impression_id": "000b0000002fbf3aa1cfc1432f93db5c03d152763b", "profile": "http://www.citysearch.com/profile/627670240/marietta_ga/baskin_robbins.html", "address": {"city": "Marietta", "state": "GA", "street": "2885 Canton Rd", "postal_code": "30066"}, "capProviderId": null, "distance": null, "has_offers": false, "name": "Baskin-Robbins", "longitude": -84.529098, "has_menu": true, "awards": null, "user_review_count": 2}, {"business_operation_status": 1, "rating": null, "neighborhood": null, "image": null, "scorecard": null, "featured": false, "sample_categories": "Restaurants, Carry Out", "public_id": "kfc-marietta-10", "id": 713491660, "votes": null, "tagline": null, "has_video": false, "website": "http://www.citysearch.com/profile/external/713491660/marietta_ga/kfc.html", "offers": null, "latitude": 33.999161, "politanName": "Atlanta, GA Metro ", "phone_number": "7704276866", "tags": [{"primary": false, "id": 11247, "name": "Carry Out"}, {"primary": true, "id": 1722, "name": "Restaurants"}], "fax_number": null, "expansion": {"count": null, "uri": null}, "impression_id": "000b000000f6181c446cc248c1bc7e78bfacde6229", "profile": "http://www.citysearch.com/profile/713491660/marietta_ga/kfc.html", "address": {"city": "Marietta", "state": "GA", "street": "2012 Canton Rd", "postal_code": "30066"}, "capProviderId": null, "distance": null, "has_offers": false, "name": "KFC", "longitude": -84.523794, "has_menu": false, "awards": null, "user_review_count": 0}, {"business_operation_status": 1, "rating": null, "neighborhood": null, "image": null, "scorecard": null, "featured": false, "sample_categories": "Restaurants, Delis And Delicatessens, Sandwich Shops, Carry Out, American Express", "public_id": "quiznos-marietta-3", "id": 43840232, "votes": null, "tagline": null, "has_video": false, "website": null, "offers": null, "latitude": 33.917126, "politanName": "Atlanta, GA Metro ", "phone_number": "6785947600", "tags": [{"primary": false, "id": 1727, "name": "Delis And Delicatessens"}, {"primary": false, "id": 1736, "name": "Sandwich Shops"}, {"primary": false, "id": 11247, "name": "Carry Out"}, {"primary": false, "id": 11333, "name": "American Express"}, {"primary": false, "id": 11347, "name": "Debit Card"}, {"primary": false, "id": 11349, "name": "Discover"}, {"primary": false, "id": 11361, "name": "MasterCard"}, {"primary": false, "id": 11382, "name": "Visa"}, {"primary": true, "id": 1722, "name": "Restaurants"}], "fax_number": null, "expansion": {"count": null, "uri": null}, "impression_id": "000b0000003cbf8d55cee940daac9b9166ee3d84c7", "profile": "http://www.citysearch.com/profile/43840232/marietta_ga/quiznos.html", "address": {"city": "Marietta", "state": "GA", "street": "125 Barrett Pkwy Ste 104", "postal_code": "30066"}, "capProviderId": null, "distance": null, "has_offers": false, "name": "Quiznos", "longitude": -84.563854, "has_menu": true, "awards": null, "user_review_count": 0}, {"business_operation_status": 1, "rating": null, "neighborhood": null, "image": null, "scorecard": null, "featured": false, "sample_categories": "Restaurants, Pizza", "public_id": "capozzis-ny-pizza-pasta-marietta", "id": 611363274, "votes": null, "tagline": null, "has_video": false, "website": "http://www.citysearch.com/profile/external/611363274/marietta_ga/capozzi_s_ny_pizza_pasta.html", "offers": null, "latitude": 34.034941, "politanName": "Atlanta, GA Metro ", "phone_number": "7703211969", "tags": [{"primary": false, "id": 1722, "name": "Restaurants"}, {"primary": true, "id": 11299, "name": "Pizza"}], "fax_number": null, "expansion": {"count": null, "uri": null}, "impression_id": "000b000000e443b63bf0784b8eb42385d5b5261bb5", "profile": "http://www.citysearch.com/profile/611363274/marietta_ga/capozzi_s_ny_pizza_pasta.html", "address": {"city": "Marietta", "state": "GA", "street": "2960 Shallowford Rd # 101", "postal_code": "30066"}, "capProviderId": null, "distance": null, "has_offers": false, "name": "Capozzi's NY Pizza & Pasta", "longitude": -84.466786, "has_menu": false, "awards": null, "user_review_count": 3}, {"business_operation_status": 1, "rating": null, "neighborhood": null, "image": null, "scorecard": null, "featured": false, "sample_categories": "Restaurants", "public_id": "nickys-restaurant-marietta", "id": 713528800, "votes": null, "tagline": null, "has_video": false, "website": null, "offers": null, "latitude": 34.064318, "politanName": "Atlanta, GA Metro ", "phone_number": "7706491906", "tags": [{"primary": true, "id": 1722, "name": "Restaurants"}], "fax_number": null, "expansion": {"count": null, "uri": null}, "impression_id": "000b0000005894328ea9184737bbafa62a7c132c6f", "profile": "http://www.citysearch.com/profile/713528800/marietta_ga/nicky_s_restaurant.html", "address": {"city": "Marietta", "state": "GA", "street": "4751 Sandy Plains Rd", "postal_code": "30062"}, "capProviderId": null, "distance": null, "has_offers": false, "name": "Nicky's Restaurant", "longitude": -84.424276, "has_menu": false, "awards": null, "user_review_count": 0}, {"business_operation_status": 0, "rating": null, "neighborhood": null, "image": null, "scorecard": null, "featured": false, "sample_categories": "Restaurants", "public_id": "daily-grind-marietta-2", "id": 672770880, "votes": null, "tagline": null, "has_video": false, "website": null, "offers": null, "latitude": 34.014064, "politanName": "Atlanta, GA Metro ", "phone_number": "7709715199", "tags": [{"primary": true, "id": 1722, "name": "Restaurants"}], "fax_number": null, "expansion": {"count": null, "uri": null}, "impression_id": "000b000000d5d1c60cf30941da97d5088301190a53", "profile": "http://www.citysearch.com/profile/672770880/marietta_ga/daily_grind.html", "address": {"city": "Marietta", "state": "GA", "street": "2595 Sandy Plains Rd", "postal_code": "30066"}, "capProviderId": null, "distance": null, "has_offers": false, "name": "Daily Grind", "longitude": -84.495766, "has_menu": true, "awards": null, "user_review_count": 0}, {"business_operation_status": 1, "rating": null, "neighborhood": null, "image": null, "scorecard": null, "featured": false, "sample_categories": "Restaurants", "public_id": "jc-flowers-bonsai-marietta", "id": 787129080, "votes": null, "tagline": null, "has_video": false, "website": null, "offers": null, "latitude": 33.952602, "politanName": "Atlanta, GA Metro ", "phone_number": "7705653912", "tags": [{"primary": true, "id": 1722, "name": "Restaurants"}], "fax_number": null, "expansion": {"count": null, "uri": null}, "impression_id": "000b000000473ec3060c964e86b4c720d85990d038", "profile": "http://www.citysearch.com/profile/787129080/marietta_ga/jc_flowers_bonsai.html", "address": {"city": "Marietta", "state": "GA", "street": "2754 Sandy Plains Rd # 116", "postal_code": "30066"}, "capProviderId": null, "distance": null, "has_offers": false, "name": "Jc Flowers & Bonsai", "longitude": -84.549933, "has_menu": false, "awards": null, "user_review_count": 0}, {"business_operation_status": 1, "rating": null, "neighborhood": null, "image": null, "scorecard": null, "featured": false, "sample_categories": "Delis And Delicatessens", "public_id": "kroger-deli-marietta-8", "id": 705426210, "votes": null, "tagline": null, "has_video": false, "website": null, "offers": null, "latitude": 34.03494, "politanName": "Atlanta, GA Metro ", "phone_number": "7709777724", "tags": [{"primary": true, "id": 1727, "name": "Delis And Delicatessens"}], "fax_number": null, "expansion": {"count": null, "uri": null}, "impression_id": "000b000000f6510ae5f0a14dccb146757b647cfff0", "profile": "http://www.citysearch.com/profile/705426210/marietta_ga/kroger_deli.html", "address": {"city": "Marietta", "state": "GA", "street": "2960 Shallowford Rd # 199", "postal_code": "30066"}, "capProviderId": null, "distance": null, "has_offers": false, "name": "Kroger Deli", "longitude": -84.466773, "has_menu": false, "awards": null, "user_review_count": 0}, {"business_operation_status": 1, "rating": null, "neighborhood": null, "image": null, "scorecard": null, "featured": false, "sample_categories": "Restaurants, Mexican, Carry Out", "public_id": "marietta-marietta", "id": 2907255, "votes": null, "tagline": null, "has_video": false, "website": "http://www.citysearch.com/profile/external/2907255/marietta_ga/marietta.html", "offers": null, "latitude": 34.036665, "politanName": "Atlanta, GA Metro ", "phone_number": "7705789432", "tags": [{"primary": false, "id": 11208, "name": "Mexican"}, {"primary": false, "id": 11247, "name": "Carry Out"}, {"primary": true, "id": 1722, "name": "Restaurants"}], "fax_number": null, "expansion": {"count": null, "uri": null}, "impression_id": "000b000000d9c3d02a271b4fb78de82e1a6adf066e", "profile": "http://www.citysearch.com/profile/2907255/marietta_ga/marietta.html", "address": {"city": "Marietta", "state": "GA", "street": "2971 Shallowford Rd", "postal_code": "30066"}, "capProviderId": null, "distance": null, "has_offers": false, "name": "Marietta", "longitude": -84.464103, "has_menu": true, "awards": null, "user_review_count": 0}, {"business_operation_status": 1, "rating": 8.0, "neighborhood": null, "image": null, "scorecard": null, "featured": false, "sample_categories": "Restaurants, American Express, Discover, MasterCard, Visa", "public_id": "joyful-diner-marietta", "id": 2908308, "votes": null, "tagline": null, "has_video": false, "website": null, "offers": null, "latitude": 34.017069, "politanName": "Atlanta, GA Metro ", "phone_number": "7705656700", "tags": [{"primary": false, "id": 11333, "name": "American Express"}, {"primary": false, "id": 11349, "name": "Discover"}, {"primary": false, "id": 11361, "name": "MasterCard"}, {"primary": false, "id": 11382, "name": "Visa"}, {"primary": true, "id": 1722, "name": "Restaurants"}], "fax_number": null, "expansion": {"count": null, "uri": null}, "impression_id": "000b000000c99be5a9bff042cba2c88ef4bb80458e", "profile": "http://www.citysearch.com/profile/2908308/marietta_ga/joyful_diner.html", "address": {"city": "Marietta", "state": "GA", "street": "2778 Sandy Plains Rd", "postal_code": "30066"}, "capProviderId": null, "distance": null, "has_offers": false, "name": "Joyful Diner", "longitude": -84.491613, "has_menu": false, "awards": null, "user_review_count": 1}, {"business_operation_status": 0, "rating": null, "neighborhood": null, "image": null, "scorecard": null, "featured": false, "sample_categories": "Coffeehouses, Restaurants", "public_id": "expresso-expresso-marietta", "id": 2908344, "votes": null, "tagline": null, "has_video": false, "website": null, "offers": null, "latitude": 34.018009, "politanName": "Atlanta, GA Metro ", "phone_number": "7066375366", "tags": [{"primary": false, "id": 1722, "name": "Restaurants"}, {"primary": true, "id": 1726, "name": "Coffeehouses"}], "fax_number": null, "expansion": {"count": null, "uri": null}, "impression_id": "000b000000587ff44f79de4ad894db1879ece227dc", "profile": "http://www.citysearch.com/profile/2908344/marietta_ga/expresso_expresso.html", "address": {"city": "Marietta", "state": "GA", "street": "1251 Morgan Chase Dr NE", "postal_code": "30066"}, "capProviderId": null, "distance": null, "has_offers": false, "name": "Expresso Expresso", "longitude": -84.515255, "has_menu": false, "awards": null, "user_review_count": 0}, {"business_operation_status": 1, "rating": null, "neighborhood": null, "image": null, "scorecard": null, "featured": false, "sample_categories": "Restaurants, American Express, MasterCard, Visa", "public_id": "buddhas-delight-marietta", "id": 2908307, "votes": null, "tagline": null, "has_video": false, "website": "http://www.citysearch.com/profile/external/2908307/marietta_ga/buddhas_delight.html", "offers": null, "latitude": 34.017093, "politanName": "Atlanta, GA Metro ", "phone_number": "7705651995", "tags": [{"primary": false, "id": 11333, "name": "American Express"}, {"primary": false, "id": 11361, "name": "MasterCard"}, {"primary": false, "id": 11382, "name": "Visa"}, {"primary": true, "id": 1722, "name": "Restaurants"}], "fax_number": null, "expansion": {"count": null, "uri": null}, "impression_id": "000b000000ea102b17ee994602b96267c1d8b9deee", "profile": "http://www.citysearch.com/profile/2908307/marietta_ga/buddhas_delight.html", "address": {"city": "Marietta", "state": "GA", "street": "2731 Sandy Plains Rd", "postal_code": "30066"}, "capProviderId": null, "distance": null, "has_offers": false, "name": "Buddhas Delight", "longitude": -84.492328, "has_menu": true, "awards": null, "user_review_count": 3}, {"business_operation_status": 1, "rating": null, "neighborhood": null, "image": null, "scorecard": null, "featured": false, "sample_categories": "Cafes", "public_id": "reveille-cafe-marietta-2", "id": 619600404, "votes": null, "tagline": null, "has_video": false, "website": null, "offers": null, "latitude": 34.023215, "politanName": "Atlanta, GA Metro ", "phone_number": "7709716800", "tags": [{"primary": true, "id": 6190, "name": "Cafes"}], "fax_number": null, "expansion": {"count": null, "uri": null}, "impression_id": "000b000000fafa2aaed9f240ffa40241d62434cb9c", "profile": "http://www.citysearch.com/profile/619600404/marietta_ga/reveille_cafe.html", "address": {"city": "Marietta", "state": "GA", "street": "2960 Sandy Plains Rd # 130", "postal_code": "30066"}, "capProviderId": null, "distance": null, "has_offers": false, "name": "Reveille Cafe", "longitude": -84.485512, "has_menu": false, "awards": null, "user_review_count": 0}, {"business_operation_status": 1, "rating": null, "neighborhood": null, "image": null, "scorecard": null, "featured": false, "sample_categories": "Restaurants, Bars & Clubs, Bars & Pubs", "public_id": "stadium-bar-grill-marietta", "id": 647336140, "votes": null, "tagline": null, "has_video": false, "website": null, "offers": null, "latitude": 34.011742, "politanName": "Atlanta, GA Metro ", "phone_number": "7705092899", "tags": [{"primary": false, "id": 164, "name": "Bars & Clubs"}, {"primary": false, "id": 1686, "name": "Bars & Pubs"}, {"primary": true, "id": 1722, "name": "Restaurants"}], "fax_number": null, "expansion": {"count": null, "uri": null}, "impression_id": "000b00000022df7c5a696140ceb21855feef85de4f", "profile": "http://www.citysearch.com/profile/647336140/marietta_ga/stadium_bar_grill.html", "address": {"city": "Marietta", "state": "GA", "street": "2550 Sandy Plains Rd", "postal_code": "30066"}, "capProviderId": null, "distance": null, "has_offers": false, "name": "Stadium Bar & Grill", "longitude": -84.495056, "has_menu": false, "awards": null, "user_review_count": 0}, {"business_operation_status": 0, "rating": null, "neighborhood": null, "image": null, "scorecard": null, "featured": false, "sample_categories": "Restaurants", "public_id": "little-azio-kennesaw", "id": 672589690, "votes": null, "tagline": null, "has_video": false, "website": null, "offers": null, "latitude": 34.037182, "politanName": "Atlanta, GA Metro ", "phone_number": "6782131200", "tags": [{"primary": true, "id": 1722, "name": "Restaurants"}], "fax_number": null, "expansion": {"count": null, "uri": null}, "impression_id": "000b000000301547b24cd14a44ae85207806e06969", "profile": "http://www.citysearch.com/profile/672589690/kennesaw_ga/little_azio.html", "address": {"city": "Kennesaw", "state": "GA", "street": "600 Chastain Rd NW", "postal_code": "30144"}, "capProviderId": null, "distance": null, "has_offers": false, "name": "Little Azio", "longitude": -84.567518, "has_menu": false, "awards": null, "user_review_count": 0}, {"business_operation_status": 1, "rating": null, "neighborhood": null, "image": null, "scorecard": null, "featured": false, "sample_categories": "Restaurants, Traditional American, Carry Out, American Express, Discover", "public_id": "arbys-marietta-13", "id": 682479030, "votes": null, "tagline": null, "has_video": false, "website": "http://www.citysearch.com/profile/external/682479030/marietta_ga/arby_s.html", "offers": null, "latitude": 34.01427, "politanName": "Atlanta, GA Metro ", "phone_number": "7709730642", "tags": [{"primary": false, "id": 11190, "name": "Traditional American"}, {"primary": false, "id": 11247, "name": "Carry Out"}, {"primary": false, "id": 11333, "name": "American Express"}, {"primary": false, "id": 11349, "name": "Discover"}, {"primary": false, "id": 11361, "name": "MasterCard"}, {"primary": false, "id": 11382, "name": "Visa"}, {"primary": true, "id": 1722, "name": "Restaurants"}], "fax_number": null, "expansion": {"count": null, "uri": null}, "impression_id": "000b000000ac03bb701a67409bbdd1e320a9e051b3", "profile": "http://www.citysearch.com/profile/682479030/marietta_ga/arby_s.html", "address": {"city": "Marietta", "state": "GA", "street": "2626 Sandy Plains Rd", "postal_code": "30066"}, "capProviderId": null, "distance": null, "has_offers": false, "name": "Arby's", "longitude": -84.494182, "has_menu": true, "awards": null, "user_review_count": 0}, {"business_operation_status": 1, "rating": null, "neighborhood": null, "image": null, "scorecard": null, "featured": false, "sample_categories": "Luaus", "public_id": "osaka-restaurant-marietta", "id": 811134240, "votes": null, "tagline": null, "has_video": false, "website": null, "offers": null, "latitude": 34.03695, "politanName": "Atlanta, GA Metro ", "phone_number": "7705161416", "tags": [{"primary": true, "id": 11285, "name": "Luaus"}], "fax_number": null, "expansion": {"count": null, "uri": null}, "impression_id": "000b0000007c35277e1ee54145b9d1073e7ae8bb06", "profile": "http://www.citysearch.com/profile/811134240/marietta_ga/osaka_restaurant.html", "address": {"city": "Marietta", "state": "GA", "street": "2652 Thornberry Pl", "postal_code": "30066"}, "capProviderId": null, "distance": null, "has_offers": false, "name": "Osaka Restaurant", "longitude": -84.476707, "has_menu": false, "awards": null, "user_review_count": 0}, {"business_operation_status": 1, "rating": null, "neighborhood": null, "image": null, "scorecard": null, "featured": false, "sample_categories": "Restaurants, Delis And Delicatessens", "public_id": "planet-sub-marietta", "id": 770774340, "votes": null, "tagline": null, "has_video": false, "website": null, "offers": null, "latitude": 34.013859, "politanName": "Atlanta, GA Metro ", "phone_number": "7705750206", "tags": [{"primary": false, "id": 1727, "name": "Delis And Delicatessens"}, {"primary": true, "id": 1722, "name": "Restaurants"}], "fax_number": null, "expansion": {"count": null, "uri": null}, "impression_id": "000b0000001d48e7dc720444b1adbdc2b1530635f3", "profile": "http://www.citysearch.com/profile/770774340/marietta_ga/planet_sub.html", "address": {"city": "Marietta", "state": "GA", "street": "125 Barrett Pkwy", "postal_code": "30066"}, "capProviderId": null, "distance": null, "has_offers": false, "name": "Planet Sub", "longitude": -84.554543, "has_menu": false, "awards": null, "user_review_count": 0}], "histograms": [], "tag_ids": [1722], "uri": "http://api.citygridmedia.com:8080/search/places/v2/search/where?has_offers=false&type=restaurant&format=json&page=4&where=30066&rpp=50&histograms=false&publisher=10000009598&region_type=circle", "did_you_mean": "", "regions": [{"latitude": 34.034132, "default_radius": 5.28, "type": "postal_code", "name": "30066", "longitude": -84.508332}], "call_id": "000b000000f1e046d5d81e4364b50de1233184d239", "first_hit": 151, "total_hits": 2075, "geo_ids": [26294], "page": 4, "last_hit": 200}}