{"results": {"rpp": 50, "locations": [{"business_operation_status": 1, "rating": null, "neighborhood": null, "image": null, "scorecard": null, "featured": false, "sample_categories": "Restaurants", "public_id": "tip-top-tea-shoppe-llc-dallas", "id": 632994140, "votes": null, "tagline": null, "has_video": false, "website": "http://www.citysearch.com/profile/external/632994140/dallas_ga/tip_top_tea_shoppe_llc.html", "offers": null, "latitude": 33.991564, "politanName": "Atlanta, GA Metro ", "phone_number": "7704850240", "tags": [{"primary": true, "id": 1722, "name": "Restaurants"}], "fax_number": null, "expansion": {"count": null, "uri": null}, "impression_id": "000b000000b6beed80b37e42c99c31f3950f134c94", "profile": "http://www.citysearch.com/profile/632994140/dallas_ga/tip_top_tea_shoppe_llc.html", "address": {"city": "Dallas", "state": "GA", "street": "92 Richaven Pl", "postal_code": "30132"}, "capProviderId": null, "distance": null, "has_offers": false, "name": "Tip Top Tea Shoppe Llc", "longitude": -84.780151, "has_menu": false, "awards": null, "user_review_count": 0}, {"business_operation_status": 1, "rating": null, "neighborhood": null, "image": null, "scorecard": null, "featured": false, "sample_categories": "Restaurants", "public_id": "mcdonalds-powder-spgs", "id": 672512120, "votes": null, "tagline": null, "has_video": false, "website": null, "offers": null, "latitude": 33.859152, "politanName": "Atlanta, GA Metro ", "phone_number": "7704210722", "tags": [{"primary": true, "id": 1722, "name": "Restaurants"}], "fax_number": null, "expansion": {"count": null, "uri": null}, "impression_id": "000b0000005d6b886549204d95a365a1e9fe24471c", "profile": "http://www.citysearch.com/profile/672512120/powder_springs_ga/mcdonald_s.html", "address": {"city": "Powder Springs", "state": "GA", "street": "1195 Powder Springs Rd Southwest", "postal_code": "30127"}, "capProviderId": null, "distance": null, "has_offers": false, "name": "McDonald's", "longitude": -84.672873, "has_menu": false, "awards": null, "user_review_count": 0}, {"business_operation_status": 1, "rating": null, "neighborhood": null, "image": null, "scorecard": null, "featured": false, "sample_categories": "Restaurants", "public_id": "silver-lodestone-inc-marietta-2", "id": 682289320, "votes": null, "tagline": null, "has_video": false, "website": null, "offers": null, "latitude": 33.938198, "politanName": "Atlanta, GA Metro ", "phone_number": "7705907778", "tags": [{"primary": true, "id": 1722, "name": "Restaurants"}], "fax_number": null, "expansion": {"count": null, "uri": null}, "impression_id": "000b000000c0cde8cad3bb44508120d9300adb9887", "profile": "http://www.citysearch.com/profile/682289320/marietta_ga/silver_lodestone_inc.html", "address": {"city": "Marietta", "state": "GA", "street": "10 Garrison Rd Se", "postal_code": "30008"}, "capProviderId": null, "distance": null, "has_offers": false, "name": "Silver Lodestone INC", "longitude": -84.553364, "has_menu": false, "awards": null, "user_review_count": 0}, {"business_operation_status": 1, "rating": null, "neighborhood": null, "image": null, "scorecard": null, "featured": false, "sample_categories": "Restaurants, Barbecue Restaurants", "public_id": "city-wings-marietta", "id": 45550254, "votes": null, "tagline": null, "has_video": false, "website": null, "offers": null, "latitude": 34.03261, "politanName": "Atlanta, GA Metro ", "phone_number": "6783543412", "tags": [{"primary": false, "id": 1724, "name": "Barbecue Restaurants"}, {"primary": true, "id": 1722, "name": "Restaurants"}], "fax_number": null, "expansion": {"count": null, "uri": null}, "impression_id": "000b0000008d39b931c85343e793326565cad6db8e", "profile": "http://www.citysearch.com/profile/45550254/marietta_ga/city_wings.html", "address": {"city": "Marietta", "state": "GA", "street": "3349 Canton Rd Ste 8", "postal_code": "30066"}, "capProviderId": null, "distance": null, "has_offers": false, "name": "City Wings", "longitude": -84.528907, "has_menu": true, "awards": null, "user_review_count": 0}, {"business_operation_status": 1, "rating": 10.0, "neighborhood": null, "image": null, "scorecard": null, "featured": false, "sample_categories": "Restaurants", "public_id": "stilesboro-biscuits-kennesaw", "id": 45561009, "votes": null, "tagline": null, "has_video": false, "website": null, "offers": null, "latitude": 33.997874, "politanName": "Atlanta, GA Metro ", "phone_number": "7704295552", "tags": [{"primary": true, "id": 1722, "name": "Restaurants"}], "fax_number": null, "expansion": {"count": null, "uri": null}, "impression_id": "000b0000008b821b14e34e487f84c0049fcf1d5486", "profile": "http://www.citysearch.com/profile/45561009/kennesaw_ga/stilesboro_biscuits.html", "address": {"city": "Kennesaw", "state": "GA", "street": "3545 Stilesboro Rd NW", "postal_code": "30152"}, "capProviderId": null, "distance": null, "has_offers": false, "name": "Stilesboro Biscuits", "longitude": -84.655238, "has_menu": false, "awards": null, "user_review_count": 3}, {"business_operation_status": 1, "rating": null, "neighborhood": null, "image": null, "scorecard": null, "featured": false, "sample_categories": "Restaurants, Seafood, Carry Out, MasterCard, Visa", "public_id": "captain-ds-seafood-mableton-2", "id": 682515390, "votes": null, "tagline": null, "has_video": false, "website": "http://www.citysearch.com/profile/external/682515390/mableton_ga/captain_d_s_seafood.html", "offers": null, "latitude": 33.819503, "politanName": "Atlanta, GA Metro ", "phone_number": "7709486116", "tags": [{"primary": false, "id": 11228, "name": "Seafood"}, {"primary": false, "id": 11247, "name": "Carry Out"}, {"primary": false, "id": 11361, "name": "MasterCard"}, {"primary": false, "id": 11382, "name": "Visa"}, {"primary": true, "id": 1722, "name": "Restaurants"}], "fax_number": null, "expansion": {"count": null, "uri": null}, "impression_id": "000b000000f0f73957ca0f4e05bc599869f78842a2", "profile": "http://www.citysearch.com/profile/682515390/mableton_ga/captain_d_s_seafood.html", "address": {"city": "Mableton", "state": "GA", "street": "5545 Floyd Rd Sw", "postal_code": "30126"}, "capProviderId": null, "distance": null, "has_offers": false, "name": "Captain D's Seafood", "longitude": -84.576206, "has_menu": true, "awards": null, "user_review_count": 0}, {"business_operation_status": 1, "rating": null, "neighborhood": null, "image": null, "scorecard": null, "featured": false, "sample_categories": "Restaurants, Pizza, Carry Out", "public_id": "dominos-pizza-dallas-38", "id": 682657320, "votes": null, "tagline": null, "has_video": false, "website": "http://www.citysearch.com/profile/external/682657320/dallas_ga/domino_s_pizza.html", "offers": null, "latitude": 34.016676, "politanName": "Atlanta, GA Metro ", "phone_number": "7705053030", "tags": [{"primary": false, "id": 1722, "name": "Restaurants"}, {"primary": false, "id": 11247, "name": "Carry Out"}, {"primary": true, "id": 11299, "name": "Pizza"}], "fax_number": null, "expansion": {"count": null, "uri": null}, "impression_id": "000b0000004b94df6435e1441f816b6540c0a2d850", "profile": "http://www.citysearch.com/profile/682657320/dallas_ga/domino_s_pizza.html", "address": {"city": "Dallas", "state": "GA", "street": "423 Old Dallas Acworth Rd N", "postal_code": "30132"}, "capProviderId": null, "distance": null, "has_offers": false, "name": "Domino's Pizza", "longitude": -84.753746, "has_menu": false, "awards": null, "user_review_count": 0}, {"business_operation_status": 1, "rating": null, "neighborhood": null, "image": null, "scorecard": null, "featured": false, "sample_categories": "Restaurants", "public_id": "hunts-restaurant-powder", "id": 817353960, "votes": null, "tagline": null, "has_video": false, "website": null, "offers": null, "latitude": 33.859549, "politanName": "Atlanta, GA Metro ", "phone_number": "6785679575", "tags": [{"primary": true, "id": 1722, "name": "Restaurants"}], "fax_number": null, "expansion": {"count": null, "uri": null}, "impression_id": "000b0000003427edc9d4d1404e8f4564d02a358f86", "profile": "http://www.citysearch.com/profile/817353960/powder_springs_ga/hunt_s_restaurant.html", "address": {"city": "Powder Springs", "state": "GA", "street": "3934 Austell Powder Springs Rd", "postal_code": "30127"}, "capProviderId": null, "distance": null, "has_offers": false, "name": "Hunt's Restaurant", "longitude": -84.683824, "has_menu": false, "awards": null, "user_review_count": 3}, {"business_operation_status": 1, "rating": null, "neighborhood": null, "image": null, "scorecard": null, "featured": false, "sample_categories": "Restaurants", "public_id": "mineos-italian-restaurant-acworth", "id": 821749900, "votes": null, "tagline": null, "has_video": false, "website": null, "offers": null, "latitude": 33.997403, "politanName": "Atlanta, GA Metro ", "phone_number": "7704247746", "tags": [{"primary": true, "id": 1722, "name": "Restaurants"}], "fax_number": null, "expansion": {"count": null, "uri": null}, "impression_id": "000b000000bd2a4a084a834a54b7e8c200d8b54c8f", "profile": "http://www.citysearch.com/profile/821749900/acworth_ga/mineo_s_italian_restaurant.html", "address": {"city": "Acworth", "state": "GA", "street": "1727 Mars Hill Rd NW # 6", "postal_code": "30101"}, "capProviderId": null, "distance": null, "has_offers": false, "name": "Mineo's Italian Restaurant", "longitude": -84.707837, "has_menu": false, "awards": null, "user_review_count": 1}, {"business_operation_status": 1, "rating": null, "neighborhood": null, "image": null, "scorecard": null, "featured": false, "sample_categories": "Bakeries, Restaurants", "public_id": "lapepite-france-bakery-marietta", "id": 793328380, "votes": null, "tagline": null, "has_video": false, "website": null, "offers": null, "latitude": 33.978482, "politanName": "Atlanta, GA Metro ", "phone_number": "7707904140", "tags": [{"primary": false, "id": 1722, "name": "Restaurants"}, {"primary": true, "id": 1685, "name": "Bakeries"}], "fax_number": null, "expansion": {"count": null, "uri": null}, "impression_id": "000b000000dcad5823b9124be5bfd72997e89d42cb", "profile": "http://www.citysearch.com/profile/793328380/marietta_ga/lapepite_france_bakery.html", "address": {"city": "Marietta", "state": "GA", "street": "1070 Atlanta Industrial Dr", "postal_code": "30066"}, "capProviderId": null, "distance": null, "has_offers": false, "name": "Lapepite France Bakery", "longitude": -84.532674, "has_menu": false, "awards": null, "user_review_count": 0}, {"business_operation_status": 1, "rating": null, "neighborhood": null, "image": null, "scorecard": null, "featured": false, "sample_categories": "Restaurants, Carry Out", "public_id": "long-john-silvers-marietta-3", "id": 764851430, "votes": null, "tagline": null, "has_video": false, "website": null, "offers": null, "latitude": 33.950876, "politanName": "Atlanta, GA Metro ", "phone_number": "7704247755", "tags": [{"primary": false, "id": 11247, "name": "Carry Out"}, {"primary": true, "id": 1722, "name": "Restaurants"}], "fax_number": null, "expansion": {"count": null, "uri": null}, "impression_id": "000b000000e548b0063aa143d190b5cd16ef748009", "profile": "http://www.citysearch.com/profile/764851430/marietta_ga/long_john_silver_s.html", "address": {"city": "Marietta", "state": "GA", "street": "1176 Roswell Rd", "postal_code": "30062"}, "capProviderId": null, "distance": null, "has_offers": false, "name": "Long John Silver's", "longitude": -84.518285, "has_menu": true, "awards": null, "user_review_count": 0}, {"business_operation_status": 1, "rating": null, "neighborhood": null, "image": null, "scorecard": null, "featured": false, "sample_categories": "Restaurants, Carry Out", "public_id": "charleys-grilled-subs-kennesaw", "id": 822392670, "votes": null, "tagline": null, "has_video": false, "website": null, "offers": null, "latitude": 34.017369, "politanName": "Atlanta, GA Metro ", "phone_number": "7702188285", "tags": [{"primary": false, "id": 11247, "name": "Carry Out"}, {"primary": true, "id": 1722, "name": "Restaurants"}], "fax_number": null, "expansion": {"count": null, "uri": null}, "impression_id": "000b0000002a3d507b5823462599098ae2e21bd342", "profile": "http://www.citysearch.com/profile/822392670/kennesaw_ga/charley_s_grilled_subs.html", "address": {"city": "Kennesaw", "state": "GA", "street": "400 Ernest W Barrett Pkwy NW", "postal_code": "30144"}, "capProviderId": null, "distance": null, "has_offers": false, "name": "Charley's Grilled Subs", "longitude": -84.564255, "has_menu": true, "awards": null, "user_review_count": 0}, {"business_operation_status": 1, "rating": null, "neighborhood": null, "image": null, "scorecard": null, "featured": false, "sample_categories": "Restaurants, Pizza", "public_id": "mac-daddys-first-ten-pizza-kennesaw", "id": 823959380, "votes": null, "tagline": null, "has_video": false, "website": null, "offers": null, "latitude": 34.046915, "politanName": "Atlanta, GA Metro ", "phone_number": "6782246724", "tags": [{"primary": false, "id": 11299, "name": "Pizza"}, {"primary": true, "id": 1722, "name": "Restaurants"}], "fax_number": null, "expansion": {"count": null, "uri": null}, "impression_id": "000b000000615a66c1398440ffa1b879a604e61510", "profile": "http://www.citysearch.com/profile/823959380/kennesaw_ga/mac_daddys_first_ten_pizza.html", "address": {"city": "Kennesaw", "state": "GA", "street": "3930 George Busbee Pkwy NW", "postal_code": "30144"}, "capProviderId": null, "distance": null, "has_offers": false, "name": "Mac Daddys First & Ten Pizza", "longitude": -84.581594, "has_menu": false, "awards": null, "user_review_count": 0}, {"business_operation_status": 1, "rating": 8.0, "neighborhood": null, "image": null, "scorecard": null, "featured": false, "sample_categories": "Restaurants, Mexican", "public_id": "la-cabana-marietta", "id": 2906494, "votes": null, "tagline": null, "has_video": false, "website": "http://www.citysearch.com/profile/external/2906494/marietta_ga/la_cabana.html", "offers": null, "latitude": 33.907683, "politanName": "Atlanta, GA Metro ", "phone_number": "7704257756", "tags": [{"primary": false, "id": 11208, "name": "Mexican"}, {"primary": true, "id": 1722, "name": "Restaurants"}], "fax_number": null, "expansion": {"count": null, "uri": null}, "impression_id": "000b0000007b5ccd0b46ef461da377af072e1af251", "profile": "http://www.citysearch.com/profile/2906494/marietta_ga/la_cabana.html", "address": {"city": "Marietta", "state": "GA", "street": "1651 Powder Springs Rd SW Ste 1", "postal_code": "30064"}, "capProviderId": null, "distance": null, "has_offers": false, "name": "La Cabana", "longitude": -84.601655, "has_menu": true, "awards": null, "user_review_count": 2}, {"business_operation_status": 1, "rating": null, "neighborhood": null, "image": null, "scorecard": null, "featured": false, "sample_categories": "Restaurants", "public_id": "baileys-family-restaurant-powder", "id": 828137130, "votes": null, "tagline": null, "has_video": false, "website": null, "offers": null, "latitude": 33.856981, "politanName": "Atlanta, GA Metro ", "phone_number": "7704391123", "tags": [{"primary": true, "id": 1722, "name": "Restaurants"}], "fax_number": null, "expansion": {"count": null, "uri": null}, "impression_id": "000b000000747e8e9401674c99909114940a9e3c33", "profile": "http://www.citysearch.com/profile/828137130/powder_springs_ga/bailey_s_family_restaurant.html", "address": {"city": "Powder Springs", "state": "GA", "street": "4041 Atlanta St", "postal_code": "30127"}, "capProviderId": null, "distance": null, "has_offers": false, "name": "Bailey's Family Restaurant", "longitude": -84.672069, "has_menu": false, "awards": null, "user_review_count": 4}, {"business_operation_status": 1, "rating": null, "neighborhood": null, "image": null, "scorecard": null, "featured": false, "sample_categories": "Restaurants", "public_id": "tme-enterprises-i-ltd-mableton", "id": 2949244, "votes": null, "tagline": null, "has_video": false, "website": null, "offers": null, "latitude": 33.818546, "politanName": "Atlanta, GA Metro ", "phone_number": "7709443911", "tags": [{"primary": true, "id": 1722, "name": "Restaurants"}], "fax_number": null, "expansion": {"count": null, "uri": null}, "impression_id": "000b0000005b38c6c7afde4f96af9580e4c7167da1", "profile": "http://www.citysearch.com/profile/2949244/mableton_ga/tme_enterprises_i_ltd.html", "address": {"city": "Mableton", "state": "GA", "street": "737 Veterans Memorial Hwy SW", "postal_code": "30126"}, "capProviderId": null, "distance": null, "has_offers": false, "name": "Tme Enterprises I Ltd", "longitude": -84.575739, "has_menu": false, "awards": null, "user_review_count": 0}, {"business_operation_status": 1, "rating": null, "neighborhood": null, "image": null, "scorecard": null, "featured": false, "sample_categories": "Restaurants", "public_id": "dogfathers-marietta", "id": 793344660, "votes": null, "tagline": null, "has_video": false, "website": null, "offers": null, "latitude": 34.017341, "politanName": "Atlanta, GA Metro ", "phone_number": "6783543223", "tags": [{"primary": true, "id": 1722, "name": "Restaurants"}], "fax_number": null, "expansion": {"count": null, "uri": null}, "impression_id": "000b000000644bfc120e8548be9defbf34e11fb117", "profile": "http://www.citysearch.com/profile/793344660/marietta_ga/dogfathers.html", "address": {"city": "Marietta", "state": "GA", "street": "2769 Chastain Meadows Pkwy", "postal_code": "30066"}, "capProviderId": null, "distance": null, "has_offers": false, "name": "Dogfathers", "longitude": -84.555709, "has_menu": false, "awards": null, "user_review_count": 0}, {"business_operation_status": 1, "rating": null, "neighborhood": null, "image": null, "scorecard": null, "featured": false, "sample_categories": "Restaurants, Mexican", "public_id": "lunas-taqueria-marietta", "id": 793347450, "votes": null, "tagline": null, "has_video": false, "website": null, "offers": null, "latitude": 33.905061, "politanName": "Atlanta, GA Metro ", "phone_number": "6785569766", "tags": [{"primary": false, "id": 11208, "name": "Mexican"}, {"primary": true, "id": 1722, "name": "Restaurants"}], "fax_number": null, "expansion": {"count": null, "uri": null}, "impression_id": "000b0000007ed2732a38254738b8ccccb12ba70c3d", "profile": "http://www.citysearch.com/profile/793347450/marietta_ga/luna_s_taqueria.html", "address": {"city": "Marietta", "state": "GA", "street": "1977 S Cobb Dr Se", "postal_code": "30060"}, "capProviderId": null, "distance": null, "has_offers": false, "name": "Luna's Taqueria", "longitude": -84.542525, "has_menu": false, "awards": null, "user_review_count": 0}, {"business_operation_status": 1, "rating": null, "neighborhood": null, "image": null, "scorecard": null, "featured": false, "sample_categories": "Restaurants, Pizza, Carry Out", "public_id": "dominos-pizza-marietta-17", "id": 608562794, "votes": null, "tagline": null, "has_video": false, "website": "http://www.citysearch.com/profile/external/608562794/marietta_ga/domino_s_pizza.html", "offers": null, "latitude": 33.876575, "politanName": "Atlanta, GA Metro ", "phone_number": "7709555585", "tags": [{"primary": false, "id": 1722, "name": "Restaurants"}, {"primary": false, "id": 11247, "name": "Carry Out"}, {"primary": true, "id": 11299, "name": "Pizza"}], "fax_number": null, "expansion": {"count": null, "uri": null}, "impression_id": "000b0000009c703058998d41d38cb09d73dabb3a1f", "profile": "http://www.citysearch.com/profile/608562794/marietta_ga/domino_s_pizza.html", "address": {"city": "Marietta", "state": "GA", "street": "1230 Pair Rd SW", "postal_code": "30067"}, "capProviderId": null, "distance": null, "has_offers": false, "name": "Domino's Pizza", "longitude": -84.589289, "has_menu": false, "awards": null, "user_review_count": 0}, {"business_operation_status": 1, "rating": null, "neighborhood": null, "image": null, "scorecard": null, "featured": false, "sample_categories": "Restaurants", "public_id": "hollie-guacamole-marietta", "id": 806226200, "votes": null, "tagline": null, "has_video": false, "website": null, "offers": null, "latitude": 33.952258, "politanName": "Atlanta, GA Metro ", "phone_number": "6782732403", "tags": [{"primary": true, "id": 1722, "name": "Restaurants"}], "fax_number": null, "expansion": {"count": null, "uri": null}, "impression_id": "000b00000082ddd23ee9734e96a40c96a5fe931634", "profile": "http://www.citysearch.com/profile/806226200/marietta_ga/hollie_guacamole_.html", "address": {"city": "Marietta", "state": "GA", "street": "154 Roswell St SE", "postal_code": "30060"}, "capProviderId": null, "distance": null, "has_offers": false, "name": "Hollie Guacamole!", "longitude": -84.54874, "has_menu": false, "awards": null, "user_review_count": 0}, {"business_operation_status": 1, "rating": null, "neighborhood": null, "image": null, "scorecard": null, "featured": false, "sample_categories": "Restaurants", "public_id": "whistle-stop-cafe-kennesaw", "id": 611247574, "votes": null, "tagline": null, "has_video": false, "website": null, "offers": null, "latitude": 33.999345, "politanName": "Atlanta, GA Metro ", "phone_number": "7707940100", "tags": [{"primary": true, "id": 1722, "name": "Restaurants"}], "fax_number": null, "expansion": {"count": null, "uri": null}, "impression_id": "000b000000c5ff3fbcedc7420f91b7bbad3f7923c0", "profile": "http://www.citysearch.com/profile/611247574/kennesaw_ga/whistle_stop_cafe.html", "address": {"city": "Kennesaw", "state": "GA", "street": "1200 Ernest W Barrett Pkwy NW # Ste 144", "postal_code": "30144"}, "capProviderId": null, "distance": null, "has_offers": false, "name": "Whistle Stop Cafe", "longitude": -84.586888, "has_menu": false, "awards": null, "user_review_count": 0}, {"business_operation_status": 1, "rating": null, "neighborhood": null, "image": null, "scorecard": null, "featured": false, "sample_categories": "Restaurants", "public_id": "cafe-amazonia-marietta", "id": 808265410, "votes": null, "tagline": null, "has_video": false, "website": null, "offers": null, "latitude": 33.952198, "politanName": "Atlanta, GA Metro ", "phone_number": "7705796773", "tags": [{"primary": true, "id": 1722, "name": "Restaurants"}], "fax_number": null, "expansion": {"count": null, "uri": null}, "impression_id": "000b0000000aa8ce6f5fa84c1b9a973b57560a6e42", "profile": "http://www.citysearch.com/profile/808265410/marietta_ga/cafe_amazonia.html", "address": {"city": "Marietta", "state": "GA", "street": "1355 Roswell Rd # 152", "postal_code": "30062"}, "capProviderId": null, "distance": null, "has_offers": false, "name": "Cafe Amazonia", "longitude": -84.512302, "has_menu": false, "awards": null, "user_review_count": 0}, {"business_operation_status": 0, "rating": null, "neighborhood": null, "image": null, "scorecard": null, "featured": false, "sample_categories": "Ice Cream Parlors", "public_id": "ritas-water-ice-marietta-3", "id": 627647380, "votes": null, "tagline": null, "has_video": false, "website": "http://www.citysearch.com/profile/external/627647380/marietta_ga/rita_s_water_ice.html", "offers": null, "latitude": 34.011742, "politanName": "Atlanta, GA Metro ", "phone_number": "7706946029", "tags": [{"primary": true, "id": 1730, "name": "Ice Cream Parlors"}], "fax_number": null, "expansion": {"count": null, "uri": null}, "impression_id": "000b0000006adaac80cd4348b2990434744fded988", "profile": "http://www.citysearch.com/profile/627647380/marietta_ga/rita_s_water_ice.html", "address": {"city": "Marietta", "state": "GA", "street": "2550 Sandy Plains Rd", "postal_code": "30066"}, "capProviderId": null, "distance": null, "has_offers": false, "name": "Rita's Water Ice", "longitude": -84.495056, "has_menu": false, "awards": null, "user_review_count": 0}, {"business_operation_status": 1, "rating": null, "neighborhood": null, "image": null, "scorecard": null, "featured": false, "sample_categories": "Restaurants, Delis And Delicatessens, Sandwich Shops, Carry Out, Soups", "public_id": "subway-dallas-125", "id": 43861470, "votes": null, "tagline": null, "has_video": false, "website": "http://www.citysearch.com/profile/external/43861470/dallas_ga/subway.html", "offers": null, "latitude": 33.985034, "politanName": "Atlanta, GA Metro ", "phone_number": "6785747185", "tags": [{"primary": false, "id": 1727, "name": "Delis And Delicatessens"}, {"primary": false, "id": 1736, "name": "Sandwich Shops"}, {"primary": false, "id": 11247, "name": "Carry Out"}, {"primary": false, "id": 11311, "name": "Soups"}, {"primary": false, "id": 11361, "name": "MasterCard"}, {"primary": false, "id": 11382, "name": "Visa"}, {"primary": true, "id": 1722, "name": "Restaurants"}], "fax_number": null, "expansion": {"count": null, "uri": null}, "impression_id": "000b0000007a7a5f07f2ad4570af828fe73293f89c", "profile": "http://www.citysearch.com/profile/43861470/dallas_ga/subway.html", "address": {"city": "Dallas", "state": "GA", "street": "8876 Dallas Acworth HwySte 134", "postal_code": "30132"}, "capProviderId": null, "distance": null, "has_offers": false, "name": "Subway", "longitude": -84.771736, "has_menu": true, "awards": null, "user_review_count": 0}, {"business_operation_status": 0, "rating": null, "neighborhood": null, "image": null, "scorecard": null, "featured": false, "sample_categories": "Restaurants, Bars & Pubs", "public_id": "benos-sports-bar-grill-austell", "id": 647356910, "votes": null, "tagline": null, "has_video": false, "website": null, "offers": null, "latitude": 33.833761, "politanName": "Atlanta, GA Metro ", "phone_number": "7707458810", "tags": [{"primary": false, "id": 1686, "name": "Bars & Pubs"}, {"primary": true, "id": 1722, "name": "Restaurants"}], "fax_number": null, "expansion": {"count": null, "uri": null}, "impression_id": "000b000000345328bb2bf84fcfb761af47e3a4c935", "profile": "http://www.citysearch.com/profile/647356910/austell_ga/beno_s_sports_bar_grill.html", "address": {"city": "Austell", "state": "GA", "street": "3156 Mosley Chase Dr", "postal_code": "30106"}, "capProviderId": null, "distance": null, "has_offers": false, "name": "Beno's Sports Bar & Grill", "longitude": -84.646818, "has_menu": false, "awards": null, "user_review_count": 0}, {"business_operation_status": 1, "rating": null, "neighborhood": null, "image": null, "scorecard": null, "featured": false, "sample_categories": "Restaurants", "public_id": "volcano-steak-sushi-acworth", "id": 625431904, "votes": null, "tagline": null, "has_video": false, "website": null, "offers": null, "latitude": 33.99646, "politanName": "Atlanta, GA Metro ", "phone_number": "7704209888", "tags": [{"primary": true, "id": 1722, "name": "Restaurants"}], "fax_number": null, "expansion": {"count": null, "uri": null}, "impression_id": "000b000000fc08f6921c364705b5efc7a29ecf7fc9", "profile": "http://www.citysearch.com/profile/625431904/acworth_ga/volcano_steak_sushi.html", "address": {"city": "Acworth", "state": "GA", "street": "1720 Mars Hill Rd NW", "postal_code": "30101"}, "capProviderId": null, "distance": null, "has_offers": false, "name": "Volcano Steak & Sushi", "longitude": -84.70439, "has_menu": false, "awards": null, "user_review_count": 0}, {"business_operation_status": 1, "rating": null, "neighborhood": null, "image": null, "scorecard": null, "featured": false, "sample_categories": "Restaurants", "public_id": "suniece-cafe-marietta", "id": 655897070, "votes": null, "tagline": null, "has_video": false, "website": null, "offers": null, "latitude": 33.972386, "politanName": "Atlanta, GA Metro ", "phone_number": "7704272005", "tags": [{"primary": true, "id": 1722, "name": "Restaurants"}], "fax_number": null, "expansion": {"count": null, "uri": null}, "impression_id": "000b000000aed727a35f4e453b82cb0e6dfd77e1e5", "profile": "http://www.citysearch.com/profile/655897070/marietta_ga/suniece_cafe.html", "address": {"city": "Marietta", "state": "GA", "street": "833 Campbell Hill St Nw", "postal_code": "30060"}, "capProviderId": null, "distance": null, "has_offers": false, "name": "Suniece Cafe", "longitude": -84.552023, "has_menu": false, "awards": null, "user_review_count": 0}, {"business_operation_status": 1, "rating": null, "neighborhood": null, "image": null, "scorecard": null, "featured": false, "sample_categories": "Restaurants, Fast Food, Carry Out, Hamburgers, American Express", "public_id": "mc-donalds-mableton-2", "id": 601310556, "votes": null, "tagline": null, "has_video": false, "website": "http://www.citysearch.com/profile/external/601310556/mableton_ga/mcdonald_s.html", "offers": null, "latitude": 33.835672, "politanName": "Atlanta, GA Metro ", "phone_number": "7709444853", "tags": [{"primary": false, "id": 11199, "name": "Fast Food"}, {"primary": false, "id": 11247, "name": "Carry Out"}, {"primary": false, "id": 11270, "name": "Hamburgers"}, {"primary": false, "id": 11333, "name": "American Express"}, {"primary": false, "id": 11349, "name": "Discover"}, {"primary": false, "id": 11361, "name": "MasterCard"}, {"primary": false, "id": 11382, "name": "Visa"}, {"primary": true, "id": 1722, "name": "Restaurants"}], "fax_number": null, "expansion": {"count": null, "uri": null}, "impression_id": "000b000000f31e3f04120b429b925c23b6027f28f0", "profile": "http://www.citysearch.com/profile/601310556/mableton_ga/mcdonald_s.html", "address": {"city": "Mableton", "state": "GA", "street": "4860 Floyd Rd Sw", "postal_code": "30126"}, "capProviderId": null, "distance": null, "has_offers": false, "name": "McDonald's", "longitude": -84.576914, "has_menu": false, "awards": null, "user_review_count": 0}, {"business_operation_status": 1, "rating": null, "neighborhood": null, "image": null, "scorecard": null, "featured": false, "sample_categories": "Restaurants, Mexican", "public_id": "tortilla-el-maizal-inc-kennesaw", "id": 601313166, "votes": null, "tagline": null, "has_video": false, "website": null, "offers": null, "latitude": 34.056577, "politanName": "Atlanta, GA Metro ", "phone_number": "7704270187", "tags": [{"primary": false, "id": 11208, "name": "Mexican"}, {"primary": true, "id": 1722, "name": "Restaurants"}], "fax_number": null, "expansion": {"count": null, "uri": null}, "impression_id": "000b000000146decc6cc814a7b86fa4cbdce070b9a", "profile": "http://www.citysearch.com/profile/601313166/kennesaw_ga/tortilla_el_maizal_inc.html", "address": {"city": "Kennesaw", "state": "GA", "street": "1920 Shiloh Rd Nw", "postal_code": "30144"}, "capProviderId": null, "distance": null, "has_offers": false, "name": "Tortilla El Maizal Inc", "longitude": -84.606862, "has_menu": false, "awards": null, "user_review_count": 0}, {"business_operation_status": 1, "rating": null, "neighborhood": null, "image": null, "scorecard": null, "featured": false, "sample_categories": "Restaurants, Barbecue Restaurants", "public_id": "wings-connection-kennesaw", "id": 601313364, "votes": null, "tagline": null, "has_video": false, "website": null, "offers": null, "latitude": 34.028917, "politanName": "Atlanta, GA Metro ", "phone_number": "7704221515", "tags": [{"primary": false, "id": 1724, "name": "Barbecue Restaurants"}, {"primary": true, "id": 1722, "name": "Restaurants"}], "fax_number": null, "expansion": {"count": null, "uri": null}, "impression_id": "000b00000046454d79fd9d480ea51b1833c21397e3", "profile": "http://www.citysearch.com/profile/601313364/kennesaw_ga/wings_connection.html", "address": {"city": "Kennesaw", "state": "GA", "street": "3055 N Main St Nw # 101", "postal_code": "30144"}, "capProviderId": null, "distance": null, "has_offers": false, "name": "Wings Connection", "longitude": -84.627166, "has_menu": false, "awards": null, "user_review_count": 1}, {"business_operation_status": 1, "rating": null, "neighborhood": null, "image": null, "scorecard": null, "featured": false, "sample_categories": "Restaurants", "public_id": "elite-kitchen-couture-kennesaw", "id": 632940880, "votes": null, "tagline": null, "has_video": false, "website": null, "offers": null, "latitude": 33.983459, "politanName": "Atlanta, GA Metro ", "phone_number": "7704218807", "tags": [{"primary": true, "id": 1722, "name": "Restaurants"}], "fax_number": null, "expansion": {"count": null, "uri": null}, "impression_id": "000b000000ed1bf4da87024974974633c4748097b4", "profile": "http://www.citysearch.com/profile/632940880/kennesaw_ga/elite_kitchen_couture.html", "address": {"city": "Kennesaw", "state": "GA", "street": "2004 Ector Ct Nw", "postal_code": "30152"}, "capProviderId": null, "distance": null, "has_offers": false, "name": "Elite Kitchen Couture", "longitude": -84.613208, "has_menu": false, "awards": null, "user_review_count": 0}, {"business_operation_status": 1, "rating": null, "neighborhood": null, "image": null, "scorecard": null, "featured": false, "sample_categories": "Restaurants, Carry Out, American Express, Discover, MasterCard", "public_id": "zaxbys-kennesaw-5", "id": 682680850, "votes": null, "tagline": null, "has_video": false, "website": "http://www.citysearch.com/profile/external/682680850/kennesaw_ga/zaxby_s.html", "offers": null, "latitude": 33.994982, "politanName": "Atlanta, GA Metro ", "phone_number": "7704288789", "tags": [{"primary": false, "id": 11247, "name": "Carry Out"}, {"primary": false, "id": 11333, "name": "American Express"}, {"primary": false, "id": 11349, "name": "Discover"}, {"primary": false, "id": 11361, "name": "MasterCard"}, {"primary": false, "id": 11382, "name": "Visa"}, {"primary": false, "id": 12839, "name": "Chicken"}, {"primary": true, "id": 1722, "name": "Restaurants"}], "fax_number": null, "expansion": {"count": null, "uri": null}, "impression_id": "000b00000000e7957977e84e23aef75cc65012bec8", "profile": "http://www.citysearch.com/profile/682680850/kennesaw_ga/zaxby_s.html", "address": {"city": "Kennesaw", "state": "GA", "street": "1640 Old 41 Hwy NW", "postal_code": "30152"}, "capProviderId": null, "distance": null, "has_offers": false, "name": "Zaxby's", "longitude": -84.596653, "has_menu": true, "awards": null, "user_review_count": 1}, {"business_operation_status": 1, "rating": null, "neighborhood": null, "image": null, "scorecard": null, "featured": false, "sample_categories": "Restaurants", "public_id": "presto-latin-restaurant-marietta", "id": 672230170, "votes": null, "tagline": null, "has_video": false, "website": null, "offers": null, "latitude": 33.951248, "politanName": "Atlanta, GA Metro ", "phone_number": "7709731282", "tags": [{"primary": true, "id": 1722, "name": "Restaurants"}], "fax_number": null, "expansion": {"count": null, "uri": null}, "impression_id": "000b000000b17e1510777d44aaafc9d5bc2f51b221", "profile": "http://www.citysearch.com/profile/672230170/marietta_ga/presto_latin_restaurant.html", "address": {"city": "Marietta", "state": "GA", "street": "1392-B Roswell Road", "postal_code": "30062"}, "capProviderId": null, "distance": null, "has_offers": false, "name": "Presto Latin Restaurant", "longitude": -84.508172, "has_menu": false, "awards": null, "user_review_count": 0}, {"business_operation_status": 1, "rating": null, "neighborhood": null, "image": null, "scorecard": null, "featured": false, "sample_categories": "Restaurants", "public_id": "predido-mexican-restaurant-marietta", "id": 624515334, "votes": null, "tagline": null, "has_video": false, "website": null, "offers": null, "latitude": 33.925751, "politanName": "Atlanta, GA Metro ", "phone_number": "6784015846", "tags": [{"primary": true, "id": 1722, "name": "Restaurants"}], "fax_number": null, "expansion": {"count": null, "uri": null}, "impression_id": "000b00000018e57b0ff3494320a97b12ce49dcaf67", "profile": "http://www.citysearch.com/profile/624515334/marietta_ga/predido_mexican_restaurant.html", "address": {"city": "Marietta", "state": "GA", "street": "1092 W Atlanta St SE", "postal_code": "30060"}, "capProviderId": null, "distance": null, "has_offers": false, "name": "Predido Mexican Restaurant", "longitude": -84.543429, "has_menu": false, "awards": null, "user_review_count": 0}, {"business_operation_status": 1, "rating": null, "neighborhood": null, "image": null, "scorecard": null, "featured": false, "sample_categories": "Restaurants", "public_id": "san-luis-marietta-2", "id": 815793680, "votes": null, "tagline": null, "has_video": false, "website": null, "offers": null, "latitude": 33.939122, "politanName": "Atlanta, GA Metro ", "phone_number": "7705147050", "tags": [{"primary": true, "id": 1722, "name": "Restaurants"}], "fax_number": null, "expansion": {"count": null, "uri": null}, "impression_id": "000b000000e0fc3db16df64390bfa5f87ed175200c", "profile": "http://www.citysearch.com/profile/815793680/marietta_ga/san_luis.html", "address": {"city": "Marietta", "state": "GA", "street": "971 S Marietta Pkwy SE", "postal_code": "30060"}, "capProviderId": null, "distance": null, "has_offers": false, "name": "San Luis", "longitude": -84.526386, "has_menu": false, "awards": null, "user_review_count": 0}, {"business_operation_status": 1, "rating": null, "neighborhood": null, "image": null, "scorecard": null, "featured": false, "sample_categories": "Restaurants", "public_id": "k-j-fish-chicken-marietta", "id": 816880880, "votes": null, "tagline": null, "has_video": false, "website": null, "offers": null, "latitude": 33.894433, "politanName": "Atlanta, GA Metro ", "phone_number": "7704058877", "tags": [{"primary": true, "id": 1722, "name": "Restaurants"}], "fax_number": null, "expansion": {"count": null, "uri": null}, "impression_id": "000b0000006580fa6a54a043d2b734bfb2dac6f8d8", "profile": "http://www.citysearch.com/profile/816880880/marietta_ga/k_j_fish_chicken.html", "address": {"city": "Marietta", "state": "GA", "street": "234 Windy Hill Rd SE", "postal_code": "30060"}, "capProviderId": null, "distance": null, "has_offers": false, "name": "K J Fish & Chicken", "longitude": -84.552798, "has_menu": false, "awards": null, "user_review_count": 0}, {"business_operation_status": 1, "rating": null, "neighborhood": null, "image": null, "scorecard": null, "featured": false, "sample_categories": "Restaurants", "public_id": "sarku-japan-kennesaw", "id": 820884340, "votes": null, "tagline": null, "has_video": false, "website": null, "offers": null, "latitude": 34.017369, "politanName": "Atlanta, GA Metro ", "phone_number": "7702189700", "tags": [{"primary": true, "id": 1722, "name": "Restaurants"}], "fax_number": null, "expansion": {"count": null, "uri": null}, "impression_id": "000b000000524e63f38a334454bfce62e3c72123fe", "profile": "http://www.citysearch.com/profile/820884340/kennesaw_ga/sarku_japan.html", "address": {"city": "Kennesaw", "state": "GA", "street": "400 Ernest W Barrett Pkwy NW", "postal_code": "30144"}, "capProviderId": null, "distance": null, "has_offers": false, "name": "Sarku Japan", "longitude": -84.564255, "has_menu": true, "awards": null, "user_review_count": 0}, {"business_operation_status": 0, "rating": null, "neighborhood": null, "image": null, "scorecard": null, "featured": false, "sample_categories": "Restaurants, Delis And Delicatessens, Sandwich Shops, Carry Out", "public_id": "blimpie-subs-salads-mableton", "id": 764922590, "votes": null, "tagline": null, "has_video": false, "website": "http://www.citysearch.com/profile/external/764922590/mableton_ga/blimpie_subs_salads.html", "offers": null, "latitude": 33.816948, "politanName": "Atlanta, GA Metro ", "phone_number": "7709443663", "tags": [{"primary": false, "id": 1727, "name": "Delis And Delicatessens"}, {"primary": false, "id": 1736, "name": "Sandwich Shops"}, {"primary": false, "id": 11247, "name": "Carry Out"}, {"primary": true, "id": 1722, "name": "Restaurants"}], "fax_number": null, "expansion": {"count": null, "uri": null}, "impression_id": "000b0000004a019cf1141b4711b76f8148e0a901dd", "profile": "http://www.citysearch.com/profile/764922590/mableton_ga/blimpie_subs_salads.html", "address": {"city": "Mableton", "state": "GA", "street": "5624 Mableton Pkwy SW", "postal_code": "30126"}, "capProviderId": null, "distance": null, "has_offers": false, "name": "Blimpie Subs & Salads", "longitude": -84.575419, "has_menu": true, "awards": null, "user_review_count": 0}, {"business_operation_status": 1, "rating": null, "neighborhood": null, "image": null, "scorecard": null, "featured": false, "sample_categories": "Restaurants", "public_id": "real-cabana-restaurant-inc-marietta", "id": 764845910, "votes": null, "tagline": null, "has_video": false, "website": null, "offers": null, "latitude": 33.905083, "politanName": "Atlanta, GA Metro ", "phone_number": "7704364079", "tags": [{"primary": true, "id": 1722, "name": "Restaurants"}], "fax_number": null, "expansion": {"count": null, "uri": null}, "impression_id": "000b000000b06b6ca0468b4a3895264b3cc5998a6c", "profile": "http://www.citysearch.com/profile/764845910/marietta_ga/real_cabana_restaurant_inc.html", "address": {"city": "Marietta", "state": "GA", "street": "1977 S Cobb Dr SE", "postal_code": "30060"}, "capProviderId": null, "distance": null, "has_offers": false, "name": "Real Cabana Restaurant Inc", "longitude": -84.542545, "has_menu": false, "awards": null, "user_review_count": 0}, {"business_operation_status": 1, "rating": 10.0, "neighborhood": null, "image": null, "scorecard": null, "featured": false, "sample_categories": "Restaurants, Pizza, American Express, Discover, MasterCard", "public_id": "grand-slam-pizza-kennesaw", "id": 43858601, "votes": null, "tagline": null, "has_video": false, "website": "http://www.citysearch.com/profile/external/43858601/kennesaw_ga/grand_slam_pizza.html", "offers": null, "latitude": 34.028917, "politanName": "Atlanta, GA Metro ", "phone_number": "7704216400", "tags": [{"primary": false, "id": 1722, "name": "Restaurants"}, {"primary": false, "id": 11333, "name": "American Express"}, {"primary": false, "id": 11349, "name": "Discover"}, {"primary": false, "id": 11361, "name": "MasterCard"}, {"primary": false, "id": 11382, "name": "Visa"}, {"primary": true, "id": 11299, "name": "Pizza"}], "fax_number": null, "expansion": {"count": null, "uri": null}, "impression_id": "000b0000008463f6f33055439a9c48d40638c16468", "profile": "http://www.citysearch.com/profile/43858601/kennesaw_ga/grand_slam_pizza.html", "address": {"city": "Kennesaw", "state": "GA", "street": "3055 N Main St NW", "postal_code": "30144"}, "capProviderId": null, "distance": null, "has_offers": false, "name": "Grand Slam Pizza", "longitude": -84.627166, "has_menu": true, "awards": null, "user_review_count": 3}, {"business_operation_status": 1, "rating": null, "neighborhood": null, "image": null, "scorecard": null, "featured": false, "sample_categories": "Restaurants, Chicken", "public_id": "rotisserie-shop-kennesaw", "id": 786376760, "votes": null, "tagline": null, "has_video": false, "website": null, "offers": null, "latitude": 34.013172, "politanName": "Atlanta, GA Metro ", "phone_number": "6785408244", "tags": [{"primary": false, "id": 12839, "name": "Chicken"}, {"primary": true, "id": 1722, "name": "Restaurants"}], "fax_number": null, "expansion": {"count": null, "uri": null}, "impression_id": "000b000000748f73fff3ef4ac488c12568283f3abe", "profile": "http://www.citysearch.com/profile/786376760/kennesaw_ga/rotisserie_shop.html", "address": {"city": "Kennesaw", "state": "GA", "street": "2615 George Busbee Pkwy NW", "postal_code": "30144"}, "capProviderId": null, "distance": null, "has_offers": false, "name": "Rotisserie Shop", "longitude": -84.567215, "has_menu": false, "awards": null, "user_review_count": 0}, {"business_operation_status": 1, "rating": null, "neighborhood": null, "image": null, "scorecard": null, "featured": false, "sample_categories": "Restaurants", "public_id": "a-t-l-best-wings-mableton", "id": 802512510, "votes": null, "tagline": null, "has_video": false, "website": null, "offers": null, "latitude": 33.833318, "politanName": "Atlanta, GA Metro ", "phone_number": "7709418700", "tags": [{"primary": true, "id": 1722, "name": "Restaurants"}], "fax_number": null, "expansion": {"count": null, "uri": null}, "impression_id": "000b000000891a778a05fb4298a151c722fc0ad21a", "profile": "http://www.citysearch.com/profile/802512510/mableton_ga/a_t_l_best_wings.html", "address": {"city": "Mableton", "state": "GA", "street": "5005 Floyd Rd Sw", "postal_code": "30126"}, "capProviderId": null, "distance": null, "has_offers": false, "name": "A T L Best Wings", "longitude": -84.575479, "has_menu": false, "awards": null, "user_review_count": 0}, {"business_operation_status": 1, "rating": null, "neighborhood": null, "image": null, "scorecard": null, "featured": false, "sample_categories": "Restaurants, Barbecue Restaurants", "public_id": "wings-fiesta-smyrna", "id": 43853119, "votes": null, "tagline": null, "has_video": false, "website": null, "offers": null, "latitude": 33.892507, "politanName": "Atlanta, GA Metro ", "phone_number": "7704349999", "tags": [{"primary": false, "id": 1724, "name": "Barbecue Restaurants"}, {"primary": true, "id": 1722, "name": "Restaurants"}], "fax_number": null, "expansion": {"count": null, "uri": null}, "impression_id": "000b000000f3ca9b66b0344f909ff9bfabbc20e92f", "profile": "http://www.citysearch.com/profile/43853119/smyrna_ga/wings_fiesta.html", "address": {"city": "Smyrna", "state": "GA", "street": "2500 S Cobb Dr SE", "postal_code": "30080"}, "capProviderId": null, "distance": null, "has_offers": false, "name": "Wings Fiesta", "longitude": -84.537976, "has_menu": false, "awards": null, "user_review_count": 0}, {"business_operation_status": 1, "rating": null, "neighborhood": null, "image": null, "scorecard": null, "featured": false, "sample_categories": "Restaurants", "public_id": "roadhouse-grill-kennesaw", "id": 2954898, "votes": null, "tagline": null, "has_video": false, "website": null, "offers": null, "latitude": 34.002888, "politanName": "Atlanta, GA Metro ", "phone_number": "7704223351", "tags": [{"primary": true, "id": 1722, "name": "Restaurants"}], "fax_number": null, "expansion": {"count": null, "uri": null}, "impression_id": "000b0000000ab93c1c823b4b598072dba76308295f", "profile": "http://www.citysearch.com/profile/2954898/kennesaw_ga/roadhouse_grill.html", "address": {"city": "Kennesaw", "state": "GA", "street": "905 Ernest W Barrett Pkwy NW", "postal_code": "30144"}, "capProviderId": null, "distance": null, "has_offers": false, "name": "Roadhouse Grill", "longitude": -84.578516, "has_menu": true, "awards": null, "user_review_count": 1}, {"business_operation_status": 1, "rating": null, "neighborhood": null, "image": null, "scorecard": null, "featured": false, "sample_categories": "Restaurants, Chinese", "public_id": "china-barn-marietta", "id": 45550258, "votes": null, "tagline": null, "has_video": false, "website": null, "offers": null, "latitude": 34.032335, "politanName": "Atlanta, GA Metro ", "phone_number": "7705164541", "tags": [{"primary": false, "id": 11252, "name": "Chinese"}, {"primary": true, "id": 1722, "name": "Restaurants"}], "fax_number": null, "expansion": {"count": null, "uri": null}, "impression_id": "000b0000008f1b69d97da34c8d8ab505f2f53d39f4", "profile": "http://www.citysearch.com/profile/45550258/marietta_ga/china_barn.html", "address": {"city": "Marietta", "state": "GA", "street": "886 Blackwell Rd", "postal_code": "30066"}, "capProviderId": null, "distance": null, "has_offers": false, "name": "China Barn", "longitude": -84.525558, "has_menu": false, "awards": null, "user_review_count": 0}, {"business_operation_status": 1, "rating": null, "neighborhood": null, "image": null, "scorecard": null, "featured": false, "sample_categories": "Restaurants", "public_id": "ernies-steakhouse-acworth", "id": 823081000, "votes": null, "tagline": null, "has_video": false, "website": null, "offers": null, "latitude": 34.03595, "politanName": "Atlanta, GA Metro ", "phone_number": "7709746186", "tags": [{"primary": true, "id": 1722, "name": "Restaurants"}], "fax_number": null, "expansion": {"count": null, "uri": null}, "impression_id": "000b000000f8c8cc800bec49c1af8d5ff7479696d0", "profile": "http://www.citysearch.com/profile/823081000/acworth_ga/ernies_steakhouse.html", "address": {"city": "Acworth", "state": "GA", "street": "3330 Cobb Pkwy NW # 100", "postal_code": "30101"}, "capProviderId": null, "distance": null, "has_offers": false, "name": "Ernies Steakhouse", "longitude": -84.676991, "has_menu": false, "awards": null, "user_review_count": 0}, {"business_operation_status": 1, "rating": null, "neighborhood": null, "image": null, "scorecard": null, "featured": false, "sample_categories": "Restaurants", "public_id": "wings-burger-haven-marietta-2", "id": 836916740, "votes": null, "tagline": null, "has_video": false, "website": null, "offers": null, "latitude": 33.948939, "politanName": "Atlanta, GA Metro ", "phone_number": "7709771411", "tags": [{"primary": true, "id": 1722, "name": "Restaurants"}], "fax_number": null, "expansion": {"count": null, "uri": null}, "impression_id": "000b000000f782dad4d75046a6afb797b954486496", "profile": "http://www.citysearch.com/profile/836916740/marietta_ga/wings_burger_haven.html", "address": {"city": "Marietta", "state": "GA", "street": "279 Powers Ferry Rd SE", "postal_code": "30067"}, "capProviderId": null, "distance": null, "has_offers": false, "name": "Wings & Burger Haven", "longitude": -84.503582, "has_menu": true, "awards": null, "user_review_count": 0}, {"business_operation_status": 1, "rating": null, "neighborhood": null, "image": null, "scorecard": null, "featured": false, "sample_categories": "Restaurants", "public_id": "bridgetown-grill-kennesaw", "id": 622308600, "votes": null, "tagline": null, "has_video": false, "website": null, "offers": null, "latitude": 34.019128, "politanName": "Atlanta, GA Metro ", "phone_number": "6782900450", "tags": [{"primary": true, "id": 1722, "name": "Restaurants"}], "fax_number": null, "expansion": {"count": null, "uri": null}, "impression_id": "000b000000effd6ecfbfa9499c9668b4763b2c3712", "profile": "http://www.citysearch.com/profile/622308600/kennesaw_ga/bridgetown_grill.html", "address": {"city": "Kennesaw", "state": "GA", "street": "400 Ernest W Barrett Pkwy Nw", "postal_code": "30144"}, "capProviderId": null, "distance": null, "has_offers": false, "name": "Bridgetown Grill", "longitude": -84.563608, "has_menu": false, "awards": null, "user_review_count": 1}, {"business_operation_status": 1, "rating": null, "neighborhood": null, "image": null, "scorecard": null, "featured": false, "sample_categories": "Restaurants", "public_id": "roadside-cafe-marietta", "id": 809569360, "votes": null, "tagline": null, "has_video": false, "website": null, "offers": null, "latitude": 33.973353, "politanName": "Atlanta, GA Metro ", "phone_number": "6782908551", "tags": [{"primary": true, "id": 1722, "name": "Restaurants"}], "fax_number": null, "expansion": {"count": null, "uri": null}, "impression_id": "000b0000006fa88b1e84404fabb272ff4b25949d7f", "profile": "http://www.citysearch.com/profile/809569360/marietta_ga/roadside_cafe.html", "address": {"city": "Marietta", "state": "GA", "street": "915 Cobb Pkwy N", "postal_code": "30062"}, "capProviderId": null, "distance": null, "has_offers": false, "name": "Roadside Cafe", "longitude": -84.54318, "has_menu": false, "awards": null, "user_review_count": 0}, {"business_operation_status": 1, "rating": 8.0, "neighborhood": null, "image": null, "scorecard": null, "featured": false, "sample_categories": "Restaurants, Pizza", "public_id": "marietta-pizza-company-kennesaw", "id": 41424081, "votes": null, "tagline": null, "has_video": false, "website": null, "offers": null, "latitude": 34.016024, "politanName": "Atlanta, GA Metro ", "phone_number": "6782856722", "tags": [{"primary": false, "id": 1722, "name": "Restaurants"}, {"primary": true, "id": 11299, "name": "Pizza"}], "fax_number": null, "expansion": {"count": null, "uri": null}, "impression_id": "000b0000008a7ae0ac29eb45828c154e3035c8b937", "profile": "http://www.citysearch.com/profile/41424081/kennesaw_ga/marietta_pizza_company.html", "address": {"city": "Kennesaw", "state": "GA", "street": "2500 Cobb Place Ln NW", "postal_code": "30144"}, "capProviderId": null, "distance": null, "has_offers": false, "name": "Marietta Pizza Company", "longitude": -84.571897, "has_menu": true, "awards": null, "user_review_count": 0}], "histograms": [], "tag_ids": [1722], "uri": "http://api.citygridmedia.com:8080/search/places/v2/search/where?has_offers=false&type=restaurant&format=json&page=20&where=30064&rpp=50&histograms=false&publisher=10000009598&region_type=circle", "did_you_mean": "", "regions": [{"latitude": 33.938860999999996, "default_radius": 5.31, "type": "postal_code", "name": "30064", "longitude": -84.614086}], "call_id": "000b000000216dab12f4f64e6d89f78eb6fd582f15", "first_hit": 951, "total_hits": 1588, "geo_ids": [26293], "page": 20, "last_hit": 1000}}