{"results": {"rpp": 50, "locations": [{"business_operation_status": 1, "rating": null, "neighborhood": null, "image": null, "scorecard": null, "featured": false, "sample_categories": "Restaurants", "public_id": "manna-house-marietta", "id": 609705304, "votes": null, "tagline": null, "has_video": false, "website": null, "offers": null, "latitude": 33.929099, "politanName": "Atlanta, GA Metro ", "phone_number": "6783100923", "tags": [{"primary": true, "id": 1722, "name": "Restaurants"}], "fax_number": null, "expansion": {"count": null, "uri": null}, "impression_id": "000b0000009a5492d745194d69a911ee52db4b02dd", "profile": "http://www.citysearch.com/profile/609705304/marietta_ga/manna_house.html", "address": {"city": "Marietta", "state": "GA", "street": "45 Fairground St", "postal_code": "30067"}, "capProviderId": null, "distance": null, "has_offers": false, "name": "Manna House", "longitude": -84.469766, "has_menu": false, "awards": null, "user_review_count": 0}, {"business_operation_status": 1, "rating": null, "neighborhood": null, "image": null, "scorecard": null, "featured": false, "sample_categories": "Restaurants", "public_id": "hibachi-express-smyrna", "id": 609007094, "votes": null, "tagline": null, "has_video": false, "website": null, "offers": null, "latitude": 33.889892, "politanName": "Atlanta, GA Metro ", "phone_number": "7704345005", "tags": [{"primary": true, "id": 1722, "name": "Restaurants"}], "fax_number": null, "expansion": {"count": null, "uri": null}, "impression_id": "000b000000efbf36ea70ff47cdbe3448bdad9a6647", "profile": "http://www.citysearch.com/profile/609007094/smyrna_ga/hibachi_express.html", "address": {"city": "Smyrna", "state": "GA", "street": "2596 S Cobb Dr SE", "postal_code": "30080"}, "capProviderId": null, "distance": null, "has_offers": false, "name": "Hibachi Express", "longitude": -84.537398, "has_menu": false, "awards": null, "user_review_count": 0}, {"business_operation_status": 1, "rating": null, "neighborhood": null, "image": null, "scorecard": null, "featured": false, "sample_categories": "Coffeehouses, Coffee & Tea Shops, Restaurants, American Express, Discover", "public_id": "starbucks-kennesaw-5", "id": 605561020, "votes": null, "tagline": null, "has_video": false, "website": "http://www.citysearch.com/profile/external/605561020/kennesaw_ga/starbucks.html", "offers": null, "latitude": 34.019128, "politanName": "Atlanta, GA Metro ", "phone_number": "7707944741", "tags": [{"primary": false, "id": 1711, "name": "Coffee & Tea Shops"}, {"primary": false, "id": 1722, "name": "Restaurants"}, {"primary": false, "id": 11333, "name": "American Express"}, {"primary": false, "id": 11349, "name": "Discover"}, {"primary": false, "id": 11361, "name": "MasterCard"}, {"primary": false, "id": 11382, "name": "Visa"}, {"primary": true, "id": 1726, "name": "Coffeehouses"}], "fax_number": null, "expansion": {"count": null, "uri": null}, "impression_id": "000b000000d4d62bca667944e3b266751197a9ab40", "profile": "http://www.citysearch.com/profile/605561020/kennesaw_ga/starbucks.html", "address": {"city": "Kennesaw", "state": "GA", "street": "400 Ernest W Barrett Nw # 267", "postal_code": "30144"}, "capProviderId": null, "distance": null, "has_offers": false, "name": "Starbucks", "longitude": -84.563608, "has_menu": true, "awards": null, "user_review_count": 2}, {"business_operation_status": 1, "rating": null, "neighborhood": null, "image": null, "scorecard": null, "featured": false, "sample_categories": "Restaurants", "public_id": "brat-so-stop-marietta", "id": 612302434, "votes": null, "tagline": null, "has_video": false, "website": null, "offers": null, "latitude": 34.068476, "politanName": "Atlanta, GA Metro ", "phone_number": "6785406662", "tags": [{"primary": true, "id": 1722, "name": "Restaurants"}], "fax_number": null, "expansion": {"count": null, "uri": null}, "impression_id": "000b000000389a72b4ef30497bb63aaac82e61008a", "profile": "http://www.citysearch.com/profile/612302434/marietta_ga/brat_so_stop_.html", "address": {"city": "Marietta", "state": "GA", "street": "4796 Canton Rd", "postal_code": "30066"}, "capProviderId": null, "distance": null, "has_offers": false, "name": "Brat So Stop!", "longitude": -84.520809, "has_menu": true, "awards": null, "user_review_count": 0}, {"business_operation_status": 1, "rating": null, "neighborhood": null, "image": null, "scorecard": null, "featured": false, "sample_categories": "Coffeehouses, Coffee & Tea Shops, Restaurants, American Express, Discover", "public_id": "starbucks-roswell-2", "id": 33638057, "votes": null, "tagline": null, "has_video": false, "website": "http://www.citysearch.com/profile/external/33638057/roswell_ga/starbucks.html", "offers": null, "latitude": 34.00495, "politanName": "Atlanta, GA Metro ", "phone_number": "7706450328", "tags": [{"primary": false, "id": 1711, "name": "Coffee & Tea Shops"}, {"primary": false, "id": 1722, "name": "Restaurants"}, {"primary": false, "id": 11333, "name": "American Express"}, {"primary": false, "id": 11349, "name": "Discover"}, {"primary": false, "id": 11361, "name": "MasterCard"}, {"primary": false, "id": 11382, "name": "Visa"}, {"primary": true, "id": 1726, "name": "Coffeehouses"}], "fax_number": null, "expansion": {"count": null, "uri": null}, "impression_id": "000b00000039659810148b4b68bed5623ec6ee025e", "profile": "http://www.citysearch.com/profile/33638057/roswell_ga/starbucks.html", "address": {"city": "Roswell", "state": "GA", "street": "930 Marietta Hwy 400", "postal_code": "30075"}, "capProviderId": null, "distance": null, "has_offers": false, "name": "Starbucks", "longitude": -84.389821, "has_menu": true, "awards": null, "user_review_count": 0}, {"business_operation_status": 1, "rating": null, "neighborhood": null, "image": null, "scorecard": null, "featured": false, "sample_categories": "Restaurants, Pizza", "public_id": "johnnys-pizza-roswell", "id": 824481370, "votes": null, "tagline": null, "has_video": false, "website": null, "offers": null, "latitude": 34.054243, "politanName": "Atlanta, GA Metro ", "phone_number": "7705520505", "tags": [{"primary": false, "id": 1722, "name": "Restaurants"}, {"primary": true, "id": 11299, "name": "Pizza"}], "fax_number": null, "expansion": {"count": null, "uri": null}, "impression_id": "000b000000c2f1a254b325494283b23d9b3bc8153a", "profile": "http://www.citysearch.com/profile/824481370/roswell_ga/johnny_s_pizza.html", "address": {"city": "Roswell", "state": "GA", "street": "580 W Crossville Rd", "postal_code": "30075"}, "capProviderId": null, "distance": null, "has_offers": false, "name": "Johnny's Pizza", "longitude": -84.378213, "has_menu": true, "awards": null, "user_review_count": 0}, {"business_operation_status": 1, "rating": null, "neighborhood": null, "image": null, "scorecard": null, "featured": false, "sample_categories": "Restaurants, Chinese, American Express, MasterCard, Visa", "public_id": "xin-xin-chinese-marietta", "id": 33572088, "votes": null, "tagline": null, "has_video": false, "website": null, "offers": null, "latitude": 33.928458, "politanName": "Atlanta, GA Metro ", "phone_number": "7709842233", "tags": [{"primary": false, "id": 11252, "name": "Chinese"}, {"primary": false, "id": 11333, "name": "American Express"}, {"primary": false, "id": 11361, "name": "MasterCard"}, {"primary": false, "id": 11382, "name": "Visa"}, {"primary": true, "id": 1722, "name": "Restaurants"}], "fax_number": null, "expansion": {"count": null, "uri": null}, "impression_id": "000b0000002eefbe77d12e4c20ba8df067fd490619", "profile": "http://www.citysearch.com/profile/33572088/marietta_ga/xin_xin_chinese.html", "address": {"city": "Marietta", "state": "GA", "street": "1033 Franklin Rd SE", "postal_code": "30067"}, "capProviderId": null, "distance": null, "has_offers": false, "name": "Xin Xin Chinese", "longitude": -84.492995, "has_menu": true, "awards": null, "user_review_count": 1}, {"business_operation_status": 1, "rating": null, "neighborhood": null, "image": null, "scorecard": null, "featured": false, "sample_categories": "Restaurants, Delis And Delicatessens, Soups", "public_id": "togo-eateries-roswell", "id": 35974348, "votes": null, "tagline": null, "has_video": false, "website": null, "offers": null, "latitude": 34.061142, "politanName": "Atlanta, GA Metro ", "phone_number": "7709989299", "tags": [{"primary": false, "id": 1727, "name": "Delis And Delicatessens"}, {"primary": false, "id": 11311, "name": "Soups"}, {"primary": true, "id": 1722, "name": "Restaurants"}], "fax_number": null, "expansion": {"count": null, "uri": null}, "impression_id": "000b000000ac1f249757b949ab8a03f67b222db95b", "profile": "http://www.citysearch.com/profile/35974348/roswell_ga/togo_eateries.html", "address": {"city": "Roswell", "state": "GA", "street": "890 Woodstock Rd", "postal_code": "30075"}, "capProviderId": null, "distance": null, "has_offers": false, "name": "Togo Eateries", "longitude": -84.388286, "has_menu": false, "awards": null, "user_review_count": 0}, {"business_operation_status": 1, "rating": null, "neighborhood": null, "image": null, "scorecard": null, "featured": false, "sample_categories": "Restaurants, Fast Food, Mexican, American Express, Discover", "public_id": "taco-bell-marietta-3", "id": 45988789, "votes": null, "tagline": null, "has_video": false, "website": "http://www.citysearch.com/profile/external/45988789/marietta_ga/taco_bell.html", "offers": null, "latitude": 33.944998, "politanName": "Atlanta, GA Metro ", "phone_number": "7704218815", "tags": [{"primary": false, "id": 11199, "name": "Fast Food"}, {"primary": false, "id": 11208, "name": "Mexican"}, {"primary": false, "id": 11333, "name": "American Express"}, {"primary": false, "id": 11349, "name": "Discover"}, {"primary": false, "id": 11361, "name": "MasterCard"}, {"primary": false, "id": 11382, "name": "Visa"}, {"primary": true, "id": 1722, "name": "Restaurants"}], "fax_number": null, "expansion": {"count": null, "uri": null}, "impression_id": "000b0000009bd30521f1e2438192491248af74124e", "profile": "http://www.citysearch.com/profile/45988789/marietta_ga/taco_bell.html", "address": {"city": "Marietta", "state": "GA", "street": "380 Villa Rica Way SW", "postal_code": "30064"}, "capProviderId": null, "distance": null, "has_offers": false, "name": "Taco Bell", "longitude": -84.622332, "has_menu": false, "awards": null, "user_review_count": 0}, {"business_operation_status": 1, "rating": null, "neighborhood": null, "image": null, "scorecard": null, "featured": false, "sample_categories": "Restaurants, American Express, Discover, MasterCard, Visa", "public_id": "tofu-village-marietta-2", "id": 601298639, "votes": null, "tagline": null, "has_video": false, "website": null, "offers": null, "latitude": 33.99637, "politanName": "Atlanta, GA Metro ", "phone_number": "7704267757", "tags": [{"primary": false, "id": 11333, "name": "American Express"}, {"primary": false, "id": 11349, "name": "Discover"}, {"primary": false, "id": 11361, "name": "MasterCard"}, {"primary": false, "id": 11382, "name": "Visa"}, {"primary": false, "id": 14910, "name": "Organic"}, {"primary": true, "id": 1722, "name": "Restaurants"}], "fax_number": null, "expansion": {"count": null, "uri": null}, "impression_id": "000b000000367a371d1c184e068317daf85f27b0d8", "profile": "http://www.citysearch.com/profile/601298639/marietta_ga/tofu_village.html", "address": {"city": "Marietta", "state": "GA", "street": "700 Sandy Plains Rd", "postal_code": "30066"}, "capProviderId": null, "distance": null, "has_offers": false, "name": "Tofu Village", "longitude": -84.528753, "has_menu": false, "awards": null, "user_review_count": 2}, {"business_operation_status": 1, "rating": null, "neighborhood": null, "image": null, "scorecard": null, "featured": false, "sample_categories": "Restaurants", "public_id": "bentlys-atlanta", "id": 43872978, "votes": null, "tagline": null, "has_video": false, "website": null, "offers": null, "latitude": 33.972096, "politanName": "Atlanta, GA Metro ", "phone_number": "7703950770", "tags": [{"primary": true, "id": 1722, "name": "Restaurants"}], "fax_number": null, "expansion": {"count": null, "uri": null}, "impression_id": "000b0000003180da6ee7cf442fbd050651a443f4af", "profile": "http://www.citysearch.com/profile/43872978/atlanta_ga/bently_s.html", "address": {"city": "Atlanta", "state": "GA", "street": "7870 Roswell Rd", "postal_code": "30350"}, "capProviderId": null, "distance": null, "has_offers": false, "name": "Bently's", "longitude": -84.358912, "has_menu": false, "awards": null, "user_review_count": 0}, {"business_operation_status": 1, "rating": null, "neighborhood": null, "image": null, "scorecard": null, "featured": false, "sample_categories": "Restaurants", "public_id": "tacos-del-chavo-llc-kennesaw", "id": 611127424, "votes": null, "tagline": null, "has_video": false, "website": null, "offers": null, "latitude": 34.005966, "politanName": "Atlanta, GA Metro ", "phone_number": "6788868893", "tags": [{"primary": true, "id": 1722, "name": "Restaurants"}], "fax_number": null, "expansion": {"count": null, "uri": null}, "impression_id": "000b0000003276fa288e604a99a9c5a617a9376cef", "profile": "http://www.citysearch.com/profile/611127424/kennesaw_ga/tacos_del_chavo_llc.html", "address": {"city": "Kennesaw", "state": "GA", "street": "2176 Cobb Pkwy NW", "postal_code": "30152"}, "capProviderId": null, "distance": null, "has_offers": false, "name": "Tacos Del Chavo LLC", "longitude": -84.603387, "has_menu": false, "awards": null, "user_review_count": 0}, {"business_operation_status": 1, "rating": null, "neighborhood": null, "image": null, "scorecard": null, "featured": false, "sample_categories": "Restaurants, Carry Out", "public_id": "popeyes-chicken-biscuits-smyrna-2", "id": 614164814, "votes": null, "tagline": null, "has_video": false, "website": "http://www.citysearch.com/profile/external/614164814/smyrna_ga/popeye_s_chicken_biscuits.html", "offers": null, "latitude": 33.871926, "politanName": "Atlanta, GA Metro ", "phone_number": "7704389500", "tags": [{"primary": false, "id": 11247, "name": "Carry Out"}, {"primary": true, "id": 1722, "name": "Restaurants"}], "fax_number": null, "expansion": {"count": null, "uri": null}, "impression_id": "000b00000055a9e42187634922bf503d3ea87bf4c2", "profile": "http://www.citysearch.com/profile/614164814/smyrna_ga/popeye_s_chicken_biscuits.html", "address": {"city": "Smyrna", "state": "GA", "street": "3350 S Cobb Dr SE", "postal_code": "30080"}, "capProviderId": null, "distance": null, "has_offers": false, "name": "Popeye's Chicken & Biscuits", "longitude": -84.529826, "has_menu": false, "awards": null, "user_review_count": 0}, {"business_operation_status": 1, "rating": 10.0, "neighborhood": null, "image": null, "scorecard": null, "featured": false, "sample_categories": "Ice Cream Parlors, Restaurants", "public_id": "braums-ice-cream-dairy-stores-kennesaw", "id": 33643586, "votes": null, "tagline": null, "has_video": false, "website": "http://www.citysearch.com/profile/external/33643586/kennesaw_ga/braum_s_ice_cream_dairy_stores.html", "offers": null, "latitude": 34.025916, "politanName": "Atlanta, GA Metro ", "phone_number": "7704255554", "tags": [{"primary": false, "id": 1722, "name": "Restaurants"}, {"primary": true, "id": 1730, "name": "Ice Cream Parlors"}], "fax_number": null, "expansion": {"count": null, "uri": null}, "impression_id": "000b00000062fae62573084438a070965bb116a8de", "profile": "http://www.citysearch.com/profile/33643586/kennesaw_ga/braum_s_ice_cream_dairy_stores.html", "address": {"city": "Kennesaw", "state": "GA", "street": "2960 George Busbee Pkwy NW", "postal_code": "30144"}, "capProviderId": null, "distance": null, "has_offers": false, "name": "Braum's Ice Cream & Dairy Stores", "longitude": -84.567155, "has_menu": true, "awards": null, "user_review_count": 0}, {"business_operation_status": 1, "rating": null, "neighborhood": null, "image": null, "scorecard": null, "featured": false, "sample_categories": "Restaurants", "public_id": "thats-a-wrap-marietta", "id": 814226120, "votes": null, "tagline": null, "has_video": false, "website": null, "offers": null, "latitude": 34.017341, "politanName": "Atlanta, GA Metro ", "phone_number": "6787979992", "tags": [{"primary": true, "id": 1722, "name": "Restaurants"}], "fax_number": null, "expansion": {"count": null, "uri": null}, "impression_id": "000b0000007846daddec454a309b481947dace69e7", "profile": "http://www.citysearch.com/profile/814226120/marietta_ga/that_s_a_wrap.html", "address": {"city": "Marietta", "state": "GA", "street": "2769 Chastain Meadows Pkwy", "postal_code": "30066"}, "capProviderId": null, "distance": null, "has_offers": false, "name": "That's A Wrap", "longitude": -84.555709, "has_menu": false, "awards": null, "user_review_count": 0}, {"business_operation_status": 1, "rating": null, "neighborhood": null, "image": null, "scorecard": null, "featured": false, "sample_categories": "Restaurants, Pretzels", "public_id": "pretzel-time-kennesaw", "id": 35893828, "votes": null, "tagline": null, "has_video": false, "website": "http://www.citysearch.com/profile/external/35893828/kennesaw_ga/pretzel_time.html", "offers": null, "latitude": 34.019128, "politanName": "Atlanta, GA Metro ", "phone_number": "7704992004", "tags": [{"primary": false, "id": 1722, "name": "Restaurants"}, {"primary": true, "id": 11056, "name": "Pretzels"}], "fax_number": null, "expansion": {"count": null, "uri": null}, "impression_id": "000b00000098e67321acfb434598822ed5b362ea17", "profile": "http://www.citysearch.com/profile/35893828/kennesaw_ga/pretzel_time.html", "address": {"city": "Kennesaw", "state": "GA", "street": "400 Ernest W Barrett Pkwy NW", "postal_code": "30144"}, "capProviderId": null, "distance": null, "has_offers": false, "name": "Pretzel Time", "longitude": -84.563608, "has_menu": true, "awards": null, "user_review_count": 0}, {"business_operation_status": 1, "rating": null, "neighborhood": null, "image": null, "scorecard": null, "featured": false, "sample_categories": "Restaurants", "public_id": "roswell-romanos-macaroni-roswell", "id": 818973240, "votes": null, "tagline": null, "has_video": false, "website": null, "offers": null, "latitude": 34.030094, "politanName": "Atlanta, GA Metro ", "phone_number": "7709937115", "tags": [{"primary": true, "id": 1722, "name": "Restaurants"}], "fax_number": null, "expansion": {"count": null, "uri": null}, "impression_id": "000b0000002901d53e9fc045429f11e76ef2708d6c", "profile": "http://www.citysearch.com/profile/818973240/roswell_ga/roswell_romano_s_macaroni.html", "address": {"city": "Roswell", "state": "GA", "street": "770 Holcomb Bridge Rd", "postal_code": "30076"}, "capProviderId": null, "distance": null, "has_offers": false, "name": "Roswell Romano's Macaroni", "longitude": -84.337471, "has_menu": false, "awards": null, "user_review_count": 0}, {"business_operation_status": 1, "rating": 8.0, "neighborhood": null, "image": null, "scorecard": null, "featured": false, "sample_categories": "Sandwich Shops, Restaurants, Soups", "public_id": "my-friends-place-marietta", "id": 39887388, "votes": null, "tagline": null, "has_video": false, "website": "http://www.citysearch.com/profile/external/39887388/marietta_ga/my_friend_s_place.html", "offers": null, "latitude": 33.919788, "politanName": "Atlanta, GA Metro ", "phone_number": "7709880818", "tags": [{"primary": false, "id": 1722, "name": "Restaurants"}, {"primary": false, "id": 11311, "name": "Soups"}, {"primary": true, "id": 1736, "name": "Sandwich Shops"}], "fax_number": null, "expansion": {"count": null, "uri": null}, "impression_id": "000b000000551c9f9681fc42c8833cf4ca8b7c67ce", "profile": "http://www.citysearch.com/profile/39887388/marietta_ga/my_friend_s_place.html", "address": {"city": "Marietta", "state": "GA", "street": "2121 New Market Pkwy SE", "postal_code": "30067"}, "capProviderId": null, "distance": null, "has_offers": false, "name": "My Friend's Place", "longitude": -84.49377, "has_menu": true, "awards": null, "user_review_count": 0}, {"business_operation_status": 1, "rating": null, "neighborhood": null, "image": null, "scorecard": null, "featured": false, "sample_categories": "Restaurants", "public_id": "scholtzskys-delisandwiches-roswell", "id": 825809970, "votes": null, "tagline": null, "has_video": false, "website": null, "offers": null, "latitude": 34.034046, "politanName": "Atlanta, GA Metro ", "phone_number": "7709923332", "tags": [{"primary": true, "id": 1722, "name": "Restaurants"}], "fax_number": null, "expansion": {"count": null, "uri": null}, "impression_id": "000b000000b3210e8b55a8407580539563f80285ba", "profile": "http://www.citysearch.com/profile/825809970/roswell_ga/scholtzsky_s_deli_sandwiches.html", "address": {"city": "Roswell", "state": "GA", "street": "609 Holcomb Bridge Rd", "postal_code": "30076"}, "capProviderId": null, "distance": null, "has_offers": false, "name": "Scholtzsky's Deli/Sandwiches", "longitude": -84.342093, "has_menu": false, "awards": null, "user_review_count": 0}, {"business_operation_status": 1, "rating": null, "neighborhood": null, "image": null, "scorecard": null, "featured": false, "sample_categories": "Restaurants", "public_id": "asian-express-marietta", "id": 617926934, "votes": null, "tagline": null, "has_video": false, "website": null, "offers": null, "latitude": 34.020818, "politanName": "Atlanta, GA Metro ", "phone_number": "7704201819", "tags": [{"primary": true, "id": 1722, "name": "Restaurants"}], "fax_number": null, "expansion": {"count": null, "uri": null}, "impression_id": "000b00000076ae9e56fe344c14a1938cf247238578", "profile": "http://www.citysearch.com/profile/617926934/marietta_ga/asian_express.html", "address": {"city": "Marietta", "state": "GA", "street": "2821 Chastain Meadows Pkwy", "postal_code": "30066"}, "capProviderId": null, "distance": null, "has_offers": false, "name": "Asian Express", "longitude": -84.55554, "has_menu": false, "awards": null, "user_review_count": 0}, {"business_operation_status": 1, "rating": null, "neighborhood": null, "image": null, "scorecard": null, "featured": false, "sample_categories": "Comedy Clubs, Restaurants", "public_id": "phat-comedy-atlanta-2", "id": 622991844, "votes": null, "tagline": null, "has_video": false, "website": "http://www.citysearch.com/profile/external/622991844/atlanta_ga/phat_comedy.html", "offers": null, "latitude": 33.991418, "politanName": "Atlanta, GA Metro ", "phone_number": "4049442718", "tags": [{"primary": false, "id": 1722, "name": "Restaurants"}, {"primary": true, "id": 166, "name": "Comedy Clubs"}], "fax_number": null, "expansion": {"count": null, "uri": null}, "impression_id": "000b00000070437d054c52460282780aee03b820f3", "profile": "http://www.citysearch.com/profile/622991844/atlanta_ga/phat_comedy.html", "address": {"city": "Atlanta", "state": "GA", "street": "124 Summit Springs Dr", "postal_code": "30350"}, "capProviderId": null, "distance": null, "has_offers": false, "name": "Phat Comedy", "longitude": -84.346282, "has_menu": false, "awards": null, "user_review_count": 0}, {"business_operation_status": 1, "rating": null, "neighborhood": null, "image": null, "scorecard": null, "featured": false, "sample_categories": "Restaurants, Bars & Pubs", "public_id": "mannys-bar-grill-marietta", "id": 621939080, "votes": null, "tagline": null, "has_video": false, "website": null, "offers": null, "latitude": 34.015118, "politanName": "Atlanta, GA Metro ", "phone_number": "7706932190", "tags": [{"primary": false, "id": 1686, "name": "Bars & Pubs"}, {"primary": true, "id": 1722, "name": "Restaurants"}], "fax_number": null, "expansion": {"count": null, "uri": null}, "impression_id": "000b000000cbea1e45a6d749c4aadbc7ee03433189", "profile": "http://www.citysearch.com/profile/621939080/marietta_ga/manny_s_bar_grill.html", "address": {"city": "Marietta", "state": "GA", "street": "2635 Sandy Plains Rd", "postal_code": "30066"}, "capProviderId": null, "distance": null, "has_offers": false, "name": "Manny's Bar & Grill", "longitude": -84.495187, "has_menu": false, "awards": null, "user_review_count": 0}, {"business_operation_status": 1, "rating": null, "neighborhood": null, "image": null, "scorecard": null, "featured": false, "sample_categories": "Restaurants", "public_id": "ippilotos-restaurant-llc-roswell", "id": 621893810, "votes": null, "tagline": null, "has_video": false, "website": null, "offers": null, "latitude": 34.03424, "politanName": "Atlanta, GA Metro ", "phone_number": "7706647000", "tags": [{"primary": true, "id": 1722, "name": "Restaurants"}], "fax_number": null, "expansion": {"count": null, "uri": null}, "impression_id": "000b000000a304809df7134c53a7bdd653aad4cc51", "profile": "http://www.citysearch.com/profile/621893810/roswell_ga/ippilotos_restaurant_llc.html", "address": {"city": "Roswell", "state": "GA", "street": "900 Old Roswell Lakes Pkwy", "postal_code": "30076"}, "capProviderId": null, "distance": null, "has_offers": false, "name": "Ippilotos Restaurant Llc", "longitude": -84.336995, "has_menu": false, "awards": null, "user_review_count": 1}, {"business_operation_status": 1, "rating": null, "neighborhood": null, "image": null, "scorecard": null, "featured": false, "sample_categories": "Restaurants", "public_id": "stockyard-burgers-marietta", "id": 621272344, "votes": null, "tagline": null, "has_video": false, "website": null, "offers": null, "latitude": 33.953436, "politanName": "Atlanta, GA Metro ", "phone_number": "6785032760", "tags": [{"primary": true, "id": 1722, "name": "Restaurants"}], "fax_number": null, "expansion": {"count": null, "uri": null}, "impression_id": "000b0000000cf6e28f4fdb46b195392bb67728dce5", "profile": "http://www.citysearch.com/profile/621272344/marietta_ga/stockyard_burgers.html", "address": {"city": "Marietta", "state": "GA", "street": "26 Mill St NE", "postal_code": "30060"}, "capProviderId": null, "distance": null, "has_offers": false, "name": "Stockyard Burgers", "longitude": -84.550777, "has_menu": false, "awards": null, "user_review_count": 0}, {"business_operation_status": 1, "rating": null, "neighborhood": null, "image": null, "scorecard": null, "featured": false, "sample_categories": "Refreshment Stands, Restaurants", "public_id": "h-j-stuckey-marietta", "id": 621963840, "votes": null, "tagline": null, "has_video": false, "website": null, "offers": null, "latitude": 33.973674, "politanName": "Atlanta, GA Metro ", "phone_number": "7709716616", "tags": [{"primary": false, "id": 1722, "name": "Restaurants"}, {"primary": true, "id": 6188, "name": "Refreshment Stands"}], "fax_number": null, "expansion": {"count": null, "uri": null}, "impression_id": "000b00000061b3daa4445c4850868c67cd5e72577f", "profile": "http://www.citysearch.com/profile/621963840/marietta_ga/h_j_stuckey.html", "address": {"city": "Marietta", "state": "GA", "street": "3979 Chantilly Pl", "postal_code": "30068"}, "capProviderId": null, "distance": null, "has_offers": false, "name": "H J Stuckey", "longitude": -84.435273, "has_menu": false, "awards": null, "user_review_count": 0}, {"business_operation_status": 1, "rating": null, "neighborhood": null, "image": null, "scorecard": null, "featured": false, "sample_categories": "Sandwich Shops, Bakeries, Restaurants", "public_id": "accord-enterprises-inc-roswell", "id": 621974910, "votes": null, "tagline": null, "has_video": false, "website": null, "offers": null, "latitude": 34.044357, "politanName": "Atlanta, GA Metro ", "phone_number": "7708170812", "tags": [{"primary": false, "id": 1685, "name": "Bakeries"}, {"primary": false, "id": 1722, "name": "Restaurants"}, {"primary": true, "id": 1736, "name": "Sandwich Shops"}], "fax_number": null, "expansion": {"count": null, "uri": null}, "impression_id": "000b000000f96d1b2752504578b4ff681a74fb79d4", "profile": "http://www.citysearch.com/profile/621974910/roswell_ga/accord_enterprises_inc.html", "address": {"city": "Roswell", "state": "GA", "street": "10800 Alpharetta Hwy # 232", "postal_code": "30076"}, "capProviderId": null, "distance": null, "has_offers": false, "name": "Accord Enterprises Inc", "longitude": -84.342383, "has_menu": false, "awards": null, "user_review_count": 0}, {"business_operation_status": 1, "rating": null, "neighborhood": null, "image": null, "scorecard": null, "featured": false, "sample_categories": "Restaurants", "public_id": "tme-enterprises-i-ltd-marietta", "id": 621954570, "votes": null, "tagline": null, "has_video": false, "website": "http://www.citysearch.com/profile/external/621954570/marietta_ga/tme_enterprises_i_ltd.html", "offers": null, "latitude": 34.036665, "politanName": "Atlanta, GA Metro ", "phone_number": "7705781119", "tags": [{"primary": true, "id": 1722, "name": "Restaurants"}], "fax_number": null, "expansion": {"count": null, "uri": null}, "impression_id": "000b00000091be36af3883447d89fd4ca8929db4fa", "profile": "http://www.citysearch.com/profile/621954570/marietta_ga/tme_enterprises_i_ltd.html", "address": {"city": "Marietta", "state": "GA", "street": "2971 Shallowford Rd", "postal_code": "30066"}, "capProviderId": null, "distance": null, "has_offers": false, "name": "Tme Enterprises I Ltd", "longitude": -84.464103, "has_menu": false, "awards": null, "user_review_count": 0}, {"business_operation_status": 1, "rating": null, "neighborhood": null, "image": null, "scorecard": null, "featured": false, "sample_categories": "Restaurants", "public_id": "stars-strikes-atlantasandy-atlanta", "id": 622494084, "votes": null, "tagline": null, "has_video": false, "website": "http://www.citysearch.com/profile/external/622494084/atlanta_ga/stars_strikes_atlanta_sandy.html", "offers": null, "latitude": 34.00216, "politanName": "Atlanta, GA Metro ", "phone_number": "6789655707", "tags": [{"primary": true, "id": 1722, "name": "Restaurants"}], "fax_number": null, "expansion": {"count": null, "uri": null}, "impression_id": "000b000000d5b4b16a922a459ca3633133536d654d", "profile": "http://www.citysearch.com/profile/622494084/atlanta_ga/stars_strikes_atlanta_sandy.html", "address": {"city": "Atlanta", "state": "GA", "street": "8967 Roswell Rd", "postal_code": "30350"}, "capProviderId": null, "distance": null, "has_offers": false, "name": "Stars & Strikes Atlanta-Sandy", "longitude": -84.350418, "has_menu": false, "awards": null, "user_review_count": 0}, {"business_operation_status": 1, "rating": null, "neighborhood": null, "image": null, "scorecard": null, "featured": false, "sample_categories": "Restaurants, Bars & Clubs, Bars & Pubs", "public_id": "rafters-bar-grill-roswell", "id": 621882460, "votes": null, "tagline": null, "has_video": false, "website": null, "offers": null, "latitude": 34.0617, "politanName": "Atlanta, GA Metro ", "phone_number": "6784616294", "tags": [{"primary": false, "id": 164, "name": "Bars & Clubs"}, {"primary": false, "id": 1686, "name": "Bars & Pubs"}, {"primary": true, "id": 1722, "name": "Restaurants"}], "fax_number": null, "expansion": {"count": null, "uri": null}, "impression_id": "000b000000fdb1cb3b6e6f49a98e56128ef11ab1fe", "profile": "http://www.citysearch.com/profile/621882460/roswell_ga/rafter_s_bar_grill.html", "address": {"city": "Roswell", "state": "GA", "street": "1165 Woodstock Rd", "postal_code": "30075"}, "capProviderId": null, "distance": null, "has_offers": false, "name": "Rafter's Bar & Grill", "longitude": -84.399784, "has_menu": false, "awards": null, "user_review_count": 1}, {"business_operation_status": 1, "rating": null, "neighborhood": null, "image": null, "scorecard": null, "featured": false, "sample_categories": "Restaurants", "public_id": "good-fatts-country-cookin-acworth", "id": 653578880, "votes": null, "tagline": null, "has_video": false, "website": null, "offers": null, "latitude": 34.06489, "politanName": "Atlanta, GA Metro ", "phone_number": "6784014805", "tags": [{"primary": true, "id": 1722, "name": "Restaurants"}], "fax_number": null, "expansion": {"count": null, "uri": null}, "impression_id": "000b00000093a7164507c04168bfbaed0dfe1b3248", "profile": "http://www.citysearch.com/profile/653578880/acworth_ga/good_fatts_country_cookin.html", "address": {"city": "Acworth", "state": "GA", "street": "2535 Hickory Grove Rd Nw # 105", "postal_code": "30101"}, "capProviderId": null, "distance": null, "has_offers": false, "name": "Good Fatts Country Cookin", "longitude": -84.624038, "has_menu": false, "awards": null, "user_review_count": 0}, {"business_operation_status": 0, "rating": null, "neighborhood": null, "image": null, "scorecard": null, "featured": false, "sample_categories": "Restaurants", "public_id": "flying-biscuit-cafe-marietta", "id": 672457190, "votes": null, "tagline": null, "has_video": false, "website": "http://www.citysearch.com/profile/external/672457190/marietta_ga/flying_biscuit_cafe.html", "offers": null, "latitude": 33.976001, "politanName": "Atlanta, GA Metro ", "phone_number": "7703214445", "tags": [{"primary": true, "id": 1722, "name": "Restaurants"}], "fax_number": null, "expansion": {"count": null, "uri": null}, "impression_id": "000b000000e79c7a99ddbf4021ad744a62af52c0b7", "profile": "http://www.citysearch.com/profile/672457190/marietta_ga/flying_biscuit_cafe.html", "address": {"city": "Marietta", "state": "GA", "street": "1084 Johnson Ferry Rd NE", "postal_code": "30068"}, "capProviderId": null, "distance": null, "has_offers": false, "name": "Flying Biscuit Cafe", "longitude": -84.414734, "has_menu": true, "awards": null, "user_review_count": 2}, {"business_operation_status": 1, "rating": null, "neighborhood": null, "image": null, "scorecard": null, "featured": false, "sample_categories": "Delis And Delicatessens", "public_id": "kroger-deli-marietta-4", "id": 693544700, "votes": null, "tagline": null, "has_video": false, "website": null, "offers": null, "latitude": 33.953033, "politanName": "Atlanta, GA Metro ", "phone_number": "7704217676", "tags": [{"primary": true, "id": 1727, "name": "Delis And Delicatessens"}], "fax_number": null, "expansion": {"count": null, "uri": null}, "impression_id": "000b000000a28a698383e04da2873d4d0ab1831758", "profile": "http://www.citysearch.com/profile/693544700/marietta_ga/kroger_deli.html", "address": {"city": "Marietta", "state": "GA", "street": "1000 Whitlock Ave NW # 200", "postal_code": "30064"}, "capProviderId": null, "distance": null, "has_offers": false, "name": "Kroger Deli", "longitude": -84.581202, "has_menu": false, "awards": null, "user_review_count": 0}, {"business_operation_status": 1, "rating": null, "neighborhood": null, "image": null, "scorecard": null, "featured": false, "sample_categories": "Restaurants", "public_id": "lennys-sub-shop-kennesaw-2", "id": 672416760, "votes": null, "tagline": null, "has_video": false, "website": null, "offers": null, "latitude": 34.014321, "politanName": "Atlanta, GA Metro ", "phone_number": "7705901218", "tags": [{"primary": true, "id": 1722, "name": "Restaurants"}], "fax_number": null, "expansion": {"count": null, "uri": null}, "impression_id": "000b00000011a351659c6d461ca0968f8705b9d740", "profile": "http://www.citysearch.com/profile/672416760/kennesaw_ga/lenny_s_sub_shop.html", "address": {"city": "Kennesaw", "state": "GA", "street": "440 Barrett Pky NW Ste 12", "postal_code": "30144"}, "capProviderId": null, "distance": null, "has_offers": false, "name": "Lenny's Sub Shop", "longitude": -84.562111, "has_menu": true, "awards": null, "user_review_count": 0}, {"business_operation_status": 1, "rating": null, "neighborhood": null, "image": null, "scorecard": null, "featured": false, "sample_categories": "Restaurants", "public_id": "folia-brazilian-steakhouse-kennesaw", "id": 672760470, "votes": null, "tagline": null, "has_video": false, "website": null, "offers": null, "latitude": 34.01386, "politanName": "Atlanta, GA Metro ", "phone_number": "6783245041", "tags": [{"primary": true, "id": 1722, "name": "Restaurants"}], "fax_number": null, "expansion": {"count": null, "uri": null}, "impression_id": "000b0000008535cc97296f44f3926a3187806db69e", "profile": "http://www.citysearch.com/profile/672760470/kennesaw_ga/folia_brazilian_steakhouse.html", "address": {"city": "Kennesaw", "state": "GA", "street": "2606 George Busbee Pkwy", "postal_code": "30144"}, "capProviderId": null, "distance": null, "has_offers": false, "name": "Folia Brazilian Steakhouse", "longitude": -84.565725, "has_menu": false, "awards": null, "user_review_count": 0}, {"business_operation_status": 1, "rating": null, "neighborhood": null, "image": null, "scorecard": null, "featured": false, "sample_categories": "Health Food Stores, Restaurants, Health Food Stores", "public_id": "smoothie-king-marietta-3", "id": 700965810, "votes": null, "tagline": null, "has_video": false, "website": "http://www.citysearch.com/profile/external/700965810/marietta_ga/smoothie_king.html", "offers": null, "latitude": 33.979483, "politanName": "Atlanta, GA Metro ", "phone_number": "7709730001", "tags": [{"primary": false, "id": 1722, "name": "Restaurants"}, {"primary": false, "id": 17570, "name": "Health Food Stores"}, {"primary": true, "id": 1716, "name": "Health Food Stores"}], "fax_number": null, "expansion": {"count": null, "uri": null}, "impression_id": "000b00000003a7e38189184a59bad3d64b64fa426c", "profile": "http://www.citysearch.com/profile/700965810/marietta_ga/smoothie_king.html", "address": {"city": "Marietta", "state": "GA", "street": "1271 Johnson Ferry Rd", "postal_code": "30068"}, "capProviderId": null, "distance": null, "has_offers": false, "name": "Smoothie King", "longitude": -84.421935, "has_menu": false, "awards": null, "user_review_count": 0}, {"business_operation_status": 1, "rating": null, "neighborhood": null, "image": null, "scorecard": null, "featured": false, "sample_categories": "Delis And Delicatessens", "public_id": "kroger-deli-marietta-5", "id": 695444670, "votes": null, "tagline": null, "has_video": false, "website": null, "offers": null, "latitude": 33.964739, "politanName": "Atlanta, GA Metro ", "phone_number": "7709718801", "tags": [{"primary": true, "id": 1727, "name": "Delis And Delicatessens"}], "fax_number": null, "expansion": {"count": null, "uri": null}, "impression_id": "000b000000990554e6ce7744a0b573e8057adc034e", "profile": "http://www.citysearch.com/profile/695444670/marietta_ga/kroger_deli.html", "address": {"city": "Marietta", "state": "GA", "street": "4880 Lower Roswell Rd # 400b", "postal_code": "30068"}, "capProviderId": null, "distance": null, "has_offers": false, "name": "Kroger Deli", "longitude": -84.409822, "has_menu": false, "awards": null, "user_review_count": 0}, {"business_operation_status": 1, "rating": null, "neighborhood": null, "image": null, "scorecard": null, "featured": false, "sample_categories": "Restaurants, Pizza", "public_id": "marcos-pizza-marietta", "id": 713581120, "votes": null, "tagline": null, "has_video": false, "website": "http://www.citysearch.com/profile/external/713581120/marietta_ga/marco_s_pizza.html", "offers": null, "latitude": 33.973533, "politanName": "Atlanta, GA Metro ", "phone_number": "7706946400", "tags": [{"primary": false, "id": 11299, "name": "Pizza"}, {"primary": true, "id": 1722, "name": "Restaurants"}], "fax_number": null, "expansion": {"count": null, "uri": null}, "impression_id": "000b000000ab3b2f915365480e931c7cec5fc1dc0e", "profile": "http://www.citysearch.com/profile/713581120/marietta_ga/marco_s_pizza.html", "address": {"city": "Marietta", "state": "GA", "street": "2424 Roswell Rd", "postal_code": "30068"}, "capProviderId": null, "distance": null, "has_offers": false, "name": "Marco's Pizza", "longitude": -84.480778, "has_menu": true, "awards": null, "user_review_count": 0}, {"business_operation_status": 1, "rating": null, "neighborhood": null, "image": null, "scorecard": null, "featured": false, "sample_categories": "Restaurants", "public_id": "snack-shack-marietta", "id": 713480420, "votes": null, "tagline": null, "has_video": false, "website": null, "offers": null, "latitude": 33.938267, "politanName": "Atlanta, GA Metro ", "phone_number": "7709190010", "tags": [{"primary": true, "id": 1722, "name": "Restaurants"}], "fax_number": null, "expansion": {"count": null, "uri": null}, "impression_id": "000b000000fcd1b87a20f94d129bed7164062c572e", "profile": "http://www.citysearch.com/profile/713480420/marietta_ga/snack_shack.html", "address": {"city": "Marietta", "state": "GA", "street": "601 Powder Springs St", "postal_code": "30064"}, "capProviderId": null, "distance": null, "has_offers": false, "name": "Snack Shack", "longitude": -84.553758, "has_menu": false, "awards": null, "user_review_count": 0}, {"business_operation_status": 1, "rating": null, "neighborhood": null, "image": null, "scorecard": null, "featured": false, "sample_categories": "Restaurants", "public_id": "cafe-med-marietta", "id": 2908313, "votes": null, "tagline": null, "has_video": false, "website": null, "offers": null, "latitude": 34.015118, "politanName": "Atlanta, GA Metro ", "phone_number": "7705790630", "tags": [{"primary": true, "id": 1722, "name": "Restaurants"}], "fax_number": null, "expansion": {"count": null, "uri": null}, "impression_id": "000b000000a0e1c0a1101e4584bb48e5365b297add", "profile": "http://www.citysearch.com/profile/2908313/marietta_ga/cafe_med.html", "address": {"city": "Marietta", "state": "GA", "street": "2635 Sandy Plains Rd Ste A10", "postal_code": "30066"}, "capProviderId": null, "distance": null, "has_offers": false, "name": "Cafe Med", "longitude": -84.495187, "has_menu": true, "awards": null, "user_review_count": 3}, {"business_operation_status": 1, "rating": null, "neighborhood": null, "image": null, "scorecard": null, "featured": false, "sample_categories": "Restaurants", "public_id": "great-wall-marietta", "id": 622851854, "votes": null, "tagline": null, "has_video": false, "website": null, "offers": null, "latitude": 33.921719, "politanName": "Atlanta, GA Metro ", "phone_number": "7709536392", "tags": [{"primary": true, "id": 1722, "name": "Restaurants"}], "fax_number": null, "expansion": {"count": null, "uri": null}, "impression_id": "000b00000088dedbf10dc2494599ab886f8d114272", "profile": "http://www.citysearch.com/profile/622851854/marietta_ga/great_wall.html", "address": {"city": "Marietta", "state": "GA", "street": "1275 Powers Ferry Rd SE Ste 18", "postal_code": "30067"}, "capProviderId": null, "distance": null, "has_offers": false, "name": "Great Wall", "longitude": -84.466106, "has_menu": false, "awards": null, "user_review_count": 0}, {"business_operation_status": 1, "rating": null, "neighborhood": null, "image": null, "scorecard": null, "featured": false, "sample_categories": "Restaurants", "public_id": "buffalo-grill-llc-marietta", "id": 638844090, "votes": null, "tagline": null, "has_video": false, "website": null, "offers": null, "latitude": 33.972692, "politanName": "Atlanta, GA Metro ", "phone_number": "6783549464", "tags": [{"primary": true, "id": 1722, "name": "Restaurants"}], "fax_number": null, "expansion": {"count": null, "uri": null}, "impression_id": "000b0000005222ebb5ce244c7fbc613179791c2f9d", "profile": "http://www.citysearch.com/profile/638844090/marietta_ga/buffalo_grill_llc.html", "address": {"city": "Marietta", "state": "GA", "street": "949 Ashebrooke Trce Ne", "postal_code": "30068"}, "capProviderId": null, "distance": null, "has_offers": false, "name": "Buffalo Grill Llc", "longitude": -84.468243, "has_menu": false, "awards": null, "user_review_count": 0}, {"business_operation_status": 1, "rating": null, "neighborhood": null, "image": null, "scorecard": null, "featured": false, "sample_categories": "Restaurants, Carry Out, Steakhouse", "public_id": "steak-n-shake-roswell", "id": 638819600, "votes": null, "tagline": null, "has_video": false, "website": "http://www.citysearch.com/profile/external/638819600/roswell_ga/steak_n_shake.html", "offers": null, "latitude": 34.061357, "politanName": "Atlanta, GA Metro ", "phone_number": "6785343640", "tags": [{"primary": false, "id": 11247, "name": "Carry Out"}, {"primary": false, "id": 11316, "name": "Steakhouse"}, {"primary": true, "id": 1722, "name": "Restaurants"}], "fax_number": null, "expansion": {"count": null, "uri": null}, "impression_id": "000b000000c998ba2be7cc4f94975d7f5c2ccf8c0c", "profile": "http://www.citysearch.com/profile/638819600/roswell_ga/steak_n_shake.html", "address": {"city": "Roswell", "state": "GA", "street": "895 Woodstock Rd", "postal_code": "30075"}, "capProviderId": null, "distance": null, "has_offers": false, "name": "Steak 'n Shake", "longitude": -84.388327, "has_menu": true, "awards": null, "user_review_count": 0}, {"business_operation_status": 1, "rating": null, "neighborhood": null, "image": null, "scorecard": null, "featured": false, "sample_categories": "Restaurants", "public_id": "tequilas-lounge-marietta", "id": 620246084, "votes": null, "tagline": null, "has_video": false, "website": null, "offers": null, "latitude": 33.935771, "politanName": "Atlanta, GA Metro ", "phone_number": "6789036953", "tags": [{"primary": true, "id": 1722, "name": "Restaurants"}], "fax_number": null, "expansion": {"count": null, "uri": null}, "impression_id": "000b0000005fc2d1b64c5e4b07806541bd243d1c52", "profile": "http://www.citysearch.com/profile/620246084/marietta_ga/tequilas_lounge.html", "address": {"city": "Marietta", "state": "GA", "street": "677 Franklin Rd SE", "postal_code": "30067"}, "capProviderId": null, "distance": null, "has_offers": false, "name": "Tequilas Lounge", "longitude": -84.503662, "has_menu": false, "awards": null, "user_review_count": 0}, {"business_operation_status": 1, "rating": null, "neighborhood": null, "image": null, "scorecard": null, "featured": false, "sample_categories": "Restaurants", "public_id": "dinner-afare-marietta", "id": 621938470, "votes": null, "tagline": null, "has_video": false, "website": null, "offers": null, "latitude": 33.963729, "politanName": "Atlanta, GA Metro ", "phone_number": "7704261838", "tags": [{"primary": true, "id": 1722, "name": "Restaurants"}], "fax_number": null, "expansion": {"count": null, "uri": null}, "impression_id": "000b0000009dbc7b6a34f5411d88ec972cb4f27d57", "profile": "http://www.citysearch.com/profile/621938470/marietta_ga/dinner_a_fare.html", "address": {"city": "Marietta", "state": "GA", "street": "3391 Bridle Run Trl Nw", "postal_code": "30064"}, "capProviderId": null, "distance": null, "has_offers": false, "name": "Dinner A'Fare", "longitude": -84.649114, "has_menu": false, "awards": null, "user_review_count": 0}, {"business_operation_status": 1, "rating": null, "neighborhood": null, "image": null, "scorecard": null, "featured": false, "sample_categories": "Restaurants, Bars & Clubs", "public_id": "peach-the-pork-chop-roswell", "id": 622457554, "votes": null, "tagline": null, "has_video": false, "website": "http://www.citysearch.com/profile/external/622457554/roswell_ga/peach_the_porkchop.html", "offers": null, "latitude": 34.073556, "politanName": "Atlanta, GA Metro ", "phone_number": "7706965409", "tags": [{"primary": false, "id": 164, "name": "Bars & Clubs"}, {"primary": true, "id": 1722, "name": "Restaurants"}], "fax_number": null, "expansion": {"count": null, "uri": null}, "impression_id": "000b000000ce6b3a9cb5ab4362bacebe83df2764ed", "profile": "http://www.citysearch.com/profile/622457554/roswell_ga/peach_the_porkchop.html", "address": {"city": "Roswell", "state": "GA", "street": "12040 Etris Rd D100", "postal_code": "30075"}, "capProviderId": null, "distance": null, "has_offers": false, "name": "Peach & the Porkchop", "longitude": -84.362707, "has_menu": false, "awards": null, "user_review_count": 0}, {"business_operation_status": 1, "rating": null, "neighborhood": null, "image": null, "scorecard": null, "featured": false, "sample_categories": "Restaurants", "public_id": "clec-solutions-inc-marietta-2", "id": 682601500, "votes": null, "tagline": null, "has_video": false, "website": null, "offers": null, "latitude": 33.948318, "politanName": "Atlanta, GA Metro ", "phone_number": "7709772212", "tags": [{"primary": true, "id": 1722, "name": "Restaurants"}], "fax_number": null, "expansion": {"count": null, "uri": null}, "impression_id": "000b000000eeabe595f5364d788631864d86c5d590", "profile": "http://www.citysearch.com/profile/682601500/marietta_ga/clec_solutions_inc.html", "address": {"city": "Marietta", "state": "GA", "street": "2060 Lower Roswell Rd", "postal_code": "30068"}, "capProviderId": null, "distance": null, "has_offers": false, "name": "Clec Solutions INC", "longitude": -84.492511, "has_menu": false, "awards": null, "user_review_count": 0}, {"business_operation_status": 1, "rating": null, "neighborhood": null, "image": null, "scorecard": null, "featured": false, "sample_categories": "Restaurants", "public_id": "zuzzu-roswell", "id": 626968874, "votes": null, "tagline": null, "has_video": false, "website": null, "offers": null, "latitude": 34.02005, "politanName": "Atlanta, GA Metro ", "phone_number": "4049834589", "tags": [{"primary": true, "id": 1722, "name": "Restaurants"}], "fax_number": null, "expansion": {"count": null, "uri": null}, "impression_id": "000b0000001f886d630e5c4b67aa2a9ff65aaea7a5", "profile": "http://www.citysearch.com/profile/626968874/roswell_ga/zuzzu.html", "address": {"city": "Roswell", "state": "GA", "street": "42 Oak St B", "postal_code": "30075"}, "capProviderId": null, "distance": null, "has_offers": false, "name": "Zuzzu", "longitude": -84.360424, "has_menu": false, "awards": null, "user_review_count": 0}, {"business_operation_status": 1, "rating": null, "neighborhood": null, "image": null, "scorecard": null, "featured": false, "sample_categories": "Restaurants, Bistros", "public_id": "botekim-brazilian-bistro-marietta", "id": 713470640, "votes": null, "tagline": null, "has_video": false, "website": null, "offers": null, "latitude": 33.917966, "politanName": "Atlanta, GA Metro ", "phone_number": "6784026329", "tags": [{"primary": false, "id": 13690, "name": "Bistros"}, {"primary": true, "id": 1722, "name": "Restaurants"}], "fax_number": null, "expansion": {"count": null, "uri": null}, "impression_id": "000b0000000e94b9521a884cae9fff641e3aa7f11e", "profile": "http://www.citysearch.com/profile/713470640/marietta_ga/botekim_brazilian_bistro.html", "address": {"city": "Marietta", "state": "GA", "street": "1410 Terrell Mill Rd Se", "postal_code": "30067"}, "capProviderId": null, "distance": null, "has_offers": false, "name": "Botekim Brazilian Bistro", "longitude": -84.467707, "has_menu": false, "awards": null, "user_review_count": 0}, {"business_operation_status": 1, "rating": null, "neighborhood": null, "image": null, "scorecard": null, "featured": false, "sample_categories": "Restaurants, Pizza", "public_id": "star-pizza-kennesaw", "id": 713428420, "votes": null, "tagline": null, "has_video": false, "website": null, "offers": null, "latitude": 34.046915, "politanName": "Atlanta, GA Metro ", "phone_number": "6787971190", "tags": [{"primary": false, "id": 1722, "name": "Restaurants"}, {"primary": true, "id": 11299, "name": "Pizza"}], "fax_number": null, "expansion": {"count": null, "uri": null}, "impression_id": "000b00000031904a44a01c4d75966dec1e310b8a66", "profile": "http://www.citysearch.com/profile/713428420/kennesaw_ga/star_pizza.html", "address": {"city": "Kennesaw", "state": "GA", "street": "3930 George Busbee Pkwy NW", "postal_code": "30144"}, "capProviderId": null, "distance": null, "has_offers": false, "name": "Star Pizza", "longitude": -84.581594, "has_menu": true, "awards": null, "user_review_count": 1}, {"business_operation_status": 1, "rating": null, "neighborhood": null, "image": null, "scorecard": null, "featured": false, "sample_categories": "Restaurants, Mexican, Carry Out", "public_id": "taco-bell-marietta-9", "id": 713633170, "votes": null, "tagline": null, "has_video": false, "website": "http://www.citysearch.com/profile/external/713633170/marietta_ga/taco_bell.html", "offers": null, "latitude": 33.911069, "politanName": "Atlanta, GA Metro ", "phone_number": "7709512472", "tags": [{"primary": false, "id": 11208, "name": "Mexican"}, {"primary": false, "id": 11247, "name": "Carry Out"}, {"primary": true, "id": 1722, "name": "Restaurants"}], "fax_number": null, "expansion": {"count": null, "uri": null}, "impression_id": "000b000000e960fd199b7945dda88a87f639237afe", "profile": "http://www.citysearch.com/profile/713633170/marietta_ga/taco_bell.html", "address": {"city": "Marietta", "state": "GA", "street": "1700 Cumberland Point Dr Se", "postal_code": "30067"}, "capProviderId": null, "distance": null, "has_offers": false, "name": "Taco Bell", "longitude": -84.491182, "has_menu": true, "awards": null, "user_review_count": 0}], "histograms": [], "tag_ids": [1722], "uri": "http://api.citygridmedia.com:8080/search/places/v2/search/where?has_offers=false&type=restaurant&format=json&page=23&where=30062&rpp=50&histograms=false&publisher=10000009598&region_type=circle", "did_you_mean": "", "regions": [{"latitude": 34.001368, "default_radius": 5.22, "type": "postal_code", "name": "30062", "longitude": -84.466397}], "call_id": "000b000000d17ab52102294ca4a25f4e1cb3e4629a", "first_hit": 1101, "total_hits": 2160, "geo_ids": [26292], "page": 23, "last_hit": 1150}}