{"results": {"rpp": 50, "locations": [{"business_operation_status": 1, "rating": null, "neighborhood": null, "image": null, "scorecard": null, "featured": false, "sample_categories": "Restaurants", "public_id": "nashville-restaurant-mgmt-smyrna", "id": 713616520, "votes": null, "tagline": null, "has_video": false, "website": null, "offers": null, "latitude": 33.871625, "politanName": "Atlanta, GA Metro ", "phone_number": "7704389400", "tags": [{"primary": true, "id": 1722, "name": "Restaurants"}], "fax_number": null, "expansion": {"count": null, "uri": null}, "impression_id": "000b00000084d64c187fdc47c0bfcf8416ede98fb1", "profile": "http://www.citysearch.com/profile/713616520/smyrna_ga/nashville_restaurant_mgmt.html", "address": {"city": "Smyrna", "state": "GA", "street": "3350 S Cobb Dr Se", "postal_code": "30080"}, "capProviderId": null, "distance": null, "has_offers": false, "name": "Nashville Restaurant Mgmt", "longitude": -84.528763, "has_menu": false, "awards": null, "user_review_count": 0}, {"business_operation_status": 1, "rating": null, "neighborhood": null, "image": null, "scorecard": null, "featured": false, "sample_categories": "Restaurants, Mexican, Carry Out", "public_id": "taco-bell-marietta-9", "id": 713633170, "votes": null, "tagline": null, "has_video": false, "website": "http://www.citysearch.com/profile/external/713633170/marietta_ga/taco_bell.html", "offers": null, "latitude": 33.911069, "politanName": "Atlanta, GA Metro ", "phone_number": "7709512472", "tags": [{"primary": false, "id": 11208, "name": "Mexican"}, {"primary": false, "id": 11247, "name": "Carry Out"}, {"primary": true, "id": 1722, "name": "Restaurants"}], "fax_number": null, "expansion": {"count": null, "uri": null}, "impression_id": "000b0000002e1fdbfacd864fc4b202748f0fe5581c", "profile": "http://www.citysearch.com/profile/713633170/marietta_ga/taco_bell.html", "address": {"city": "Marietta", "state": "GA", "street": "1700 Cumberland Point Dr Se", "postal_code": "30067"}, "capProviderId": null, "distance": null, "has_offers": false, "name": "Taco Bell", "longitude": -84.491182, "has_menu": true, "awards": null, "user_review_count": 0}, {"business_operation_status": 1, "rating": null, "neighborhood": null, "image": null, "scorecard": null, "featured": false, "sample_categories": "Restaurants, Mexican", "public_id": "el-vaquero-mexican-cantina-marietta", "id": 655802400, "votes": null, "tagline": null, "has_video": false, "website": null, "offers": null, "latitude": 33.953033, "politanName": "Atlanta, GA Metro ", "phone_number": "6787385431", "tags": [{"primary": false, "id": 11208, "name": "Mexican"}, {"primary": true, "id": 1722, "name": "Restaurants"}], "fax_number": null, "expansion": {"count": null, "uri": null}, "impression_id": "000b000000a9222a2a22dc4ab48ffc9bb748a49879", "profile": "http://www.citysearch.com/profile/655802400/marietta_ga/el_vaquero_mexican_cantina.html", "address": {"city": "Marietta", "state": "GA", "street": "1000 Whitlock Ave Nw # 410", "postal_code": "30064"}, "capProviderId": null, "distance": null, "has_offers": false, "name": "El Vaquero Mexican Cantina", "longitude": -84.581202, "has_menu": false, "awards": null, "user_review_count": 0}, {"business_operation_status": 1, "rating": null, "neighborhood": null, "image": null, "scorecard": null, "featured": false, "sample_categories": "Restaurants", "public_id": "yuraku-sushi-steak-smyrna", "id": 672566190, "votes": null, "tagline": null, "has_video": false, "website": null, "offers": null, "latitude": 33.842892, "politanName": "Atlanta, GA Metro ", "phone_number": null, "tags": [{"primary": true, "id": 1722, "name": "Restaurants"}], "fax_number": null, "expansion": {"count": null, "uri": null}, "impression_id": "000b000000204d33fdf957438bb099eaa51905b7de", "profile": "http://www.citysearch.com/profile/672566190/smyrna_ga/yuraku_sushi_steak.html", "address": {"city": "Smyrna", "state": "GA", "street": "4500 West Village Place", "postal_code": "30080"}, "capProviderId": null, "distance": null, "has_offers": false, "name": "Yuraku Sushi & Steak", "longitude": -84.490261, "has_menu": false, "awards": null, "user_review_count": 0}, {"business_operation_status": 1, "rating": null, "neighborhood": null, "image": null, "scorecard": null, "featured": false, "sample_categories": "Restaurants", "public_id": "t-j-bryans-cafe-kennesaw", "id": 672478580, "votes": null, "tagline": null, "has_video": false, "website": null, "offers": null, "latitude": 34.024396, "politanName": "Atlanta, GA Metro ", "phone_number": "6782238211", "tags": [{"primary": true, "id": 1722, "name": "Restaurants"}], "fax_number": null, "expansion": {"count": null, "uri": null}, "impression_id": "000b0000003ee14b267ec64630be207b328e35d1d9", "profile": "http://www.citysearch.com/profile/672478580/kennesaw_ga/t_j_bryans_cafe.html", "address": {"city": "Kennesaw", "state": "GA", "street": "2893 N Main St NW", "postal_code": "30144"}, "capProviderId": null, "distance": null, "has_offers": false, "name": "T J Bryans Cafe", "longitude": -84.615917, "has_menu": false, "awards": null, "user_review_count": 0}, {"business_operation_status": 1, "rating": null, "neighborhood": null, "image": null, "scorecard": null, "featured": false, "sample_categories": "Restaurants, Seafood, American Express, Discover, MasterCard", "public_id": "a-js-famous-seafood-po-boys-marietta-2", "id": 713327660, "votes": null, "tagline": null, "has_video": false, "website": "http://www.citysearch.com/profile/external/713327660/marietta_ga/ajs_famous_seafood.html", "offers": null, "latitude": 33.968758, "politanName": "Atlanta, GA Metro ", "phone_number": "6789990767", "tags": [{"primary": false, "id": 11228, "name": "Seafood"}, {"primary": false, "id": 11333, "name": "American Express"}, {"primary": false, "id": 11349, "name": "Discover"}, {"primary": false, "id": 11361, "name": "MasterCard"}, {"primary": false, "id": 11382, "name": "Visa"}, {"primary": true, "id": 1722, "name": "Restaurants"}], "fax_number": null, "expansion": {"count": null, "uri": null}, "impression_id": "000b00000009bb38c34686493893493e9a8fe2333b", "profile": "http://www.citysearch.com/profile/713327660/marietta_ga/ajs_famous_seafood.html", "address": {"city": "Marietta", "state": "GA", "street": "2100 Roswell Rd Ne", "postal_code": "30062"}, "capProviderId": null, "distance": null, "has_offers": false, "name": "AJs famous seafood", "longitude": -84.488447, "has_menu": true, "awards": null, "user_review_count": 9}, {"business_operation_status": 1, "rating": null, "neighborhood": null, "image": null, "scorecard": null, "featured": false, "sample_categories": "Restaurants", "public_id": "sivier-hut-two-atlanta", "id": 713540870, "votes": null, "tagline": null, "has_video": false, "website": null, "offers": null, "latitude": 33.881746, "politanName": "Atlanta, GA Metro ", "phone_number": "7704326625", "tags": [{"primary": true, "id": 1722, "name": "Restaurants"}], "fax_number": null, "expansion": {"count": null, "uri": null}, "impression_id": "000b00000036e70868d55d43e5bd901904dba08da6", "profile": "http://www.citysearch.com/profile/713540870/atlanta_ga/sivier_hut_two.html", "address": {"city": "Atlanta", "state": "GA", "street": "1000 Cumberland Mall Se", "postal_code": "30339"}, "capProviderId": null, "distance": null, "has_offers": false, "name": "Sivier Hut Two", "longitude": -84.470079, "has_menu": false, "awards": null, "user_review_count": 0}, {"business_operation_status": 1, "rating": null, "neighborhood": null, "image": null, "scorecard": null, "featured": false, "sample_categories": "Restaurants, Bakeries", "public_id": "tajmahal-grill-kennesaw", "id": 713543660, "votes": null, "tagline": null, "has_video": false, "website": "http://www.citysearch.com/profile/external/713543660/kennesaw_ga/taj_mahal_grill.html", "offers": null, "latitude": 34.000514, "politanName": "Atlanta, GA Metro ", "phone_number": "7709199990", "tags": [{"primary": false, "id": 1685, "name": "Bakeries"}, {"primary": true, "id": 1722, "name": "Restaurants"}], "fax_number": null, "expansion": {"count": null, "uri": null}, "impression_id": "000b000000c442da393ab94deb9fd3a8d9176c0618", "profile": "http://www.citysearch.com/profile/713543660/kennesaw_ga/taj_mahal_grill.html", "address": {"city": "Kennesaw", "state": "GA", "street": "1200 Earnest W Barrett Pkwy NW St 18", "postal_code": "30144"}, "capProviderId": null, "distance": null, "has_offers": false, "name": "Taj Mahal Grill", "longitude": -84.587423, "has_menu": true, "awards": null, "user_review_count": 2}, {"business_operation_status": 1, "rating": null, "neighborhood": null, "image": null, "scorecard": null, "featured": false, "sample_categories": "Restaurants, Eclectic & International", "public_id": "mingles-international-cafe-marietta", "id": 713577140, "votes": null, "tagline": null, "has_video": false, "website": null, "offers": null, "latitude": 33.968758, "politanName": "Atlanta, GA Metro ", "phone_number": "7709777878", "tags": [{"primary": false, "id": 11259, "name": "Eclectic & International"}, {"primary": true, "id": 1722, "name": "Restaurants"}], "fax_number": null, "expansion": {"count": null, "uri": null}, "impression_id": "000b0000006b6b00e41ca0451f9a0b04136eaaba1f", "profile": "http://www.citysearch.com/profile/713577140/marietta_ga/mingles_international_cafe.html", "address": {"city": "Marietta", "state": "GA", "street": "2100 Roswell Rd # 2198", "postal_code": "30062"}, "capProviderId": null, "distance": null, "has_offers": false, "name": "Mingles International Cafe", "longitude": -84.488447, "has_menu": false, "awards": null, "user_review_count": 0}, {"business_operation_status": 0, "rating": null, "neighborhood": null, "image": null, "scorecard": null, "featured": false, "sample_categories": "Restaurants, Barbecue Restaurants", "public_id": "georges-grill-barbecue-marietta", "id": 621879190, "votes": null, "tagline": null, "has_video": false, "website": null, "offers": null, "latitude": 33.997727, "politanName": "Atlanta, GA Metro ", "phone_number": "7704851099", "tags": [{"primary": false, "id": 1724, "name": "Barbecue Restaurants"}, {"primary": true, "id": 1722, "name": "Restaurants"}], "fax_number": null, "expansion": {"count": null, "uri": null}, "impression_id": "000b000000d4e11d57ebf14a80b1000a3b1618bb74", "profile": "http://www.citysearch.com/profile/621879190/marietta_ga/georges_grill_barbecue.html", "address": {"city": "Marietta", "state": "GA", "street": "1951 Canton Rd # 330", "postal_code": "30066"}, "capProviderId": null, "distance": null, "has_offers": false, "name": "Georges Grill & Barbecue", "longitude": -84.525055, "has_menu": false, "awards": null, "user_review_count": 0}, {"business_operation_status": 1, "rating": null, "neighborhood": null, "image": null, "scorecard": null, "featured": false, "sample_categories": "Restaurants, Bars & Pubs", "public_id": "malones-bar-grill-atlanta", "id": 764882200, "votes": null, "tagline": null, "has_video": false, "website": null, "offers": null, "latitude": 33.880351, "politanName": "Atlanta, GA Metro ", "phone_number": "7709526042", "tags": [{"primary": false, "id": 1686, "name": "Bars & Pubs"}, {"primary": true, "id": 1722, "name": "Restaurants"}], "fax_number": null, "expansion": {"count": null, "uri": null}, "impression_id": "000b000000e957acc90686498d8928394abeaab142", "profile": "http://www.citysearch.com/profile/764882200/atlanta_ga/malone_s_bar_grill.html", "address": {"city": "Atlanta", "state": "GA", "street": "2960 Cobb Pkwy NW", "postal_code": "30339"}, "capProviderId": null, "distance": null, "has_offers": false, "name": "Malone's Bar & Grill", "longitude": -84.462963, "has_menu": false, "awards": null, "user_review_count": 0}, {"business_operation_status": 0, "rating": null, "neighborhood": null, "image": null, "scorecard": null, "featured": false, "sample_categories": "Restaurants, Delis And Delicatessens, Sandwich Shops, Carry Out", "public_id": "blimpie-subs-salads-kennesaw-3", "id": 764905420, "votes": null, "tagline": null, "has_video": false, "website": "http://www.citysearch.com/profile/external/764905420/kennesaw_ga/blimpie_subs_salads.html", "offers": null, "latitude": 34.051934, "politanName": "Atlanta, GA Metro ", "phone_number": "7704259954", "tags": [{"primary": false, "id": 1727, "name": "Delis And Delicatessens"}, {"primary": false, "id": 1736, "name": "Sandwich Shops"}, {"primary": false, "id": 11247, "name": "Carry Out"}, {"primary": true, "id": 1722, "name": "Restaurants"}], "fax_number": null, "expansion": {"count": null, "uri": null}, "impression_id": "000b0000007728c54e38094bd59afad4bf8166dca0", "profile": "http://www.citysearch.com/profile/764905420/kennesaw_ga/blimpie_subs_salads.html", "address": {"city": "Kennesaw", "state": "GA", "street": "4160 Cherokee St NW", "postal_code": "30144"}, "capProviderId": null, "distance": null, "has_offers": false, "name": "Blimpie Subs & Salads", "longitude": -84.593811, "has_menu": true, "awards": null, "user_review_count": 0}, {"business_operation_status": 1, "rating": null, "neighborhood": null, "image": null, "scorecard": null, "featured": false, "sample_categories": "Restaurants, Delis And Delicatessens, Sandwich Shops, Carry Out", "public_id": "subway-sandwiches-salads-marietta", "id": 764919100, "votes": null, "tagline": null, "has_video": false, "website": "http://www.citysearch.com/profile/external/764919100/marietta_ga/subway_sandwiches_salads.html", "offers": null, "latitude": 33.949333, "politanName": "Atlanta, GA Metro ", "phone_number": "7704225412", "tags": [{"primary": false, "id": 1727, "name": "Delis And Delicatessens"}, {"primary": false, "id": 1736, "name": "Sandwich Shops"}, {"primary": false, "id": 11247, "name": "Carry Out"}, {"primary": true, "id": 1722, "name": "Restaurants"}], "fax_number": null, "expansion": {"count": null, "uri": null}, "impression_id": "000b000000025fb14af16142238438297f0b00c374", "profile": "http://www.citysearch.com/profile/764919100/marietta_ga/subway_sandwiches_salads.html", "address": {"city": "Marietta", "state": "GA", "street": "85 S Marietta Pkwy SW", "postal_code": "30064"}, "capProviderId": null, "distance": null, "has_offers": false, "name": "Subway Sandwiches & Salads", "longitude": -84.550502, "has_menu": false, "awards": null, "user_review_count": 0}, {"business_operation_status": 0, "rating": null, "neighborhood": null, "image": null, "scorecard": null, "featured": false, "sample_categories": "Restaurants", "public_id": "tasqueria-don-tono-smyrna", "id": 713480920, "votes": null, "tagline": null, "has_video": false, "website": null, "offers": null, "latitude": 33.883443, "politanName": "Atlanta, GA Metro ", "phone_number": "7704058600", "tags": [{"primary": true, "id": 1722, "name": "Restaurants"}], "fax_number": null, "expansion": {"count": null, "uri": null}, "impression_id": "000b000000c1d68e1c18bb4ef4b3ac16b3d8c99342", "profile": "http://www.citysearch.com/profile/713480920/smyrna_ga/tasqueria_don_tono.html", "address": {"city": "Smyrna", "state": "GA", "street": "2517 Spring Rd Se", "postal_code": "30080"}, "capProviderId": null, "distance": null, "has_offers": false, "name": "Tasqueria Don Tono", "longitude": -84.480608, "has_menu": false, "awards": null, "user_review_count": 0}, {"business_operation_status": 1, "rating": null, "neighborhood": null, "image": null, "scorecard": null, "featured": false, "sample_categories": "Restaurants, Delis And Delicatessens, Sandwich Shops, Carry Out", "public_id": "subway-marietta-47", "id": 713567500, "votes": null, "tagline": null, "has_video": false, "website": "http://www.citysearch.com/profile/external/713567500/marietta_ga/subway.html", "offers": null, "latitude": 33.882452, "politanName": "Atlanta, GA Metro ", "phone_number": "7704365640", "tags": [{"primary": false, "id": 1727, "name": "Delis And Delicatessens"}, {"primary": false, "id": 1736, "name": "Sandwich Shops"}, {"primary": false, "id": 11247, "name": "Carry Out"}, {"primary": true, "id": 1722, "name": "Restaurants"}], "fax_number": null, "expansion": {"count": null, "uri": null}, "impression_id": "000b000000320add5934b24167a2f7ff4873ffc388", "profile": "http://www.citysearch.com/profile/713567500/marietta_ga/subway.html", "address": {"city": "Marietta", "state": "GA", "street": "2909 Austell Rd Sw # 114", "postal_code": "30008"}, "capProviderId": null, "distance": null, "has_offers": false, "name": "SUBWAY", "longitude": -84.58798, "has_menu": false, "awards": null, "user_review_count": 0}, {"business_operation_status": 1, "rating": null, "neighborhood": null, "image": null, "scorecard": null, "featured": false, "sample_categories": "Ice Cream Parlors", "public_id": "yogolyciouls-marietta", "id": 713608720, "votes": null, "tagline": null, "has_video": false, "website": null, "offers": null, "latitude": 33.968758, "politanName": "Atlanta, GA Metro ", "phone_number": "7705092345", "tags": [{"primary": true, "id": 1730, "name": "Ice Cream Parlors"}], "fax_number": null, "expansion": {"count": null, "uri": null}, "impression_id": "000b000000b54f9bf3a54840d4a2c281cf9f263949", "profile": "http://www.citysearch.com/profile/713608720/marietta_ga/yogolyciouls.html", "address": {"city": "Marietta", "state": "GA", "street": "2100 Roswell Rd", "postal_code": "30062"}, "capProviderId": null, "distance": null, "has_offers": false, "name": "Yogolyciouls", "longitude": -84.488447, "has_menu": false, "awards": null, "user_review_count": 0}, {"business_operation_status": 1, "rating": null, "neighborhood": null, "image": null, "scorecard": null, "featured": false, "sample_categories": "Restaurants, Mexican", "public_id": "las-toras-mex-marietta", "id": 713611870, "votes": null, "tagline": null, "has_video": false, "website": null, "offers": null, "latitude": 33.927554, "politanName": "Atlanta, GA Metro ", "phone_number": "7705149394", "tags": [{"primary": false, "id": 11208, "name": "Mexican"}, {"primary": true, "id": 1722, "name": "Restaurants"}], "fax_number": null, "expansion": {"count": null, "uri": null}, "impression_id": "000b0000007e2ef3cae3794227ae193f539d8dd21c", "profile": "http://www.citysearch.com/profile/713611870/marietta_ga/las_toras_mex.html", "address": {"city": "Marietta", "state": "GA", "street": "1038 Franklin Rd Se", "postal_code": "30067"}, "capProviderId": null, "distance": null, "has_offers": false, "name": "Las Toras Mex", "longitude": -84.493666, "has_menu": false, "awards": null, "user_review_count": 0}, {"business_operation_status": 1, "rating": null, "neighborhood": null, "image": null, "scorecard": null, "featured": false, "sample_categories": "Restaurants", "public_id": "dangling-carrot-creative-kennesaw", "id": 770761700, "votes": null, "tagline": null, "has_video": false, "website": null, "offers": null, "latitude": 34.049037, "politanName": "Atlanta, GA Metro ", "phone_number": "7707921848", "tags": [{"primary": true, "id": 1722, "name": "Restaurants"}], "fax_number": null, "expansion": {"count": null, "uri": null}, "impression_id": "000b000000359cb67ec7ba4d7db9dee9bff91ff295", "profile": "http://www.citysearch.com/profile/770761700/kennesaw_ga/dangling_carrot_creative.html", "address": {"city": "Kennesaw", "state": "GA", "street": "3939 Royal Dr NW", "postal_code": "30144"}, "capProviderId": null, "distance": null, "has_offers": false, "name": "Dangling Carrot Creative", "longitude": -84.605715, "has_menu": false, "awards": null, "user_review_count": 0}, {"business_operation_status": 1, "rating": null, "neighborhood": null, "image": null, "scorecard": null, "featured": false, "sample_categories": "Restaurants, Mexican", "public_id": "mi-rancho-mexican-restaurant-marietta", "id": 655842120, "votes": null, "tagline": null, "has_video": false, "website": null, "offers": null, "latitude": 33.933889, "politanName": "Atlanta, GA Metro ", "phone_number": "7707940330", "tags": [{"primary": false, "id": 11208, "name": "Mexican"}, {"primary": true, "id": 1722, "name": "Restaurants"}], "fax_number": null, "expansion": {"count": null, "uri": null}, "impression_id": "000b0000002f5255573fa546e3bf9a2519eb1f884d", "profile": "http://www.citysearch.com/profile/655842120/marietta_ga/mi_rancho_mexican_restaurant.html", "address": {"city": "Marietta", "state": "GA", "street": "760 Sandtown Rd Sw", "postal_code": "30008"}, "capProviderId": null, "distance": null, "has_offers": false, "name": "Mi Rancho Mexican Restaurant", "longitude": -84.555648, "has_menu": false, "awards": null, "user_review_count": 0}, {"business_operation_status": 1, "rating": null, "neighborhood": null, "image": null, "scorecard": null, "featured": false, "sample_categories": "Restaurants", "public_id": "las-drisas-marietta", "id": 728109250, "votes": null, "tagline": null, "has_video": false, "website": null, "offers": null, "latitude": 33.935213, "politanName": "Atlanta, GA Metro ", "phone_number": "6783542220", "tags": [{"primary": true, "id": 1722, "name": "Restaurants"}], "fax_number": null, "expansion": {"count": null, "uri": null}, "impression_id": "000b000000c8e4e7ecc3044906acb520dd156c8547", "profile": "http://www.citysearch.com/profile/728109250/marietta_ga/las_drisas.html", "address": {"city": "Marietta", "state": "GA", "street": "715 Sandtown Rd Sw", "postal_code": "30008"}, "capProviderId": null, "distance": null, "has_offers": false, "name": "Las Drisas", "longitude": -84.555821, "has_menu": false, "awards": null, "user_review_count": 0}, {"business_operation_status": 1, "rating": null, "neighborhood": null, "image": null, "scorecard": null, "featured": false, "sample_categories": "Catering, Restaurants", "public_id": "paisanos-catering-marietta", "id": 2908338, "votes": null, "tagline": null, "has_video": false, "website": "http://www.citysearch.com/profile/external/2908338/marietta_ga/paisanos_catering.html", "offers": null, "latitude": 34.030179, "politanName": "Atlanta, GA Metro ", "phone_number": "7709987488", "tags": [{"primary": false, "id": 1722, "name": "Restaurants"}, {"primary": true, "id": 1705, "name": "Catering"}], "fax_number": null, "expansion": {"count": null, "uri": null}, "impression_id": "000b00000085b407c51ec841b9b067e39eab0893d3", "profile": "http://www.citysearch.com/profile/2908338/marietta_ga/paisanos_catering.html", "address": {"city": "Marietta", "state": "GA", "street": "3205 Canton Rd Ste 106", "postal_code": "30066"}, "capProviderId": null, "distance": null, "has_offers": false, "name": "Paisanos Catering", "longitude": -84.528473, "has_menu": false, "awards": null, "user_review_count": 0}, {"business_operation_status": 1, "rating": null, "neighborhood": null, "image": null, "scorecard": null, "featured": false, "sample_categories": "Ice Cream Parlors, Restaurants, Dessert Shops, Information & Referral Services", "public_id": "noels-ice-cream-smyrna", "id": 2924493, "votes": null, "tagline": null, "has_video": false, "website": null, "offers": null, "latitude": 33.867003, "politanName": "Atlanta, GA Metro ", "phone_number": "7703330515", "tags": [{"primary": false, "id": 1722, "name": "Restaurants"}, {"primary": false, "id": 1728, "name": "Dessert Shops"}, {"primary": false, "id": 624, "name": "Information & Referral Services"}, {"primary": true, "id": 1730, "name": "Ice Cream Parlors"}], "fax_number": null, "expansion": {"count": null, "uri": null}, "impression_id": "000b000000a8078f4b5c434516a8aa2eb695f27be8", "profile": "http://www.citysearch.com/profile/2924493/smyrna_ga/noels_ice_cream.html", "address": {"city": "Smyrna", "state": "GA", "street": "3539 Westbrook Dr SE", "postal_code": "30082"}, "capProviderId": null, "distance": null, "has_offers": false, "name": "Noels Ice Cream", "longitude": -84.526611, "has_menu": false, "awards": null, "user_review_count": 1}, {"business_operation_status": 1, "rating": null, "neighborhood": null, "image": null, "scorecard": null, "featured": false, "sample_categories": "Restaurants", "public_id": "saigon-pearl-marietta", "id": 672478560, "votes": null, "tagline": null, "has_video": false, "website": null, "offers": null, "latitude": 34.018696, "politanName": "Atlanta, GA Metro ", "phone_number": "7705147555", "tags": [{"primary": true, "id": 1722, "name": "Restaurants"}], "fax_number": null, "expansion": {"count": null, "uri": null}, "impression_id": "000b000000c3d0ed321ee6407e8c0587ebfedd1ad3", "profile": "http://www.citysearch.com/profile/672478560/marietta_ga/saigon_pearl.html", "address": {"city": "Marietta", "state": "GA", "street": "2755 Canton Rd NE", "postal_code": "30066"}, "capProviderId": null, "distance": null, "has_offers": false, "name": "Saigon Pearl", "longitude": -84.528341, "has_menu": false, "awards": null, "user_review_count": 0}, {"business_operation_status": 1, "rating": null, "neighborhood": null, "image": null, "scorecard": null, "featured": false, "sample_categories": "Restaurants, Carry Out, Pizza", "public_id": "sbarro-smyrna-2", "id": 682322420, "votes": null, "tagline": null, "has_video": false, "website": "http://www.citysearch.com/profile/external/682322420/smyrna_ga/sbarro.html", "offers": null, "latitude": 33.87774, "politanName": "Atlanta, GA Metro ", "phone_number": "7704443994", "tags": [{"primary": false, "id": 11247, "name": "Carry Out"}, {"primary": false, "id": 11299, "name": "Pizza"}, {"primary": true, "id": 1722, "name": "Restaurants"}], "fax_number": null, "expansion": {"count": null, "uri": null}, "impression_id": "000b000000000ac4b5b20e40d997228c9ffef3812c", "profile": "http://www.citysearch.com/profile/682322420/smyrna_ga/sbarro.html", "address": {"city": "Smyrna", "state": "GA", "street": "3030 Montclair Cir Se", "postal_code": "30080"}, "capProviderId": null, "distance": null, "has_offers": false, "name": "Sbarro", "longitude": -84.508306, "has_menu": false, "awards": null, "user_review_count": 0}, {"business_operation_status": 1, "rating": null, "neighborhood": null, "image": null, "scorecard": null, "featured": false, "sample_categories": "Restaurants", "public_id": "fad-restaurant-marietta", "id": 682613120, "votes": null, "tagline": null, "has_video": false, "website": null, "offers": null, "latitude": 33.865697, "politanName": "Atlanta, GA Metro ", "phone_number": "7704318505", "tags": [{"primary": true, "id": 1722, "name": "Restaurants"}], "fax_number": null, "expansion": {"count": null, "uri": null}, "impression_id": "000b0000004218bd3a85f2484c8dd613844ecff47e", "profile": "http://www.citysearch.com/profile/682613120/marietta_ga/fad_restaurant.html", "address": {"city": "Marietta", "state": "GA", "street": "3565 Austell Rd Sw # 1061", "postal_code": "30008"}, "capProviderId": null, "distance": null, "has_offers": false, "name": "Fad Restaurant", "longitude": -84.592502, "has_menu": false, "awards": null, "user_review_count": 0}, {"business_operation_status": 1, "rating": null, "neighborhood": null, "image": null, "scorecard": null, "featured": false, "sample_categories": "Restaurants, Sandwich Shops, Pizza", "public_id": "peace-love-and-pizza-marietta-2", "id": 606523644, "votes": null, "tagline": null, "has_video": false, "website": "http://www.citysearch.com/profile/external/606523644/marietta_ga/peace_love_and_pizza.html", "offers": null, "latitude": 33.976429, "politanName": "Atlanta, GA Metro ", "phone_number": "7703210757", "tags": [{"primary": false, "id": 1722, "name": "Restaurants"}, {"primary": false, "id": 1736, "name": "Sandwich Shops"}, {"primary": true, "id": 11299, "name": "Pizza"}], "fax_number": null, "expansion": {"count": null, "uri": null}, "impression_id": "000b000000bf66062093b040e79112778b03660f5e", "profile": "http://www.citysearch.com/profile/606523644/marietta_ga/peace_love_and_pizza.html", "address": {"city": "Marietta", "state": "GA", "street": "1050 E Piedmont Rd 152", "postal_code": "30062"}, "capProviderId": null, "distance": null, "has_offers": false, "name": "Peace Love and Pizza", "longitude": -84.478226, "has_menu": false, "awards": null, "user_review_count": 0}, {"business_operation_status": 1, "rating": null, "neighborhood": null, "image": null, "scorecard": null, "featured": false, "sample_categories": "Restaurants", "public_id": "j-k-island-cafe-marietta", "id": 808002760, "votes": null, "tagline": null, "has_video": false, "website": null, "offers": null, "latitude": 33.953203, "politanName": "Atlanta, GA Metro ", "phone_number": "6782909933", "tags": [{"primary": true, "id": 1722, "name": "Restaurants"}], "fax_number": null, "expansion": {"count": null, "uri": null}, "impression_id": "000b0000005e1fe140f6dc41f0b5c1623dd758de0a", "profile": "http://www.citysearch.com/profile/808002760/marietta_ga/j_k_island_cafe.html", "address": {"city": "Marietta", "state": "GA", "street": "2503 Zachary Woods Dr NW", "postal_code": "30064"}, "capProviderId": null, "distance": null, "has_offers": false, "name": "J & K Island Cafe", "longitude": -84.630386, "has_menu": false, "awards": null, "user_review_count": 0}, {"business_operation_status": 1, "rating": null, "neighborhood": null, "image": null, "scorecard": null, "featured": false, "sample_categories": "Restaurants, Carry Out", "public_id": "corner-bakery-cafe-atlanta-6", "id": 607149504, "votes": null, "tagline": null, "has_video": false, "website": "http://www.citysearch.com/profile/external/607149504/atlanta_ga/corner_bakery_cafe.html", "offers": null, "latitude": 33.884294, "politanName": "Atlanta, GA Metro ", "phone_number": "6784330070", "tags": [{"primary": false, "id": 11247, "name": "Carry Out"}, {"primary": true, "id": 1722, "name": "Restaurants"}], "fax_number": null, "expansion": {"count": null, "uri": null}, "impression_id": "000b00000029c4e92dc2624b8fadadaf41f0741c24", "profile": "http://www.citysearch.com/profile/607149504/atlanta_ga/corner_bakery_cafe.html", "address": {"city": "Atlanta", "state": "GA", "street": "2973 Cobb Pkwy SE", "postal_code": "30339"}, "capProviderId": null, "distance": null, "has_offers": false, "name": "Corner Bakery Cafe", "longitude": -84.469653, "has_menu": false, "awards": null, "user_review_count": 0}, {"business_operation_status": 1, "rating": null, "neighborhood": null, "image": null, "scorecard": null, "featured": false, "sample_categories": "Restaurants, Pizza", "public_id": "patagonia-pizzeria-bakery-marietta", "id": 811210800, "votes": null, "tagline": null, "has_video": false, "website": null, "offers": null, "latitude": 33.938607, "politanName": "Atlanta, GA Metro ", "phone_number": "6789032597", "tags": [{"primary": false, "id": 11299, "name": "Pizza"}, {"primary": true, "id": 1722, "name": "Restaurants"}], "fax_number": null, "expansion": {"count": null, "uri": null}, "impression_id": "000b0000001fd5822007c042adb8f36d33fda8dc2e", "profile": "http://www.citysearch.com/profile/811210800/marietta_ga/patagonia_pizzeria_bakery.html", "address": {"city": "Marietta", "state": "GA", "street": "585 Franklin Rd SE", "postal_code": "30067"}, "capProviderId": null, "distance": null, "has_offers": false, "name": "Patagonia Pizzeria & Bakery", "longitude": -84.50623, "has_menu": false, "awards": null, "user_review_count": 0}, {"business_operation_status": 1, "rating": null, "neighborhood": null, "image": null, "scorecard": null, "featured": false, "sample_categories": "Coffeehouses", "public_id": "place-espresso-marietta", "id": 608864624, "votes": null, "tagline": null, "has_video": false, "website": null, "offers": null, "latitude": 33.919861, "politanName": "Atlanta, GA Metro ", "phone_number": "6782145303", "tags": [{"primary": true, "id": 1726, "name": "Coffeehouses"}], "fax_number": null, "expansion": {"count": null, "uri": null}, "impression_id": "000b00000088064b316e334e58be52947ad84dee68", "profile": "http://www.citysearch.com/profile/608864624/marietta_ga/place_espresso.html", "address": {"city": "Marietta", "state": "GA", "street": "1350 Terrell Mill Rd SE", "postal_code": "30067"}, "capProviderId": null, "distance": null, "has_offers": false, "name": "Place Espresso", "longitude": -84.466207, "has_menu": false, "awards": null, "user_review_count": 0}, {"business_operation_status": 1, "rating": null, "neighborhood": null, "image": null, "scorecard": null, "featured": false, "sample_categories": "Restaurants", "public_id": "micks-cumberland-mall-atlanta", "id": 817195060, "votes": null, "tagline": null, "has_video": false, "website": null, "offers": null, "latitude": 33.879283, "politanName": "Atlanta, GA Metro ", "phone_number": "7704317190", "tags": [{"primary": true, "id": 1722, "name": "Restaurants"}], "fax_number": null, "expansion": {"count": null, "uri": null}, "impression_id": "000b000000042ccb0b13804690a9951906989b29fe", "profile": "http://www.citysearch.com/profile/817195060/atlanta_ga/micks_cumberland_mall.html", "address": {"city": "Atlanta", "state": "GA", "street": "1320 Cumberland Mall SE", "postal_code": "30339"}, "capProviderId": null, "distance": null, "has_offers": false, "name": "Micks Cumberland Mall", "longitude": -84.471266, "has_menu": false, "awards": null, "user_review_count": 0}, {"business_operation_status": 1, "rating": null, "neighborhood": null, "image": null, "scorecard": null, "featured": false, "sample_categories": "Restaurants, Pizza, Carry Out", "public_id": "pizza-hut-atlanta-34", "id": 824168770, "votes": null, "tagline": null, "has_video": false, "website": "http://www.citysearch.com/profile/external/824168770/atlanta_ga/pizza_hut.html", "offers": null, "latitude": 33.884828, "politanName": "Atlanta, GA Metro ", "phone_number": "7709528054", "tags": [{"primary": false, "id": 1722, "name": "Restaurants"}, {"primary": false, "id": 11247, "name": "Carry Out"}, {"primary": true, "id": 11299, "name": "Pizza"}], "fax_number": null, "expansion": {"count": null, "uri": null}, "impression_id": "000b00000018084c5bfd5147ef828d361f8cd956a6", "profile": "http://www.citysearch.com/profile/824168770/atlanta_ga/pizza_hut.html", "address": {"city": "Atlanta", "state": "GA", "street": "2771 Spring Rd Se", "postal_code": "30339"}, "capProviderId": null, "distance": null, "has_offers": false, "name": "Pizza Hut", "longitude": -84.472366, "has_menu": true, "awards": null, "user_review_count": 0}, {"business_operation_status": 1, "rating": null, "neighborhood": null, "image": null, "scorecard": null, "featured": false, "sample_categories": "Restaurants", "public_id": "casual-dining-div-shoneys-marietta", "id": 838709350, "votes": null, "tagline": null, "has_video": false, "website": null, "offers": null, "latitude": 33.912514, "politanName": "Atlanta, GA Metro ", "phone_number": "6788190697", "tags": [{"primary": true, "id": 1722, "name": "Restaurants"}], "fax_number": null, "expansion": {"count": null, "uri": null}, "impression_id": "000b000000e26fbc5bcf764abaab3eba400aa22f57", "profile": "http://www.citysearch.com/profile/838709350/marietta_ga/casual_dining_div_shoneys.html", "address": {"city": "Marietta", "state": "GA", "street": "1640 Powers Ferry Rd SE", "postal_code": "30067"}, "capProviderId": null, "distance": null, "has_offers": false, "name": "Casual Dining Div Shoneys", "longitude": -84.46689, "has_menu": true, "awards": null, "user_review_count": 0}, {"business_operation_status": 1, "rating": null, "neighborhood": null, "image": null, "scorecard": null, "featured": false, "sample_categories": "Restaurants", "public_id": "my-cousin-vinnys-kennesaw-2", "id": 615555824, "votes": null, "tagline": null, "has_video": false, "website": null, "offers": null, "latitude": 34.013172, "politanName": "Atlanta, GA Metro ", "phone_number": "7704230391", "tags": [{"primary": true, "id": 1722, "name": "Restaurants"}], "fax_number": null, "expansion": {"count": null, "uri": null}, "impression_id": "000b000000a842c3415cba43c1a635ac5db253b1a0", "profile": "http://www.citysearch.com/profile/615555824/kennesaw_ga/my_cousin_vinny_s.html", "address": {"city": "Kennesaw", "state": "GA", "street": "2615 George Busbee Pkwy NW 26", "postal_code": "30144"}, "capProviderId": null, "distance": null, "has_offers": false, "name": "My Cousin Vinny's", "longitude": -84.567215, "has_menu": false, "awards": null, "user_review_count": 0}, {"business_operation_status": 1, "rating": null, "neighborhood": null, "image": null, "scorecard": null, "featured": false, "sample_categories": "Restaurants, Sandwich Shops, Pizza, Carry Out, American Express", "public_id": "mellow-mushroom-kennesaw", "id": 601313022, "votes": null, "tagline": null, "has_video": false, "website": "http://www.citysearch.com/profile/external/601313022/kennesaw_ga/mellow_mushroom.html", "offers": null, "latitude": 34.030476, "politanName": "Atlanta, GA Metro ", "phone_number": "7704269900", "tags": [{"primary": false, "id": 1722, "name": "Restaurants"}, {"primary": false, "id": 1736, "name": "Sandwich Shops"}, {"primary": false, "id": 11247, "name": "Carry Out"}, {"primary": false, "id": 11333, "name": "American Express"}, {"primary": false, "id": 11349, "name": "Discover"}, {"primary": false, "id": 11361, "name": "MasterCard"}, {"primary": false, "id": 11382, "name": "Visa"}, {"primary": true, "id": 11299, "name": "Pizza"}], "fax_number": null, "expansion": {"count": null, "uri": null}, "impression_id": "000b000000a746425bc2cf463caccc5eb05e00b65b", "profile": "http://www.citysearch.com/profile/601313022/kennesaw_ga/mellow_mushroom.html", "address": {"city": "Kennesaw", "state": "GA", "street": "1133 Chastain Rd Nw", "postal_code": "30144"}, "capProviderId": null, "distance": null, "has_offers": false, "name": "Mellow Mushroom", "longitude": -84.58315, "has_menu": true, "awards": null, "user_review_count": 0}, {"business_operation_status": 1, "rating": null, "neighborhood": null, "image": null, "scorecard": null, "featured": false, "sample_categories": "Restaurants, Pizza, Carry Out", "public_id": "papa-johns-pizza-marietta-2", "id": 632029900, "votes": null, "tagline": null, "has_video": false, "website": null, "offers": null, "latitude": 33.952112, "politanName": "Atlanta, GA Metro ", "phone_number": "7704267272", "tags": [{"primary": false, "id": 1722, "name": "Restaurants"}, {"primary": false, "id": 11247, "name": "Carry Out"}, {"primary": true, "id": 11299, "name": "Pizza"}], "fax_number": null, "expansion": {"count": null, "uri": null}, "impression_id": "000b000000d2208400d6e045289ef7a2a10bf792d6", "profile": "http://www.citysearch.com/profile/632029900/marietta_ga/papa_john_s_pizza.html", "address": {"city": "Marietta", "state": "GA", "street": "971 Whitlock Ave Sw", "postal_code": "30064"}, "capProviderId": null, "distance": null, "has_offers": false, "name": "Papa John's Pizza", "longitude": -84.578857, "has_menu": false, "awards": null, "user_review_count": 0}, {"business_operation_status": 1, "rating": null, "neighborhood": null, "image": null, "scorecard": null, "featured": false, "sample_categories": "Restaurants", "public_id": "may-mei-inc-kennesaw", "id": 632940340, "votes": null, "tagline": null, "has_video": false, "website": null, "offers": null, "latitude": 34.040605, "politanName": "Atlanta, GA Metro ", "phone_number": "7707940178", "tags": [{"primary": true, "id": 1722, "name": "Restaurants"}], "fax_number": null, "expansion": {"count": null, "uri": null}, "impression_id": "000b000000483e69d81d76421c901ad12c1779d114", "profile": "http://www.citysearch.com/profile/632940340/kennesaw_ga/may_mei_inc.html", "address": {"city": "Kennesaw", "state": "GA", "street": "156 N Lakeside Dr Nw", "postal_code": "30144"}, "capProviderId": null, "distance": null, "has_offers": false, "name": "May & Mei Inc", "longitude": -84.552751, "has_menu": false, "awards": null, "user_review_count": 0}, {"business_operation_status": 1, "rating": null, "neighborhood": null, "image": null, "scorecard": null, "featured": false, "sample_categories": "Restaurants, Barbecue Restaurants", "public_id": "staqs-bar-b-que-smyrna", "id": 647325040, "votes": null, "tagline": null, "has_video": false, "website": null, "offers": null, "latitude": 33.890026, "politanName": "Atlanta, GA Metro ", "phone_number": "7704384301", "tags": [{"primary": false, "id": 1724, "name": "Barbecue Restaurants"}, {"primary": true, "id": 1722, "name": "Restaurants"}], "fax_number": null, "expansion": {"count": null, "uri": null}, "impression_id": "000b000000ca3ab96a29d54665abf1d35fa034b39b", "profile": "http://www.citysearch.com/profile/647325040/smyrna_ga/staqs_bar_b_que.html", "address": {"city": "Smyrna", "state": "GA", "street": "2599 S Cobb Dr Se", "postal_code": "30080"}, "capProviderId": null, "distance": null, "has_offers": false, "name": "Staqs Bar B Que", "longitude": -84.536726, "has_menu": true, "awards": null, "user_review_count": 0}, {"business_operation_status": 0, "rating": null, "neighborhood": null, "image": null, "scorecard": null, "featured": false, "sample_categories": "Restaurants, Barbecue Restaurants", "public_id": "longhorns-buffalo-wings-marietta", "id": 653551040, "votes": null, "tagline": null, "has_video": false, "website": null, "offers": null, "latitude": 33.986818, "politanName": "Atlanta, GA Metro ", "phone_number": "4043131588", "tags": [{"primary": false, "id": 1724, "name": "Barbecue Restaurants"}, {"primary": true, "id": 1722, "name": "Restaurants"}], "fax_number": null, "expansion": {"count": null, "uri": null}, "impression_id": "000b0000009e6141aedc784df5a29be09d7589fcc6", "profile": "http://www.citysearch.com/profile/653551040/marietta_ga/longhorns_buffalo_wings.html", "address": {"city": "Marietta", "state": "GA", "street": "1367 Sheffield Pkwy", "postal_code": "30062"}, "capProviderId": null, "distance": null, "has_offers": false, "name": "Longhorns Buffalo Wings", "longitude": -84.497978, "has_menu": false, "awards": null, "user_review_count": 0}, {"business_operation_status": 1, "rating": null, "neighborhood": null, "image": null, "scorecard": null, "featured": false, "sample_categories": "Restaurants, Carry Out", "public_id": "firehouse-subs-atlanta-7", "id": 612394034, "votes": null, "tagline": null, "has_video": false, "website": null, "offers": null, "latitude": 33.884294, "politanName": "Atlanta, GA Metro ", "phone_number": "6784248042", "tags": [{"primary": false, "id": 11247, "name": "Carry Out"}, {"primary": true, "id": 1722, "name": "Restaurants"}], "fax_number": null, "expansion": {"count": null, "uri": null}, "impression_id": "000b000000fb5d6a361c2c4e96b7bcc18d81a1c718", "profile": "http://www.citysearch.com/profile/612394034/atlanta_ga/firehouse_subs.html", "address": {"city": "Atlanta", "state": "GA", "street": "2970 Cobb Pkwy SE", "postal_code": "30339"}, "capProviderId": null, "distance": null, "has_offers": false, "name": "Firehouse Subs", "longitude": -84.469653, "has_menu": true, "awards": null, "user_review_count": 0}, {"business_operation_status": 1, "rating": null, "neighborhood": null, "image": null, "scorecard": null, "featured": false, "sample_categories": "Restaurants", "public_id": "tin-drum-asiacafe-marietta", "id": 614029774, "votes": null, "tagline": null, "has_video": false, "website": null, "offers": null, "latitude": 34.013358, "politanName": "Atlanta, GA Metro ", "phone_number": "6785403471", "tags": [{"primary": true, "id": 1722, "name": "Restaurants"}], "fax_number": null, "expansion": {"count": null, "uri": null}, "impression_id": "000b0000009851551bd05047e4b4cda1dfac6aa35d", "profile": "http://www.citysearch.com/profile/614029774/marietta_ga/tin_drum_asiacafe.html", "address": {"city": "Marietta", "state": "GA", "street": "125 Ernest Barrett Pkwy NW", "postal_code": "30066"}, "capProviderId": null, "distance": null, "has_offers": false, "name": "Tin Drum Asiacafe", "longitude": -84.553529, "has_menu": false, "awards": null, "user_review_count": 0}, {"business_operation_status": 1, "rating": null, "neighborhood": null, "image": null, "scorecard": null, "featured": false, "sample_categories": "Bakeries, Restaurants", "public_id": "flowers-baking-co-marietta-2", "id": 2909781, "votes": null, "tagline": null, "has_video": false, "website": "http://www.citysearch.com/profile/external/2909781/marietta_ga/flowers_baking_co.html", "offers": null, "latitude": 33.948214, "politanName": "Atlanta, GA Metro ", "phone_number": "7709735200", "tags": [{"primary": false, "id": 1722, "name": "Restaurants"}, {"primary": true, "id": 1685, "name": "Bakeries"}], "fax_number": null, "expansion": {"count": null, "uri": null}, "impression_id": "000b00000020a2ee2bb0a34ddeb764c232228995d4", "profile": "http://www.citysearch.com/profile/2909781/marietta_ga/flowers_baking_co.html", "address": {"city": "Marietta", "state": "GA", "street": "146 Powers Ferry Rd SE", "postal_code": "30067"}, "capProviderId": null, "distance": null, "has_offers": false, "name": "Flowers Baking Co", "longitude": -84.505792, "has_menu": false, "awards": null, "user_review_count": 0}, {"business_operation_status": 1, "rating": null, "neighborhood": null, "image": null, "scorecard": null, "featured": false, "sample_categories": "Restaurants, Bakeries, Delis And Delicatessens, MasterCard, Visa", "public_id": "sunnys-bagel-deli-kennesaw", "id": 2954916, "votes": null, "tagline": null, "has_video": false, "website": "http://www.citysearch.com/profile/external/2954916/kennesaw_ga/sunny_s_bagel_deli.html", "offers": null, "latitude": 34.012738, "politanName": "Atlanta, GA Metro ", "phone_number": "7707950099", "tags": [{"primary": false, "id": 1685, "name": "Bakeries"}, {"primary": false, "id": 1727, "name": "Delis And Delicatessens"}, {"primary": false, "id": 11361, "name": "MasterCard"}, {"primary": false, "id": 11382, "name": "Visa"}, {"primary": true, "id": 1722, "name": "Restaurants"}], "fax_number": null, "expansion": {"count": null, "uri": null}, "impression_id": "000b00000009c4ad9476424f5389a8d4dfce9cce7c", "profile": "http://www.citysearch.com/profile/2954916/kennesaw_ga/sunny_s_bagel_deli.html", "address": {"city": "Kennesaw", "state": "GA", "street": "440 Ernest W Barrett Pkwy NW # 8", "postal_code": "30144"}, "capProviderId": null, "distance": null, "has_offers": false, "name": "Sunny's Bagel & Deli", "longitude": -84.5643, "has_menu": false, "awards": null, "user_review_count": 0}, {"business_operation_status": 1, "rating": null, "neighborhood": null, "image": null, "scorecard": null, "featured": false, "sample_categories": "Bars & Pubs, Bars & Clubs, Restaurants", "public_id": "milos-bar-grill-marietta-2", "id": 684764240, "votes": null, "tagline": null, "has_video": false, "website": null, "offers": null, "latitude": 33.938164, "politanName": "Atlanta, GA Metro ", "phone_number": "7704281544", "tags": [{"primary": false, "id": 164, "name": "Bars & Clubs"}, {"primary": false, "id": 1722, "name": "Restaurants"}, {"primary": true, "id": 1686, "name": "Bars & Pubs"}], "fax_number": null, "expansion": {"count": null, "uri": null}, "impression_id": "000b000000de8e726622924701b59a58acc0f2afa7", "profile": "http://www.citysearch.com/profile/684764240/marietta_ga/milo_s_bar_grill.html", "address": {"city": "Marietta", "state": "GA", "street": "11 Garrison Rd Se", "postal_code": "30008"}, "capProviderId": null, "distance": null, "has_offers": false, "name": "Milo's Bar & Grill", "longitude": -84.553286, "has_menu": false, "awards": null, "user_review_count": 0}, {"business_operation_status": 1, "rating": null, "neighborhood": null, "image": null, "scorecard": null, "featured": false, "sample_categories": "Restaurants, Pizza", "public_id": "marios-ny-pizza-smyrna", "id": 764838040, "votes": null, "tagline": null, "has_video": false, "website": null, "offers": null, "latitude": 33.883027, "politanName": "Atlanta, GA Metro ", "phone_number": "7704379199", "tags": [{"primary": false, "id": 11299, "name": "Pizza"}, {"primary": true, "id": 1722, "name": "Restaurants"}], "fax_number": null, "expansion": {"count": null, "uri": null}, "impression_id": "000b000000feae40019f9441e3974e5391de757e8d", "profile": "http://www.citysearch.com/profile/764838040/smyrna_ga/marios_ny_pizza.html", "address": {"city": "Smyrna", "state": "GA", "street": "2930 S Cobb Dr SE", "postal_code": "30080"}, "capProviderId": null, "distance": null, "has_offers": false, "name": "Marios Ny Pizza", "longitude": -84.534643, "has_menu": false, "awards": null, "user_review_count": 0}, {"business_operation_status": 1, "rating": null, "neighborhood": null, "image": null, "scorecard": null, "featured": false, "sample_categories": "Restaurants", "public_id": "sarb-services-inc-kennesaw", "id": 764871430, "votes": null, "tagline": null, "has_video": false, "website": "http://www.citysearch.com/profile/external/764871430/kennesaw_ga/sarb_services_inc.html", "offers": null, "latitude": 34.011992, "politanName": "Atlanta, GA Metro ", "phone_number": "7704237375", "tags": [{"primary": true, "id": 1722, "name": "Restaurants"}], "fax_number": null, "expansion": {"count": null, "uri": null}, "impression_id": "000b000000001e7a271a844ca39d1ad0c54ef233da", "profile": "http://www.citysearch.com/profile/764871430/kennesaw_ga/sarb_services_inc.html", "address": {"city": "Kennesaw", "state": "GA", "street": "2420 Cobb Pkwy NW", "postal_code": "30152"}, "capProviderId": null, "distance": null, "has_offers": false, "name": "Sarb Services Inc", "longitude": -84.610653, "has_menu": false, "awards": null, "user_review_count": 0}, {"business_operation_status": 1, "rating": null, "neighborhood": null, "image": null, "scorecard": null, "featured": false, "sample_categories": "Restaurants, Carry Out", "public_id": "hardees-marietta-3", "id": 764872240, "votes": null, "tagline": null, "has_video": false, "website": null, "offers": null, "latitude": 33.932198, "politanName": "Atlanta, GA Metro ", "phone_number": "7709991111", "tags": [{"primary": false, "id": 11247, "name": "Carry Out"}, {"primary": true, "id": 1722, "name": "Restaurants"}], "fax_number": null, "expansion": {"count": null, "uri": null}, "impression_id": "000b00000055f07225b3194f5380ed197429c50205", "profile": "http://www.citysearch.com/profile/764872240/marietta_ga/hardee_s.html", "address": {"city": "Marietta", "state": "GA", "street": "808 Powers Ferry Rd SE", "postal_code": "30067"}, "capProviderId": null, "distance": null, "has_offers": false, "name": "Hardee's", "longitude": -84.476211, "has_menu": false, "awards": null, "user_review_count": 0}, {"business_operation_status": 1, "rating": null, "neighborhood": null, "image": null, "scorecard": null, "featured": false, "sample_categories": "Restaurants, Delis And Delicatessens, Pizza", "public_id": "harrys-pizza-subs-marietta", "id": 713629810, "votes": null, "tagline": null, "has_video": false, "website": null, "offers": null, "latitude": 33.933494, "politanName": "Atlanta, GA Metro ", "phone_number": "7709550991", "tags": [{"primary": false, "id": 1722, "name": "Restaurants"}, {"primary": false, "id": 1727, "name": "Delis And Delicatessens"}, {"primary": true, "id": 11299, "name": "Pizza"}], "fax_number": null, "expansion": {"count": null, "uri": null}, "impression_id": "000b000000520a9bb076db422080121e540787acc9", "profile": "http://www.citysearch.com/profile/713629810/marietta_ga/harry_s_pizza_subs.html", "address": {"city": "Marietta", "state": "GA", "street": "2150 Powers Ferry Dr Se", "postal_code": "30067"}, "capProviderId": null, "distance": null, "has_offers": false, "name": "Harry's Pizza & Subs", "longitude": -84.489988, "has_menu": false, "awards": null, "user_review_count": 0}, {"business_operation_status": 1, "rating": null, "neighborhood": null, "image": null, "scorecard": null, "featured": false, "sample_categories": "Restaurants", "public_id": "atlwest-mariett-marietta", "id": 787106980, "votes": null, "tagline": null, "has_video": false, "website": null, "offers": null, "latitude": 33.944719, "politanName": "Atlanta, GA Metro ", "phone_number": "7707927933", "tags": [{"primary": true, "id": 1722, "name": "Restaurants"}], "fax_number": null, "expansion": {"count": null, "uri": null}, "impression_id": "000b000000fb51d953496044a9b0c5c025116c0b90", "profile": "http://www.citysearch.com/profile/787106980/marietta_ga/atl_west_mariett.html", "address": {"city": "Marietta", "state": "GA", "street": "2535 Dallas Hwy Sw", "postal_code": "30064"}, "capProviderId": null, "distance": null, "has_offers": false, "name": "Atl-West Mariett", "longitude": -84.625194, "has_menu": false, "awards": null, "user_review_count": 0}, {"business_operation_status": 1, "rating": null, "neighborhood": null, "image": null, "scorecard": null, "featured": false, "sample_categories": "Restaurants", "public_id": "mandarin-express-chinese-marietta", "id": 807555420, "votes": null, "tagline": null, "has_video": false, "website": null, "offers": null, "latitude": 33.928543, "politanName": "Atlanta, GA Metro ", "phone_number": "7709842233", "tags": [{"primary": true, "id": 1722, "name": "Restaurants"}], "fax_number": null, "expansion": {"count": null, "uri": null}, "impression_id": "000b0000008d9f2421fcc04c88adc254d5d3b61fa6", "profile": "http://www.citysearch.com/profile/807555420/marietta_ga/mandarin_express_chinese.html", "address": {"city": "Marietta", "state": "GA", "street": "1033 Franklin Rd SE", "postal_code": "30067"}, "capProviderId": null, "distance": null, "has_offers": false, "name": "Mandarin Express Chinese", "longitude": -84.492609, "has_menu": false, "awards": null, "user_review_count": 0}], "histograms": [], "tag_ids": [1722], "uri": "http://api.citygridmedia.com:8080/search/places/v2/search/where?has_offers=false&type=restaurant&format=json&page=24&where=30060&rpp=50&histograms=false&publisher=10000009598&region_type=circle", "did_you_mean": "", "regions": [{"latitude": 33.92521, "default_radius": 3.68, "type": "postal_code", "name": "30060", "longitude": -84.546093}], "call_id": "000b000000717feef909b44bcb95743beafe9af8ea", "first_hit": 1151, "total_hits": 2103, "geo_ids": [26291], "page": 24, "last_hit": 1200}}