{"results": {"rpp": 50, "locations": [{"business_operation_status": 1, "rating": null, "neighborhood": null, "image": null, "scorecard": null, "featured": false, "sample_categories": "Restaurants, Sandwich Shops, Pizza, Carry Out, Food Delivery", "public_id": "dominos-pizza-marietta-7", "id": 44772710, "votes": null, "tagline": null, "has_video": false, "website": "http://www.citysearch.com/profile/external/44772710/marietta_ga/domino_s_pizza.html", "offers": null, "latitude": 33.965439, "politanName": "Atlanta, GA Metro ", "phone_number": "7706417020", "tags": [{"primary": false, "id": 1722, "name": "Restaurants"}, {"primary": false, "id": 1736, "name": "Sandwich Shops"}, {"primary": false, "id": 11247, "name": "Carry Out"}, {"primary": false, "id": 11267, "name": "Food Delivery"}, {"primary": false, "id": 11375, "name": "Shop Online"}, {"primary": true, "id": 11299, "name": "Pizza"}], "fax_number": null, "expansion": {"count": null, "uri": null}, "impression_id": "000b000000e1fa66b9b36d41c683ffe70866fe674b", "profile": "http://www.citysearch.com/profile/44772710/marietta_ga/domino_s_pizza.html", "address": {"city": "Marietta", "state": "GA", "street": "4724 Lower Roswell Rd 101", "postal_code": "30068"}, "capProviderId": null, "distance": null, "has_offers": false, "name": "Domino's Pizza", "longitude": -84.413746, "has_menu": true, "awards": null, "user_review_count": 0}, {"business_operation_status": 1, "rating": null, "neighborhood": null, "image": null, "scorecard": null, "featured": false, "sample_categories": "Restaurants, Bars & Pubs", "public_id": "buffalo-wing-pub-marietta", "id": 764831570, "votes": null, "tagline": null, "has_video": false, "website": null, "offers": null, "latitude": 33.915472, "politanName": "Atlanta, GA Metro ", "phone_number": "7709333425", "tags": [{"primary": false, "id": 1686, "name": "Bars & Pubs"}, {"primary": true, "id": 1722, "name": "Restaurants"}], "fax_number": null, "expansion": {"count": null, "uri": null}, "impression_id": "000b00000033423ca8b5a74db0aa889d3833c81651", "profile": "http://www.citysearch.com/profile/764831570/marietta_ga/buffalo_wing_pub.html", "address": {"city": "Marietta", "state": "GA", "street": "1498 Powers Ferry Rd SE", "postal_code": "30067"}, "capProviderId": null, "distance": null, "has_offers": false, "name": "Buffalo Wing Pub", "longitude": -84.46601, "has_menu": false, "awards": null, "user_review_count": 0}, {"business_operation_status": 1, "rating": null, "neighborhood": null, "image": null, "scorecard": null, "featured": false, "sample_categories": "Restaurants, Seafood, Carry Out", "public_id": "red-lobster-marietta", "id": 787098710, "votes": null, "tagline": null, "has_video": false, "website": null, "offers": null, "latitude": 33.913386, "politanName": "Atlanta, GA Metro ", "phone_number": "4703774938", "tags": [{"primary": false, "id": 11228, "name": "Seafood"}, {"primary": false, "id": 11247, "name": "Carry Out"}, {"primary": true, "id": 1722, "name": "Restaurants"}], "fax_number": null, "expansion": {"count": null, "uri": null}, "impression_id": "000b000000fba7afcdd05d406d8c45dab044b3e3e2", "profile": "http://www.citysearch.com/profile/787098710/marietta_ga/red_lobster.html", "address": {"city": "Marietta", "state": "GA", "street": "699 Crosswinds Cir", "postal_code": "30008"}, "capProviderId": null, "distance": null, "has_offers": false, "name": "Red Lobster", "longitude": -84.575132, "has_menu": false, "awards": null, "user_review_count": 0}, {"business_operation_status": 1, "rating": null, "neighborhood": null, "image": null, "scorecard": null, "featured": false, "sample_categories": "Restaurants", "public_id": "unsukay-inc-atlanta", "id": 793286370, "votes": null, "tagline": null, "has_video": false, "website": null, "offers": null, "latitude": 33.907787, "politanName": "Atlanta, GA Metro ", "phone_number": "6784028471", "tags": [{"primary": true, "id": 1722, "name": "Restaurants"}], "fax_number": null, "expansion": {"count": null, "uri": null}, "impression_id": "000b000000badc955ff9e949d99e083bf19332b260", "profile": "http://www.citysearch.com/profile/793286370/atlanta_ga/unsukay_inc.html", "address": {"city": "Atlanta", "state": "GA", "street": "1899 Powers Ferry Rd Se", "postal_code": "30339"}, "capProviderId": null, "distance": null, "has_offers": false, "name": "Unsukay INC", "longitude": -84.463769, "has_menu": false, "awards": null, "user_review_count": 0}, {"business_operation_status": 1, "rating": null, "neighborhood": null, "image": null, "scorecard": null, "featured": false, "sample_categories": "Restaurants", "public_id": "dineout-inc-marietta", "id": 807939100, "votes": null, "tagline": null, "has_video": false, "website": null, "offers": null, "latitude": 34.021269, "politanName": "Atlanta, GA Metro ", "phone_number": "7705656984", "tags": [{"primary": true, "id": 1722, "name": "Restaurants"}], "fax_number": null, "expansion": {"count": null, "uri": null}, "impression_id": "000b0000000081861ac57040ddade889915973d67a", "profile": "http://www.citysearch.com/profile/807939100/marietta_ga/dineout_inc.html", "address": {"city": "Marietta", "state": "GA", "street": "1705 Macby Dr", "postal_code": "30066"}, "capProviderId": null, "distance": null, "has_offers": false, "name": "Dineout Inc", "longitude": -84.502556, "has_menu": false, "awards": null, "user_review_count": 0}, {"business_operation_status": 1, "rating": null, "neighborhood": null, "image": null, "scorecard": null, "featured": false, "sample_categories": "Restaurants, Carry Out, Italian, Pizza", "public_id": "sbarro-smyrna", "id": 45082264, "votes": null, "tagline": null, "has_video": false, "website": "http://www.citysearch.com/profile/external/45082264/smyrna_ga/sbarro.html", "offers": null, "latitude": 33.874593, "politanName": "Atlanta, GA Metro ", "phone_number": "7704358311", "tags": [{"primary": false, "id": 11247, "name": "Carry Out"}, {"primary": false, "id": 11279, "name": "Italian"}, {"primary": false, "id": 11299, "name": "Pizza"}, {"primary": true, "id": 1722, "name": "Restaurants"}], "fax_number": null, "expansion": {"count": null, "uri": null}, "impression_id": "000b0000007744f9c42ea546efad0a1b5f69b401e7", "profile": "http://www.citysearch.com/profile/45082264/smyrna_ga/sbarro.html", "address": {"city": "Smyrna", "state": "GA", "street": "1000 Cumberland Ct SE", "postal_code": "30080"}, "capProviderId": null, "distance": null, "has_offers": false, "name": "Sbarro", "longitude": -84.479034, "has_menu": true, "awards": null, "user_review_count": 0}, {"business_operation_status": 1, "rating": null, "neighborhood": null, "image": null, "scorecard": null, "featured": false, "sample_categories": "Restaurants", "public_id": "out-of-the-box-gifts-marietta", "id": 812371140, "votes": null, "tagline": null, "has_video": false, "website": null, "offers": null, "latitude": 33.982834, "politanName": "Atlanta, GA Metro ", "phone_number": "7702185455", "tags": [{"primary": true, "id": 1722, "name": "Restaurants"}], "fax_number": null, "expansion": {"count": null, "uri": null}, "impression_id": "000b000000f00eabf26a604f0f87517de7600d5cf2", "profile": "http://www.citysearch.com/profile/812371140/marietta_ga/out_of_the_box_gifts.html", "address": {"city": "Marietta", "state": "GA", "street": "1343 Canton Rd", "postal_code": "30066"}, "capProviderId": null, "distance": null, "has_offers": false, "name": "Out Of The Box Gifts", "longitude": -84.538604, "has_menu": false, "awards": null, "user_review_count": 0}, {"business_operation_status": 1, "rating": null, "neighborhood": null, "image": null, "scorecard": null, "featured": false, "sample_categories": "Restaurants", "public_id": "a-taste-of-puerto-rico-marietta-2", "id": 813840920, "votes": null, "tagline": null, "has_video": false, "website": null, "offers": null, "latitude": 34.017341, "politanName": "Atlanta, GA Metro ", "phone_number": "6787979992", "tags": [{"primary": true, "id": 1722, "name": "Restaurants"}], "fax_number": null, "expansion": {"count": null, "uri": null}, "impression_id": "000b0000004609d4ef7fc94f6eab9996a008e3dc91", "profile": "http://www.citysearch.com/profile/813840920/marietta_ga/a_taste_of_puerto_rico.html", "address": {"city": "Marietta", "state": "GA", "street": "2769 Chastn Mdws Pkwy # 90", "postal_code": "30066"}, "capProviderId": null, "distance": null, "has_offers": false, "name": "A Taste Of Puerto Rico", "longitude": -84.555709, "has_menu": false, "awards": null, "user_review_count": 0}, {"business_operation_status": 1, "rating": null, "neighborhood": null, "image": null, "scorecard": null, "featured": false, "sample_categories": "Restaurants", "public_id": "wing-enterprises-inc-atlanta", "id": 816766630, "votes": null, "tagline": null, "has_video": false, "website": null, "offers": null, "latitude": 33.887519, "politanName": "Atlanta, GA Metro ", "phone_number": "4048751688", "tags": [{"primary": true, "id": 1722, "name": "Restaurants"}], "fax_number": null, "expansion": {"count": null, "uri": null}, "impression_id": "000b00000063d69f7c92ed4d728b5fed3c85d7fba4", "profile": "http://www.citysearch.com/profile/816766630/atlanta_ga/wing_enterprises_inc.html", "address": {"city": "Atlanta", "state": "GA", "street": "900 Circle 75 Pkwy SE # 930", "postal_code": "30339"}, "capProviderId": null, "distance": null, "has_offers": false, "name": "Wing Enterprises Inc", "longitude": -84.467593, "has_menu": false, "awards": null, "user_review_count": 0}, {"business_operation_status": 1, "rating": 6.0, "neighborhood": null, "image": null, "scorecard": null, "featured": false, "sample_categories": "Restaurants, Bars & Pubs, Taverns, Barbecue Restaurants, MasterCard", "public_id": "wings-pub-smyrna", "id": 2922999, "votes": null, "tagline": null, "has_video": false, "website": null, "offers": null, "latitude": 33.894336, "politanName": "Atlanta, GA Metro ", "phone_number": "7704350007", "tags": [{"primary": false, "id": 1686, "name": "Bars & Pubs"}, {"primary": false, "id": 1702, "name": "Taverns"}, {"primary": false, "id": 1724, "name": "Barbecue Restaurants"}, {"primary": false, "id": 11361, "name": "MasterCard"}, {"primary": false, "id": 11382, "name": "Visa"}, {"primary": true, "id": 1722, "name": "Restaurants"}], "fax_number": null, "expansion": {"count": null, "uri": null}, "impression_id": "000b0000000844fac2726643118bdbbf084983e753", "profile": "http://www.citysearch.com/profile/2922999/smyrna_ga/wings_pub.html", "address": {"city": "Smyrna", "state": "GA", "street": "1024 Windy Hill Rd SE", "postal_code": "30080"}, "capProviderId": null, "distance": null, "has_offers": false, "name": "Wings Pub", "longitude": -84.52318, "has_menu": false, "awards": null, "user_review_count": 0}, {"business_operation_status": 1, "rating": null, "neighborhood": null, "image": null, "scorecard": null, "featured": false, "sample_categories": "Restaurants", "public_id": "tacos-del-chavo-kennesaw", "id": 624205904, "votes": null, "tagline": null, "has_video": false, "website": null, "offers": null, "latitude": 34.023466, "politanName": "Atlanta, GA Metro ", "phone_number": "6788874997", "tags": [{"primary": true, "id": 1722, "name": "Restaurants"}], "fax_number": null, "expansion": {"count": null, "uri": null}, "impression_id": "000b0000003b183155cab647e89135cb836a66815b", "profile": "http://www.citysearch.com/profile/624205904/kennesaw_ga/tacos_del_chavo.html", "address": {"city": "Kennesaw", "state": "GA", "street": "2025 Chastain Rd", "postal_code": "30144"}, "capProviderId": null, "distance": null, "has_offers": false, "name": "Tacos Del Chavo", "longitude": -84.588896, "has_menu": false, "awards": null, "user_review_count": 0}, {"business_operation_status": 1, "rating": null, "neighborhood": null, "image": null, "scorecard": null, "featured": false, "sample_categories": "Restaurants, Pizza", "public_id": "pizza-sorrento-buffet-marietta", "id": 814485390, "votes": null, "tagline": null, "has_video": false, "website": null, "offers": null, "latitude": 34.017913, "politanName": "Atlanta, GA Metro ", "phone_number": "6783834986", "tags": [{"primary": false, "id": 1722, "name": "Restaurants"}, {"primary": true, "id": 11299, "name": "Pizza"}], "fax_number": null, "expansion": {"count": null, "uri": null}, "impression_id": "000b000000227d0761e2584fcc88f3661c3049ab06", "profile": "http://www.citysearch.com/profile/814485390/marietta_ga/pizza_sorrento_buffet.html", "address": {"city": "Marietta", "state": "GA", "street": "2745 Sandy Plains Rd # 106", "postal_code": "30066"}, "capProviderId": null, "distance": null, "has_offers": false, "name": "Pizza Sorrento Buffet", "longitude": -84.492683, "has_menu": false, "awards": null, "user_review_count": 0}, {"business_operation_status": 1, "rating": null, "neighborhood": null, "image": null, "scorecard": null, "featured": false, "sample_categories": "Restaurants, Pizza", "public_id": "wolfies-pizza-kennesaw", "id": 819131230, "votes": null, "tagline": null, "has_video": false, "website": null, "offers": null, "latitude": 33.999345, "politanName": "Atlanta, GA Metro ", "phone_number": "7704261229", "tags": [{"primary": false, "id": 1722, "name": "Restaurants"}, {"primary": true, "id": 11299, "name": "Pizza"}], "fax_number": null, "expansion": {"count": null, "uri": null}, "impression_id": "000b0000009b8313dcd5974062b7404819fa52f74f", "profile": "http://www.citysearch.com/profile/819131230/kennesaw_ga/wolfie_s_pizza.html", "address": {"city": "Kennesaw", "state": "GA", "street": "1200 Ernest W Barrett NW # 6", "postal_code": "30144"}, "capProviderId": null, "distance": null, "has_offers": false, "name": "WOLFIE'S PIZZA", "longitude": -84.586888, "has_menu": false, "awards": null, "user_review_count": 0}, {"business_operation_status": 1, "rating": null, "neighborhood": null, "image": null, "scorecard": null, "featured": false, "sample_categories": "Restaurants, Brazilian", "public_id": "rio-de-janeiro-brazilian-bfft-marietta", "id": 764857550, "votes": null, "tagline": null, "has_video": false, "website": null, "offers": null, "latitude": 33.921284, "politanName": "Atlanta, GA Metro ", "phone_number": "7709529556", "tags": [{"primary": false, "id": 11204, "name": "Brazilian"}, {"primary": true, "id": 1722, "name": "Restaurants"}], "fax_number": null, "expansion": {"count": null, "uri": null}, "impression_id": "000b000000632b533a2d404ba4b5712dbfec2665e1", "profile": "http://www.citysearch.com/profile/764857550/marietta_ga/rio_de_janeiro_brazilian_bfft.html", "address": {"city": "Marietta", "state": "GA", "street": "1260 Powers Ferry Rd SE # E", "postal_code": "30067"}, "capProviderId": null, "distance": null, "has_offers": false, "name": "Rio De Janeiro Brazilian Bfft", "longitude": -84.467848, "has_menu": false, "awards": null, "user_review_count": 0}, {"business_operation_status": 1, "rating": null, "neighborhood": null, "image": null, "scorecard": null, "featured": false, "sample_categories": "Restaurants", "public_id": "yogoday-marietta", "id": 828480390, "votes": null, "tagline": null, "has_video": false, "website": null, "offers": null, "latitude": 34.013868, "politanName": "Atlanta, GA Metro ", "phone_number": "7707951522", "tags": [{"primary": true, "id": 1722, "name": "Restaurants"}], "fax_number": null, "expansion": {"count": null, "uri": null}, "impression_id": "000b00000053dac78fe7ec4824a0e115fd7b83a874", "profile": "http://www.citysearch.com/profile/828480390/marietta_ga/yogoday.html", "address": {"city": "Marietta", "state": "GA", "street": "125 Ernest W Barrett Pkwy NW", "postal_code": "30060"}, "capProviderId": null, "distance": null, "has_offers": false, "name": "Yogoday", "longitude": -84.55453, "has_menu": false, "awards": null, "user_review_count": 0}, {"business_operation_status": 1, "rating": null, "neighborhood": null, "image": null, "scorecard": null, "featured": false, "sample_categories": "Restaurants, Coffeehouses", "public_id": "starbucks-smyrna-6", "id": 834619900, "votes": null, "tagline": null, "has_video": false, "website": null, "offers": null, "latitude": 33.887919, "politanName": "Atlanta, GA Metro ", "phone_number": "7709550322", "tags": [{"primary": false, "id": 1726, "name": "Coffeehouses"}, {"primary": true, "id": 1722, "name": "Restaurants"}], "fax_number": null, "expansion": {"count": null, "uri": null}, "impression_id": "000b00000073e8fa53567440789169e9985d1a5789", "profile": "http://www.citysearch.com/profile/834619900/smyrna_ga/starbucks.html", "address": {"city": "Smyrna", "state": "GA", "street": "2670 Cobb Pkwy SE", "postal_code": "30080"}, "capProviderId": null, "distance": null, "has_offers": false, "name": "Starbucks", "longitude": -84.474232, "has_menu": true, "awards": null, "user_review_count": 0}, {"business_operation_status": 1, "rating": null, "neighborhood": null, "image": null, "scorecard": null, "featured": false, "sample_categories": "Restaurants", "public_id": "park-place-marietta", "id": 775200190, "votes": null, "tagline": null, "has_video": false, "website": null, "offers": null, "latitude": 33.938667, "politanName": "Atlanta, GA Metro ", "phone_number": "7708180041", "tags": [{"primary": true, "id": 1722, "name": "Restaurants"}], "fax_number": null, "expansion": {"count": null, "uri": null}, "impression_id": "000b000000cd1c750e06644cc3bf5547ec4ff2d2ef", "profile": "http://www.citysearch.com/profile/775200190/marietta_ga/park_place.html", "address": {"city": "Marietta", "state": "GA", "street": "560 N Palisades Cir SE", "postal_code": "30067"}, "capProviderId": null, "distance": null, "has_offers": false, "name": "Park Place", "longitude": -84.460642, "has_menu": false, "awards": null, "user_review_count": 0}, {"business_operation_status": 1, "rating": null, "neighborhood": null, "image": null, "scorecard": null, "featured": false, "sample_categories": "Restaurants, Bistros, Catering", "public_id": "paris-bistro-atlanta-10", "id": 775215220, "votes": null, "tagline": null, "has_video": false, "website": null, "offers": null, "latitude": 33.901847, "politanName": "Atlanta, GA Metro ", "phone_number": "6787661449", "tags": [{"primary": false, "id": 13690, "name": "Bistros"}, {"primary": false, "id": 1705, "name": "Catering"}, {"primary": true, "id": 1722, "name": "Restaurants"}], "fax_number": null, "expansion": {"count": null, "uri": null}, "impression_id": "000b0000001deb233e9851417ab674af78c8b74dfc", "profile": "http://www.citysearch.com/profile/775215220/atlanta_ga/paris_bistro.html", "address": {"city": "Atlanta", "state": "GA", "street": "2018 Powers Ferry Rd SE", "postal_code": "30339"}, "capProviderId": null, "distance": null, "has_offers": false, "name": "Paris Bistro", "longitude": -84.457896, "has_menu": false, "awards": null, "user_review_count": 0}, {"business_operation_status": 1, "rating": null, "neighborhood": null, "image": null, "scorecard": null, "featured": false, "sample_categories": "Coffeehouses", "public_id": "starbucks-marietta-15", "id": 781239340, "votes": null, "tagline": null, "has_video": false, "website": "http://www.citysearch.com/profile/external/781239340/marietta_ga/starbucks.html", "offers": null, "latitude": 33.91616, "politanName": "Atlanta, GA Metro ", "phone_number": "7708509807", "tags": [{"primary": true, "id": 1726, "name": "Coffeehouses"}], "fax_number": null, "expansion": {"count": null, "uri": null}, "impression_id": "000b0000007f34a292f2904670a755760d3c778c2b", "profile": "http://www.citysearch.com/profile/781239340/marietta_ga/starbucks.html", "address": {"city": "Marietta", "state": "GA", "street": "1453 Terrell Mill Rd Se", "postal_code": "30067"}, "capProviderId": null, "distance": null, "has_offers": false, "name": "Starbucks", "longitude": -84.467925, "has_menu": false, "awards": null, "user_review_count": 0}, {"business_operation_status": 1, "rating": null, "neighborhood": null, "image": null, "scorecard": null, "featured": false, "sample_categories": "Restaurants, Bakeries, Carry Out", "public_id": "cheesecake-factory-atlanta", "id": 793249980, "votes": null, "tagline": null, "has_video": false, "website": "http://www.citysearch.com/profile/external/793249980/atlanta_ga/cheesecake_factory.html", "offers": null, "latitude": 33.881743, "politanName": "Atlanta, GA Metro ", "phone_number": "7703195515", "tags": [{"primary": false, "id": 1685, "name": "Bakeries"}, {"primary": false, "id": 11247, "name": "Carry Out"}, {"primary": true, "id": 1722, "name": "Restaurants"}], "fax_number": null, "expansion": {"count": null, "uri": null}, "impression_id": "000b0000002e97a8bb162243648711e38c6e30df75", "profile": "http://www.citysearch.com/profile/793249980/atlanta_ga/cheesecake_factory.html", "address": {"city": "Atlanta", "state": "GA", "street": "1000 Cumberland Mall Se", "postal_code": "30339"}, "capProviderId": null, "distance": null, "has_offers": false, "name": "Cheesecake Factory", "longitude": -84.470084, "has_menu": true, "awards": null, "user_review_count": 0}, {"business_operation_status": 1, "rating": null, "neighborhood": null, "image": null, "scorecard": null, "featured": false, "sample_categories": "Restaurants, Catering, Delis And Delicatessens, Sandwich Shops, Carry Out", "public_id": "quiznos-atlanta", "id": 43875434, "votes": null, "tagline": null, "has_video": false, "website": "http://www.citysearch.com/profile/external/43875434/atlanta_ga/quiznos.html", "offers": null, "latitude": 33.879395, "politanName": "Atlanta, GA Metro ", "phone_number": "6782133101", "tags": [{"primary": false, "id": 1705, "name": "Catering"}, {"primary": false, "id": 1727, "name": "Delis And Delicatessens"}, {"primary": false, "id": 1736, "name": "Sandwich Shops"}, {"primary": false, "id": 11247, "name": "Carry Out"}, {"primary": false, "id": 11333, "name": "American Express"}, {"primary": false, "id": 11349, "name": "Discover"}, {"primary": false, "id": 11361, "name": "MasterCard"}, {"primary": false, "id": 11375, "name": "Shop Online"}, {"primary": false, "id": 11382, "name": "Visa"}, {"primary": true, "id": 1722, "name": "Restaurants"}], "fax_number": null, "expansion": {"count": null, "uri": null}, "impression_id": "000b0000007ec4350da99d4ea1b2c65ea852497edf", "profile": "http://www.citysearch.com/profile/43875434/atlanta_ga/quiznos.html", "address": {"city": "Atlanta", "state": "GA", "street": "3051 Akers Mill Rd SE 140", "postal_code": "30339"}, "capProviderId": null, "distance": null, "has_offers": false, "name": "Quiznos", "longitude": -84.463912, "has_menu": true, "awards": null, "user_review_count": 0}, {"business_operation_status": 1, "rating": null, "neighborhood": null, "image": null, "scorecard": null, "featured": false, "sample_categories": "Restaurants, Seafood Markets, Seafood", "public_id": "rickys-fish-camp-roswell", "id": 802514250, "votes": null, "tagline": null, "has_video": false, "website": null, "offers": null, "latitude": 34.016917, "politanName": "Atlanta, GA Metro ", "phone_number": "6784641534", "tags": [{"primary": false, "id": 1719, "name": "Seafood Markets"}, {"primary": false, "id": 11228, "name": "Seafood"}, {"primary": true, "id": 1722, "name": "Restaurants"}], "fax_number": null, "expansion": {"count": null, "uri": null}, "impression_id": "000b000000a3784045d2d84702b3f8fe8669e0e846", "profile": "http://www.citysearch.com/profile/802514250/roswell_ga/ricky_s_fish_camp.html", "address": {"city": "Roswell", "state": "GA", "street": "659 Atlanta St", "postal_code": "30075"}, "capProviderId": null, "distance": null, "has_offers": false, "name": "Ricky's Fish Camp", "longitude": -84.362319, "has_menu": false, "awards": null, "user_review_count": 0}, {"business_operation_status": 1, "rating": 8.0, "neighborhood": null, "image": null, "scorecard": null, "featured": false, "sample_categories": "Ice Cream Parlors, Dessert Shops", "public_id": "bambi-ice-cream-smyrna", "id": 37647413, "votes": null, "tagline": null, "has_video": false, "website": null, "offers": null, "latitude": 33.902095, "politanName": "Atlanta, GA Metro ", "phone_number": "7703191929", "tags": [{"primary": false, "id": 1728, "name": "Dessert Shops"}, {"primary": true, "id": 1730, "name": "Ice Cream Parlors"}], "fax_number": null, "expansion": {"count": null, "uri": null}, "impression_id": "000b0000007e9201129b724568ba60dcd679b0a885", "profile": "http://www.citysearch.com/profile/37647413/smyrna_ga/bambi_ice_cream.html", "address": {"city": "Smyrna", "state": "GA", "street": "441 Pat Mell Rd SE", "postal_code": "30080"}, "capProviderId": null, "distance": null, "has_offers": false, "name": "Bambi Ice Cream", "longitude": -84.540382, "has_menu": false, "awards": null, "user_review_count": 1}, {"business_operation_status": 1, "rating": null, "neighborhood": null, "image": null, "scorecard": null, "featured": false, "sample_categories": "Restaurants", "public_id": "park-point-cafe-atlanta", "id": 37653137, "votes": null, "tagline": null, "has_video": false, "website": null, "offers": null, "latitude": 33.902474, "politanName": "Atlanta, GA Metro ", "phone_number": "7705416677", "tags": [{"primary": true, "id": 1722, "name": "Restaurants"}], "fax_number": null, "expansion": {"count": null, "uri": null}, "impression_id": "000b000000dcaaf42e353f45989b4f27e3bb3df457", "profile": "http://www.citysearch.com/profile/37653137/atlanta_ga/park_point_cafe.html", "address": {"city": "Atlanta", "state": "GA", "street": "2018 Powers Ferry Rd SE", "postal_code": "30339"}, "capProviderId": null, "distance": null, "has_offers": false, "name": "Park Point Cafe", "longitude": -84.456329, "has_menu": false, "awards": null, "user_review_count": 0}, {"business_operation_status": 1, "rating": null, "neighborhood": null, "image": null, "scorecard": null, "featured": false, "sample_categories": "Restaurants", "public_id": "basils-neighborhood-cafe-llc-marietta", "id": 826054170, "votes": null, "tagline": null, "has_video": false, "website": null, "offers": null, "latitude": 33.979324, "politanName": "Atlanta, GA Metro ", "phone_number": "7705780011", "tags": [{"primary": true, "id": 1722, "name": "Restaurants"}], "fax_number": null, "expansion": {"count": null, "uri": null}, "impression_id": "000b0000005538bde2474a4fa4b7a38fdb2c432cbc", "profile": "http://www.citysearch.com/profile/826054170/marietta_ga/basils_neighborhood_cafe_llc.html", "address": {"city": "Marietta", "state": "GA", "street": "1255 Johnson Ferry Rd # 16", "postal_code": "30068"}, "capProviderId": null, "distance": null, "has_offers": false, "name": "Basils Neighborhood Cafe LLC", "longitude": -84.421557, "has_menu": false, "awards": null, "user_review_count": 0}, {"business_operation_status": 1, "rating": null, "neighborhood": null, "image": null, "scorecard": null, "featured": false, "sample_categories": "Restaurants", "public_id": "china-buffet-chinese-rstrnt-smyrna", "id": 826425600, "votes": null, "tagline": null, "has_video": false, "website": null, "offers": null, "latitude": 33.884505, "politanName": "Atlanta, GA Metro ", "phone_number": "7703338328", "tags": [{"primary": true, "id": 1722, "name": "Restaurants"}], "fax_number": null, "expansion": {"count": null, "uri": null}, "impression_id": "000b000000b1ebf37814d94731974e2bb9b046265e", "profile": "http://www.citysearch.com/profile/826425600/smyrna_ga/china_buffet_chinese_rstrnt.html", "address": {"city": "Smyrna", "state": "GA", "street": "2800 #a Spring Road", "postal_code": "30080"}, "capProviderId": null, "distance": null, "has_offers": false, "name": "China Buffet Chinese Rstrnt", "longitude": -84.4741, "has_menu": false, "awards": null, "user_review_count": 0}, {"business_operation_status": 1, "rating": 8.0, "neighborhood": null, "image": null, "scorecard": null, "featured": false, "sample_categories": "Bakeries, Restaurants", "public_id": "sunbeam-baking-co-thrift-strs-marietta", "id": 45550819, "votes": null, "tagline": null, "has_video": false, "website": null, "offers": null, "latitude": 33.915248, "politanName": "Atlanta, GA Metro ", "phone_number": "7709735200", "tags": [{"primary": false, "id": 1722, "name": "Restaurants"}, {"primary": true, "id": 1685, "name": "Bakeries"}], "fax_number": null, "expansion": {"count": null, "uri": null}, "impression_id": "000b000000653483a0e4af4369a24085d2638412c1", "profile": "http://www.citysearch.com/profile/45550819/marietta_ga/sunbeam_baking_co_thrift_strs.html", "address": {"city": "Marietta", "state": "GA", "street": "1550 Powers Ferry Rd SE", "postal_code": "30067"}, "capProviderId": null, "distance": null, "has_offers": false, "name": "Sunbeam Baking Co Thrift Strs", "longitude": -84.465918, "has_menu": false, "awards": null, "user_review_count": 0}, {"business_operation_status": 1, "rating": null, "neighborhood": null, "image": null, "scorecard": null, "featured": false, "sample_categories": "Restaurants, Chinese, American Express, Discover, MasterCard", "public_id": "hong-kong-star-chinese-rstrnt-marietta", "id": 601297114, "votes": null, "tagline": null, "has_video": false, "website": null, "offers": null, "latitude": 33.943454, "politanName": "Atlanta, GA Metro ", "phone_number": "7704280988", "tags": [{"primary": false, "id": 11252, "name": "Chinese"}, {"primary": false, "id": 11333, "name": "American Express"}, {"primary": false, "id": 11349, "name": "Discover"}, {"primary": false, "id": 11361, "name": "MasterCard"}, {"primary": false, "id": 11382, "name": "Visa"}, {"primary": true, "id": 1722, "name": "Restaurants"}], "fax_number": null, "expansion": {"count": null, "uri": null}, "impression_id": "000b0000009bada7138dfb4307a66a88fd30062405", "profile": "http://www.citysearch.com/profile/601297114/marietta_ga/hong_kong_star_chinese_rstrnt.html", "address": {"city": "Marietta", "state": "GA", "street": "557 S Marietta Pkwy Se", "postal_code": "30060"}, "capProviderId": null, "distance": null, "has_offers": false, "name": "Hong Kong Star Chinese Rstrnt", "longitude": -84.536796, "has_menu": true, "awards": null, "user_review_count": 1}, {"business_operation_status": 1, "rating": null, "neighborhood": null, "image": null, "scorecard": null, "featured": false, "sample_categories": "Restaurants, Delis And Delicatessens", "public_id": "wildwood-cafe-atlanta-2", "id": 3030534, "votes": null, "tagline": null, "has_video": false, "website": null, "offers": null, "latitude": 33.913333, "politanName": "Atlanta, GA Metro ", "phone_number": "7709532378", "tags": [{"primary": false, "id": 1727, "name": "Delis And Delicatessens"}, {"primary": true, "id": 1722, "name": "Restaurants"}], "fax_number": null, "expansion": {"count": null, "uri": null}, "impression_id": "000b00000010359c8a0fe04c9dbb2ebc6c973cb0ff", "profile": "http://www.citysearch.com/profile/3030534/atlanta_ga/wildwood_cafe.html", "address": {"city": "Atlanta", "state": "GA", "street": "3200 Windy Hill Rd SE 150", "postal_code": "30339"}, "capProviderId": null, "distance": null, "has_offers": false, "name": "Wildwood Cafe", "longitude": -84.460852, "has_menu": false, "awards": null, "user_review_count": 0}, {"business_operation_status": 1, "rating": null, "neighborhood": null, "image": null, "scorecard": null, "featured": false, "sample_categories": "Restaurants, Pizza", "public_id": "all-star-pizza-marietta", "id": 757929600, "votes": null, "tagline": null, "has_video": false, "website": null, "offers": null, "latitude": 33.922673, "politanName": "Atlanta, GA Metro ", "phone_number": "7709525254", "tags": [{"primary": false, "id": 11299, "name": "Pizza"}, {"primary": true, "id": 1722, "name": "Restaurants"}], "fax_number": null, "expansion": {"count": null, "uri": null}, "impression_id": "000b00000077c277317cca4ce4a8910f60003c1e80", "profile": "http://www.citysearch.com/profile/757929600/marietta_ga/all_star_pizza.html", "address": {"city": "Marietta", "state": "GA", "street": "2555 Delk Rd SE", "postal_code": "30067"}, "capProviderId": null, "distance": null, "has_offers": false, "name": "All Star Pizza", "longitude": -84.478383, "has_menu": false, "awards": null, "user_review_count": 0}, {"business_operation_status": 1, "rating": null, "neighborhood": null, "image": null, "scorecard": null, "featured": false, "sample_categories": "Restaurants", "public_id": "car-checkers-powder-spgs", "id": 2950697, "votes": null, "tagline": null, "has_video": false, "website": null, "offers": null, "latitude": 33.935913, "politanName": "Atlanta, GA Metro ", "phone_number": "7705148100", "tags": [{"primary": true, "id": 1722, "name": "Restaurants"}], "fax_number": null, "expansion": {"count": null, "uri": null}, "impression_id": "000b000000592a9414077c43a69fc131e0d4143d70", "profile": "http://www.citysearch.com/profile/2950697/powder_springs_ga/car_checkers.html", "address": {"city": "Powder Springs", "state": "GA", "street": "591 Leah Dr", "postal_code": "30127"}, "capProviderId": null, "distance": null, "has_offers": false, "name": "Car Checkers", "longitude": -84.663484, "has_menu": false, "awards": null, "user_review_count": 0}, {"business_operation_status": 1, "rating": null, "neighborhood": null, "image": null, "scorecard": null, "featured": false, "sample_categories": "Water Well Drilling, Drilling & Boring Contractors, Food Delivery", "public_id": "j-wings-more-smyrna", "id": 2962298, "votes": null, "tagline": null, "has_video": false, "website": null, "offers": null, "latitude": 33.885247, "politanName": "Atlanta, GA Metro ", "phone_number": "7702269977", "tags": [{"primary": false, "id": 889, "name": "Water Well Drilling"}, {"primary": false, "id": 892, "name": "Drilling & Boring Contractors"}, {"primary": true, "id": 11267, "name": "Food Delivery"}], "fax_number": null, "expansion": {"count": null, "uri": null}, "impression_id": "000b000000144aa886dc4f4a55b2824dee7bbaf100", "profile": "http://www.citysearch.com/profile/2962298/smyrna_ga/j_wings_more.html", "address": {"city": "Smyrna", "state": "GA", "street": "2778 Cumberland Blvd SE Ste 574", "postal_code": "30080"}, "capProviderId": null, "distance": null, "has_offers": false, "name": "J Wings & More", "longitude": -84.47677, "has_menu": false, "awards": null, "user_review_count": 0}, {"business_operation_status": 1, "rating": null, "neighborhood": null, "image": null, "scorecard": null, "featured": false, "sample_categories": "Restaurants", "public_id": "mexican-taqueria-smyrna", "id": 623985844, "votes": null, "tagline": null, "has_video": false, "website": null, "offers": null, "latitude": 33.889788, "politanName": "Atlanta, GA Metro ", "phone_number": "7709891248", "tags": [{"primary": true, "id": 1722, "name": "Restaurants"}], "fax_number": null, "expansion": {"count": null, "uri": null}, "impression_id": "000b000000ce565d53bcd34d48a7b839afe143eaad", "profile": "http://www.citysearch.com/profile/623985844/smyrna_ga/mexican_taqueria.html", "address": {"city": "Smyrna", "state": "GA", "street": "2599 S Cobb Dr SE", "postal_code": "30080"}, "capProviderId": null, "distance": null, "has_offers": false, "name": "Mexican Taqueria", "longitude": -84.536114, "has_menu": false, "awards": null, "user_review_count": 0}, {"business_operation_status": 1, "rating": null, "neighborhood": null, "image": null, "scorecard": null, "featured": false, "sample_categories": "Restaurants, Cajun & Creole", "public_id": "on-the-bayou-smyrna", "id": 764832940, "votes": null, "tagline": null, "has_video": false, "website": null, "offers": null, "latitude": 33.879071, "politanName": "Atlanta, GA Metro ", "phone_number": "7704343329", "tags": [{"primary": false, "id": 11245, "name": "Cajun & Creole"}, {"primary": true, "id": 1722, "name": "Restaurants"}], "fax_number": null, "expansion": {"count": null, "uri": null}, "impression_id": "000b0000009311ad73821b4144bf09f21e763ee4a0", "profile": "http://www.citysearch.com/profile/764832940/smyrna_ga/on_the_bayou.html", "address": {"city": "Smyrna", "state": "GA", "street": "3120 S Cobb Dr SE", "postal_code": "30080"}, "capProviderId": null, "distance": null, "has_offers": false, "name": "On the Bayou", "longitude": -84.532683, "has_menu": false, "awards": null, "user_review_count": 0}, {"business_operation_status": 1, "rating": null, "neighborhood": null, "image": null, "scorecard": null, "featured": false, "sample_categories": "Delis And Delicatessens, Restaurants", "public_id": "deli-dellghts-marietta", "id": 764838340, "votes": null, "tagline": null, "has_video": false, "website": null, "offers": null, "latitude": 33.952594, "politanName": "Atlanta, GA Metro ", "phone_number": "6784016001", "tags": [{"primary": false, "id": 1722, "name": "Restaurants"}, {"primary": true, "id": 1727, "name": "Delis And Delicatessens"}], "fax_number": null, "expansion": {"count": null, "uri": null}, "impression_id": "000b0000002385ebe0d96646c182a227bb2db46ca6", "profile": "http://www.citysearch.com/profile/764838340/marietta_ga/deli_dellghts.html", "address": {"city": "Marietta", "state": "GA", "street": "800 Whitlock Ave NW", "postal_code": "30064"}, "capProviderId": null, "distance": null, "has_offers": false, "name": "Deli Dellghts", "longitude": -84.575881, "has_menu": false, "awards": null, "user_review_count": 0}, {"business_operation_status": 1, "rating": null, "neighborhood": null, "image": null, "scorecard": null, "featured": false, "sample_categories": "Restaurants", "public_id": "culture-lab-marietta", "id": 764843290, "votes": null, "tagline": null, "has_video": false, "website": null, "offers": null, "latitude": 33.883313, "politanName": "Atlanta, GA Metro ", "phone_number": "7705750926", "tags": [{"primary": true, "id": 1722, "name": "Restaurants"}], "fax_number": null, "expansion": {"count": null, "uri": null}, "impression_id": "000b000000f46f898e5a744e3d966ec9766211db0a", "profile": "http://www.citysearch.com/profile/764843290/marietta_ga/culture_lab.html", "address": {"city": "Marietta", "state": "GA", "street": "2200 Powder Springs Rd SW", "postal_code": "30064"}, "capProviderId": null, "distance": null, "has_offers": false, "name": "Culture Lab", "longitude": -84.620092, "has_menu": false, "awards": null, "user_review_count": 0}, {"business_operation_status": 1, "rating": null, "neighborhood": null, "image": null, "scorecard": null, "featured": false, "sample_categories": "Juice & Smoothie Shops, Restaurants, Carry Out", "public_id": "orange-julius-smyrna", "id": 764893330, "votes": null, "tagline": null, "has_video": false, "website": null, "offers": null, "latitude": 33.882258, "politanName": "Atlanta, GA Metro ", "phone_number": "7704323809", "tags": [{"primary": false, "id": 1722, "name": "Restaurants"}, {"primary": false, "id": 11247, "name": "Carry Out"}, {"primary": true, "id": 1735, "name": "Juice & Smoothie Shops"}], "fax_number": null, "expansion": {"count": null, "uri": null}, "impression_id": "000b000000dc01607e4e1149ea94e3f90f3c7fa657", "profile": "http://www.citysearch.com/profile/764893330/smyrna_ga/orange_julius.html", "address": {"city": "Smyrna", "state": "GA", "street": "1641 Spring Rd SE", "postal_code": "30080"}, "capProviderId": null, "distance": null, "has_offers": false, "name": "Orange Julius", "longitude": -84.505572, "has_menu": false, "awards": null, "user_review_count": 0}, {"business_operation_status": 1, "rating": null, "neighborhood": null, "image": null, "scorecard": null, "featured": false, "sample_categories": "Restaurants", "public_id": "vineyard-cafe-marietta", "id": 766766850, "votes": null, "tagline": null, "has_video": false, "website": null, "offers": null, "latitude": 33.950297, "politanName": "Atlanta, GA Metro ", "phone_number": "6785813771", "tags": [{"primary": true, "id": 1722, "name": "Restaurants"}], "fax_number": null, "expansion": {"count": null, "uri": null}, "impression_id": "000b00000077bd99725ef24782bfeaca52923e8844", "profile": "http://www.citysearch.com/profile/766766850/marietta_ga/vineyard_cafe.html", "address": {"city": "Marietta", "state": "GA", "street": "21 Park St SE", "postal_code": "30060"}, "capProviderId": null, "distance": null, "has_offers": false, "name": "Vineyard Cafe", "longitude": -84.533173, "has_menu": true, "awards": null, "user_review_count": 0}, {"business_operation_status": 1, "rating": null, "neighborhood": null, "image": null, "scorecard": null, "featured": false, "sample_categories": "Restaurants, Carry Out, Chicken", "public_id": "popeyes-marietta", "id": 775201320, "votes": null, "tagline": null, "has_video": false, "website": null, "offers": null, "latitude": 33.9485, "politanName": "Atlanta, GA Metro ", "phone_number": "7704208800", "tags": [{"primary": false, "id": 11247, "name": "Carry Out"}, {"primary": false, "id": 12839, "name": "Chicken"}, {"primary": true, "id": 1722, "name": "Restaurants"}], "fax_number": null, "expansion": {"count": null, "uri": null}, "impression_id": "000b000000c617a1f2c38b430ca9e5378c7ea55f4d", "profile": "http://www.citysearch.com/profile/775201320/marietta_ga/popeyes.html", "address": {"city": "Marietta", "state": "GA", "street": "155 Cobb Pkwy S", "postal_code": "30060"}, "capProviderId": null, "distance": null, "has_offers": false, "name": "Popeyes", "longitude": -84.518323, "has_menu": false, "awards": null, "user_review_count": 0}, {"business_operation_status": 1, "rating": null, "neighborhood": null, "image": null, "scorecard": null, "featured": false, "sample_categories": "Restaurants, Steakhouse", "public_id": "steaks-to-go-marietta", "id": 728138380, "votes": null, "tagline": null, "has_video": false, "website": null, "offers": null, "latitude": 33.917352, "politanName": "Atlanta, GA Metro ", "phone_number": "7706128888", "tags": [{"primary": false, "id": 11316, "name": "Steakhouse"}, {"primary": true, "id": 1722, "name": "Restaurants"}], "fax_number": null, "expansion": {"count": null, "uri": null}, "impression_id": "000b0000002a668cccc08f44beb09edfc5a1810d65", "profile": "http://www.citysearch.com/profile/728138380/marietta_ga/steaks_to_go.html", "address": {"city": "Marietta", "state": "GA", "street": "1480 Terrell Mill Rd Se", "postal_code": "30067"}, "capProviderId": null, "distance": null, "has_offers": false, "name": "Steaks To Go", "longitude": -84.468836, "has_menu": false, "awards": null, "user_review_count": 0}, {"business_operation_status": 1, "rating": null, "neighborhood": null, "image": null, "scorecard": null, "featured": false, "sample_categories": "Restaurants", "public_id": "sun-dried-restaurant-marietta", "id": 790803840, "votes": null, "tagline": null, "has_video": false, "website": null, "offers": null, "latitude": 34.015118, "politanName": "Atlanta, GA Metro ", "phone_number": "6785406642", "tags": [{"primary": true, "id": 1722, "name": "Restaurants"}], "fax_number": null, "expansion": {"count": null, "uri": null}, "impression_id": "000b000000964bd7d5c029451e9c74adbd2e85495b", "profile": "http://www.citysearch.com/profile/790803840/marietta_ga/sun_dried_restaurant.html", "address": {"city": "Marietta", "state": "GA", "street": "2635 Sandy Plains Rd", "postal_code": "30066"}, "capProviderId": null, "distance": null, "has_offers": false, "name": "Sun Dried Restaurant", "longitude": -84.495187, "has_menu": true, "awards": null, "user_review_count": 0}, {"business_operation_status": 1, "rating": null, "neighborhood": null, "image": null, "scorecard": null, "featured": false, "sample_categories": "Restaurants, Pizza, Carry Out", "public_id": "little-caesars-pizza-marietta-6", "id": 653553400, "votes": null, "tagline": null, "has_video": false, "website": "http://www.citysearch.com/profile/external/653553400/marietta_ga/little_caesars_pizza.html", "offers": null, "latitude": 33.923677, "politanName": "Atlanta, GA Metro ", "phone_number": "7709849400", "tags": [{"primary": false, "id": 1722, "name": "Restaurants"}, {"primary": false, "id": 11247, "name": "Carry Out"}, {"primary": true, "id": 11299, "name": "Pizza"}], "fax_number": null, "expansion": {"count": null, "uri": null}, "impression_id": "000b00000052f7daf151b942c48f7feec3eabfcb51", "profile": "http://www.citysearch.com/profile/653553400/marietta_ga/little_caesars_pizza.html", "address": {"city": "Marietta", "state": "GA", "street": "2856 Delk Rd Se", "postal_code": "30067"}, "capProviderId": null, "distance": null, "has_offers": false, "name": "Little Caesars Pizza", "longitude": -84.471351, "has_menu": true, "awards": null, "user_review_count": 0}, {"business_operation_status": 1, "rating": null, "neighborhood": null, "image": null, "scorecard": null, "featured": false, "sample_categories": "Restaurants, Steakhouse", "public_id": "skips-steaks-marietta", "id": 743983550, "votes": null, "tagline": null, "has_video": false, "website": null, "offers": null, "latitude": 33.928458, "politanName": "Atlanta, GA Metro ", "phone_number": "7702269046", "tags": [{"primary": false, "id": 11316, "name": "Steakhouse"}, {"primary": true, "id": 1722, "name": "Restaurants"}], "fax_number": null, "expansion": {"count": null, "uri": null}, "impression_id": "000b0000009a742e90f7c1436a878b986479cde8e0", "profile": "http://www.citysearch.com/profile/743983550/marietta_ga/skip_s_steaks.html", "address": {"city": "Marietta", "state": "GA", "street": "1033 Franklin Rd Se", "postal_code": "30067"}, "capProviderId": null, "distance": null, "has_offers": false, "name": "Skip's Steaks", "longitude": -84.492995, "has_menu": false, "awards": null, "user_review_count": 0}, {"business_operation_status": 0, "rating": null, "neighborhood": null, "image": null, "scorecard": null, "featured": false, "sample_categories": "Restaurants", "public_id": "sweet-pea-cafe-deli-marietta", "id": 655825170, "votes": null, "tagline": null, "has_video": false, "website": null, "offers": null, "latitude": 33.951248, "politanName": "Atlanta, GA Metro ", "phone_number": "7709777167", "tags": [{"primary": true, "id": 1722, "name": "Restaurants"}], "fax_number": null, "expansion": {"count": null, "uri": null}, "impression_id": "000b000000d7b03ec9bc13443db0d851d485d0dfb6", "profile": "http://www.citysearch.com/profile/655825170/marietta_ga/sweet_pea_cafe_deli.html", "address": {"city": "Marietta", "state": "GA", "street": "1516 Roswell Rd", "postal_code": "30062"}, "capProviderId": null, "distance": null, "has_offers": false, "name": "Sweet Pea Cafe & Deli", "longitude": -84.508172, "has_menu": true, "awards": null, "user_review_count": 0}, {"business_operation_status": 1, "rating": null, "neighborhood": null, "image": null, "scorecard": null, "featured": false, "sample_categories": "Restaurants, Caribbean", "public_id": "tassa-authentic-caribbean-marietta", "id": 655828500, "votes": null, "tagline": null, "has_video": false, "website": null, "offers": null, "latitude": 33.947468, "politanName": "Atlanta, GA Metro ", "phone_number": "7705781480", "tags": [{"primary": false, "id": 11195, "name": "Caribbean"}, {"primary": true, "id": 1722, "name": "Restaurants"}], "fax_number": null, "expansion": {"count": null, "uri": null}, "impression_id": "000b000000d9ea5a6392c14ab6a0cbca9d72a4072c", "profile": "http://www.citysearch.com/profile/655828500/marietta_ga/tassa_authentic_caribbean.html", "address": {"city": "Marietta", "state": "GA", "street": "224 Powers Ferry Rd Se", "postal_code": "30067"}, "capProviderId": null, "distance": null, "has_offers": false, "name": "Tassa Authentic Caribbean", "longitude": -84.500926, "has_menu": false, "awards": null, "user_review_count": 0}, {"business_operation_status": 1, "rating": null, "neighborhood": null, "image": null, "scorecard": null, "featured": false, "sample_categories": "Soda Fountain Shops", "public_id": "soda-stream-marietta", "id": 655833090, "votes": null, "tagline": null, "has_video": false, "website": null, "offers": null, "latitude": 33.916607, "politanName": "Atlanta, GA Metro ", "phone_number": "7709521637", "tags": [{"primary": true, "id": 1731, "name": "Soda Fountain Shops"}], "fax_number": null, "expansion": {"count": null, "uri": null}, "impression_id": "000b000000e4d97e9d6e754558828f73b66dced613", "profile": "http://www.citysearch.com/profile/655833090/marietta_ga/soda_stream.html", "address": {"city": "Marietta", "state": "GA", "street": "2051 Franklin Way Se", "postal_code": "30067"}, "capProviderId": null, "distance": null, "has_offers": false, "name": "Soda Stream", "longitude": -84.491622, "has_menu": false, "awards": null, "user_review_count": 0}, {"business_operation_status": 1, "rating": null, "neighborhood": null, "image": null, "scorecard": null, "featured": false, "sample_categories": "Restaurants", "public_id": "clay-oven-restaurant-marietta", "id": 754822000, "votes": null, "tagline": null, "has_video": false, "website": null, "offers": null, "latitude": 33.937014, "politanName": "Atlanta, GA Metro ", "phone_number": "6785811533", "tags": [{"primary": true, "id": 1722, "name": "Restaurants"}], "fax_number": null, "expansion": {"count": null, "uri": null}, "impression_id": "000b000000448dee68ad6940c881fcedf11c3e6ba7", "profile": "http://www.citysearch.com/profile/754822000/marietta_ga/clay_oven_restaurant.html", "address": {"city": "Marietta", "state": "GA", "street": "1115 Powder Springs St", "postal_code": "30064"}, "capProviderId": null, "distance": null, "has_offers": false, "name": "Clay Oven Restaurant", "longitude": -84.554706, "has_menu": false, "awards": null, "user_review_count": 0}, {"business_operation_status": 1, "rating": null, "neighborhood": null, "image": null, "scorecard": null, "featured": false, "sample_categories": "Restaurants, Pizza, Carry Out", "public_id": "pizza-hut-kennesaw-4", "id": 808398210, "votes": null, "tagline": null, "has_video": false, "website": null, "offers": null, "latitude": 34.014009, "politanName": "Atlanta, GA Metro ", "phone_number": "7704210752", "tags": [{"primary": false, "id": 1722, "name": "Restaurants"}, {"primary": false, "id": 11247, "name": "Carry Out"}, {"primary": true, "id": 11299, "name": "Pizza"}], "fax_number": null, "expansion": {"count": null, "uri": null}, "impression_id": "000b000000b11bf4b6e8de4644999bc71a7849ddbf", "profile": "http://www.citysearch.com/profile/808398210/kennesaw_ga/pizza_hut.html", "address": {"city": "Kennesaw", "state": "GA", "street": "400 Ernest W Barrett Pkwy NW", "postal_code": "30144"}, "capProviderId": null, "distance": null, "has_offers": false, "name": "Pizza Hut", "longitude": -84.561425, "has_menu": false, "awards": null, "user_review_count": 0}, {"business_operation_status": 1, "rating": null, "neighborhood": null, "image": null, "scorecard": null, "featured": false, "sample_categories": "Restaurants", "public_id": "los-dorados-grill-marietta", "id": 810451910, "votes": null, "tagline": null, "has_video": false, "website": null, "offers": null, "latitude": 33.980787, "politanName": "Atlanta, GA Metro ", "phone_number": "7705788013", "tags": [{"primary": true, "id": 1722, "name": "Restaurants"}], "fax_number": null, "expansion": {"count": null, "uri": null}, "impression_id": "000b0000004bc094e606ec4b70baa87a2ba419175a", "profile": "http://www.citysearch.com/profile/810451910/marietta_ga/los_dorados_grill.html", "address": {"city": "Marietta", "state": "GA", "street": "3101 Roswell Rd", "postal_code": "30062"}, "capProviderId": null, "distance": null, "has_offers": false, "name": "Los Dorados Grill", "longitude": -84.464028, "has_menu": false, "awards": null, "user_review_count": 0}, {"business_operation_status": 1, "rating": null, "neighborhood": null, "image": null, "scorecard": null, "featured": false, "sample_categories": "Restaurants, Carry Out", "public_id": "arbys-marietta-15", "id": 764873610, "votes": null, "tagline": null, "has_video": false, "website": null, "offers": null, "latitude": 33.967279, "politanName": "Atlanta, GA Metro ", "phone_number": "7704240784", "tags": [{"primary": false, "id": 11247, "name": "Carry Out"}, {"primary": true, "id": 1722, "name": "Restaurants"}], "fax_number": null, "expansion": {"count": null, "uri": null}, "impression_id": "000b0000004556010817684577bda1065026245af4", "profile": "http://www.citysearch.com/profile/764873610/marietta_ga/arby_s.html", "address": {"city": "Marietta", "state": "GA", "street": "643 Cobb Pkwy N", "postal_code": "30062"}, "capProviderId": null, "distance": null, "has_offers": false, "name": "Arby's", "longitude": -84.535738, "has_menu": false, "awards": null, "user_review_count": 0}], "histograms": [], "tag_ids": [1722], "uri": "http://api.citygridmedia.com:8080/search/places/v2/search/where?has_offers=false&type=restaurant&format=json&page=16&where=30069&rpp=50&histograms=false&publisher=10000009598&region_type=circle", "did_you_mean": "", "regions": [{"latitude": 33.911972, "default_radius": 1.53, "type": "postal_code", "name": "30069", "longitude": -84.51369799999999}], "call_id": "000b00000006adca28d9174eafbbe257bda77b3aa9", "first_hit": 751, "total_hits": 1411, "geo_ids": [26297], "page": 16, "last_hit": 800}}