{"results": {"rpp": 50, "locations": [{"business_operation_status": 1, "rating": null, "neighborhood": null, "image": null, "scorecard": null, "featured": false, "sample_categories": "Restaurants, Pizza, Carry Out", "public_id": "papa-johns-pizza-marietta-2", "id": 632029900, "votes": null, "tagline": null, "has_video": false, "website": null, "offers": null, "latitude": 33.952112, "politanName": "Atlanta, GA Metro ", "phone_number": "7704267272", "tags": [{"primary": false, "id": 1722, "name": "Restaurants"}, {"primary": false, "id": 11247, "name": "Carry Out"}, {"primary": true, "id": 11299, "name": "Pizza"}], "fax_number": null, "expansion": {"count": null, "uri": null}, "impression_id": "000b0000001eb880db6ae34d598aa6147c11b06c21", "profile": "http://www.citysearch.com/profile/632029900/marietta_ga/papa_john_s_pizza.html", "address": {"city": "Marietta", "state": "GA", "street": "971 Whitlock Ave Sw", "postal_code": "30064"}, "capProviderId": null, "distance": null, "has_offers": false, "name": "Papa John's Pizza", "longitude": -84.578857, "has_menu": false, "awards": null, "user_review_count": 0}, {"business_operation_status": 1, "rating": null, "neighborhood": null, "image": null, "scorecard": null, "featured": false, "sample_categories": "Restaurants, Barbecue Restaurants", "public_id": "staqs-bar-b-que-smyrna", "id": 647325040, "votes": null, "tagline": null, "has_video": false, "website": null, "offers": null, "latitude": 33.890026, "politanName": "Atlanta, GA Metro ", "phone_number": "7704384301", "tags": [{"primary": false, "id": 1724, "name": "Barbecue Restaurants"}, {"primary": true, "id": 1722, "name": "Restaurants"}], "fax_number": null, "expansion": {"count": null, "uri": null}, "impression_id": "000b000000ef9acad7891140dbb7b5b6e092690a8d", "profile": "http://www.citysearch.com/profile/647325040/smyrna_ga/staqs_bar_b_que.html", "address": {"city": "Smyrna", "state": "GA", "street": "2599 S Cobb Dr Se", "postal_code": "30080"}, "capProviderId": null, "distance": null, "has_offers": false, "name": "Staqs Bar B Que", "longitude": -84.536726, "has_menu": true, "awards": null, "user_review_count": 0}, {"business_operation_status": 1, "rating": null, "neighborhood": null, "image": null, "scorecard": null, "featured": false, "sample_categories": "Restaurants, Barbecue Restaurants", "public_id": "dickeys-barbecue-pit-atlanta", "id": 728068070, "votes": null, "tagline": null, "has_video": false, "website": "http://www.citysearch.com/profile/external/728068070/atlanta_ga/dickey_s_barbecue_pit.html", "offers": null, "latitude": 33.936313, "politanName": "Atlanta, GA Metro ", "phone_number": "4042550017", "tags": [{"primary": false, "id": 1724, "name": "Barbecue Restaurants"}, {"primary": true, "id": 1722, "name": "Restaurants"}], "fax_number": null, "expansion": {"count": null, "uri": null}, "impression_id": "000b000000c438b35667ce4deeb749fb33dd72cffc", "profile": "http://www.citysearch.com/profile/728068070/atlanta_ga/dickey_s_barbecue_pit.html", "address": {"city": "Atlanta", "state": "GA", "street": "6631 Roswell Rd Ne", "postal_code": "30328"}, "capProviderId": null, "distance": null, "has_offers": false, "name": "Dickey's Barbecue Pit", "longitude": -84.378811, "has_menu": true, "awards": null, "user_review_count": 0}, {"business_operation_status": 0, "rating": null, "neighborhood": null, "image": null, "scorecard": null, "featured": false, "sample_categories": "Restaurants, Barbecue Restaurants", "public_id": "longhorns-buffalo-wings-marietta", "id": 653551040, "votes": null, "tagline": null, "has_video": false, "website": null, "offers": null, "latitude": 33.986818, "politanName": "Atlanta, GA Metro ", "phone_number": "4043131588", "tags": [{"primary": false, "id": 1724, "name": "Barbecue Restaurants"}, {"primary": true, "id": 1722, "name": "Restaurants"}], "fax_number": null, "expansion": {"count": null, "uri": null}, "impression_id": "000b000000e70f08c2642c4f0a8f0d9dd59d70f7d9", "profile": "http://www.citysearch.com/profile/653551040/marietta_ga/longhorns_buffalo_wings.html", "address": {"city": "Marietta", "state": "GA", "street": "1367 Sheffield Pkwy", "postal_code": "30062"}, "capProviderId": null, "distance": null, "has_offers": false, "name": "Longhorns Buffalo Wings", "longitude": -84.497978, "has_menu": false, "awards": null, "user_review_count": 0}, {"business_operation_status": 1, "rating": null, "neighborhood": null, "image": null, "scorecard": null, "featured": false, "sample_categories": "Restaurants, Carry Out", "public_id": "firehouse-subs-atlanta-7", "id": 612394034, "votes": null, "tagline": null, "has_video": false, "website": null, "offers": null, "latitude": 33.884294, "politanName": "Atlanta, GA Metro ", "phone_number": "6784248042", "tags": [{"primary": false, "id": 11247, "name": "Carry Out"}, {"primary": true, "id": 1722, "name": "Restaurants"}], "fax_number": null, "expansion": {"count": null, "uri": null}, "impression_id": "000b00000050e26a425b384f3d81c48d26e0bb1c2f", "profile": "http://www.citysearch.com/profile/612394034/atlanta_ga/firehouse_subs.html", "address": {"city": "Atlanta", "state": "GA", "street": "2970 Cobb Pkwy SE", "postal_code": "30339"}, "capProviderId": null, "distance": null, "has_offers": false, "name": "Firehouse Subs", "longitude": -84.469653, "has_menu": true, "awards": null, "user_review_count": 0}, {"business_operation_status": 1, "rating": null, "neighborhood": null, "image": null, "scorecard": null, "featured": false, "sample_categories": "Restaurants", "public_id": "tin-drum-asiacafe-marietta", "id": 614029774, "votes": null, "tagline": null, "has_video": false, "website": null, "offers": null, "latitude": 34.013358, "politanName": "Atlanta, GA Metro ", "phone_number": "6785403471", "tags": [{"primary": true, "id": 1722, "name": "Restaurants"}], "fax_number": null, "expansion": {"count": null, "uri": null}, "impression_id": "000b00000090a58f0eb9d9413cae4d726f733aa893", "profile": "http://www.citysearch.com/profile/614029774/marietta_ga/tin_drum_asiacafe.html", "address": {"city": "Marietta", "state": "GA", "street": "125 Ernest Barrett Pkwy NW", "postal_code": "30066"}, "capProviderId": null, "distance": null, "has_offers": false, "name": "Tin Drum Asiacafe", "longitude": -84.553529, "has_menu": false, "awards": null, "user_review_count": 0}, {"business_operation_status": 1, "rating": null, "neighborhood": null, "image": null, "scorecard": null, "featured": false, "sample_categories": "Restaurants", "public_id": "parish-bistro-atlanta", "id": 613960654, "votes": null, "tagline": null, "has_video": false, "website": null, "offers": null, "latitude": 33.916972, "politanName": "Atlanta, GA Metro ", "phone_number": "6785276553", "tags": [{"primary": true, "id": 1722, "name": "Restaurants"}], "fax_number": null, "expansion": {"count": null, "uri": null}, "impression_id": "000b0000006487e0d7017248db861059fc501f3350", "profile": "http://www.citysearch.com/profile/613960654/atlanta_ga/parish_bistro.html", "address": {"city": "Atlanta", "state": "GA", "street": "5 Concourse Pkwy", "postal_code": "30328"}, "capProviderId": null, "distance": null, "has_offers": false, "name": "Parish Bistro", "longitude": -84.354599, "has_menu": false, "awards": null, "user_review_count": 0}, {"business_operation_status": 1, "rating": null, "neighborhood": null, "image": null, "scorecard": null, "featured": false, "sample_categories": "Restaurants", "public_id": "moksha-indian-cuisine-and-bar-sandy", "id": 620584454, "votes": null, "tagline": null, "has_video": false, "website": "http://www.citysearch.com/profile/external/620584454/sandy_springs_ga/moksha_indian_cuisine_and_bar.html", "offers": null, "latitude": 33.918107, "politanName": "Atlanta, GA Metro ", "phone_number": "4704405431", "tags": [{"primary": true, "id": 1722, "name": "Restaurants"}], "fax_number": null, "expansion": {"count": null, "uri": null}, "impression_id": "000b000000816524aa2bb74f0dba6fc1c3ca68e01d", "profile": "http://www.citysearch.com/profile/620584454/sandy_springs_ga/moksha_indian_cuisine_and_bar.html", "address": {"city": "Sandy Springs", "state": "GA", "street": "5975 Roswell Rd D245", "postal_code": "30328"}, "capProviderId": null, "distance": null, "has_offers": false, "name": "Moksha Indian Cuisine and Bar", "longitude": -84.377114, "has_menu": false, "awards": null, "user_review_count": 0}, {"business_operation_status": 1, "rating": null, "neighborhood": null, "image": null, "scorecard": null, "featured": false, "sample_categories": "Bars & Pubs, Bars & Clubs, Restaurants", "public_id": "milos-bar-grill-marietta-2", "id": 684764240, "votes": null, "tagline": null, "has_video": false, "website": null, "offers": null, "latitude": 33.938164, "politanName": "Atlanta, GA Metro ", "phone_number": "7704281544", "tags": [{"primary": false, "id": 164, "name": "Bars & Clubs"}, {"primary": false, "id": 1722, "name": "Restaurants"}, {"primary": true, "id": 1686, "name": "Bars & Pubs"}], "fax_number": null, "expansion": {"count": null, "uri": null}, "impression_id": "000b000000bf55b15e7ecf4791abbeeda59db3627f", "profile": "http://www.citysearch.com/profile/684764240/marietta_ga/milo_s_bar_grill.html", "address": {"city": "Marietta", "state": "GA", "street": "11 Garrison Rd Se", "postal_code": "30008"}, "capProviderId": null, "distance": null, "has_offers": false, "name": "Milo's Bar & Grill", "longitude": -84.553286, "has_menu": false, "awards": null, "user_review_count": 0}, {"business_operation_status": 1, "rating": null, "neighborhood": null, "image": null, "scorecard": null, "featured": false, "sample_categories": "Catering, Restaurants, Asian, Carry Out, Chinese", "public_id": "hong-kong-star-mariettaeast-cobb-marietta", "id": 756444040, "votes": null, "tagline": null, "has_video": false, "website": null, "offers": null, "latitude": 33.965965, "politanName": "Atlanta, GA Metro ", "phone_number": "7705092129", "tags": [{"primary": false, "id": 1722, "name": "Restaurants"}, {"primary": false, "id": 11235, "name": "Asian"}, {"primary": false, "id": 11247, "name": "Carry Out"}, {"primary": false, "id": 11252, "name": "Chinese"}, {"primary": false, "id": 11267, "name": "Food Delivery"}, {"primary": true, "id": 1705, "name": "Catering"}], "fax_number": null, "expansion": {"count": null, "uri": null}, "impression_id": "000b0000006d81762daad745e9aab8d9f3b636b0f9", "profile": "http://www.citysearch.com/profile/756444040/marietta_ga/hong_kong_star_marietta_east_cobb.html", "address": {"city": "Marietta", "state": "GA", "street": "4719 Lower Roswell Rd", "postal_code": "30068"}, "capProviderId": null, "distance": null, "has_offers": false, "name": "Hong Kong Star Marietta-East Cobb", "longitude": -84.415167, "has_menu": false, "awards": null, "user_review_count": 0}, {"business_operation_status": 1, "rating": null, "neighborhood": null, "image": null, "scorecard": null, "featured": false, "sample_categories": "Restaurants, Carry Out, Pizza", "public_id": "dominos-pizza-atlanta-26", "id": 764836600, "votes": null, "tagline": null, "has_video": false, "website": "http://www.citysearch.com/profile/external/764836600/atlanta_ga/domino_s_pizza.html", "offers": null, "latitude": 33.95676, "politanName": "Atlanta, GA Metro ", "phone_number": "7703930372", "tags": [{"primary": false, "id": 11247, "name": "Carry Out"}, {"primary": false, "id": 11299, "name": "Pizza"}, {"primary": true, "id": 1722, "name": "Restaurants"}], "fax_number": null, "expansion": {"count": null, "uri": null}, "impression_id": "000b00000053e12bfff13748c6bc18019709f63338", "profile": "http://www.citysearch.com/profile/764836600/atlanta_ga/domino_s_pizza.html", "address": {"city": "Atlanta", "state": "GA", "street": "7405 Roswell Rd NE", "postal_code": "30328"}, "capProviderId": null, "distance": null, "has_offers": false, "name": "Domino's Pizza", "longitude": -84.364114, "has_menu": true, "awards": null, "user_review_count": 0}, {"business_operation_status": 1, "rating": null, "neighborhood": null, "image": null, "scorecard": null, "featured": false, "sample_categories": "Restaurants, Pizza", "public_id": "marios-ny-pizza-smyrna", "id": 764838040, "votes": null, "tagline": null, "has_video": false, "website": null, "offers": null, "latitude": 33.883027, "politanName": "Atlanta, GA Metro ", "phone_number": "7704379199", "tags": [{"primary": false, "id": 11299, "name": "Pizza"}, {"primary": true, "id": 1722, "name": "Restaurants"}], "fax_number": null, "expansion": {"count": null, "uri": null}, "impression_id": "000b000000580ee78533624a908aeb317db05db6ca", "profile": "http://www.citysearch.com/profile/764838040/smyrna_ga/marios_ny_pizza.html", "address": {"city": "Smyrna", "state": "GA", "street": "2930 S Cobb Dr SE", "postal_code": "30080"}, "capProviderId": null, "distance": null, "has_offers": false, "name": "Marios Ny Pizza", "longitude": -84.534643, "has_menu": false, "awards": null, "user_review_count": 0}, {"business_operation_status": 1, "rating": null, "neighborhood": null, "image": null, "scorecard": null, "featured": false, "sample_categories": "Restaurants, Traditional American, Carry Out", "public_id": "arbys-atlanta-22", "id": 777689990, "votes": null, "tagline": null, "has_video": false, "website": "http://www.citysearch.com/profile/external/777689990/atlanta_ga/arby_s.html", "offers": null, "latitude": 33.933792, "politanName": "Atlanta, GA Metro ", "phone_number": "4042564462", "tags": [{"primary": false, "id": 11190, "name": "Traditional American"}, {"primary": false, "id": 11247, "name": "Carry Out"}, {"primary": true, "id": 1722, "name": "Restaurants"}], "fax_number": null, "expansion": {"count": null, "uri": null}, "impression_id": "000b000000931d4bb19baa48cf9640f9ff74f9da44", "profile": "http://www.citysearch.com/profile/777689990/atlanta_ga/arby_s.html", "address": {"city": "Atlanta", "state": "GA", "street": "6555 Roswell Rd Ne", "postal_code": "30328"}, "capProviderId": null, "distance": null, "has_offers": false, "name": "Arby's", "longitude": -84.378969, "has_menu": true, "awards": null, "user_review_count": 0}, {"business_operation_status": 1, "rating": null, "neighborhood": null, "image": null, "scorecard": null, "featured": false, "sample_categories": "Restaurants", "public_id": "stricks-southern-flavor-grill-marietta", "id": 728066170, "votes": null, "tagline": null, "has_video": false, "website": null, "offers": null, "latitude": 33.955558, "politanName": "Atlanta, GA Metro ", "phone_number": "6783555538", "tags": [{"primary": true, "id": 1722, "name": "Restaurants"}], "fax_number": null, "expansion": {"count": null, "uri": null}, "impression_id": "000b0000001bd819ef30444b558a1000fa8d69ab2c", "profile": "http://www.citysearch.com/profile/728066170/marietta_ga/strick_s_southern_flavor_grill.html", "address": {"city": "Marietta", "state": "GA", "street": "168 Hunt St Ne", "postal_code": "30060"}, "capProviderId": null, "distance": null, "has_offers": false, "name": "Strick's Southern Flavor Grill", "longitude": -84.544275, "has_menu": false, "awards": null, "user_review_count": 0}, {"business_operation_status": 1, "rating": null, "neighborhood": null, "image": null, "scorecard": null, "featured": false, "sample_categories": "Restaurants, Luaus", "public_id": "sapporo-japanese-steak-seafood-marietta", "id": 807245910, "votes": null, "tagline": null, "has_video": false, "website": null, "offers": null, "latitude": 33.984475, "politanName": "Atlanta, GA Metro ", "phone_number": "7705657018", "tags": [{"primary": false, "id": 11285, "name": "Luaus"}, {"primary": true, "id": 1722, "name": "Restaurants"}], "fax_number": null, "expansion": {"count": null, "uri": null}, "impression_id": "000b000000944891dec46f4c828aaf812e5d7cf56f", "profile": "http://www.citysearch.com/profile/807245910/marietta_ga/sapporo_japanese_steak_seafood.html", "address": {"city": "Marietta", "state": "GA", "street": "1401 Johnson Ferry Rd # 268d", "postal_code": "30062"}, "capProviderId": null, "distance": null, "has_offers": false, "name": "Sapporo Japanese Steak Seafood", "longitude": -84.427681, "has_menu": false, "awards": null, "user_review_count": 0}, {"business_operation_status": 1, "rating": null, "neighborhood": null, "image": null, "scorecard": null, "featured": false, "sample_categories": "Restaurants, Chinese, American Express, Discover, MasterCard", "public_id": "china-sun-restaurant-marietta", "id": 2906495, "votes": null, "tagline": null, "has_video": false, "website": null, "offers": null, "latitude": 33.926201, "politanName": "Atlanta, GA Metro ", "phone_number": "7704268780", "tags": [{"primary": false, "id": 11252, "name": "Chinese"}, {"primary": false, "id": 11333, "name": "American Express"}, {"primary": false, "id": 11349, "name": "Discover"}, {"primary": false, "id": 11361, "name": "MasterCard"}, {"primary": false, "id": 11382, "name": "Visa"}, {"primary": true, "id": 1722, "name": "Restaurants"}], "fax_number": null, "expansion": {"count": null, "uri": null}, "impression_id": "000b00000083841f70b3b74046a1574eb1b8393149", "profile": "http://www.citysearch.com/profile/2906495/marietta_ga/china_sun_restaurant.html", "address": {"city": "Marietta", "state": "GA", "street": "1150 Powder Springs St Ste 20", "postal_code": "30064"}, "capProviderId": null, "distance": null, "has_offers": false, "name": "China Sun Restaurant", "longitude": -84.574094, "has_menu": false, "awards": null, "user_review_count": 1}, {"business_operation_status": 1, "rating": null, "neighborhood": null, "image": null, "scorecard": null, "featured": false, "sample_categories": "Restaurants, Pizza", "public_id": "kozros-atlanta", "id": 764851350, "votes": null, "tagline": null, "has_video": false, "website": null, "offers": null, "latitude": 33.953675, "politanName": "Atlanta, GA Metro ", "phone_number": "7708645120", "tags": [{"primary": false, "id": 11299, "name": "Pizza"}, {"primary": true, "id": 1722, "name": "Restaurants"}], "fax_number": null, "expansion": {"count": null, "uri": null}, "impression_id": "000b000000ed581ea9a2c84996abdbc1319faf05c8", "profile": "http://www.citysearch.com/profile/764851350/atlanta_ga/kozro_s.html", "address": {"city": "Atlanta", "state": "GA", "street": "7277 Roswell Rd NE", "postal_code": "30328"}, "capProviderId": null, "distance": null, "has_offers": false, "name": "Kozro's", "longitude": -84.365666, "has_menu": false, "awards": null, "user_review_count": 0}, {"business_operation_status": 1, "rating": null, "neighborhood": null, "image": null, "scorecard": null, "featured": false, "sample_categories": "Restaurants, Ice Cream Parlors, Carry Out", "public_id": "mc-donalds-marietta-21", "id": 764880600, "votes": null, "tagline": null, "has_video": false, "website": null, "offers": null, "latitude": 33.952602, "politanName": "Atlanta, GA Metro ", "phone_number": "4047846909", "tags": [{"primary": false, "id": 1730, "name": "Ice Cream Parlors"}, {"primary": false, "id": 11247, "name": "Carry Out"}, {"primary": true, "id": 1722, "name": "Restaurants"}], "fax_number": null, "expansion": {"count": null, "uri": null}, "impression_id": "000b000000276c1688fa72495bb9c5a2b87dde44b2", "profile": "http://www.citysearch.com/profile/764880600/marietta_ga/mc_donald_s.html", "address": {"city": "Marietta", "state": "GA", "street": "PO Box 965370", "postal_code": "30066"}, "capProviderId": null, "distance": null, "has_offers": false, "name": "Mc Donald's", "longitude": -84.549933, "has_menu": false, "awards": null, "user_review_count": 0}, {"business_operation_status": 1, "rating": null, "neighborhood": null, "image": null, "scorecard": null, "featured": false, "sample_categories": "Dry Cleaning & Laundry Services, Restaurants, Dry Cleaners", "public_id": "morgan-falls-cleaners-atlanta", "id": 3045419, "votes": null, "tagline": null, "has_video": false, "website": null, "offers": null, "latitude": 33.972675, "politanName": "Atlanta, GA Metro ", "phone_number": "7703966939", "tags": [{"primary": false, "id": 3483, "name": "Dry Cleaning & Laundry Services"}, {"primary": false, "id": 1722, "name": "Restaurants"}, {"primary": false, "id": 3484, "name": "Dry Cleaners"}], "fax_number": null, "expansion": {"count": null, "uri": null}, "impression_id": "000b000000951e9cd5efa04ca5aabf415dd5509481", "profile": "http://www.citysearch.com/profile/3045419/atlanta_ga/morgan_falls_cleaners.html", "address": {"city": "Atlanta", "state": "GA", "street": "7875 Roswell Rd Ste B", "postal_code": "30350"}, "capProviderId": null, "distance": null, "has_offers": false, "name": "Morgan Falls Cleaners", "longitude": -84.357696, "has_menu": false, "awards": null, "user_review_count": 0}, {"business_operation_status": 1, "rating": null, "neighborhood": null, "image": null, "scorecard": null, "featured": false, "sample_categories": "Restaurants", "public_id": "tpm-enterprises-roswell", "id": 766781120, "votes": null, "tagline": null, "has_video": false, "website": null, "offers": null, "latitude": 34.013938, "politanName": "Atlanta, GA Metro ", "phone_number": "7706432090", "tags": [{"primary": true, "id": 1722, "name": "Restaurants"}], "fax_number": null, "expansion": {"count": null, "uri": null}, "impression_id": "000b000000ad188a2d6ffb47d789eacbac854df86e", "profile": "http://www.citysearch.com/profile/766781120/roswell_ga/tpm_enterprises.html", "address": {"city": "Roswell", "state": "GA", "street": "126 Marietta Hwy", "postal_code": "30075"}, "capProviderId": null, "distance": null, "has_offers": false, "name": "TPM Enterprises", "longitude": -84.365765, "has_menu": false, "awards": null, "user_review_count": 0}, {"business_operation_status": 1, "rating": null, "neighborhood": null, "image": null, "scorecard": null, "featured": false, "sample_categories": "Restaurants", "public_id": "hooters-of-kalamazoo-inc-atlanta", "id": 766801450, "votes": null, "tagline": null, "has_video": false, "website": null, "offers": null, "latitude": 33.908131, "politanName": "Atlanta, GA Metro ", "phone_number": "7709512040", "tags": [{"primary": true, "id": 1722, "name": "Restaurants"}], "fax_number": null, "expansion": {"count": null, "uri": null}, "impression_id": "000b000000bf0e799bfc374e15b7bdb9ec459b0581", "profile": "http://www.citysearch.com/profile/766801450/atlanta_ga/hooters_of_kalamazoo_inc.html", "address": {"city": "Atlanta", "state": "GA", "street": "1815 the Exchange SE", "postal_code": "30339"}, "capProviderId": null, "distance": null, "has_offers": false, "name": "Hooters of Kalamazoo Inc", "longitude": -84.479005, "has_menu": false, "awards": null, "user_review_count": 0}, {"business_operation_status": 1, "rating": null, "neighborhood": null, "image": null, "scorecard": null, "featured": false, "sample_categories": "Restaurants", "public_id": "pyramid-restaurant-hookah-marietta", "id": 777743980, "votes": null, "tagline": null, "has_video": false, "website": null, "offers": null, "latitude": 33.942926, "politanName": "Atlanta, GA Metro ", "phone_number": "6782131030", "tags": [{"primary": true, "id": 1722, "name": "Restaurants"}], "fax_number": null, "expansion": {"count": null, "uri": null}, "impression_id": "000b000000d0953e8202494f76937a87c52a9dddbe", "profile": "http://www.citysearch.com/profile/777743980/marietta_ga/pyramid_restaurant_hookah.html", "address": {"city": "Marietta", "state": "GA", "street": "600 S Marietta Pkwy Se", "postal_code": "30060"}, "capProviderId": null, "distance": null, "has_offers": false, "name": "Pyramid Restaurant & Hookah", "longitude": -84.534635, "has_menu": false, "awards": null, "user_review_count": 0}, {"business_operation_status": 1, "rating": null, "neighborhood": null, "image": null, "scorecard": null, "featured": false, "sample_categories": "Restaurants, Italian", "public_id": "mad-italian-restaurant-marietta", "id": 777797900, "votes": null, "tagline": null, "has_video": false, "website": null, "offers": null, "latitude": 33.901234, "politanName": "Atlanta, GA Metro ", "phone_number": "7709521806", "tags": [{"primary": false, "id": 11279, "name": "Italian"}, {"primary": true, "id": 1722, "name": "Restaurants"}], "fax_number": null, "expansion": {"count": null, "uri": null}, "impression_id": "000b0000000f9d45e9627a42a6ae1c61eccf55b412", "profile": "http://www.citysearch.com/profile/777797900/marietta_ga/mad_italian_restaurant.html", "address": {"city": "Marietta", "state": "GA", "street": "2092 Cobb Pkwy S", "postal_code": "30060"}, "capProviderId": null, "distance": null, "has_offers": false, "name": "Mad Italian Restaurant", "longitude": -84.488366, "has_menu": true, "awards": null, "user_review_count": 3}, {"business_operation_status": 1, "rating": null, "neighborhood": null, "image": null, "scorecard": null, "featured": false, "sample_categories": "Restaurants, Indian", "public_id": "haveli-indian-cuisine-smyrna", "id": 787102840, "votes": null, "tagline": null, "has_video": false, "website": null, "offers": null, "latitude": 33.895335, "politanName": "Atlanta, GA Metro ", "phone_number": "7709554525", "tags": [{"primary": false, "id": 11277, "name": "Indian"}, {"primary": true, "id": 1722, "name": "Restaurants"}], "fax_number": null, "expansion": {"count": null, "uri": null}, "impression_id": "000b000000d47b546f37f94d6fa316fe211b460dcc", "profile": "http://www.citysearch.com/profile/787102840/smyrna_ga/haveli_indian_cuisine.html", "address": {"city": "Smyrna", "state": "GA", "street": "2706 Cobb Pkwy Se", "postal_code": "30080"}, "capProviderId": null, "distance": null, "has_offers": false, "name": "Haveli Indian Cuisine", "longitude": -84.480413, "has_menu": false, "awards": null, "user_review_count": 0}, {"business_operation_status": 1, "rating": null, "neighborhood": null, "image": null, "scorecard": null, "featured": false, "sample_categories": "Restaurants", "public_id": "to-go-bones-marietta", "id": 775236760, "votes": null, "tagline": null, "has_video": false, "website": null, "offers": null, "latitude": 33.965353, "politanName": "Atlanta, GA Metro ", "phone_number": "7706727683", "tags": [{"primary": true, "id": 1722, "name": "Restaurants"}], "fax_number": null, "expansion": {"count": null, "uri": null}, "impression_id": "000b000000064c9fa9ebca4eb6b8241d487a84b6f8", "profile": "http://www.citysearch.com/profile/775236760/marietta_ga/to_go_bones.html", "address": {"city": "Marietta", "state": "GA", "street": "4665 Lower Roswell Rd # 101", "postal_code": "30068"}, "capProviderId": null, "distance": null, "has_offers": false, "name": "To Go Bones", "longitude": -84.415616, "has_menu": false, "awards": null, "user_review_count": 0}, {"business_operation_status": 1, "rating": null, "neighborhood": null, "image": null, "scorecard": null, "featured": false, "sample_categories": "Restaurants, Bistros, Bars & Clubs", "public_id": "north-park-bistro-marietta", "id": 777790950, "votes": null, "tagline": null, "has_video": false, "website": "http://www.citysearch.com/profile/external/777790950/marietta_ga/kish_restaurant_bar.html", "offers": null, "latitude": 33.953606, "politanName": "Atlanta, GA Metro ", "phone_number": "7706726803", "tags": [{"primary": false, "id": 13690, "name": "Bistros"}, {"primary": false, "id": 164, "name": "Bars & Clubs"}, {"primary": true, "id": 1722, "name": "Restaurants"}], "fax_number": null, "expansion": {"count": null, "uri": null}, "impression_id": "000b0000003dd63946065e4094a9d013a3fb834c35", "profile": "http://www.citysearch.com/profile/777790950/marietta_ga/kish_restaurant_bar.html", "address": {"city": "Marietta", "state": "GA", "street": "105 N Park Sq NE", "postal_code": "30060"}, "capProviderId": null, "distance": null, "has_offers": false, "name": "Kish Restaurant & Bar", "longitude": -84.549403, "has_menu": false, "awards": null, "user_review_count": 0}, {"business_operation_status": 1, "rating": null, "neighborhood": null, "image": null, "scorecard": null, "featured": false, "sample_categories": "Restaurants, Gourmet Foods", "public_id": "gourmet-curiosities-roswell", "id": 787113350, "votes": null, "tagline": null, "has_video": false, "website": null, "offers": null, "latitude": 34.021931, "politanName": "Atlanta, GA Metro ", "phone_number": "4049158987", "tags": [{"primary": false, "id": 11169, "name": "Gourmet Foods"}, {"primary": true, "id": 1722, "name": "Restaurants"}], "fax_number": null, "expansion": {"count": null, "uri": null}, "impression_id": "000b0000000ccdfd3307a540548724aacfe106eb09", "profile": "http://www.citysearch.com/profile/787113350/roswell_ga/gourmet_curiosities.html", "address": {"city": "Roswell", "state": "GA", "street": "859 Mimosa Blvd", "postal_code": "30075"}, "capProviderId": null, "distance": null, "has_offers": false, "name": "Gourmet Curiosities", "longitude": -84.362912, "has_menu": false, "awards": null, "user_review_count": 0}, {"business_operation_status": 1, "rating": null, "neighborhood": null, "image": null, "scorecard": null, "featured": false, "sample_categories": "Restaurants, Italian", "public_id": "medici-italian-restaurant-atlanta", "id": 787133330, "votes": null, "tagline": null, "has_video": false, "website": null, "offers": null, "latitude": 33.885023, "politanName": "Atlanta, GA Metro ", "phone_number": "7709534500", "tags": [{"primary": false, "id": 11279, "name": "Italian"}, {"primary": true, "id": 1722, "name": "Restaurants"}], "fax_number": null, "expansion": {"count": null, "uri": null}, "impression_id": "000b0000001543357066da450bac4557ffac0c6d30", "profile": "http://www.citysearch.com/profile/787133330/atlanta_ga/medici_italian_restaurant.html", "address": {"city": "Atlanta", "state": "GA", "street": "2450 Galleria Pkwy Se", "postal_code": "30339"}, "capProviderId": null, "distance": null, "has_offers": false, "name": "Medici Italian Restaurant", "longitude": -84.464652, "has_menu": false, "awards": null, "user_review_count": 0}, {"business_operation_status": 1, "rating": null, "neighborhood": null, "image": null, "scorecard": null, "featured": false, "sample_categories": "Ice Cream Parlors", "public_id": "rafiq-inc-smyrna", "id": 808300710, "votes": null, "tagline": null, "has_video": false, "website": null, "offers": null, "latitude": 33.878681, "politanName": "Atlanta, GA Metro ", "phone_number": "7708050214", "tags": [{"primary": true, "id": 1730, "name": "Ice Cream Parlors"}], "fax_number": null, "expansion": {"count": null, "uri": null}, "impression_id": "000b0000000fb7bf6f719d4ff7bdec4628aa2007d7", "profile": "http://www.citysearch.com/profile/808300710/smyrna_ga/rafiq_inc.html", "address": {"city": "Smyrna", "state": "GA", "street": "2216 Goodwood Blvd SE", "postal_code": "30080"}, "capProviderId": null, "distance": null, "has_offers": false, "name": "Rafiq Inc", "longitude": -84.493022, "has_menu": false, "awards": null, "user_review_count": 0}, {"business_operation_status": 1, "rating": null, "neighborhood": null, "image": null, "scorecard": null, "featured": false, "sample_categories": "Restaurants", "public_id": "el-sarape-marietta", "id": 815403830, "votes": null, "tagline": null, "has_video": false, "website": null, "offers": null, "latitude": 33.969085, "politanName": "Atlanta, GA Metro ", "phone_number": "7705908887", "tags": [{"primary": true, "id": 1722, "name": "Restaurants"}], "fax_number": null, "expansion": {"count": null, "uri": null}, "impression_id": "000b00000079c6baf465f54136b70339e4c06ddd8d", "profile": "http://www.citysearch.com/profile/815403830/marietta_ga/el_sarape.html", "address": {"city": "Marietta", "state": "GA", "street": "745 Cobb Pkwy N", "postal_code": "30062"}, "capProviderId": null, "distance": null, "has_offers": false, "name": "El Sarape", "longitude": -84.538349, "has_menu": false, "awards": null, "user_review_count": 0}, {"business_operation_status": 1, "rating": null, "neighborhood": null, "image": null, "scorecard": null, "featured": false, "sample_categories": "Restaurants", "public_id": "j-mann-cafe-grille-marietta", "id": 815522810, "votes": null, "tagline": null, "has_video": false, "website": null, "offers": null, "latitude": 33.948544, "politanName": "Atlanta, GA Metro ", "phone_number": "7705280262", "tags": [{"primary": true, "id": 1722, "name": "Restaurants"}], "fax_number": null, "expansion": {"count": null, "uri": null}, "impression_id": "000b000000c5cbb4f166b045f8ab944cfbb890f647", "profile": "http://www.citysearch.com/profile/815522810/marietta_ga/j_mann_cafe_grille.html", "address": {"city": "Marietta", "state": "GA", "street": "191 S Marietta Pkwy SW", "postal_code": "30064"}, "capProviderId": null, "distance": null, "has_offers": false, "name": "J Mann Cafe & Grille", "longitude": -84.550204, "has_menu": false, "awards": null, "user_review_count": 0}, {"business_operation_status": 1, "rating": null, "neighborhood": null, "image": null, "scorecard": null, "featured": false, "sample_categories": "Restaurants", "public_id": "miramcho-marietta", "id": 815118630, "votes": null, "tagline": null, "has_video": false, "website": null, "offers": null, "latitude": 33.933881, "politanName": "Atlanta, GA Metro ", "phone_number": "7707940330", "tags": [{"primary": true, "id": 1722, "name": "Restaurants"}], "fax_number": null, "expansion": {"count": null, "uri": null}, "impression_id": "000b00000098a90d6e8544460e962ca5691b802aa2", "profile": "http://www.citysearch.com/profile/815118630/marietta_ga/miramcho.html", "address": {"city": "Marietta", "state": "GA", "street": "760 Sandtown Rd SW", "postal_code": "30008"}, "capProviderId": null, "distance": null, "has_offers": false, "name": "Miramcho", "longitude": -84.555669, "has_menu": false, "awards": null, "user_review_count": 1}, {"business_operation_status": 1, "rating": null, "neighborhood": null, "image": null, "scorecard": null, "featured": false, "sample_categories": "Restaurants", "public_id": "b-a-b-smokehouse-marietta", "id": 818380670, "votes": null, "tagline": null, "has_video": false, "website": null, "offers": null, "latitude": 34.02684, "politanName": "Atlanta, GA Metro ", "phone_number": "7704220604", "tags": [{"primary": true, "id": 1722, "name": "Restaurants"}], "fax_number": null, "expansion": {"count": null, "uri": null}, "impression_id": "000b000000cfd46fc04a834e0095dd30c19af5b068", "profile": "http://www.citysearch.com/profile/818380670/marietta_ga/b_a_b_smokehouse.html", "address": {"city": "Marietta", "state": "GA", "street": "3050 Canton Rd", "postal_code": "30066"}, "capProviderId": null, "distance": null, "has_offers": false, "name": "B A B Smokehouse", "longitude": -84.527483, "has_menu": false, "awards": null, "user_review_count": 0}, {"business_operation_status": 1, "rating": null, "neighborhood": null, "image": null, "scorecard": null, "featured": false, "sample_categories": "Restaurants, Pizza", "public_id": "bella-bocca-marietta", "id": 822361720, "votes": null, "tagline": null, "has_video": false, "website": null, "offers": null, "latitude": 33.951001, "politanName": "Atlanta, GA Metro ", "phone_number": "7707958984", "tags": [{"primary": false, "id": 1722, "name": "Restaurants"}, {"primary": true, "id": 11299, "name": "Pizza"}], "fax_number": null, "expansion": {"count": null, "uri": null}, "impression_id": "000b0000003af27db5665242b4ba40821e1d51024b", "profile": "http://www.citysearch.com/profile/822361720/marietta_ga/bella_bocca.html", "address": {"city": "Marietta", "state": "GA", "street": "999 Whitlock Ave SW", "postal_code": "30064"}, "capProviderId": null, "distance": null, "has_offers": false, "name": "Bella Bocca", "longitude": -84.57917, "has_menu": false, "awards": null, "user_review_count": 1}, {"business_operation_status": 1, "rating": null, "neighborhood": null, "image": null, "scorecard": null, "featured": false, "sample_categories": "Restaurants", "public_id": "rowlands-sandy", "id": 811786860, "votes": null, "tagline": null, "has_video": false, "website": null, "offers": null, "latitude": 33.920558, "politanName": "Atlanta, GA Metro ", "phone_number": "7702524500", "tags": [{"primary": true, "id": 1722, "name": "Restaurants"}], "fax_number": null, "expansion": {"count": null, "uri": null}, "impression_id": "000b00000051357eb8fcd545da84019d74d80ea5de", "profile": "http://www.citysearch.com/profile/811786860/sandy_springs_ga/rowland_s.html", "address": {"city": "Sandy Springs", "state": "GA", "street": "6066 Sandy Springs Cir", "postal_code": "30328"}, "capProviderId": null, "distance": null, "has_offers": false, "name": "Rowland's", "longitude": -84.384411, "has_menu": false, "awards": null, "user_review_count": 0}, {"business_operation_status": 1, "rating": null, "neighborhood": null, "image": null, "scorecard": null, "featured": false, "sample_categories": "Restaurants", "public_id": "jonesgissendanner-catfish-smyrna", "id": 827366690, "votes": null, "tagline": null, "has_video": false, "website": null, "offers": null, "latitude": 33.869097, "politanName": "Atlanta, GA Metro ", "phone_number": "6785943257", "tags": [{"primary": true, "id": 1722, "name": "Restaurants"}], "fax_number": null, "expansion": {"count": null, "uri": null}, "impression_id": "000b0000004f5bca7bf5d148dea19a9bb0f86d3689", "profile": "http://www.citysearch.com/profile/827366690/smyrna_ga/jones_gissendanner_catfish.html", "address": {"city": "Smyrna", "state": "GA", "street": "2 Villa CT SE", "postal_code": "30080"}, "capProviderId": null, "distance": null, "has_offers": false, "name": "Jones-Gissendanner Catfish", "longitude": -84.495999, "has_menu": false, "awards": null, "user_review_count": 0}, {"business_operation_status": 1, "rating": null, "neighborhood": null, "image": null, "scorecard": null, "featured": false, "sample_categories": "Restaurants", "public_id": "finca-bonita-mexican-grill-marietta", "id": 838631820, "votes": null, "tagline": null, "has_video": false, "website": null, "offers": null, "latitude": 33.951258, "politanName": "Atlanta, GA Metro ", "phone_number": "7704198290", "tags": [{"primary": true, "id": 1722, "name": "Restaurants"}], "fax_number": null, "expansion": {"count": null, "uri": null}, "impression_id": "000b000000e39925df2fa24b3384cace58a5b81ba4", "profile": "http://www.citysearch.com/profile/838631820/marietta_ga/finca_bonita_mexican_grill.html", "address": {"city": "Marietta", "state": "GA", "street": "1157 Roswell Rd", "postal_code": "30062"}, "capProviderId": null, "distance": null, "has_offers": false, "name": "Finca Bonita Mexican Grill", "longitude": -84.517723, "has_menu": false, "awards": null, "user_review_count": 1}, {"business_operation_status": 1, "rating": null, "neighborhood": null, "image": null, "scorecard": null, "featured": false, "sample_categories": "Restaurants", "public_id": "carlyles-atlanta-4", "id": 809880620, "votes": null, "tagline": null, "has_video": false, "website": null, "offers": null, "latitude": 33.934375, "politanName": "Atlanta, GA Metro ", "phone_number": "7703932536", "tags": [{"primary": true, "id": 1722, "name": "Restaurants"}], "fax_number": null, "expansion": {"count": null, "uri": null}, "impression_id": "000b0000003c32cc371d1046a1b4518fcb803cf188", "profile": "http://www.citysearch.com/profile/809880620/atlanta_ga/carlyle_s.html", "address": {"city": "Atlanta", "state": "GA", "street": "1100 Abernathy Rd", "postal_code": "30328"}, "capProviderId": null, "distance": null, "has_offers": false, "name": "Carlyle's", "longitude": -84.352796, "has_menu": false, "awards": null, "user_review_count": 0}, {"business_operation_status": 1, "rating": null, "neighborhood": null, "image": null, "scorecard": null, "featured": false, "sample_categories": "Restaurants", "public_id": "whitcher-street-caf-marietta", "id": 713628600, "votes": null, "tagline": null, "has_video": false, "website": null, "offers": null, "latitude": 33.967469, "politanName": "Atlanta, GA Metro ", "phone_number": "6785813888", "tags": [{"primary": true, "id": 1722, "name": "Restaurants"}], "fax_number": null, "expansion": {"count": null, "uri": null}, "impression_id": "000b000000af48ab4216734e92830fe64b76be7765", "profile": "http://www.citysearch.com/profile/713628600/marietta_ga/whitcher_street_caf.html", "address": {"city": "Marietta", "state": "GA", "street": "55 Whitcher St Ne", "postal_code": "30060"}, "capProviderId": null, "distance": null, "has_offers": false, "name": "Whitcher Street Caf", "longitude": -84.551412, "has_menu": false, "awards": null, "user_review_count": 0}, {"business_operation_status": 1, "rating": null, "neighborhood": null, "image": null, "scorecard": null, "featured": false, "sample_categories": "Restaurants, Traditional American", "public_id": "another-broken-egg-cafe-atlanta-3", "id": 772197900, "votes": null, "tagline": null, "has_video": false, "website": null, "offers": null, "latitude": 33.866361, "politanName": "Atlanta, GA Metro ", "phone_number": "7703840012", "tags": [{"primary": false, "id": 11190, "name": "Traditional American"}, {"primary": true, "id": 1722, "name": "Restaurants"}], "fax_number": null, "expansion": {"count": null, "uri": null}, "impression_id": "000b00000086f05de3509f421f845e95d0e48a8245", "profile": "http://www.citysearch.com/profile/772197900/atlanta_ga/another_broken_egg_cafe.html", "address": {"city": "Atlanta", "state": "GA", "street": "4300 Paces Ferry Rd SE", "postal_code": "30339"}, "capProviderId": null, "distance": null, "has_offers": false, "name": "Another Broken Egg Cafe", "longitude": -84.466047, "has_menu": false, "awards": null, "user_review_count": 0}, {"business_operation_status": 1, "rating": null, "neighborhood": null, "image": null, "scorecard": null, "featured": false, "sample_categories": "Restaurants, Delis And Delicatessens", "public_id": "d-w-cafe-marietta", "id": 775198490, "votes": null, "tagline": null, "has_video": false, "website": null, "offers": null, "latitude": 33.972386, "politanName": "Atlanta, GA Metro ", "phone_number": "6784018966", "tags": [{"primary": false, "id": 1727, "name": "Delis And Delicatessens"}, {"primary": true, "id": 1722, "name": "Restaurants"}], "fax_number": null, "expansion": {"count": null, "uri": null}, "impression_id": "000b0000005ca199dbc42242eab04e9ef362219b20", "profile": "http://www.citysearch.com/profile/775198490/marietta_ga/d_w_cafe.html", "address": {"city": "Marietta", "state": "GA", "street": "833 Campbell Hill St NW", "postal_code": "30060"}, "capProviderId": null, "distance": null, "has_offers": false, "name": "D W Cafe", "longitude": -84.552023, "has_menu": false, "awards": null, "user_review_count": 0}, {"business_operation_status": 1, "rating": null, "neighborhood": null, "image": null, "scorecard": null, "featured": false, "sample_categories": "Restaurants, Carry Out, Chicken", "public_id": "zaxbys-marietta-6", "id": 787134660, "votes": null, "tagline": null, "has_video": false, "website": "http://www.citysearch.com/profile/external/787134660/marietta_ga/zaxby_s.html", "offers": null, "latitude": 33.952602, "politanName": "Atlanta, GA Metro ", "phone_number": "6788521483", "tags": [{"primary": false, "id": 11247, "name": "Carry Out"}, {"primary": false, "id": 12839, "name": "Chicken"}, {"primary": true, "id": 1722, "name": "Restaurants"}], "fax_number": null, "expansion": {"count": null, "uri": null}, "impression_id": "000b000000b622f96d8fe54371a67a990c085e6531", "profile": "http://www.citysearch.com/profile/787134660/marietta_ga/zaxby_s.html", "address": {"city": "Marietta", "state": "GA", "street": "2756 Sandy Plains Rd", "postal_code": "30066"}, "capProviderId": null, "distance": null, "has_offers": false, "name": "Zaxby's", "longitude": -84.549933, "has_menu": true, "awards": null, "user_review_count": 0}, {"business_operation_status": 1, "rating": 8.0, "neighborhood": null, "image": null, "scorecard": null, "featured": false, "sample_categories": "Restaurants, Chinese", "public_id": "new-china-house-marietta", "id": 2904692, "votes": null, "tagline": null, "has_video": false, "website": "http://www.citysearch.com/profile/external/2904692/marietta_ga/new_china_house.html", "offers": null, "latitude": 33.971616, "politanName": "Atlanta, GA Metro ", "phone_number": "7704286409", "tags": [{"primary": false, "id": 11252, "name": "Chinese"}, {"primary": true, "id": 1722, "name": "Restaurants"}], "fax_number": null, "expansion": {"count": null, "uri": null}, "impression_id": "000b00000052856ad9eb5f472d8342b82ddbdf7e95", "profile": "http://www.citysearch.com/profile/2904692/marietta_ga/new_china_house.html", "address": {"city": "Marietta", "state": "GA", "street": "803 Cobb Pkwy N", "postal_code": "30062"}, "capProviderId": null, "distance": null, "has_offers": false, "name": "New China House", "longitude": -84.540539, "has_menu": true, "awards": null, "user_review_count": 1}, {"business_operation_status": 1, "rating": null, "neighborhood": null, "image": null, "scorecard": null, "featured": false, "sample_categories": "Restaurants", "public_id": "bandido-wings-marietta", "id": 838396080, "votes": null, "tagline": null, "has_video": false, "website": null, "offers": null, "latitude": 33.902517, "politanName": "Atlanta, GA Metro ", "phone_number": "7706528890", "tags": [{"primary": true, "id": 1722, "name": "Restaurants"}], "fax_number": null, "expansion": {"count": null, "uri": null}, "impression_id": "000b0000005b22444c369f44fe9b35c1be37d64939", "profile": "http://www.citysearch.com/profile/838396080/marietta_ga/bandido_wings.html", "address": {"city": "Marietta", "state": "GA", "street": "371 Pat Mell Rd SE # 137", "postal_code": "30060"}, "capProviderId": null, "distance": null, "has_offers": false, "name": "Bandido Wings", "longitude": -84.543334, "has_menu": false, "awards": null, "user_review_count": 0}, {"business_operation_status": 1, "rating": null, "neighborhood": null, "image": null, "scorecard": null, "featured": false, "sample_categories": "Restaurants, Carry Out", "public_id": "waffle-house-atlanta-31", "id": 840536100, "votes": null, "tagline": null, "has_video": false, "website": "http://www.citysearch.com/profile/external/840536100/atlanta_ga/waffle_house.html", "offers": null, "latitude": 33.930995, "politanName": "Atlanta, GA Metro ", "phone_number": "4042553911", "tags": [{"primary": false, "id": 11247, "name": "Carry Out"}, {"primary": true, "id": 1722, "name": "Restaurants"}], "fax_number": null, "expansion": {"count": null, "uri": null}, "impression_id": "000b000000eb9a22dfe61342f680131211724f87f9", "profile": "http://www.citysearch.com/profile/840536100/atlanta_ga/waffle_house.html", "address": {"city": "Atlanta", "state": "GA", "street": "6445 Roswell Rd", "postal_code": "30328"}, "capProviderId": null, "distance": null, "has_offers": false, "name": "Waffle House", "longitude": -84.379191, "has_menu": false, "awards": null, "user_review_count": 0}, {"business_operation_status": 1, "rating": 8.0, "neighborhood": null, "image": null, "scorecard": null, "featured": false, "sample_categories": "Restaurants", "public_id": "jocks-jills-sports-grill-atlanta", "id": 3037892, "votes": null, "tagline": null, "has_video": false, "website": null, "offers": null, "latitude": 33.907557, "politanName": "Atlanta, GA Metro ", "phone_number": "4048439444", "tags": [{"primary": true, "id": 1722, "name": "Restaurants"}], "fax_number": null, "expansion": {"count": null, "uri": null}, "impression_id": "000b000000149e03b95f1a4f95b9ba36e8a72d3e08", "profile": "http://www.citysearch.com/profile/3037892/atlanta_ga/jock_s_jills_sports_grill.html", "address": {"city": "Atlanta", "state": "GA", "street": "5600 Roswell Road NE", "postal_code": "30342"}, "capProviderId": null, "distance": null, "has_offers": false, "name": "Jock's & Jills Sports Grill", "longitude": -84.378776, "has_menu": true, "awards": null, "user_review_count": 0}, {"business_operation_status": 1, "rating": null, "neighborhood": null, "image": null, "scorecard": null, "featured": false, "sample_categories": "Restaurants, Diners, Cafes", "public_id": "campus-cafe-marietta", "id": 33669246, "votes": null, "tagline": null, "has_video": false, "website": null, "offers": null, "latitude": 33.930756, "politanName": "Atlanta, GA Metro ", "phone_number": "7707926042", "tags": [{"primary": false, "id": 1732, "name": "Diners"}, {"primary": false, "id": 6190, "name": "Cafes"}, {"primary": true, "id": 1722, "name": "Restaurants"}], "fax_number": null, "expansion": {"count": null, "uri": null}, "impression_id": "000b000000406e0343c8a34545a65b6dff2bcaa766", "profile": "http://www.citysearch.com/profile/33669246/marietta_ga/campus_cafe.html", "address": {"city": "Marietta", "state": "GA", "street": "1269 Barclay Cir SE", "postal_code": "30060"}, "capProviderId": null, "distance": null, "has_offers": false, "name": "Campus Cafe", "longitude": -84.514539, "has_menu": false, "awards": null, "user_review_count": 0}, {"business_operation_status": 1, "rating": null, "neighborhood": null, "image": null, "scorecard": null, "featured": false, "sample_categories": "Restaurants, Delis And Delicatessens", "public_id": "zoes-kitchen-atlanta-5", "id": 766790530, "votes": null, "tagline": null, "has_video": false, "website": null, "offers": null, "latitude": 33.880882, "politanName": "Atlanta, GA Metro ", "phone_number": "7709523643", "tags": [{"primary": false, "id": 1727, "name": "Delis And Delicatessens"}, {"primary": true, "id": 1722, "name": "Restaurants"}], "fax_number": null, "expansion": {"count": null, "uri": null}, "impression_id": "000b00000075c66ce287784692ba7522212d284058", "profile": "http://www.citysearch.com/profile/766790530/atlanta_ga/zoes_kitchen.html", "address": {"city": "Atlanta", "state": "GA", "street": "2935 Cobb Pkwy SE", "postal_code": "30339"}, "capProviderId": null, "distance": null, "has_offers": false, "name": "Zoes Kitchen", "longitude": -84.463111, "has_menu": false, "awards": null, "user_review_count": 0}, {"business_operation_status": 1, "rating": null, "neighborhood": null, "image": null, "scorecard": null, "featured": false, "sample_categories": "Restaurants, Delis And Delicatessens, Sandwich Shops, Carry Out", "public_id": "subway-sandy-10", "id": 781231300, "votes": null, "tagline": null, "has_video": false, "website": "http://www.citysearch.com/profile/external/781231300/sandy_springs_ga/subway.html", "offers": null, "latitude": 33.916242, "politanName": "Atlanta, GA Metro ", "phone_number": "4042550306", "tags": [{"primary": false, "id": 1727, "name": "Delis And Delicatessens"}, {"primary": false, "id": 1736, "name": "Sandwich Shops"}, {"primary": false, "id": 11247, "name": "Carry Out"}, {"primary": true, "id": 1722, "name": "Restaurants"}], "fax_number": null, "expansion": {"count": null, "uri": null}, "impression_id": "000b0000000242314086ae4ca0bff9324e8296fc29", "profile": "http://www.citysearch.com/profile/781231300/sandy_springs_ga/subway.html", "address": {"city": "Sandy Springs", "state": "GA", "street": "5590 Roswell Rd", "postal_code": "30342"}, "capProviderId": null, "distance": null, "has_offers": false, "name": "SUBWAY", "longitude": -84.379244, "has_menu": false, "awards": null, "user_review_count": 0}, {"business_operation_status": 1, "rating": null, "neighborhood": null, "image": null, "scorecard": null, "featured": false, "sample_categories": "Restaurants, Mexican", "public_id": "pappasitos-cantina-marietta-2", "id": 787083440, "votes": null, "tagline": null, "has_video": false, "website": "http://www.citysearch.com/profile/external/787083440/marietta_ga/pappasito_s_cantina.html", "offers": null, "latitude": 34.019839, "politanName": "Atlanta, GA Metro ", "phone_number": "7709518409", "tags": [{"primary": false, "id": 11208, "name": "Mexican"}, {"primary": true, "id": 1722, "name": "Restaurants"}], "fax_number": null, "expansion": {"count": null, "uri": null}, "impression_id": "000b000000a397499af6e4468884aef5950fa1eb6e", "profile": "http://www.citysearch.com/profile/787083440/marietta_ga/pappasito_s_cantina.html", "address": {"city": "Marietta", "state": "GA", "street": "2788 Wendy Ln", "postal_code": "30062"}, "capProviderId": null, "distance": null, "has_offers": false, "name": "Pappasito's Cantina", "longitude": -84.459525, "has_menu": false, "awards": null, "user_review_count": 0}], "histograms": [], "tag_ids": [1722], "uri": "http://api.citygridmedia.com:8080/search/places/v2/search/where?has_offers=false&type=restaurant&format=json&page=24&where=30067&rpp=50&histograms=false&publisher=10000009598&region_type=circle", "did_you_mean": "", "regions": [{"latitude": 33.930575, "default_radius": 3.78, "type": "postal_code", "name": "30067", "longitude": -84.463162}], "call_id": "000b0000007776a4c238e44076bb4f8dd4c221939a", "first_hit": 1151, "total_hits": 1972, "geo_ids": [26295], "page": 24, "last_hit": 1200}}