{"results": {"rpp": 50, "locations": [{"business_operation_status": 1, "rating": null, "neighborhood": null, "image": null, "scorecard": null, "featured": false, "sample_categories": "Restaurants, Pizza", "public_id": "papa-carlos-new-york-pizza-roswell", "id": 728062430, "votes": null, "tagline": null, "has_video": false, "website": null, "offers": null, "latitude": 34.060624, "politanName": "Atlanta, GA Metro ", "phone_number": "6782085000", "tags": [{"primary": false, "id": 1722, "name": "Restaurants"}, {"primary": true, "id": 11299, "name": "Pizza"}], "fax_number": null, "expansion": {"count": null, "uri": null}, "impression_id": "000b000000fd3a8e1dca704c44acc715ad901fe0f2", "profile": "http://www.citysearch.com/profile/728062430/roswell_ga/papa_carlos_new_york_pizza.html", "address": {"city": "Roswell", "state": "GA", "street": "885 Woodstock Rd", "postal_code": "30075"}, "capProviderId": null, "distance": null, "has_offers": false, "name": "Papa Carlos New York Pizza", "longitude": -84.385879, "has_menu": false, "awards": null, "user_review_count": 0}, {"business_operation_status": 1, "rating": null, "neighborhood": null, "image": null, "scorecard": null, "featured": false, "sample_categories": "Restaurants, Mexican", "public_id": "el-vaquero-mexican-cantina-marietta", "id": 655802400, "votes": null, "tagline": null, "has_video": false, "website": null, "offers": null, "latitude": 33.953033, "politanName": "Atlanta, GA Metro ", "phone_number": "6787385431", "tags": [{"primary": false, "id": 11208, "name": "Mexican"}, {"primary": true, "id": 1722, "name": "Restaurants"}], "fax_number": null, "expansion": {"count": null, "uri": null}, "impression_id": "000b000000e248a3c7f8044bc5b695984436a58d14", "profile": "http://www.citysearch.com/profile/655802400/marietta_ga/el_vaquero_mexican_cantina.html", "address": {"city": "Marietta", "state": "GA", "street": "1000 Whitlock Ave Nw # 410", "postal_code": "30064"}, "capProviderId": null, "distance": null, "has_offers": false, "name": "El Vaquero Mexican Cantina", "longitude": -84.581202, "has_menu": false, "awards": null, "user_review_count": 0}, {"business_operation_status": 1, "rating": null, "neighborhood": null, "image": null, "scorecard": null, "featured": false, "sample_categories": "Restaurants", "public_id": "soba-asian-bistro-roswell", "id": 728114260, "votes": null, "tagline": null, "has_video": false, "website": null, "offers": null, "latitude": 34.053819, "politanName": "Atlanta, GA Metro ", "phone_number": "7709711888", "tags": [{"primary": true, "id": 1722, "name": "Restaurants"}], "fax_number": null, "expansion": {"count": null, "uri": null}, "impression_id": "000b000000766c7fe7c4e0445b81a05e3194e32463", "profile": "http://www.citysearch.com/profile/728114260/roswell_ga/soba_asian_bistro.html", "address": {"city": "Roswell", "state": "GA", "street": "1005 Grace Hill Dr", "postal_code": "30075"}, "capProviderId": null, "distance": null, "has_offers": false, "name": "Soba Asian Bistro", "longitude": -84.373112, "has_menu": false, "awards": null, "user_review_count": 0}, {"business_operation_status": 1, "rating": null, "neighborhood": null, "image": null, "scorecard": null, "featured": false, "sample_categories": "Restaurants, Barbecue Restaurants, Carry Out", "public_id": "wingstreet-roswell", "id": 728126140, "votes": null, "tagline": null, "has_video": false, "website": "http://www.citysearch.com/profile/external/728126140/roswell_ga/wingstreet.html", "offers": null, "latitude": 34.065697, "politanName": "Atlanta, GA Metro ", "phone_number": "4049929900", "tags": [{"primary": false, "id": 1724, "name": "Barbecue Restaurants"}, {"primary": false, "id": 11247, "name": "Carry Out"}, {"primary": true, "id": 1722, "name": "Restaurants"}], "fax_number": null, "expansion": {"count": null, "uri": null}, "impression_id": "000b000000f5cf4c63e7844e26aa7db2a37e841fab", "profile": "http://www.citysearch.com/profile/728126140/roswell_ga/wingstreet.html", "address": {"city": "Roswell", "state": "GA", "street": "4750 Alabama Rd Ne", "postal_code": "30075"}, "capProviderId": null, "distance": null, "has_offers": false, "name": "Wingstreet", "longitude": -84.422792, "has_menu": true, "awards": null, "user_review_count": 0}, {"business_operation_status": 1, "rating": null, "neighborhood": null, "image": null, "scorecard": null, "featured": false, "sample_categories": "Restaurants, Delis And Delicatessens, Carry Out, Food Delivery, Shop Online", "public_id": "jimmy-johns-roswell", "id": 745618570, "votes": null, "tagline": null, "has_video": false, "website": "http://www.citysearch.com/profile/external/745618570/roswell_ga/jimmy_john_s.html", "offers": null, "latitude": 34.042314, "politanName": "Atlanta, GA Metro ", "phone_number": "7709980100", "tags": [{"primary": false, "id": 1727, "name": "Delis And Delicatessens"}, {"primary": false, "id": 11247, "name": "Carry Out"}, {"primary": false, "id": 11267, "name": "Food Delivery"}, {"primary": false, "id": 11375, "name": "Shop Online"}, {"primary": true, "id": 1722, "name": "Restaurants"}], "fax_number": null, "expansion": {"count": null, "uri": null}, "impression_id": "000b0000002182105dc2454302b0965d47f3f698a6", "profile": "http://www.citysearch.com/profile/745618570/roswell_ga/jimmy_john_s.html", "address": {"city": "Roswell", "state": "GA", "street": "875 Mansell Rd", "postal_code": "30076"}, "capProviderId": null, "distance": null, "has_offers": false, "name": "Jimmy John's", "longitude": -84.338413, "has_menu": false, "awards": null, "user_review_count": 0}, {"business_operation_status": 1, "rating": null, "neighborhood": null, "image": null, "scorecard": null, "featured": false, "sample_categories": "Restaurants", "public_id": "kani-house-roswell", "id": 764923300, "votes": null, "tagline": null, "has_video": false, "website": null, "offers": null, "latitude": 34.00537, "politanName": "Atlanta, GA Metro ", "phone_number": "6784618831", "tags": [{"primary": true, "id": 1722, "name": "Restaurants"}], "fax_number": null, "expansion": {"count": null, "uri": null}, "impression_id": "000b000000900d7a08ef4f4d769210d5419557dbe5", "profile": "http://www.citysearch.com/profile/764923300/roswell_ga/kani_house.html", "address": {"city": "Roswell", "state": "GA", "street": "910 Marietta Hwy # 110", "postal_code": "30075"}, "capProviderId": null, "distance": null, "has_offers": false, "name": "Kani House", "longitude": -84.389755, "has_menu": true, "awards": null, "user_review_count": 0}, {"business_operation_status": 1, "rating": null, "neighborhood": null, "image": null, "scorecard": null, "featured": false, "sample_categories": "Coffeehouses, Coffee & Tea Shops, Restaurants", "public_id": "starbucks-marietta-10", "id": 621939860, "votes": null, "tagline": null, "has_video": false, "website": "http://www.citysearch.com/profile/external/621939860/marietta_ga/starbucks.html", "offers": null, "latitude": 33.971846, "politanName": "Atlanta, GA Metro ", "phone_number": "7707941443", "tags": [{"primary": false, "id": 1711, "name": "Coffee & Tea Shops"}, {"primary": false, "id": 1722, "name": "Restaurants"}, {"primary": true, "id": 1726, "name": "Coffeehouses"}], "fax_number": null, "expansion": {"count": null, "uri": null}, "impression_id": "000b00000040cb5bd9067e4cc59ad79fd6a613eb19", "profile": "http://www.citysearch.com/profile/621939860/marietta_ga/starbucks.html", "address": {"city": "Marietta", "state": "GA", "street": "825 Church St Ne", "postal_code": "30060"}, "capProviderId": null, "distance": null, "has_offers": false, "name": "Starbucks", "longitude": -84.551204, "has_menu": true, "awards": null, "user_review_count": 0}, {"business_operation_status": 1, "rating": null, "neighborhood": null, "image": null, "scorecard": null, "featured": false, "sample_categories": "Health Food Stores, Health Food, Vitamins", "public_id": "bigtime-fitness-woodstock", "id": 608703960, "votes": null, "tagline": null, "has_video": false, "website": null, "offers": null, "latitude": 34.078336, "politanName": "Atlanta, GA Metro ", "phone_number": "7705914825", "tags": [{"primary": false, "id": 1716, "name": "Health Food Stores"}, {"primary": false, "id": 11164, "name": "Vitamins"}, {"primary": true, "id": 11200, "name": "Health Food"}], "fax_number": null, "expansion": {"count": null, "uri": null}, "impression_id": "000b0000001f56799d589b4b68bb440c6cbae7b89a", "profile": "http://www.citysearch.com/profile/608703960/woodstock_ga/bigtime_fitness.html", "address": {"city": "Woodstock", "state": "GA", "street": "101 Westridge Ct,", "postal_code": "30180"}, "capProviderId": null, "distance": null, "has_offers": false, "name": "Bigtime Fitness", "longitude": -84.435647, "has_menu": false, "awards": null, "user_review_count": 0}, {"business_operation_status": 1, "rating": null, "neighborhood": null, "image": null, "scorecard": null, "featured": false, "sample_categories": "Restaurants", "public_id": "chopstix-chopsticks-roswell", "id": 609062844, "votes": null, "tagline": null, "has_video": false, "website": null, "offers": null, "latitude": 34.061475, "politanName": "Atlanta, GA Metro ", "phone_number": "7705181788", "tags": [{"primary": true, "id": 1722, "name": "Restaurants"}], "fax_number": null, "expansion": {"count": null, "uri": null}, "impression_id": "000b000000e0ac92d05085452989e13ac6410da0a5", "profile": "http://www.citysearch.com/profile/609062844/roswell_ga/chopstix_chopsticks.html", "address": {"city": "Roswell", "state": "GA", "street": "4651 Woodstock Rd", "postal_code": "30075"}, "capProviderId": null, "distance": null, "has_offers": false, "name": "Chopstix Chopsticks", "longitude": -84.422074, "has_menu": false, "awards": null, "user_review_count": 0}, {"business_operation_status": 1, "rating": null, "neighborhood": null, "image": null, "scorecard": null, "featured": false, "sample_categories": "Restaurants, Pizza", "public_id": "stevi-bs-pizza-marietta-4", "id": 713518730, "votes": null, "tagline": null, "has_video": false, "website": null, "offers": null, "latitude": 34.015975, "politanName": "Atlanta, GA Metro ", "phone_number": "7704990155", "tags": [{"primary": false, "id": 11299, "name": "Pizza"}, {"primary": true, "id": 1722, "name": "Restaurants"}], "fax_number": null, "expansion": {"count": null, "uri": null}, "impression_id": "000b000000e2979b8262734d7ea0a4fc488fc7af99", "profile": "http://www.citysearch.com/profile/713518730/marietta_ga/stevi_b_s_pizza.html", "address": {"city": "Marietta", "state": "GA", "street": "50 Ernest Barrett Pkwy NW", "postal_code": "30060"}, "capProviderId": null, "distance": null, "has_offers": false, "name": "Stevi B's Pizza", "longitude": -84.550996, "has_menu": false, "awards": null, "user_review_count": 0}, {"business_operation_status": 1, "rating": null, "neighborhood": null, "image": null, "scorecard": null, "featured": false, "sample_categories": "Restaurants, Bakeries", "public_id": "tajmahal-grill-kennesaw", "id": 713543660, "votes": null, "tagline": null, "has_video": false, "website": "http://www.citysearch.com/profile/external/713543660/kennesaw_ga/taj_mahal_grill.html", "offers": null, "latitude": 34.000514, "politanName": "Atlanta, GA Metro ", "phone_number": "7709199990", "tags": [{"primary": false, "id": 1685, "name": "Bakeries"}, {"primary": true, "id": 1722, "name": "Restaurants"}], "fax_number": null, "expansion": {"count": null, "uri": null}, "impression_id": "000b000000c3381b1c7ec949fa83b1161faa246510", "profile": "http://www.citysearch.com/profile/713543660/kennesaw_ga/taj_mahal_grill.html", "address": {"city": "Kennesaw", "state": "GA", "street": "1200 Earnest W Barrett Pkwy NW St 18", "postal_code": "30144"}, "capProviderId": null, "distance": null, "has_offers": false, "name": "Taj Mahal Grill", "longitude": -84.587423, "has_menu": true, "awards": null, "user_review_count": 2}, {"business_operation_status": 0, "rating": null, "neighborhood": null, "image": null, "scorecard": null, "featured": false, "sample_categories": "Restaurants", "public_id": "taste-5-roswell", "id": 732208210, "votes": null, "tagline": null, "has_video": false, "website": null, "offers": null, "latitude": 34.034454, "politanName": "Atlanta, GA Metro ", "phone_number": "6786828882", "tags": [{"primary": true, "id": 1722, "name": "Restaurants"}], "fax_number": null, "expansion": {"count": null, "uri": null}, "impression_id": "000b000000952a5a2489ea4014a2598c0331a2087e", "profile": "http://www.citysearch.com/profile/732208210/roswell_ga/taste_5.html", "address": {"city": "Roswell", "state": "GA", "street": "10360 Alpharetta St", "postal_code": "30075"}, "capProviderId": null, "distance": null, "has_offers": false, "name": "Taste 5", "longitude": -84.347833, "has_menu": false, "awards": null, "user_review_count": 0}, {"business_operation_status": 0, "rating": null, "neighborhood": null, "image": null, "scorecard": null, "featured": false, "sample_categories": "Restaurants, Barbecue Restaurants", "public_id": "georges-grill-barbecue-marietta", "id": 621879190, "votes": null, "tagline": null, "has_video": false, "website": null, "offers": null, "latitude": 33.997727, "politanName": "Atlanta, GA Metro ", "phone_number": "7704851099", "tags": [{"primary": false, "id": 1724, "name": "Barbecue Restaurants"}, {"primary": true, "id": 1722, "name": "Restaurants"}], "fax_number": null, "expansion": {"count": null, "uri": null}, "impression_id": "000b000000175e954451304ee484620ab1c1ae73d5", "profile": "http://www.citysearch.com/profile/621879190/marietta_ga/georges_grill_barbecue.html", "address": {"city": "Marietta", "state": "GA", "street": "1951 Canton Rd # 330", "postal_code": "30066"}, "capProviderId": null, "distance": null, "has_offers": false, "name": "Georges Grill & Barbecue", "longitude": -84.525055, "has_menu": false, "awards": null, "user_review_count": 0}, {"business_operation_status": 1, "rating": null, "neighborhood": null, "image": null, "scorecard": null, "featured": false, "sample_categories": "Restaurants, Mexican, American Express, Discover, MasterCard", "public_id": "el-serape-mexican-restaurant-roswell", "id": 742266390, "votes": null, "tagline": null, "has_video": false, "website": null, "offers": null, "latitude": 34.022435, "politanName": "Atlanta, GA Metro ", "phone_number": "7709986553", "tags": [{"primary": false, "id": 11208, "name": "Mexican"}, {"primary": false, "id": 11333, "name": "American Express"}, {"primary": false, "id": 11349, "name": "Discover"}, {"primary": false, "id": 11361, "name": "MasterCard"}, {"primary": false, "id": 11382, "name": "Visa"}, {"primary": true, "id": 1722, "name": "Restaurants"}], "fax_number": null, "expansion": {"count": null, "uri": null}, "impression_id": "000b0000000df624bd92644234b326856b7f354349", "profile": "http://www.citysearch.com/profile/742266390/roswell_ga/el_serape_mexican_restaurant.html", "address": {"city": "Roswell", "state": "GA", "street": "880 Atlanta St", "postal_code": "30075"}, "capProviderId": null, "distance": null, "has_offers": false, "name": "El Serape Mexican Restaurant", "longitude": -84.361867, "has_menu": true, "awards": null, "user_review_count": 5}, {"business_operation_status": 1, "rating": null, "neighborhood": null, "image": null, "scorecard": null, "featured": false, "sample_categories": "Restaurants", "public_id": "slate-table-tap-roswell", "id": 764863210, "votes": null, "tagline": null, "has_video": false, "website": null, "offers": null, "latitude": 34.029548, "politanName": "Atlanta, GA Metro ", "phone_number": "7706416641", "tags": [{"primary": true, "id": 1722, "name": "Restaurants"}], "fax_number": null, "expansion": {"count": null, "uri": null}, "impression_id": "000b0000003e7c9685624f4bfd8f901cd211055060", "profile": "http://www.citysearch.com/profile/764863210/roswell_ga/slate_table_tap.html", "address": {"city": "Roswell", "state": "GA", "street": "1132 Canton St", "postal_code": "30075"}, "capProviderId": null, "distance": null, "has_offers": false, "name": "Slate Table & Tap", "longitude": -84.361851, "has_menu": false, "awards": null, "user_review_count": 0}, {"business_operation_status": 1, "rating": null, "neighborhood": null, "image": null, "scorecard": null, "featured": false, "sample_categories": "Restaurants, Bars & Clubs, Bars & Pubs", "public_id": "nations-cafe-lounge-sandy", "id": 764900470, "votes": null, "tagline": null, "has_video": false, "website": null, "offers": null, "latitude": 33.981228, "politanName": "Atlanta, GA Metro ", "phone_number": "7706742333", "tags": [{"primary": false, "id": 164, "name": "Bars & Clubs"}, {"primary": false, "id": 1686, "name": "Bars & Pubs"}, {"primary": true, "id": 1722, "name": "Restaurants"}], "fax_number": null, "expansion": {"count": null, "uri": null}, "impression_id": "000b000000b4658416633d4984a56682861e946f38", "profile": "http://www.citysearch.com/profile/764900470/sandy_springs_ga/nations_cafe_lounge.html", "address": {"city": "Sandy Springs", "state": "GA", "street": "8290 Roswell Rd # 400", "postal_code": "30350"}, "capProviderId": null, "distance": null, "has_offers": false, "name": "Nations Cafe & Lounge", "longitude": -84.351122, "has_menu": false, "awards": null, "user_review_count": 1}, {"business_operation_status": 0, "rating": null, "neighborhood": null, "image": null, "scorecard": null, "featured": false, "sample_categories": "Restaurants, Delis And Delicatessens, Sandwich Shops, Carry Out", "public_id": "blimpie-subs-salads-kennesaw-3", "id": 764905420, "votes": null, "tagline": null, "has_video": false, "website": "http://www.citysearch.com/profile/external/764905420/kennesaw_ga/blimpie_subs_salads.html", "offers": null, "latitude": 34.051934, "politanName": "Atlanta, GA Metro ", "phone_number": "7704259954", "tags": [{"primary": false, "id": 1727, "name": "Delis And Delicatessens"}, {"primary": false, "id": 1736, "name": "Sandwich Shops"}, {"primary": false, "id": 11247, "name": "Carry Out"}, {"primary": true, "id": 1722, "name": "Restaurants"}], "fax_number": null, "expansion": {"count": null, "uri": null}, "impression_id": "000b0000006aefd8f6b9984404a1047f4d9f60bd1e", "profile": "http://www.citysearch.com/profile/764905420/kennesaw_ga/blimpie_subs_salads.html", "address": {"city": "Kennesaw", "state": "GA", "street": "4160 Cherokee St NW", "postal_code": "30144"}, "capProviderId": null, "distance": null, "has_offers": false, "name": "Blimpie Subs & Salads", "longitude": -84.593811, "has_menu": true, "awards": null, "user_review_count": 0}, {"business_operation_status": 1, "rating": null, "neighborhood": null, "image": null, "scorecard": null, "featured": false, "sample_categories": "Restaurants, Delis And Delicatessens, Sandwich Shops, Carry Out", "public_id": "subway-sandwiches-salads-marietta", "id": 764919100, "votes": null, "tagline": null, "has_video": false, "website": "http://www.citysearch.com/profile/external/764919100/marietta_ga/subway_sandwiches_salads.html", "offers": null, "latitude": 33.949333, "politanName": "Atlanta, GA Metro ", "phone_number": "7704225412", "tags": [{"primary": false, "id": 1727, "name": "Delis And Delicatessens"}, {"primary": false, "id": 1736, "name": "Sandwich Shops"}, {"primary": false, "id": 11247, "name": "Carry Out"}, {"primary": true, "id": 1722, "name": "Restaurants"}], "fax_number": null, "expansion": {"count": null, "uri": null}, "impression_id": "000b000000d5ad3269de6d452f98a319bd36693e91", "profile": "http://www.citysearch.com/profile/764919100/marietta_ga/subway_sandwiches_salads.html", "address": {"city": "Marietta", "state": "GA", "street": "85 S Marietta Pkwy SW", "postal_code": "30064"}, "capProviderId": null, "distance": null, "has_offers": false, "name": "Subway Sandwiches & Salads", "longitude": -84.550502, "has_menu": false, "awards": null, "user_review_count": 0}, {"business_operation_status": 1, "rating": null, "neighborhood": null, "image": null, "scorecard": null, "featured": false, "sample_categories": "Restaurants", "public_id": "whaleback-als-marietta", "id": 764934130, "votes": null, "tagline": null, "has_video": false, "website": null, "offers": null, "latitude": 33.976658, "politanName": "Atlanta, GA Metro ", "phone_number": "7705093725", "tags": [{"primary": true, "id": 1722, "name": "Restaurants"}], "fax_number": null, "expansion": {"count": null, "uri": null}, "impression_id": "000b0000003d3bf7d54cc946769f19370d55645c6d", "profile": "http://www.citysearch.com/profile/764934130/marietta_ga/whaleback_als.html", "address": {"city": "Marietta", "state": "GA", "street": "1121 Johnson Ferry Rd", "postal_code": "30068"}, "capProviderId": null, "distance": null, "has_offers": false, "name": "Whaleback Als", "longitude": -84.416675, "has_menu": false, "awards": null, "user_review_count": 0}, {"business_operation_status": 1, "rating": null, "neighborhood": null, "image": null, "scorecard": null, "featured": false, "sample_categories": "Restaurants, Pizza, Carry Out", "public_id": "cicis-pizza-atlanta-2", "id": 713461570, "votes": null, "tagline": null, "has_video": false, "website": "http://www.citysearch.com/profile/external/713461570/atlanta_ga/cici_s_pizza.html", "offers": null, "latitude": 34.054243, "politanName": "Atlanta, GA Metro ", "phone_number": "7705520505", "tags": [{"primary": false, "id": 1722, "name": "Restaurants"}, {"primary": false, "id": 11247, "name": "Carry Out"}, {"primary": true, "id": 11299, "name": "Pizza"}], "fax_number": null, "expansion": {"count": null, "uri": null}, "impression_id": "000b000000ec7a260a91f4449b9d5ec0373c30a760", "profile": "http://www.citysearch.com/profile/713461570/atlanta_ga/cici_s_pizza.html", "address": {"city": "Atlanta", "state": "GA", "street": "580 W Crossville Rd", "postal_code": "30303"}, "capProviderId": null, "distance": null, "has_offers": false, "name": "Cici's Pizza", "longitude": -84.378213, "has_menu": false, "awards": null, "user_review_count": 0}, {"business_operation_status": 1, "rating": null, "neighborhood": null, "image": null, "scorecard": null, "featured": false, "sample_categories": "Restaurants, Mexican", "public_id": "las-toras-mex-marietta", "id": 713611870, "votes": null, "tagline": null, "has_video": false, "website": null, "offers": null, "latitude": 33.927554, "politanName": "Atlanta, GA Metro ", "phone_number": "7705149394", "tags": [{"primary": false, "id": 11208, "name": "Mexican"}, {"primary": true, "id": 1722, "name": "Restaurants"}], "fax_number": null, "expansion": {"count": null, "uri": null}, "impression_id": "000b000000386f65bed78f4155a557d78ca918a982", "profile": "http://www.citysearch.com/profile/713611870/marietta_ga/las_toras_mex.html", "address": {"city": "Marietta", "state": "GA", "street": "1038 Franklin Rd Se", "postal_code": "30067"}, "capProviderId": null, "distance": null, "has_offers": false, "name": "Las Toras Mex", "longitude": -84.493666, "has_menu": false, "awards": null, "user_review_count": 0}, {"business_operation_status": 1, "rating": null, "neighborhood": null, "image": null, "scorecard": null, "featured": false, "sample_categories": "Restaurants", "public_id": "dangling-carrot-creative-kennesaw", "id": 770761700, "votes": null, "tagline": null, "has_video": false, "website": null, "offers": null, "latitude": 34.049037, "politanName": "Atlanta, GA Metro ", "phone_number": "7707921848", "tags": [{"primary": true, "id": 1722, "name": "Restaurants"}], "fax_number": null, "expansion": {"count": null, "uri": null}, "impression_id": "000b0000008ac3006cf5cc4815a514fc9cfffa321b", "profile": "http://www.citysearch.com/profile/770761700/kennesaw_ga/dangling_carrot_creative.html", "address": {"city": "Kennesaw", "state": "GA", "street": "3939 Royal Dr NW", "postal_code": "30144"}, "capProviderId": null, "distance": null, "has_offers": false, "name": "Dangling Carrot Creative", "longitude": -84.605715, "has_menu": false, "awards": null, "user_review_count": 0}, {"business_operation_status": 1, "rating": null, "neighborhood": null, "image": null, "scorecard": null, "featured": false, "sample_categories": "Restaurants, Mexican", "public_id": "mi-rancho-mexican-restaurant-marietta", "id": 655842120, "votes": null, "tagline": null, "has_video": false, "website": null, "offers": null, "latitude": 33.933889, "politanName": "Atlanta, GA Metro ", "phone_number": "7707940330", "tags": [{"primary": false, "id": 11208, "name": "Mexican"}, {"primary": true, "id": 1722, "name": "Restaurants"}], "fax_number": null, "expansion": {"count": null, "uri": null}, "impression_id": "000b00000009081cfd356342c1ae03843c7792bcc1", "profile": "http://www.citysearch.com/profile/655842120/marietta_ga/mi_rancho_mexican_restaurant.html", "address": {"city": "Marietta", "state": "GA", "street": "760 Sandtown Rd Sw", "postal_code": "30008"}, "capProviderId": null, "distance": null, "has_offers": false, "name": "Mi Rancho Mexican Restaurant", "longitude": -84.555648, "has_menu": false, "awards": null, "user_review_count": 0}, {"business_operation_status": 1, "rating": null, "neighborhood": null, "image": null, "scorecard": null, "featured": false, "sample_categories": "Restaurants", "public_id": "las-drisas-marietta", "id": 728109250, "votes": null, "tagline": null, "has_video": false, "website": null, "offers": null, "latitude": 33.935213, "politanName": "Atlanta, GA Metro ", "phone_number": "6783542220", "tags": [{"primary": true, "id": 1722, "name": "Restaurants"}], "fax_number": null, "expansion": {"count": null, "uri": null}, "impression_id": "000b0000003b99c4b442ff48228f441da09ee2dfd1", "profile": "http://www.citysearch.com/profile/728109250/marietta_ga/las_drisas.html", "address": {"city": "Marietta", "state": "GA", "street": "715 Sandtown Rd Sw", "postal_code": "30008"}, "capProviderId": null, "distance": null, "has_offers": false, "name": "Las Drisas", "longitude": -84.555821, "has_menu": false, "awards": null, "user_review_count": 0}, {"business_operation_status": 1, "rating": null, "neighborhood": null, "image": null, "scorecard": null, "featured": false, "sample_categories": "Catering, Restaurants", "public_id": "paisanos-catering-marietta", "id": 2908338, "votes": null, "tagline": null, "has_video": false, "website": "http://www.citysearch.com/profile/external/2908338/marietta_ga/paisanos_catering.html", "offers": null, "latitude": 34.030179, "politanName": "Atlanta, GA Metro ", "phone_number": "7709987488", "tags": [{"primary": false, "id": 1722, "name": "Restaurants"}, {"primary": true, "id": 1705, "name": "Catering"}], "fax_number": null, "expansion": {"count": null, "uri": null}, "impression_id": "000b00000004529b25f55e4b60b6786051ad4bb545", "profile": "http://www.citysearch.com/profile/2908338/marietta_ga/paisanos_catering.html", "address": {"city": "Marietta", "state": "GA", "street": "3205 Canton Rd Ste 106", "postal_code": "30066"}, "capProviderId": null, "distance": null, "has_offers": false, "name": "Paisanos Catering", "longitude": -84.528473, "has_menu": false, "awards": null, "user_review_count": 0}, {"business_operation_status": 1, "rating": null, "neighborhood": null, "image": null, "scorecard": null, "featured": false, "sample_categories": "Restaurants", "public_id": "daily-bread-cafe-marietta", "id": 787129630, "votes": null, "tagline": null, "has_video": false, "website": null, "offers": null, "latitude": 33.964179, "politanName": "Atlanta, GA Metro ", "phone_number": "7704237288", "tags": [{"primary": true, "id": 1722, "name": "Restaurants"}], "fax_number": null, "expansion": {"count": null, "uri": null}, "impression_id": "000b0000007d524bab9fd94c7db82a572084d2460c", "profile": "http://www.citysearch.com/profile/787129630/marietta_ga/daily_bread_cafe.html", "address": {"city": "Marietta", "state": "GA", "street": "531 Roselane St NW", "postal_code": "30060"}, "capProviderId": null, "distance": null, "has_offers": false, "name": "Daily Bread Cafe", "longitude": -84.556876, "has_menu": false, "awards": null, "user_review_count": 0}, {"business_operation_status": 1, "rating": null, "neighborhood": null, "image": null, "scorecard": null, "featured": false, "sample_categories": "Restaurants", "public_id": "saigon-pearl-marietta", "id": 672478560, "votes": null, "tagline": null, "has_video": false, "website": null, "offers": null, "latitude": 34.018696, "politanName": "Atlanta, GA Metro ", "phone_number": "7705147555", "tags": [{"primary": true, "id": 1722, "name": "Restaurants"}], "fax_number": null, "expansion": {"count": null, "uri": null}, "impression_id": "000b0000001250ec7c7153458c8c6f83ba795b326e", "profile": "http://www.citysearch.com/profile/672478560/marietta_ga/saigon_pearl.html", "address": {"city": "Marietta", "state": "GA", "street": "2755 Canton Rd NE", "postal_code": "30066"}, "capProviderId": null, "distance": null, "has_offers": false, "name": "Saigon Pearl", "longitude": -84.528341, "has_menu": false, "awards": null, "user_review_count": 0}, {"business_operation_status": 1, "rating": null, "neighborhood": null, "image": null, "scorecard": null, "featured": false, "sample_categories": "Restaurants", "public_id": "j-k-island-cafe-marietta", "id": 808002760, "votes": null, "tagline": null, "has_video": false, "website": null, "offers": null, "latitude": 33.953203, "politanName": "Atlanta, GA Metro ", "phone_number": "6782909933", "tags": [{"primary": true, "id": 1722, "name": "Restaurants"}], "fax_number": null, "expansion": {"count": null, "uri": null}, "impression_id": "000b000000a079b13c2cff448a82eaaeca67d3e740", "profile": "http://www.citysearch.com/profile/808002760/marietta_ga/j_k_island_cafe.html", "address": {"city": "Marietta", "state": "GA", "street": "2503 Zachary Woods Dr NW", "postal_code": "30064"}, "capProviderId": null, "distance": null, "has_offers": false, "name": "J & K Island Cafe", "longitude": -84.630386, "has_menu": false, "awards": null, "user_review_count": 0}, {"business_operation_status": 1, "rating": null, "neighborhood": null, "image": null, "scorecard": null, "featured": false, "sample_categories": "Restaurants, Carry Out", "public_id": "corner-bakery-cafe-atlanta-6", "id": 607149504, "votes": null, "tagline": null, "has_video": false, "website": "http://www.citysearch.com/profile/external/607149504/atlanta_ga/corner_bakery_cafe.html", "offers": null, "latitude": 33.884294, "politanName": "Atlanta, GA Metro ", "phone_number": "6784330070", "tags": [{"primary": false, "id": 11247, "name": "Carry Out"}, {"primary": true, "id": 1722, "name": "Restaurants"}], "fax_number": null, "expansion": {"count": null, "uri": null}, "impression_id": "000b000000dbf29ded8ac64612a5807430fbc67486", "profile": "http://www.citysearch.com/profile/607149504/atlanta_ga/corner_bakery_cafe.html", "address": {"city": "Atlanta", "state": "GA", "street": "2973 Cobb Pkwy SE", "postal_code": "30339"}, "capProviderId": null, "distance": null, "has_offers": false, "name": "Corner Bakery Cafe", "longitude": -84.469653, "has_menu": false, "awards": null, "user_review_count": 0}, {"business_operation_status": 1, "rating": null, "neighborhood": null, "image": null, "scorecard": null, "featured": false, "sample_categories": "Restaurants, Pizza", "public_id": "patagonia-pizzeria-bakery-marietta", "id": 811210800, "votes": null, "tagline": null, "has_video": false, "website": null, "offers": null, "latitude": 33.938607, "politanName": "Atlanta, GA Metro ", "phone_number": "6789032597", "tags": [{"primary": false, "id": 11299, "name": "Pizza"}, {"primary": true, "id": 1722, "name": "Restaurants"}], "fax_number": null, "expansion": {"count": null, "uri": null}, "impression_id": "000b000000c3bb44047d554aec95f68adc09785346", "profile": "http://www.citysearch.com/profile/811210800/marietta_ga/patagonia_pizzeria_bakery.html", "address": {"city": "Marietta", "state": "GA", "street": "585 Franklin Rd SE", "postal_code": "30067"}, "capProviderId": null, "distance": null, "has_offers": false, "name": "Patagonia Pizzeria & Bakery", "longitude": -84.50623, "has_menu": false, "awards": null, "user_review_count": 0}, {"business_operation_status": 1, "rating": null, "neighborhood": null, "image": null, "scorecard": null, "featured": false, "sample_categories": "Coffeehouses", "public_id": "place-espresso-marietta", "id": 608864624, "votes": null, "tagline": null, "has_video": false, "website": null, "offers": null, "latitude": 33.919861, "politanName": "Atlanta, GA Metro ", "phone_number": "6782145303", "tags": [{"primary": true, "id": 1726, "name": "Coffeehouses"}], "fax_number": null, "expansion": {"count": null, "uri": null}, "impression_id": "000b000000cafaf72c98984c168edd5973fd54ab84", "profile": "http://www.citysearch.com/profile/608864624/marietta_ga/place_espresso.html", "address": {"city": "Marietta", "state": "GA", "street": "1350 Terrell Mill Rd SE", "postal_code": "30067"}, "capProviderId": null, "distance": null, "has_offers": false, "name": "Place Espresso", "longitude": -84.466207, "has_menu": false, "awards": null, "user_review_count": 0}, {"business_operation_status": 1, "rating": null, "neighborhood": null, "image": null, "scorecard": null, "featured": false, "sample_categories": "Restaurants, Pizza, Carry Out", "public_id": "pizza-hut-atlanta-34", "id": 824168770, "votes": null, "tagline": null, "has_video": false, "website": "http://www.citysearch.com/profile/external/824168770/atlanta_ga/pizza_hut.html", "offers": null, "latitude": 33.884828, "politanName": "Atlanta, GA Metro ", "phone_number": "7709528054", "tags": [{"primary": false, "id": 1722, "name": "Restaurants"}, {"primary": false, "id": 11247, "name": "Carry Out"}, {"primary": true, "id": 11299, "name": "Pizza"}], "fax_number": null, "expansion": {"count": null, "uri": null}, "impression_id": "000b0000004ddb3035cc5d4fd2a5420ce8981d3df3", "profile": "http://www.citysearch.com/profile/824168770/atlanta_ga/pizza_hut.html", "address": {"city": "Atlanta", "state": "GA", "street": "2771 Spring Rd Se", "postal_code": "30339"}, "capProviderId": null, "distance": null, "has_offers": false, "name": "Pizza Hut", "longitude": -84.472366, "has_menu": true, "awards": null, "user_review_count": 0}, {"business_operation_status": 1, "rating": null, "neighborhood": null, "image": null, "scorecard": null, "featured": false, "sample_categories": "Restaurants", "public_id": "cena-roswell", "id": 621988950, "votes": null, "tagline": null, "has_video": false, "website": null, "offers": null, "latitude": 34.005286, "politanName": "Atlanta, GA Metro ", "phone_number": "7704355855", "tags": [{"primary": true, "id": 1722, "name": "Restaurants"}], "fax_number": null, "expansion": {"count": null, "uri": null}, "impression_id": "000b000000119cb4c143b14a04a71d00cba8aa9b71", "profile": "http://www.citysearch.com/profile/621988950/roswell_ga/cena.html", "address": {"city": "Roswell", "state": "GA", "street": "920 Marietta Hwy # 300", "postal_code": "30075"}, "capProviderId": null, "distance": null, "has_offers": false, "name": "Cena", "longitude": -84.389879, "has_menu": false, "awards": null, "user_review_count": 0}, {"business_operation_status": 1, "rating": null, "neighborhood": null, "image": null, "scorecard": null, "featured": false, "sample_categories": "Restaurants", "public_id": "casual-dining-div-shoneys-marietta", "id": 838709350, "votes": null, "tagline": null, "has_video": false, "website": null, "offers": null, "latitude": 33.912514, "politanName": "Atlanta, GA Metro ", "phone_number": "6788190697", "tags": [{"primary": true, "id": 1722, "name": "Restaurants"}], "fax_number": null, "expansion": {"count": null, "uri": null}, "impression_id": "000b0000009bc93bd7514c403487a8706876b000b0", "profile": "http://www.citysearch.com/profile/838709350/marietta_ga/casual_dining_div_shoneys.html", "address": {"city": "Marietta", "state": "GA", "street": "1640 Powers Ferry Rd SE", "postal_code": "30067"}, "capProviderId": null, "distance": null, "has_offers": false, "name": "Casual Dining Div Shoneys", "longitude": -84.46689, "has_menu": true, "awards": null, "user_review_count": 0}, {"business_operation_status": 1, "rating": null, "neighborhood": null, "image": null, "scorecard": null, "featured": false, "sample_categories": "Restaurants", "public_id": "spice-it-up-cafe-marietta", "id": 839365090, "votes": null, "tagline": null, "has_video": false, "website": null, "offers": null, "latitude": 33.944775, "politanName": "Atlanta, GA Metro ", "phone_number": "6789034384", "tags": [{"primary": true, "id": 1722, "name": "Restaurants"}], "fax_number": null, "expansion": {"count": null, "uri": null}, "impression_id": "000b000000ecb1b3caac0744a6b3dafdc250366d4a", "profile": "http://www.citysearch.com/profile/839365090/marietta_ga/spice_it_up_cafe.html", "address": {"city": "Marietta", "state": "GA", "street": "316 S Fairground St SE", "postal_code": "30060"}, "capProviderId": null, "distance": null, "has_offers": false, "name": "Spice It Up Cafe", "longitude": -84.535719, "has_menu": true, "awards": null, "user_review_count": 0}, {"business_operation_status": 1, "rating": null, "neighborhood": null, "image": null, "scorecard": null, "featured": false, "sample_categories": "Restaurants", "public_id": "north-of-new-orleans-roswell", "id": 655942250, "votes": null, "tagline": null, "has_video": false, "website": null, "offers": null, "latitude": 34.016917, "politanName": "Atlanta, GA Metro ", "phone_number": "7709931000", "tags": [{"primary": true, "id": 1722, "name": "Restaurants"}], "fax_number": null, "expansion": {"count": null, "uri": null}, "impression_id": "000b0000005ee3cecfdf154d94b3a6f04db90897ec", "profile": "http://www.citysearch.com/profile/655942250/roswell_ga/north_of_new_orleans.html", "address": {"city": "Roswell", "state": "GA", "street": "659 Atlanta St", "postal_code": "30075"}, "capProviderId": null, "distance": null, "has_offers": false, "name": "North Of New Orleans", "longitude": -84.362319, "has_menu": false, "awards": null, "user_review_count": 0}, {"business_operation_status": 1, "rating": null, "neighborhood": null, "image": null, "scorecard": null, "featured": false, "sample_categories": "Restaurants, Carry Out", "public_id": "bojangles-famous-chicken-canton-3", "id": 613961744, "votes": null, "tagline": null, "has_video": false, "website": "http://www.citysearch.com/profile/external/613961744/canton_ga/bojangles_famous_chicken.html", "offers": null, "latitude": 34.1716, "politanName": "Atlanta, GA Metro ", "phone_number": "7704790935", "tags": [{"primary": false, "id": 11247, "name": "Carry Out"}, {"primary": true, "id": 1722, "name": "Restaurants"}], "fax_number": null, "expansion": {"count": null, "uri": null}, "impression_id": "000b000000954984e3331e4c4b9a2f19f529c8b542", "profile": "http://www.citysearch.com/profile/613961744/canton_ga/bojangles_famous_chicken.html", "address": {"city": "Canton", "state": "GA", "street": "3010 E Cherokee Dr", "postal_code": "30115"}, "capProviderId": null, "distance": null, "has_offers": false, "name": "Bojangles' Famous Chicken", "longitude": -84.422009, "has_menu": false, "awards": null, "user_review_count": 0}, {"business_operation_status": 1, "rating": null, "neighborhood": null, "image": null, "scorecard": null, "featured": false, "sample_categories": "Restaurants", "public_id": "loaf-ladle-atlanta", "id": 44776989, "votes": null, "tagline": null, "has_video": false, "website": null, "offers": null, "latitude": 33.994607, "politanName": "Atlanta, GA Metro ", "phone_number": "7705180200", "tags": [{"primary": true, "id": 1722, "name": "Restaurants"}], "fax_number": null, "expansion": {"count": null, "uri": null}, "impression_id": "000b000000db74b264a146412b86266173df072f31", "profile": "http://www.citysearch.com/profile/44776989/atlanta_ga/loaf_ladle.html", "address": {"city": "Atlanta", "state": "GA", "street": "8725 Roswell Rd", "postal_code": "30350"}, "capProviderId": null, "distance": null, "has_offers": false, "name": "Loaf & Ladle", "longitude": -84.349559, "has_menu": false, "awards": null, "user_review_count": 0}, {"business_operation_status": 1, "rating": null, "neighborhood": null, "image": null, "scorecard": null, "featured": false, "sample_categories": "Restaurants", "public_id": "my-cousin-vinnys-kennesaw-2", "id": 615555824, "votes": null, "tagline": null, "has_video": false, "website": null, "offers": null, "latitude": 34.013172, "politanName": "Atlanta, GA Metro ", "phone_number": "7704230391", "tags": [{"primary": true, "id": 1722, "name": "Restaurants"}], "fax_number": null, "expansion": {"count": null, "uri": null}, "impression_id": "000b000000b64a8e1fc66c46a9b4260a8e45f8420a", "profile": "http://www.citysearch.com/profile/615555824/kennesaw_ga/my_cousin_vinny_s.html", "address": {"city": "Kennesaw", "state": "GA", "street": "2615 George Busbee Pkwy NW 26", "postal_code": "30144"}, "capProviderId": null, "distance": null, "has_offers": false, "name": "My Cousin Vinny's", "longitude": -84.567215, "has_menu": false, "awards": null, "user_review_count": 0}, {"business_operation_status": 1, "rating": null, "neighborhood": null, "image": null, "scorecard": null, "featured": false, "sample_categories": "Restaurants, Sandwich Shops, Pizza, Carry Out, American Express", "public_id": "mellow-mushroom-kennesaw", "id": 601313022, "votes": null, "tagline": null, "has_video": false, "website": "http://www.citysearch.com/profile/external/601313022/kennesaw_ga/mellow_mushroom.html", "offers": null, "latitude": 34.030476, "politanName": "Atlanta, GA Metro ", "phone_number": "7704269900", "tags": [{"primary": false, "id": 1722, "name": "Restaurants"}, {"primary": false, "id": 1736, "name": "Sandwich Shops"}, {"primary": false, "id": 11247, "name": "Carry Out"}, {"primary": false, "id": 11333, "name": "American Express"}, {"primary": false, "id": 11349, "name": "Discover"}, {"primary": false, "id": 11361, "name": "MasterCard"}, {"primary": false, "id": 11382, "name": "Visa"}, {"primary": true, "id": 11299, "name": "Pizza"}], "fax_number": null, "expansion": {"count": null, "uri": null}, "impression_id": "000b000000ca5edc3a800d4b99bb992c25e78f159b", "profile": "http://www.citysearch.com/profile/601313022/kennesaw_ga/mellow_mushroom.html", "address": {"city": "Kennesaw", "state": "GA", "street": "1133 Chastain Rd Nw", "postal_code": "30144"}, "capProviderId": null, "distance": null, "has_offers": false, "name": "Mellow Mushroom", "longitude": -84.58315, "has_menu": true, "awards": null, "user_review_count": 0}, {"business_operation_status": 1, "rating": null, "neighborhood": null, "image": null, "scorecard": null, "featured": false, "sample_categories": "Restaurants, Pizza, Carry Out", "public_id": "papa-johns-pizza-marietta-2", "id": 632029900, "votes": null, "tagline": null, "has_video": false, "website": null, "offers": null, "latitude": 33.952112, "politanName": "Atlanta, GA Metro ", "phone_number": "7704267272", "tags": [{"primary": false, "id": 1722, "name": "Restaurants"}, {"primary": false, "id": 11247, "name": "Carry Out"}, {"primary": true, "id": 11299, "name": "Pizza"}], "fax_number": null, "expansion": {"count": null, "uri": null}, "impression_id": "000b0000004806fba28542407f87eec1ccb3920b0d", "profile": "http://www.citysearch.com/profile/632029900/marietta_ga/papa_john_s_pizza.html", "address": {"city": "Marietta", "state": "GA", "street": "971 Whitlock Ave Sw", "postal_code": "30064"}, "capProviderId": null, "distance": null, "has_offers": false, "name": "Papa John's Pizza", "longitude": -84.578857, "has_menu": false, "awards": null, "user_review_count": 0}, {"business_operation_status": 1, "rating": null, "neighborhood": null, "image": null, "scorecard": null, "featured": false, "sample_categories": "Restaurants", "public_id": "may-mei-inc-kennesaw", "id": 632940340, "votes": null, "tagline": null, "has_video": false, "website": null, "offers": null, "latitude": 34.040605, "politanName": "Atlanta, GA Metro ", "phone_number": "7707940178", "tags": [{"primary": true, "id": 1722, "name": "Restaurants"}], "fax_number": null, "expansion": {"count": null, "uri": null}, "impression_id": "000b000000e68df515df0c4ed598715e3d8be2949d", "profile": "http://www.citysearch.com/profile/632940340/kennesaw_ga/may_mei_inc.html", "address": {"city": "Kennesaw", "state": "GA", "street": "156 N Lakeside Dr Nw", "postal_code": "30144"}, "capProviderId": null, "distance": null, "has_offers": false, "name": "May & Mei Inc", "longitude": -84.552751, "has_menu": false, "awards": null, "user_review_count": 0}, {"business_operation_status": 1, "rating": null, "neighborhood": null, "image": null, "scorecard": null, "featured": false, "sample_categories": "Restaurants, Sushi, Japanese, Asian", "public_id": "haiku-sushi-bar-roswell", "id": 711408360, "votes": null, "tagline": null, "has_video": false, "website": null, "offers": null, "latitude": 34.073102, "politanName": "Atlanta, GA Metro ", "phone_number": "7706452887", "tags": [{"primary": false, "id": 1722, "name": "Restaurants"}, {"primary": false, "id": 11202, "name": "Japanese"}, {"primary": false, "id": 11235, "name": "Asian"}, {"primary": true, "id": 11201, "name": "Sushi"}], "fax_number": null, "expansion": {"count": null, "uri": null}, "impression_id": "000b00000012d0a2abeb804e869c507fec4fb3d7f7", "profile": "http://www.citysearch.com/profile/711408360/roswell_ga/haiku_sushi_bar.html", "address": {"city": "Roswell", "state": "GA", "street": "12040 Etris Rd #150", "postal_code": "30075"}, "capProviderId": null, "distance": null, "has_offers": false, "name": "Haiku Sushi & Bar", "longitude": -84.362597, "has_menu": false, "awards": null, "user_review_count": 0}, {"business_operation_status": 1, "rating": null, "neighborhood": null, "image": null, "scorecard": null, "featured": false, "sample_categories": "Restaurants, Carry Out", "public_id": "firehouse-subs-atlanta-7", "id": 612394034, "votes": null, "tagline": null, "has_video": false, "website": null, "offers": null, "latitude": 33.884294, "politanName": "Atlanta, GA Metro ", "phone_number": "6784248042", "tags": [{"primary": false, "id": 11247, "name": "Carry Out"}, {"primary": true, "id": 1722, "name": "Restaurants"}], "fax_number": null, "expansion": {"count": null, "uri": null}, "impression_id": "000b00000016477e5245cf4b448af6e4f4bfad8402", "profile": "http://www.citysearch.com/profile/612394034/atlanta_ga/firehouse_subs.html", "address": {"city": "Atlanta", "state": "GA", "street": "2970 Cobb Pkwy SE", "postal_code": "30339"}, "capProviderId": null, "distance": null, "has_offers": false, "name": "Firehouse Subs", "longitude": -84.469653, "has_menu": true, "awards": null, "user_review_count": 0}, {"business_operation_status": 1, "rating": null, "neighborhood": null, "image": null, "scorecard": null, "featured": false, "sample_categories": "Restaurants", "public_id": "tin-drum-asiacafe-marietta", "id": 614029774, "votes": null, "tagline": null, "has_video": false, "website": null, "offers": null, "latitude": 34.013358, "politanName": "Atlanta, GA Metro ", "phone_number": "6785403471", "tags": [{"primary": true, "id": 1722, "name": "Restaurants"}], "fax_number": null, "expansion": {"count": null, "uri": null}, "impression_id": "000b000000e58fa81c18d4427f8d1feb9e7d57b397", "profile": "http://www.citysearch.com/profile/614029774/marietta_ga/tin_drum_asiacafe.html", "address": {"city": "Marietta", "state": "GA", "street": "125 Ernest Barrett Pkwy NW", "postal_code": "30066"}, "capProviderId": null, "distance": null, "has_offers": false, "name": "Tin Drum Asiacafe", "longitude": -84.553529, "has_menu": false, "awards": null, "user_review_count": 0}, {"business_operation_status": 1, "rating": null, "neighborhood": null, "image": null, "scorecard": null, "featured": false, "sample_categories": "Bakeries, Restaurants", "public_id": "flowers-baking-co-marietta-2", "id": 2909781, "votes": null, "tagline": null, "has_video": false, "website": "http://www.citysearch.com/profile/external/2909781/marietta_ga/flowers_baking_co.html", "offers": null, "latitude": 33.948214, "politanName": "Atlanta, GA Metro ", "phone_number": "7709735200", "tags": [{"primary": false, "id": 1722, "name": "Restaurants"}, {"primary": true, "id": 1685, "name": "Bakeries"}], "fax_number": null, "expansion": {"count": null, "uri": null}, "impression_id": "000b000000cf2fbca9a35a474c94626d84c0075e26", "profile": "http://www.citysearch.com/profile/2909781/marietta_ga/flowers_baking_co.html", "address": {"city": "Marietta", "state": "GA", "street": "146 Powers Ferry Rd SE", "postal_code": "30067"}, "capProviderId": null, "distance": null, "has_offers": false, "name": "Flowers Baking Co", "longitude": -84.505792, "has_menu": false, "awards": null, "user_review_count": 0}, {"business_operation_status": 1, "rating": null, "neighborhood": null, "image": null, "scorecard": null, "featured": false, "sample_categories": "Restaurants, Bakeries, Delis And Delicatessens, MasterCard, Visa", "public_id": "sunnys-bagel-deli-kennesaw", "id": 2954916, "votes": null, "tagline": null, "has_video": false, "website": "http://www.citysearch.com/profile/external/2954916/kennesaw_ga/sunny_s_bagel_deli.html", "offers": null, "latitude": 34.012738, "politanName": "Atlanta, GA Metro ", "phone_number": "7707950099", "tags": [{"primary": false, "id": 1685, "name": "Bakeries"}, {"primary": false, "id": 1727, "name": "Delis And Delicatessens"}, {"primary": false, "id": 11361, "name": "MasterCard"}, {"primary": false, "id": 11382, "name": "Visa"}, {"primary": true, "id": 1722, "name": "Restaurants"}], "fax_number": null, "expansion": {"count": null, "uri": null}, "impression_id": "000b00000089ce181ce6294c349b06ed09e00de5d1", "profile": "http://www.citysearch.com/profile/2954916/kennesaw_ga/sunny_s_bagel_deli.html", "address": {"city": "Kennesaw", "state": "GA", "street": "440 Ernest W Barrett Pkwy NW # 8", "postal_code": "30144"}, "capProviderId": null, "distance": null, "has_offers": false, "name": "Sunny's Bagel & Deli", "longitude": -84.5643, "has_menu": false, "awards": null, "user_review_count": 0}, {"business_operation_status": 1, "rating": 10.0, "neighborhood": null, "image": null, "scorecard": null, "featured": false, "sample_categories": "Restaurants, Catering, Traditional American, Southwestern", "public_id": "buffalos-southwest-cafe-woodstock", "id": 2963628, "votes": null, "tagline": null, "has_video": false, "website": "http://www.citysearch.com/profile/external/2963628/woodstock_ga/buffalo_s_southwest_cafe.html", "offers": null, "latitude": 34.087958, "politanName": "Atlanta, GA Metro ", "phone_number": "7705919464", "tags": [{"primary": false, "id": 1705, "name": "Catering"}, {"primary": false, "id": 11190, "name": "Traditional American"}, {"primary": false, "id": 11313, "name": "Southwestern"}, {"primary": true, "id": 1722, "name": "Restaurants"}], "fax_number": null, "expansion": {"count": null, "uri": null}, "impression_id": "000b0000004aded178d1084f5db457068587698d7e", "profile": "http://www.citysearch.com/profile/2963628/woodstock_ga/buffalo_s_southwest_cafe.html", "address": {"city": "Woodstock", "state": "GA", "street": "12035 Highway 92 Ste 100", "postal_code": "30188"}, "capProviderId": null, "distance": null, "has_offers": false, "name": "Buffalo's Southwest Cafe", "longitude": -84.48622, "has_menu": true, "awards": null, "user_review_count": 3}, {"business_operation_status": 1, "rating": null, "neighborhood": null, "image": null, "scorecard": null, "featured": false, "sample_categories": "Bars & Pubs, Bars & Clubs, Restaurants", "public_id": "milos-bar-grill-marietta-2", "id": 684764240, "votes": null, "tagline": null, "has_video": false, "website": null, "offers": null, "latitude": 33.938164, "politanName": "Atlanta, GA Metro ", "phone_number": "7704281544", "tags": [{"primary": false, "id": 164, "name": "Bars & Clubs"}, {"primary": false, "id": 1722, "name": "Restaurants"}, {"primary": true, "id": 1686, "name": "Bars & Pubs"}], "fax_number": null, "expansion": {"count": null, "uri": null}, "impression_id": "000b000000d13b9ade7b3f44008934dc6afb378994", "profile": "http://www.citysearch.com/profile/684764240/marietta_ga/milo_s_bar_grill.html", "address": {"city": "Marietta", "state": "GA", "street": "11 Garrison Rd Se", "postal_code": "30008"}, "capProviderId": null, "distance": null, "has_offers": false, "name": "Milo's Bar & Grill", "longitude": -84.553286, "has_menu": false, "awards": null, "user_review_count": 0}, {"business_operation_status": 1, "rating": null, "neighborhood": null, "image": null, "scorecard": null, "featured": false, "sample_categories": "Catering, Restaurants, Asian, Carry Out, Chinese", "public_id": "hong-kong-star-mariettaeast-cobb-marietta", "id": 756444040, "votes": null, "tagline": null, "has_video": false, "website": null, "offers": null, "latitude": 33.965965, "politanName": "Atlanta, GA Metro ", "phone_number": "7705092129", "tags": [{"primary": false, "id": 1722, "name": "Restaurants"}, {"primary": false, "id": 11235, "name": "Asian"}, {"primary": false, "id": 11247, "name": "Carry Out"}, {"primary": false, "id": 11252, "name": "Chinese"}, {"primary": false, "id": 11267, "name": "Food Delivery"}, {"primary": true, "id": 1705, "name": "Catering"}], "fax_number": null, "expansion": {"count": null, "uri": null}, "impression_id": "000b0000003d61e7008af84316a61d1856ee4cde91", "profile": "http://www.citysearch.com/profile/756444040/marietta_ga/hong_kong_star_marietta_east_cobb.html", "address": {"city": "Marietta", "state": "GA", "street": "4719 Lower Roswell Rd", "postal_code": "30068"}, "capProviderId": null, "distance": null, "has_offers": false, "name": "Hong Kong Star Marietta-East Cobb", "longitude": -84.415167, "has_menu": false, "awards": null, "user_review_count": 0}], "histograms": [], "tag_ids": [1722], "uri": "http://api.citygridmedia.com:8080/search/places/v2/search/where?has_offers=false&type=restaurant&format=json&page=24&where=30062&rpp=50&histograms=false&publisher=10000009598&region_type=circle", "did_you_mean": "", "regions": [{"latitude": 34.001368, "default_radius": 5.22, "type": "postal_code", "name": "30062", "longitude": -84.466397}], "call_id": "000b000000a0e06eef80d74b508f5d97c3712d40d1", "first_hit": 1151, "total_hits": 2160, "geo_ids": [26292], "page": 24, "last_hit": 1200}}