{"results": {"rpp": 50, "locations": [{"business_operation_status": 1, "rating": null, "neighborhood": null, "image": null, "scorecard": null, "featured": false, "sample_categories": "Restaurants, Indian", "public_id": "curry-cravings-roswell", "id": 745604830, "votes": null, "tagline": null, "has_video": false, "website": null, "offers": null, "latitude": 34.0745, "politanName": "Atlanta, GA Metro ", "phone_number": "4048611282", "tags": [{"primary": false, "id": 11277, "name": "Indian"}, {"primary": true, "id": 1722, "name": "Restaurants"}], "fax_number": null, "expansion": {"count": null, "uri": null}, "impression_id": "000b0000002c625b5f6cc54413b14610593e906fc3", "profile": "http://www.citysearch.com/profile/745604830/roswell_ga/curry_cravings.html", "address": {"city": "Roswell", "state": "GA", "street": "1215 Birchwood Ln", "postal_code": "30076"}, "capProviderId": null, "distance": null, "has_offers": false, "name": "Curry Cravings", "longitude": -84.35581, "has_menu": false, "awards": null, "user_review_count": 0}, {"business_operation_status": 1, "rating": null, "neighborhood": null, "image": null, "scorecard": null, "featured": false, "sample_categories": "Restaurants, Hamburgers", "public_id": "stax-burger-bar-roswell", "id": 748278190, "votes": null, "tagline": null, "has_video": false, "website": null, "offers": null, "latitude": 34.033417, "politanName": "Atlanta, GA Metro ", "phone_number": "7709922229", "tags": [{"primary": false, "id": 11270, "name": "Hamburgers"}, {"primary": true, "id": 1722, "name": "Restaurants"}], "fax_number": null, "expansion": {"count": null, "uri": null}, "impression_id": "000b000000b1b6869122ce4053bed22de5c50e9fee", "profile": "http://www.citysearch.com/profile/748278190/roswell_ga/stax_burger_bar.html", "address": {"city": "Roswell", "state": "GA", "street": "690 Holcomb Bridge Rd", "postal_code": "30076"}, "capProviderId": null, "distance": null, "has_offers": false, "name": "Stax Burger Bar", "longitude": -84.339787, "has_menu": false, "awards": null, "user_review_count": 0}, {"business_operation_status": 1, "rating": null, "neighborhood": null, "image": null, "scorecard": null, "featured": false, "sample_categories": "Restaurants, Grocery Stores", "public_id": "shivam-marietta", "id": 638803240, "votes": null, "tagline": null, "has_video": false, "website": null, "offers": null, "latitude": 33.998509, "politanName": "Atlanta, GA Metro ", "phone_number": "7709717448", "tags": [{"primary": false, "id": 1713, "name": "Grocery Stores"}, {"primary": true, "id": 1722, "name": "Restaurants"}], "fax_number": null, "expansion": {"count": null, "uri": null}, "impression_id": "000b000000ab9a4acf15d74de6904bbd5597d9e70f", "profile": "http://www.citysearch.com/profile/638803240/marietta_ga/shivam.html", "address": {"city": "Marietta", "state": "GA", "street": "1338 Eastbrooke Trce", "postal_code": "30066"}, "capProviderId": null, "distance": null, "has_offers": false, "name": "Shivam", "longitude": -84.505954, "has_menu": false, "awards": null, "user_review_count": 0}, {"business_operation_status": 1, "rating": null, "neighborhood": null, "image": null, "scorecard": null, "featured": false, "sample_categories": "Restaurants, Carry Out", "public_id": "zaxbys-smyrna-4", "id": 625733364, "votes": null, "tagline": null, "has_video": false, "website": null, "offers": null, "latitude": 33.879925, "politanName": "Atlanta, GA Metro ", "phone_number": "6788704000", "tags": [{"primary": false, "id": 11247, "name": "Carry Out"}, {"primary": true, "id": 1722, "name": "Restaurants"}], "fax_number": null, "expansion": {"count": null, "uri": null}, "impression_id": "000b000000e9f459c207ae4f3e879d70f4b22d6a6a", "profile": "http://www.citysearch.com/profile/625733364/smyrna_ga/zaxby_s.html", "address": {"city": "Smyrna", "state": "GA", "street": "1420 Spring Rd SE", "postal_code": "30080"}, "capProviderId": null, "distance": null, "has_offers": false, "name": "Zaxby's", "longitude": -84.51175, "has_menu": false, "awards": null, "user_review_count": 0}, {"business_operation_status": 1, "rating": null, "neighborhood": null, "image": null, "scorecard": null, "featured": false, "sample_categories": "Restaurants, Pizza", "public_id": "blue-moon-pizza-marietta-3", "id": 745594000, "votes": null, "tagline": null, "has_video": false, "website": null, "offers": null, "latitude": 33.913381, "politanName": "Atlanta, GA Metro ", "phone_number": "7709842444", "tags": [{"primary": false, "id": 1722, "name": "Restaurants"}, {"primary": true, "id": 11299, "name": "Pizza"}], "fax_number": null, "expansion": {"count": null, "uri": null}, "impression_id": "000b000000429ef7afc89542c5b41ff8e0682779e9", "profile": "http://www.citysearch.com/profile/745594000/marietta_ga/blue_moon_pizza.html", "address": {"city": "Marietta", "state": "GA", "street": "1307 Wynnes Ridge Cir SE", "postal_code": "30067"}, "capProviderId": null, "distance": null, "has_offers": false, "name": "Blue Moon Pizza", "longitude": -84.468451, "has_menu": false, "awards": null, "user_review_count": 0}, {"business_operation_status": 1, "rating": null, "neighborhood": null, "image": null, "scorecard": null, "featured": false, "sample_categories": "Restaurants", "public_id": "samad-grill-sandy", "id": 766803030, "votes": null, "tagline": null, "has_video": false, "website": null, "offers": null, "latitude": 34.002189, "politanName": "Atlanta, GA Metro ", "phone_number": "7708073700", "tags": [{"primary": true, "id": 1722, "name": "Restaurants"}], "fax_number": null, "expansion": {"count": null, "uri": null}, "impression_id": "000b000000610f169216e14704a8ac9a03f764326d", "profile": "http://www.citysearch.com/profile/766803030/sandy_springs_ga/samad_grill.html", "address": {"city": "Sandy Springs", "state": "GA", "street": "8897 Roswell Rd", "postal_code": "30350"}, "capProviderId": null, "distance": null, "has_offers": false, "name": "Samad Grill", "longitude": -84.350442, "has_menu": false, "awards": null, "user_review_count": 0}, {"business_operation_status": 0, "rating": null, "neighborhood": null, "image": null, "scorecard": null, "featured": false, "sample_categories": "Restaurants", "public_id": "froots-kennesaw", "id": 672730530, "votes": null, "tagline": null, "has_video": false, "website": null, "offers": null, "latitude": 34.035364, "politanName": "Atlanta, GA Metro ", "phone_number": "7704998200", "tags": [{"primary": true, "id": 1722, "name": "Restaurants"}], "fax_number": null, "expansion": {"count": null, "uri": null}, "impression_id": "000b00000058a29c25108f4abd94b315027cf4e02f", "profile": "http://www.citysearch.com/profile/672730530/kennesaw_ga/froots.html", "address": {"city": "Kennesaw", "state": "GA", "street": "745 Chastain Road NW", "postal_code": "30144"}, "capProviderId": null, "distance": null, "has_offers": false, "name": "Froots", "longitude": -84.570141, "has_menu": false, "awards": null, "user_review_count": 3}, {"business_operation_status": 1, "rating": null, "neighborhood": null, "image": null, "scorecard": null, "featured": false, "sample_categories": "Restaurants", "public_id": "la-hispaniola-marietta", "id": 672780210, "votes": null, "tagline": null, "has_video": false, "website": null, "offers": null, "latitude": 33.952062, "politanName": "Atlanta, GA Metro ", "phone_number": "7704240093", "tags": [{"primary": true, "id": 1722, "name": "Restaurants"}], "fax_number": null, "expansion": {"count": null, "uri": null}, "impression_id": "000b0000006428870dc0de44a09d7aa2822c789efe", "profile": "http://www.citysearch.com/profile/672780210/marietta_ga/la_hispaniola.html", "address": {"city": "Marietta", "state": "GA", "street": "168 Roswell St NE", "postal_code": "30060"}, "capProviderId": null, "distance": null, "has_offers": false, "name": "La Hispaniola", "longitude": -84.548376, "has_menu": false, "awards": null, "user_review_count": 0}, {"business_operation_status": 1, "rating": null, "neighborhood": null, "image": null, "scorecard": null, "featured": false, "sample_categories": "Restaurants, Carry Out, Pizza", "public_id": "jimmy-johns-marietta", "id": 672132390, "votes": null, "tagline": null, "has_video": false, "website": null, "offers": null, "latitude": 33.970943, "politanName": "Atlanta, GA Metro ", "phone_number": "6785814550", "tags": [{"primary": false, "id": 11247, "name": "Carry Out"}, {"primary": false, "id": 11299, "name": "Pizza"}, {"primary": true, "id": 1722, "name": "Restaurants"}], "fax_number": null, "expansion": {"count": null, "uri": null}, "impression_id": "000b00000057ff64c2bbb142c7a7eef3ec58c266a0", "profile": "http://www.citysearch.com/profile/672132390/marietta_ga/jimmy_john_s.html", "address": {"city": "Marietta", "state": "GA", "street": "801 Church St NE Ste A", "postal_code": "30060"}, "capProviderId": null, "distance": null, "has_offers": false, "name": "Jimmy John's", "longitude": -84.550624, "has_menu": false, "awards": null, "user_review_count": 0}, {"business_operation_status": 1, "rating": null, "neighborhood": null, "image": null, "scorecard": null, "featured": false, "sample_categories": "Restaurants", "public_id": "tin-drum-roswell", "id": 777667510, "votes": null, "tagline": null, "has_video": false, "website": null, "offers": null, "latitude": 34.044357, "politanName": "Atlanta, GA Metro ", "phone_number": "7706415082", "tags": [{"primary": true, "id": 1722, "name": "Restaurants"}], "fax_number": null, "expansion": {"count": null, "uri": null}, "impression_id": "000b000000095a33d319ae44b988da94e2c99f3ae5", "profile": "http://www.citysearch.com/profile/777667510/roswell_ga/tin_drum.html", "address": {"city": "Roswell", "state": "GA", "street": "10800 Alpharetta Hwy", "postal_code": "30076"}, "capProviderId": null, "distance": null, "has_offers": false, "name": "Tin Drum", "longitude": -84.342383, "has_menu": false, "awards": null, "user_review_count": 0}, {"business_operation_status": 1, "rating": null, "neighborhood": null, "image": null, "scorecard": null, "featured": false, "sample_categories": "Restaurants", "public_id": "noca-roswell", "id": 777669130, "votes": null, "tagline": null, "has_video": false, "website": "http://www.citysearch.com/profile/external/777669130/roswell_ga/noca.html", "offers": null, "latitude": 34.030534, "politanName": "Atlanta, GA Metro ", "phone_number": "7709928866", "tags": [{"primary": true, "id": 1722, "name": "Restaurants"}], "fax_number": null, "expansion": {"count": null, "uri": null}, "impression_id": "000b000000ab88269501d143ceaf20a46da6f92903", "profile": "http://www.citysearch.com/profile/777669130/roswell_ga/noca.html", "address": {"city": "Roswell", "state": "GA", "street": "1170 Canton St", "postal_code": "30075"}, "capProviderId": null, "distance": null, "has_offers": false, "name": "Noca", "longitude": -84.361529, "has_menu": false, "awards": null, "user_review_count": 0}, {"business_operation_status": 1, "rating": null, "neighborhood": null, "image": null, "scorecard": null, "featured": false, "sample_categories": "Restaurants", "public_id": "blue-agave-marietta", "id": 777622960, "votes": null, "tagline": null, "has_video": false, "website": null, "offers": null, "latitude": 33.927644, "politanName": "Atlanta, GA Metro ", "phone_number": "6786641133", "tags": [{"primary": true, "id": 1722, "name": "Restaurants"}], "fax_number": null, "expansion": {"count": null, "uri": null}, "impression_id": "000b00000000558e6d0cf546c2922a69b8a1b6e1c7", "profile": "http://www.citysearch.com/profile/777622960/marietta_ga/blue_agave.html", "address": {"city": "Marietta", "state": "GA", "street": "1090 Northchase Pkwy Se", "postal_code": "30067"}, "capProviderId": null, "distance": null, "has_offers": false, "name": "Blue Agave", "longitude": -84.482308, "has_menu": false, "awards": null, "user_review_count": 0}, {"business_operation_status": 1, "rating": null, "neighborhood": null, "image": null, "scorecard": null, "featured": false, "sample_categories": "Restaurants", "public_id": "hoboken-cafe-marietta", "id": 777676340, "votes": null, "tagline": null, "has_video": false, "website": null, "offers": null, "latitude": 33.951914, "politanName": "Atlanta, GA Metro ", "phone_number": "6789093375", "tags": [{"primary": true, "id": 1722, "name": "Restaurants"}], "fax_number": null, "expansion": {"count": null, "uri": null}, "impression_id": "000b000000c888a1bae3c942b5a78b68e0a8475afc", "profile": "http://www.citysearch.com/profile/777676340/marietta_ga/hoboken_cafe.html", "address": {"city": "Marietta", "state": "GA", "street": "688 Whitlock Ave NW", "postal_code": "30064"}, "capProviderId": null, "distance": null, "has_offers": false, "name": "Hoboken Cafe", "longitude": -84.57265, "has_menu": false, "awards": null, "user_review_count": 0}, {"business_operation_status": 1, "rating": null, "neighborhood": null, "image": null, "scorecard": null, "featured": false, "sample_categories": "Restaurants, Pizza", "public_id": "village-slice-pizza-roswell", "id": 777726470, "votes": null, "tagline": null, "has_video": false, "website": null, "offers": null, "latitude": 34.073047, "politanName": "Atlanta, GA Metro ", "phone_number": "6784618272", "tags": [{"primary": false, "id": 11299, "name": "Pizza"}, {"primary": true, "id": 1722, "name": "Restaurants"}], "fax_number": null, "expansion": {"count": null, "uri": null}, "impression_id": "000b00000007d3f41e5c784f23a1768ba95e57c1cd", "profile": "http://www.citysearch.com/profile/777726470/roswell_ga/village_slice_pizza.html", "address": {"city": "Roswell", "state": "GA", "street": "12020 Etris Rd # B140", "postal_code": "30075"}, "capProviderId": null, "distance": null, "has_offers": false, "name": "Village Slice Pizza", "longitude": -84.361591, "has_menu": false, "awards": null, "user_review_count": 1}, {"business_operation_status": 1, "rating": null, "neighborhood": null, "image": null, "scorecard": null, "featured": false, "sample_categories": "Restaurants, Catering, Delis And Delicatessens, Carry Out", "public_id": "jimmy-johns-marietta-3", "id": 796130460, "votes": null, "tagline": null, "has_video": false, "website": "http://www.citysearch.com/profile/external/796130460/marietta_ga/jimmy_john_s.html", "offers": null, "latitude": 33.91914, "politanName": "Atlanta, GA Metro ", "phone_number": "6783243630", "tags": [{"primary": false, "id": 1705, "name": "Catering"}, {"primary": false, "id": 1727, "name": "Delis And Delicatessens"}, {"primary": false, "id": 11247, "name": "Carry Out"}, {"primary": true, "id": 1722, "name": "Restaurants"}], "fax_number": null, "expansion": {"count": null, "uri": null}, "impression_id": "000b000000669c2d9b0e1b4efdb5750f9394fdbb70", "profile": "http://www.citysearch.com/profile/796130460/marietta_ga/jimmy_john_s.html", "address": {"city": "Marietta", "state": "GA", "street": "1337 Powers Ferry Rd Se", "postal_code": "30067"}, "capProviderId": null, "distance": null, "has_offers": false, "name": "Jimmy John's", "longitude": -84.466839, "has_menu": false, "awards": null, "user_review_count": 0}, {"business_operation_status": 1, "rating": null, "neighborhood": null, "image": null, "scorecard": null, "featured": false, "sample_categories": "Restaurants", "public_id": "d-c-backyard-grill-inc-marietta", "id": 798805340, "votes": null, "tagline": null, "has_video": false, "website": null, "offers": null, "latitude": 33.942612, "politanName": "Atlanta, GA Metro ", "phone_number": "7709198797", "tags": [{"primary": true, "id": 1722, "name": "Restaurants"}], "fax_number": null, "expansion": {"count": null, "uri": null}, "impression_id": "000b000000cae0c2379f774e828811612b30b63f93", "profile": "http://www.citysearch.com/profile/798805340/marietta_ga/d_c_backyard_grill_inc.html", "address": {"city": "Marietta", "state": "GA", "street": "547 Atlanta St Se", "postal_code": "30060"}, "capProviderId": null, "distance": null, "has_offers": false, "name": "D C Backyard Grill INC", "longitude": -84.545574, "has_menu": false, "awards": null, "user_review_count": 0}, {"business_operation_status": 1, "rating": null, "neighborhood": null, "image": null, "scorecard": null, "featured": false, "sample_categories": "Restaurants, Asian", "public_id": "james-sushi-llc-woodstock", "id": 787110700, "votes": null, "tagline": null, "has_video": false, "website": null, "offers": null, "latitude": 34.101068, "politanName": "Atlanta, GA Metro ", "phone_number": "7705926312", "tags": [{"primary": false, "id": 11235, "name": "Asian"}, {"primary": true, "id": 1722, "name": "Restaurants"}], "fax_number": null, "expansion": {"count": null, "uri": null}, "impression_id": "000b000000ed5cd61475f1489884b50b7c39dc02b1", "profile": "http://www.citysearch.com/profile/787110700/woodstock_ga/james_sushi_llc.html", "address": {"city": "Woodstock", "state": "GA", "street": "411 Yarrow Way", "postal_code": "30188"}, "capProviderId": null, "distance": null, "has_offers": false, "name": "James Sushi LLC", "longitude": -84.462879, "has_menu": false, "awards": null, "user_review_count": 0}, {"business_operation_status": 1, "rating": null, "neighborhood": null, "image": null, "scorecard": null, "featured": false, "sample_categories": "Restaurants", "public_id": "las-drisas-number-2-marietta", "id": 713600220, "votes": null, "tagline": null, "has_video": false, "website": null, "offers": null, "latitude": 33.935213, "politanName": "Atlanta, GA Metro ", "phone_number": "6783542220", "tags": [{"primary": true, "id": 1722, "name": "Restaurants"}], "fax_number": null, "expansion": {"count": null, "uri": null}, "impression_id": "000b000000267c578b734c44cfb00ecc3ad5cbe133", "profile": "http://www.citysearch.com/profile/713600220/marietta_ga/las_drisas_number_2.html", "address": {"city": "Marietta", "state": "GA", "street": "715 Sandtown Rd Sw", "postal_code": "30008"}, "capProviderId": null, "distance": null, "has_offers": false, "name": "Las Drisas Number 2", "longitude": -84.555821, "has_menu": false, "awards": null, "user_review_count": 0}, {"business_operation_status": 1, "rating": null, "neighborhood": null, "image": null, "scorecard": null, "featured": false, "sample_categories": "Catering, Restaurants, Carry Out, Indian, Indian Goods", "public_id": "indian-chef-roswell", "id": 724613570, "votes": null, "tagline": null, "has_video": false, "website": "http://www.citysearch.com/profile/external/724613570/roswell_ga/indian_chef.html", "offers": null, "latitude": 34.03202, "politanName": "Atlanta, GA Metro ", "phone_number": "7708170661", "tags": [{"primary": false, "id": 1722, "name": "Restaurants"}, {"primary": false, "id": 11247, "name": "Carry Out"}, {"primary": false, "id": 11277, "name": "Indian"}, {"primary": false, "id": 12318, "name": "Indian Goods"}, {"primary": true, "id": 1705, "name": "Catering"}], "fax_number": null, "expansion": {"count": null, "uri": null}, "impression_id": "000b000000662ca3d376d14de983ae85d39f08bb6b", "profile": "http://www.citysearch.com/profile/724613570/roswell_ga/indian_chef.html", "address": {"city": "Roswell", "state": "GA", "street": "720 Holcomb Bridge Rd", "postal_code": "30076"}, "capProviderId": null, "distance": null, "has_offers": false, "name": "Indian Chef", "longitude": -84.339248, "has_menu": true, "awards": null, "user_review_count": 2}, {"business_operation_status": 1, "rating": null, "neighborhood": null, "image": null, "scorecard": null, "featured": false, "sample_categories": "Restaurants", "public_id": "great-panda-restaurant-marietta", "id": 814222940, "votes": null, "tagline": null, "has_video": false, "website": null, "offers": null, "latitude": 33.953111, "politanName": "Atlanta, GA Metro ", "phone_number": "7704282831", "tags": [{"primary": true, "id": 1722, "name": "Restaurants"}], "fax_number": null, "expansion": {"count": null, "uri": null}, "impression_id": "000b000000120fb04c8b6e445b82d8330128133482", "profile": "http://www.citysearch.com/profile/814222940/marietta_ga/great_panda_restaurant.html", "address": {"city": "Marietta", "state": "GA", "street": "1000 Whitlock Ave NW", "postal_code": "30064"}, "capProviderId": null, "distance": null, "has_offers": false, "name": "Great Panda Restaurant", "longitude": -84.581272, "has_menu": false, "awards": null, "user_review_count": 0}, {"business_operation_status": 1, "rating": 8.0, "neighborhood": null, "image": null, "scorecard": null, "featured": false, "sample_categories": "Restaurants, Advertising, Ice Cream Parlors, $", "public_id": "ben-jerrys-marietta", "id": 45009019, "votes": null, "tagline": null, "has_video": false, "website": null, "offers": null, "latitude": 33.944038, "politanName": "Atlanta, GA Metro ", "phone_number": "7704248851", "tags": [{"primary": false, "id": 1722, "name": "Restaurants"}, {"primary": false, "id": 3372, "name": "Advertising"}, {"primary": false, "id": 11231, "name": "$"}, {"primary": true, "id": 1730, "name": "Ice Cream Parlors"}], "fax_number": null, "expansion": {"count": null, "uri": null}, "impression_id": "000b0000000c1a7b6d2c4842a8b11f90d4cd894241", "profile": "http://www.citysearch.com/profile/45009019/marietta_ga/ben_jerry_s.html", "address": {"city": "Marietta", "state": "GA", "street": "330 Franklin Rd SE", "postal_code": "30067"}, "capProviderId": null, "distance": null, "has_offers": false, "name": "Ben & Jerry's", "longitude": -84.512153, "has_menu": true, "awards": null, "user_review_count": 0}, {"business_operation_status": 1, "rating": null, "neighborhood": null, "image": null, "scorecard": null, "featured": false, "sample_categories": "Restaurants", "public_id": "p-js-kennesaw", "id": 815756710, "votes": null, "tagline": null, "has_video": false, "website": null, "offers": null, "latitude": 34.035079, "politanName": "Atlanta, GA Metro ", "phone_number": "7704235939", "tags": [{"primary": true, "id": 1722, "name": "Restaurants"}], "fax_number": null, "expansion": {"count": null, "uri": null}, "impression_id": "000b000000ca2d1aebb0a04ce58ee8cc4237ecaa9d", "profile": "http://www.citysearch.com/profile/815756710/kennesaw_ga/p_j_s.html", "address": {"city": "Kennesaw", "state": "GA", "street": "3400 Busbee Dr NW", "postal_code": "30144"}, "capProviderId": null, "distance": null, "has_offers": false, "name": "P J's", "longitude": -84.574368, "has_menu": false, "awards": null, "user_review_count": 0}, {"business_operation_status": 1, "rating": null, "neighborhood": null, "image": null, "scorecard": null, "featured": false, "sample_categories": "Restaurants, Pizza", "public_id": "rock-solid-security-solutions-kennesaw", "id": 45560530, "votes": null, "tagline": null, "has_video": false, "website": null, "offers": null, "latitude": 34.024398, "politanName": "Atlanta, GA Metro ", "phone_number": "7706932354", "tags": [{"primary": false, "id": 1722, "name": "Restaurants"}, {"primary": true, "id": 11299, "name": "Pizza"}], "fax_number": null, "expansion": {"count": null, "uri": null}, "impression_id": "000b000000e045f3116a02493b81b48d2dd2dbaeae", "profile": "http://www.citysearch.com/profile/45560530/kennesaw_ga/rock_solid_security_solutions.html", "address": {"city": "Kennesaw", "state": "GA", "street": "2914 Cherokee St NW", "postal_code": "30144"}, "capProviderId": null, "distance": null, "has_offers": false, "name": "Rock Solid Security Solutions", "longitude": -84.611629, "has_menu": false, "awards": null, "user_review_count": 0}, {"business_operation_status": 1, "rating": null, "neighborhood": null, "image": null, "scorecard": null, "featured": false, "sample_categories": "Restaurants", "public_id": "planet-smoothie-marietta-8", "id": 819890580, "votes": null, "tagline": null, "has_video": false, "website": null, "offers": null, "latitude": 33.947326, "politanName": "Atlanta, GA Metro ", "phone_number": "7704272700", "tags": [{"primary": true, "id": 1722, "name": "Restaurants"}], "fax_number": null, "expansion": {"count": null, "uri": null}, "impression_id": "000b000000892d373423c5458cbeb0bb42f64a7e36", "profile": "http://www.citysearch.com/profile/819890580/marietta_ga/planet_smoothie.html", "address": {"city": "Marietta", "state": "GA", "street": "3451 Barrett Pkwy NW # 145", "postal_code": "30064"}, "capProviderId": null, "distance": null, "has_offers": false, "name": "Planet Smoothie", "longitude": -84.622965, "has_menu": false, "awards": null, "user_review_count": 0}, {"business_operation_status": 1, "rating": null, "neighborhood": null, "image": null, "scorecard": null, "featured": false, "sample_categories": "Restaurants", "public_id": "pete-sneaky-inc-marietta", "id": 821568530, "votes": null, "tagline": null, "has_video": false, "website": null, "offers": null, "latitude": 33.906504, "politanName": "Atlanta, GA Metro ", "phone_number": "7709714838", "tags": [{"primary": true, "id": 1722, "name": "Restaurants"}], "fax_number": null, "expansion": {"count": null, "uri": null}, "impression_id": "000b00000047ca15d6f01841419312e5882d02bdf7", "profile": "http://www.citysearch.com/profile/821568530/marietta_ga/pete_sneaky_inc.html", "address": {"city": "Marietta", "state": "GA", "street": "PO Box 6572", "postal_code": "30065"}, "capProviderId": null, "distance": null, "has_offers": false, "name": "Pete Sneaky Inc", "longitude": -84.488386, "has_menu": false, "awards": null, "user_review_count": 0}, {"business_operation_status": 1, "rating": null, "neighborhood": null, "image": null, "scorecard": null, "featured": false, "sample_categories": "Restaurants", "public_id": "tom-chee-kennesaw", "id": 626960404, "votes": null, "tagline": null, "has_video": false, "website": null, "offers": null, "latitude": 34.000514, "politanName": "Atlanta, GA Metro ", "phone_number": "6784988321", "tags": [{"primary": true, "id": 1722, "name": "Restaurants"}], "fax_number": null, "expansion": {"count": null, "uri": null}, "impression_id": "000b00000010da5825e6cb4534ac9a28d318097082", "profile": "http://www.citysearch.com/profile/626960404/kennesaw_ga/tom_chee.html", "address": {"city": "Kennesaw", "state": "GA", "street": "1200 Ernest W Barrett Pkwy NW 208", "postal_code": "30144"}, "capProviderId": null, "distance": null, "has_offers": false, "name": "Tom + Chee", "longitude": -84.587423, "has_menu": false, "awards": null, "user_review_count": 0}, {"business_operation_status": 1, "rating": null, "neighborhood": null, "image": null, "scorecard": null, "featured": false, "sample_categories": "Restaurants", "public_id": "playa-azul-restaurant-marietta", "id": 822491930, "votes": null, "tagline": null, "has_video": false, "website": null, "offers": null, "latitude": 33.941881, "politanName": "Atlanta, GA Metro ", "phone_number": "6785946635", "tags": [{"primary": true, "id": 1722, "name": "Restaurants"}], "fax_number": null, "expansion": {"count": null, "uri": null}, "impression_id": "000b00000048a4ac329ac44745aab8d248d26d3523", "profile": "http://www.citysearch.com/profile/822491930/marietta_ga/playa_azul_restaurant.html", "address": {"city": "Marietta", "state": "GA", "street": "401 Rose Dr # 201", "postal_code": "30060"}, "capProviderId": null, "distance": null, "has_offers": false, "name": "Playa Azul Restaurant", "longitude": -84.523857, "has_menu": false, "awards": null, "user_review_count": 0}, {"business_operation_status": 1, "rating": null, "neighborhood": null, "image": null, "scorecard": null, "featured": false, "sample_categories": "Doughnut Shops, Bakeries", "public_id": "atlanta-donut-smyrna", "id": 605545760, "votes": null, "tagline": null, "has_video": false, "website": null, "offers": null, "latitude": 33.894337, "politanName": "Atlanta, GA Metro ", "phone_number": "7703840028", "tags": [{"primary": false, "id": 1685, "name": "Bakeries"}, {"primary": true, "id": 1734, "name": "Doughnut Shops"}], "fax_number": null, "expansion": {"count": null, "uri": null}, "impression_id": "000b0000002714c14c873a4b53b7dc3813016ef07c", "profile": "http://www.citysearch.com/profile/605545760/smyrna_ga/atlanta_donut.html", "address": {"city": "Smyrna", "state": "GA", "street": "1035 Windy Hill Rd Se", "postal_code": "30080"}, "capProviderId": null, "distance": null, "has_offers": false, "name": "Atlanta Donut", "longitude": -84.523269, "has_menu": false, "awards": null, "user_review_count": 0}, {"business_operation_status": 1, "rating": 8.0, "neighborhood": null, "image": null, "scorecard": null, "featured": false, "sample_categories": "Restaurants, Cajun & Creole, Carry Out, American Express, Cash", "public_id": "folks-southern-kitchen-marietta", "id": 2908299, "votes": null, "tagline": null, "has_video": false, "website": "http://www.citysearch.com/profile/external/2908299/marietta_ga/folks_southern_kitchen.html", "offers": null, "latitude": 33.995805, "politanName": "Atlanta, GA Metro ", "phone_number": "7704252322", "tags": [{"primary": false, "id": 11245, "name": "Cajun & Creole"}, {"primary": false, "id": 11247, "name": "Carry Out"}, {"primary": false, "id": 11333, "name": "American Express"}, {"primary": false, "id": 11339, "name": "Cash"}, {"primary": false, "id": 11349, "name": "Discover"}, {"primary": false, "id": 11361, "name": "MasterCard"}, {"primary": false, "id": 11382, "name": "Visa"}, {"primary": true, "id": 1722, "name": "Restaurants"}], "fax_number": null, "expansion": {"count": null, "uri": null}, "impression_id": "000b000000a2d8896346094f1bbee0fb35a6b5e805", "profile": "http://www.citysearch.com/profile/2908299/marietta_ga/folks_southern_kitchen.html", "address": {"city": "Marietta", "state": "GA", "street": "825 Sandy Plains Rd", "postal_code": "30066"}, "capProviderId": null, "distance": null, "has_offers": false, "name": "Folks Southern Kitchen", "longitude": -84.526018, "has_menu": true, "awards": null, "user_review_count": 1}, {"business_operation_status": 1, "rating": null, "neighborhood": null, "image": null, "scorecard": null, "featured": false, "sample_categories": "Restaurants", "public_id": "saporitos-kennesaw", "id": 682453180, "votes": null, "tagline": null, "has_video": false, "website": null, "offers": null, "latitude": 33.999345, "politanName": "Atlanta, GA Metro ", "phone_number": "7704251970", "tags": [{"primary": true, "id": 1722, "name": "Restaurants"}], "fax_number": null, "expansion": {"count": null, "uri": null}, "impression_id": "000b000000702b689fbf7d4033924c0adad6fcb943", "profile": "http://www.citysearch.com/profile/682453180/kennesaw_ga/saporito_s.html", "address": {"city": "Kennesaw", "state": "GA", "street": "1200 Ernest W Barrett Pkwy NW", "postal_code": "30144"}, "capProviderId": null, "distance": null, "has_offers": false, "name": "Saporito's", "longitude": -84.586888, "has_menu": false, "awards": null, "user_review_count": 0}, {"business_operation_status": 1, "rating": null, "neighborhood": null, "image": null, "scorecard": null, "featured": false, "sample_categories": "Restaurants, Carry Out, Hamburgers", "public_id": "five-guys-burgers-fries-atlanta-6", "id": 622023500, "votes": null, "tagline": null, "has_video": false, "website": "http://www.citysearch.com/profile/external/622023500/atlanta_ga/five_guys_burgers_fries.html", "offers": null, "latitude": 33.894565, "politanName": "Atlanta, GA Metro ", "phone_number": "4046296577", "tags": [{"primary": false, "id": 11247, "name": "Carry Out"}, {"primary": false, "id": 11270, "name": "Hamburgers"}, {"primary": true, "id": 1722, "name": "Restaurants"}], "fax_number": null, "expansion": {"count": null, "uri": null}, "impression_id": "000b000000cefccbf8c374454099d8534b76086258", "profile": "http://www.citysearch.com/profile/622023500/atlanta_ga/five_guys_burgers_fries.html", "address": {"city": "Atlanta", "state": "GA", "street": "2400 Herodian Way", "postal_code": "30331"}, "capProviderId": null, "distance": null, "has_offers": false, "name": "Five Guys Burgers & Fries", "longitude": -84.472334, "has_menu": false, "awards": null, "user_review_count": 0}, {"business_operation_status": 1, "rating": null, "neighborhood": null, "image": null, "scorecard": null, "featured": false, "sample_categories": "Restaurants", "public_id": "chicken-boss-llc-marietta", "id": 627930504, "votes": null, "tagline": null, "has_video": false, "website": null, "offers": null, "latitude": 33.933122, "politanName": "Atlanta, GA Metro ", "phone_number": "7705080980", "tags": [{"primary": true, "id": 1722, "name": "Restaurants"}], "fax_number": null, "expansion": {"count": null, "uri": null}, "impression_id": "000b0000006a9c0973ba9a4118899eb036b5590509", "profile": "http://www.citysearch.com/profile/627930504/marietta_ga/chicken_boss_llc.html", "address": {"city": "Marietta", "state": "GA", "street": "803 Powder Springs St", "postal_code": "30064"}, "capProviderId": null, "distance": null, "has_offers": false, "name": "Chicken Boss LLC", "longitude": -84.559881, "has_menu": false, "awards": null, "user_review_count": 0}, {"business_operation_status": 1, "rating": null, "neighborhood": null, "image": null, "scorecard": null, "featured": false, "sample_categories": "Coffeehouses, Restaurants", "public_id": "starbucks-woodstock-4", "id": 632968000, "votes": null, "tagline": null, "has_video": false, "website": "http://www.citysearch.com/profile/external/632968000/woodstock_ga/starbucks.html", "offers": null, "latitude": 34.086614, "politanName": "Atlanta, GA Metro ", "phone_number": "7705920655", "tags": [{"primary": false, "id": 1722, "name": "Restaurants"}, {"primary": true, "id": 1726, "name": "Coffeehouses"}], "fax_number": null, "expansion": {"count": null, "uri": null}, "impression_id": "000b000000e59dc40b298849fbb26b6685961e70d8", "profile": "http://www.citysearch.com/profile/632968000/woodstock_ga/starbucks.html", "address": {"city": "Woodstock", "state": "GA", "street": "12400 Highway 92", "postal_code": "30188"}, "capProviderId": null, "distance": null, "has_offers": false, "name": "Starbucks", "longitude": -84.478896, "has_menu": true, "awards": null, "user_review_count": 0}, {"business_operation_status": 1, "rating": null, "neighborhood": null, "image": null, "scorecard": null, "featured": false, "sample_categories": "Restaurants, Asian", "public_id": "ajima-asian-roswell", "id": 653613710, "votes": null, "tagline": null, "has_video": false, "website": null, "offers": null, "latitude": 34.073102, "politanName": "Atlanta, GA Metro ", "phone_number": "7706451688", "tags": [{"primary": false, "id": 11235, "name": "Asian"}, {"primary": true, "id": 1722, "name": "Restaurants"}], "fax_number": null, "expansion": {"count": null, "uri": null}, "impression_id": "000b0000007519589e3ca44ba29c17a9df4b7c7c50", "profile": "http://www.citysearch.com/profile/653613710/roswell_ga/ajima_asian.html", "address": {"city": "Roswell", "state": "GA", "street": "12040 Etris Rd", "postal_code": "30075"}, "capProviderId": null, "distance": null, "has_offers": false, "name": "Ajima Asian", "longitude": -84.362597, "has_menu": false, "awards": null, "user_review_count": 0}, {"business_operation_status": 1, "rating": null, "neighborhood": null, "image": null, "scorecard": null, "featured": false, "sample_categories": "Restaurants", "public_id": "proper-taco-atlanta", "id": 732165250, "votes": null, "tagline": null, "has_video": false, "website": null, "offers": null, "latitude": 33.964714, "politanName": "Atlanta, GA Metro ", "phone_number": "6784439222", "tags": [{"primary": true, "id": 1722, "name": "Restaurants"}], "fax_number": null, "expansion": {"count": null, "uri": null}, "impression_id": "000b000000797aa9459a3c4b36a647a44f05f1c2d8", "profile": "http://www.citysearch.com/profile/732165250/atlanta_ga/proper_taco.html", "address": {"city": "Atlanta", "state": "GA", "street": "1401 Treelodge Pkwy", "postal_code": "30350"}, "capProviderId": null, "distance": null, "has_offers": false, "name": "Proper Taco", "longitude": -84.352699, "has_menu": false, "awards": null, "user_review_count": 0}, {"business_operation_status": 1, "rating": null, "neighborhood": null, "image": null, "scorecard": null, "featured": false, "sample_categories": "Restaurants", "public_id": "enzo-sushi-and-steakhouse-sandy-spgs", "id": 672122790, "votes": null, "tagline": null, "has_video": false, "website": null, "offers": null, "latitude": 33.986373, "politanName": "Atlanta, GA Metro ", "phone_number": null, "tags": [{"primary": true, "id": 1722, "name": "Restaurants"}], "fax_number": null, "expansion": {"count": null, "uri": null}, "impression_id": "000b000000bed269104d184be2abad68c1801dcda5", "profile": "http://www.citysearch.com/profile/672122790/sandy_springs_ga/enzo_sushi_and_steakhouse.html", "address": {"city": "Sandy Springs", "state": "GA", "street": "8540 Roswell Road #800", "postal_code": "30350"}, "capProviderId": null, "distance": null, "has_offers": false, "name": "Enzo Sushi and Steakhouse", "longitude": -84.351439, "has_menu": false, "awards": null, "user_review_count": 0}, {"business_operation_status": 1, "rating": null, "neighborhood": null, "image": null, "scorecard": null, "featured": false, "sample_categories": "Restaurants", "public_id": "fused-bar-restaurant-roswell", "id": 672280920, "votes": null, "tagline": null, "has_video": false, "website": null, "offers": null, "latitude": 34.024666, "politanName": "Atlanta, GA Metro ", "phone_number": null, "tags": [{"primary": true, "id": 1722, "name": "Restaurants"}], "fax_number": null, "expansion": {"count": null, "uri": null}, "impression_id": "000b0000001bf650a8604545daa2bae63ac69d498a", "profile": "http://www.citysearch.com/profile/672280920/roswell_ga/fused_bar_restaurant.html", "address": {"city": "Roswell", "state": "GA", "street": "957 Canton St", "postal_code": "30075"}, "capProviderId": null, "distance": null, "has_offers": false, "name": "Fused Bar & Restaurant", "longitude": -84.361254, "has_menu": false, "awards": null, "user_review_count": 0}, {"business_operation_status": 1, "rating": null, "neighborhood": null, "image": null, "scorecard": null, "featured": false, "sample_categories": "Restaurants, Lounges", "public_id": "mill-kitchen-bar-roswell", "id": 775226660, "votes": null, "tagline": null, "has_video": false, "website": "http://www.citysearch.com/profile/external/775226660/roswell_ga/the_mill_kitchen_bar.html", "offers": null, "latitude": 34.014683, "politanName": "Atlanta, GA Metro ", "phone_number": "7708179345", "tags": [{"primary": false, "id": 1697, "name": "Lounges"}, {"primary": true, "id": 1722, "name": "Restaurants"}], "fax_number": null, "expansion": {"count": null, "uri": null}, "impression_id": "000b000000600053382d374fa0acd6442517382d5e", "profile": "http://www.citysearch.com/profile/775226660/roswell_ga/the_mill_kitchen_bar.html", "address": {"city": "Roswell", "state": "GA", "street": "590 Mimosa Blvd", "postal_code": "30075"}, "capProviderId": null, "distance": null, "has_offers": false, "name": "The Mill Kitchen & Bar", "longitude": -84.363923, "has_menu": false, "awards": null, "user_review_count": 0}, {"business_operation_status": 1, "rating": null, "neighborhood": null, "image": null, "scorecard": null, "featured": false, "sample_categories": "Restaurants, Delis And Delicatessens, American Express, Debit Card, Discover", "public_id": "great-wraps-kennesaw", "id": 682599740, "votes": null, "tagline": null, "has_video": false, "website": null, "offers": null, "latitude": 34.018145, "politanName": "Atlanta, GA Metro ", "phone_number": "7704287788", "tags": [{"primary": false, "id": 1727, "name": "Delis And Delicatessens"}, {"primary": false, "id": 11333, "name": "American Express"}, {"primary": false, "id": 11347, "name": "Debit Card"}, {"primary": false, "id": 11349, "name": "Discover"}, {"primary": false, "id": 11361, "name": "MasterCard"}, {"primary": false, "id": 11382, "name": "Visa"}, {"primary": true, "id": 1722, "name": "Restaurants"}], "fax_number": null, "expansion": {"count": null, "uri": null}, "impression_id": "000b00000023d7b04e95204d5fb4a1c7c52f500996", "profile": "http://www.citysearch.com/profile/682599740/kennesaw_ga/great_wraps.html", "address": {"city": "Kennesaw", "state": "GA", "street": "400 Barrett Pkwy # 130", "postal_code": "30144"}, "capProviderId": null, "distance": null, "has_offers": false, "name": "Great Wraps", "longitude": -84.561896, "has_menu": false, "awards": null, "user_review_count": 2}, {"business_operation_status": 1, "rating": null, "neighborhood": null, "image": null, "scorecard": null, "featured": false, "sample_categories": "Restaurants, Balloon Artists", "public_id": "funny-farm-comedy-club-roswell-2", "id": 777655850, "votes": null, "tagline": null, "has_video": false, "website": null, "offers": null, "latitude": 34.03823, "politanName": "Atlanta, GA Metro ", "phone_number": "7708174242", "tags": [{"primary": false, "id": 26300, "name": "Balloon Artists"}, {"primary": true, "id": 1722, "name": "Restaurants"}], "fax_number": null, "expansion": {"count": null, "uri": null}, "impression_id": "000b000000dda619191d1b4b0eacdf5c5084aef95a", "profile": "http://www.citysearch.com/profile/777655850/roswell_ga/funny_farm_comedy_club.html", "address": {"city": "Roswell", "state": "GA", "street": "608 Holcomb Bridge Rd", "postal_code": "30076"}, "capProviderId": null, "distance": null, "has_offers": false, "name": "Funny Farm Comedy Club", "longitude": -84.340804, "has_menu": false, "awards": null, "user_review_count": 0}, {"business_operation_status": 1, "rating": null, "neighborhood": null, "image": null, "scorecard": null, "featured": false, "sample_categories": "Restaurants, Italian, Pizza", "public_id": "gondolier-pizza-italian-rstrnt-kennesaw", "id": 777744770, "votes": null, "tagline": null, "has_video": false, "website": null, "offers": null, "latitude": 34.006194, "politanName": "Atlanta, GA Metro ", "phone_number": "7704191141", "tags": [{"primary": false, "id": 11279, "name": "Italian"}, {"primary": false, "id": 11299, "name": "Pizza"}, {"primary": true, "id": 1722, "name": "Restaurants"}], "fax_number": null, "expansion": {"count": null, "uri": null}, "impression_id": "000b000000901e284510ee4ab19c237f4ab3d0cd0e", "profile": "http://www.citysearch.com/profile/777744770/kennesaw_ga/gondolier_pizza_italian_rstrnt.html", "address": {"city": "Kennesaw", "state": "GA", "street": "725 Ernest W Barrett Pkwy NW", "postal_code": "30144"}, "capProviderId": null, "distance": null, "has_offers": false, "name": "Gondolier Pizza Italian Rstrnt", "longitude": -84.573858, "has_menu": true, "awards": null, "user_review_count": 3}, {"business_operation_status": 1, "rating": null, "neighborhood": null, "image": null, "scorecard": null, "featured": false, "sample_categories": "Restaurants, Bars & Clubs, Carry Out, Steakhouse", "public_id": "outback-steakhouse-marietta-2", "id": 777828920, "votes": null, "tagline": null, "has_video": false, "website": "http://www.citysearch.com/profile/external/777828920/marietta_ga/outback_steakhouse.html", "offers": null, "latitude": 33.923116, "politanName": "Atlanta, GA Metro ", "phone_number": "7708509182", "tags": [{"primary": false, "id": 164, "name": "Bars & Clubs"}, {"primary": false, "id": 11247, "name": "Carry Out"}, {"primary": false, "id": 11316, "name": "Steakhouse"}, {"primary": true, "id": 1722, "name": "Restaurants"}], "fax_number": null, "expansion": {"count": null, "uri": null}, "impression_id": "000b000000ee7e79f7c04b43a1af905956fe8285ac", "profile": "http://www.citysearch.com/profile/777828920/marietta_ga/outback_steakhouse.html", "address": {"city": "Marietta", "state": "GA", "street": "2900 Delk Rd Se", "postal_code": "30067"}, "capProviderId": null, "distance": null, "has_offers": false, "name": "Outback Steakhouse", "longitude": -84.46674, "has_menu": true, "awards": null, "user_review_count": 0}, {"business_operation_status": 1, "rating": null, "neighborhood": null, "image": null, "scorecard": null, "featured": false, "sample_categories": "Restaurants, Chinese", "public_id": "pearl-china-atlanta", "id": 713424300, "votes": null, "tagline": null, "has_video": false, "website": null, "offers": null, "latitude": 33.950268, "politanName": "Atlanta, GA Metro ", "phone_number": "7704438859", "tags": [{"primary": false, "id": 11252, "name": "Chinese"}, {"primary": true, "id": 1722, "name": "Restaurants"}], "fax_number": null, "expansion": {"count": null, "uri": null}, "impression_id": "000b000000bc45cdde5abf4c30bad7bfe5c0671541", "profile": "http://www.citysearch.com/profile/713424300/atlanta_ga/pearl_china.html", "address": {"city": "Atlanta", "state": "GA", "street": "55 W Spalding Dr Ne", "postal_code": "30328"}, "capProviderId": null, "distance": null, "has_offers": false, "name": "Pearl China", "longitude": -84.383949, "has_menu": false, "awards": null, "user_review_count": 0}, {"business_operation_status": 1, "rating": null, "neighborhood": null, "image": null, "scorecard": null, "featured": false, "sample_categories": "Restaurants", "public_id": "fork-u-concepts-marietta", "id": 801125670, "votes": null, "tagline": null, "has_video": false, "website": null, "offers": null, "latitude": 33.952269, "politanName": "Atlanta, GA Metro ", "phone_number": "6789036243", "tags": [{"primary": true, "id": 1722, "name": "Restaurants"}], "fax_number": null, "expansion": {"count": null, "uri": null}, "impression_id": "000b000000a535df2611df41d3bb87360eb45a2699", "profile": "http://www.citysearch.com/profile/801125670/marietta_ga/fork_u_concepts.html", "address": {"city": "Marietta", "state": "GA", "street": "30 S Park Sq Ne", "postal_code": "30060"}, "capProviderId": null, "distance": null, "has_offers": false, "name": "Fork U Concepts", "longitude": -84.550109, "has_menu": false, "awards": null, "user_review_count": 0}, {"business_operation_status": 1, "rating": null, "neighborhood": null, "image": null, "scorecard": null, "featured": false, "sample_categories": "Restaurants, Steakhouse", "public_id": "chimichurri-steakhouse-roswell", "id": 801130980, "votes": null, "tagline": null, "has_video": false, "website": null, "offers": null, "latitude": 34.032773, "politanName": "Atlanta, GA Metro ", "phone_number": "6785850012", "tags": [{"primary": false, "id": 11316, "name": "Steakhouse"}, {"primary": true, "id": 1722, "name": "Restaurants"}], "fax_number": null, "expansion": {"count": null, "uri": null}, "impression_id": "000b0000003fc4013c63864744acf4a88eb2fb96a5", "profile": "http://www.citysearch.com/profile/801130980/roswell_ga/chimichurri_steakhouse.html", "address": {"city": "Roswell", "state": "GA", "street": "690 Holcomb Bridge Rd", "postal_code": "30076"}, "capProviderId": null, "distance": null, "has_offers": false, "name": "Chimichurri Steakhouse", "longitude": -84.340744, "has_menu": false, "awards": null, "user_review_count": 0}, {"business_operation_status": 1, "rating": null, "neighborhood": null, "image": null, "scorecard": null, "featured": false, "sample_categories": "Restaurants, Carry Out, Shop Online, Chicken", "public_id": "kfc-marietta-11", "id": 801057620, "votes": null, "tagline": null, "has_video": false, "website": "http://www.citysearch.com/profile/external/801057620/marietta_ga/kfc.html", "offers": null, "latitude": 33.951359, "politanName": "Atlanta, GA Metro ", "phone_number": "7704274291", "tags": [{"primary": false, "id": 11247, "name": "Carry Out"}, {"primary": false, "id": 11375, "name": "Shop Online"}, {"primary": false, "id": 12839, "name": "Chicken"}, {"primary": true, "id": 1722, "name": "Restaurants"}], "fax_number": null, "expansion": {"count": null, "uri": null}, "impression_id": "000b00000005154a0acef74da28686c4bfbed43e0e", "profile": "http://www.citysearch.com/profile/801057620/marietta_ga/kfc.html", "address": {"city": "Marietta", "state": "GA", "street": "37 Powder Springs St", "postal_code": "30064"}, "capProviderId": null, "distance": null, "has_offers": false, "name": "KFC", "longitude": -84.550223, "has_menu": true, "awards": null, "user_review_count": 0}, {"business_operation_status": 1, "rating": null, "neighborhood": null, "image": null, "scorecard": null, "featured": false, "sample_categories": "Restaurants, Hamburgers", "public_id": "old-fashioned-hamburgers-atlanta", "id": 801095060, "votes": null, "tagline": null, "has_video": false, "website": null, "offers": null, "latitude": 33.885111, "politanName": "Atlanta, GA Metro ", "phone_number": "7709528424", "tags": [{"primary": false, "id": 11270, "name": "Hamburgers"}, {"primary": true, "id": 1722, "name": "Restaurants"}], "fax_number": null, "expansion": {"count": null, "uri": null}, "impression_id": "000b00000074522d6fd7884c9cbe24cf6d6e67e906", "profile": "http://www.citysearch.com/profile/801095060/atlanta_ga/old_fashioned_hamburgers.html", "address": {"city": "Atlanta", "state": "GA", "street": "2808 Spring Rd Se", "postal_code": "30339"}, "capProviderId": null, "distance": null, "has_offers": false, "name": "Old Fashioned Hamburgers", "longitude": -84.472637, "has_menu": false, "awards": null, "user_review_count": 0}, {"business_operation_status": 1, "rating": null, "neighborhood": null, "image": null, "scorecard": null, "featured": false, "sample_categories": "Restaurants, Barbecue Restaurants", "public_id": "wings-xpress-marietta", "id": 803550980, "votes": null, "tagline": null, "has_video": false, "website": null, "offers": null, "latitude": 33.933132, "politanName": "Atlanta, GA Metro ", "phone_number": "6784621167", "tags": [{"primary": false, "id": 1724, "name": "Barbecue Restaurants"}, {"primary": true, "id": 1722, "name": "Restaurants"}], "fax_number": null, "expansion": {"count": null, "uri": null}, "impression_id": "000b0000000ccdf898d8984504ad53ee634582a2ce", "profile": "http://www.citysearch.com/profile/803550980/marietta_ga/wings_xpress.html", "address": {"city": "Marietta", "state": "GA", "street": "803 Powder Springs St # 2", "postal_code": "30064"}, "capProviderId": null, "distance": null, "has_offers": false, "name": "Wings Xpress", "longitude": -84.559871, "has_menu": false, "awards": null, "user_review_count": 0}, {"business_operation_status": 1, "rating": null, "neighborhood": null, "image": null, "scorecard": null, "featured": false, "sample_categories": "Restaurants", "public_id": "thai-surak-thai-restaurant-kennesaw", "id": 806598640, "votes": null, "tagline": null, "has_video": false, "website": null, "offers": null, "latitude": 34.025304, "politanName": "Atlanta, GA Metro ", "phone_number": "6785811888", "tags": [{"primary": true, "id": 1722, "name": "Restaurants"}], "fax_number": null, "expansion": {"count": null, "uri": null}, "impression_id": "000b0000009ecb3ba34e0541c5889c37c5c4fd0487", "profile": "http://www.citysearch.com/profile/806598640/kennesaw_ga/thai_surak_thai_restaurant.html", "address": {"city": "Kennesaw", "state": "GA", "street": "2950 George Busbee Pkwy NW", "postal_code": "30144"}, "capProviderId": null, "distance": null, "has_offers": false, "name": "Thai Surak Thai Restaurant", "longitude": -84.5671, "has_menu": false, "awards": null, "user_review_count": 0}, {"business_operation_status": 1, "rating": null, "neighborhood": null, "image": null, "scorecard": null, "featured": false, "sample_categories": "Restaurants", "public_id": "buffalos-southwest-cafe-kennesaw-2", "id": 808032200, "votes": null, "tagline": null, "has_video": false, "website": "http://www.citysearch.com/profile/external/808032200/kennesaw_ga/buffalo_s_southwest_cafe.html", "offers": null, "latitude": 33.99979, "politanName": "Atlanta, GA Metro ", "phone_number": "7704249464", "tags": [{"primary": true, "id": 1722, "name": "Restaurants"}], "fax_number": null, "expansion": {"count": null, "uri": null}, "impression_id": "000b0000006d02931cca6344a38f6c8384487d8ff4", "profile": "http://www.citysearch.com/profile/808032200/kennesaw_ga/buffalo_s_southwest_cafe.html", "address": {"city": "Kennesaw", "state": "GA", "street": "1200 Ernest W Barrett Pkwy NW", "postal_code": "30144"}, "capProviderId": null, "distance": null, "has_offers": false, "name": "Buffalo's Southwest Cafe", "longitude": -84.585399, "has_menu": false, "awards": null, "user_review_count": 0}], "histograms": [], "tag_ids": [1722], "uri": "http://api.citygridmedia.com:8080/search/places/v2/search/where?has_offers=false&type=restaurant&format=json&page=43&where=30062&rpp=50&histograms=false&publisher=10000009598&region_type=circle", "did_you_mean": "", "regions": [{"latitude": 34.001368, "default_radius": 5.22, "type": "postal_code", "name": "30062", "longitude": -84.466397}], "call_id": "000b000000246a3ea0ea424effb5c1cd1b484fffdd", "first_hit": 2101, "total_hits": 2160, "geo_ids": [26292], "page": 43, "last_hit": 2150}}