{"results": {"rpp": 50, "locations": [{"business_operation_status": 1, "rating": null, "neighborhood": null, "image": null, "scorecard": null, "featured": false, "sample_categories": "Restaurants", "public_id": "larrys-country-kitchen-marietta", "id": 827346130, "votes": null, "tagline": null, "has_video": false, "website": null, "offers": null, "latitude": 33.943185, "politanName": "Atlanta, GA Metro ", "phone_number": "7704269522", "tags": [{"primary": true, "id": 1722, "name": "Restaurants"}], "fax_number": null, "expansion": {"count": null, "uri": null}, "impression_id": "000b000000875d16d101ca4befa7d6e90760b66e41", "profile": "http://www.citysearch.com/profile/827346130/marietta_ga/larry_s_country_kitchen.html", "address": {"city": "Marietta", "state": "GA", "street": "625 S Marietta Pkwy SE", "postal_code": "30060"}, "capProviderId": null, "distance": null, "has_offers": false, "name": "Larry's Country Kitchen", "longitude": -84.533806, "has_menu": false, "awards": null, "user_review_count": 0}, {"business_operation_status": 1, "rating": null, "neighborhood": null, "image": null, "scorecard": null, "featured": false, "sample_categories": "Restaurants", "public_id": "take-a-break-deli-atlanta-2", "id": 828441690, "votes": null, "tagline": null, "has_video": false, "website": null, "offers": null, "latitude": 33.968847, "politanName": "Atlanta, GA Metro ", "phone_number": "7703947820", "tags": [{"primary": true, "id": 1722, "name": "Restaurants"}], "fax_number": null, "expansion": {"count": null, "uri": null}, "impression_id": "000b000000b8bc89dcdf274f68833a9d6c49ca1a50", "profile": "http://www.citysearch.com/profile/828441690/atlanta_ga/take_a_break_deli.html", "address": {"city": "Atlanta", "state": "GA", "street": "600 Morgan Falls Rd", "postal_code": "30350"}, "capProviderId": null, "distance": null, "has_offers": false, "name": "Take A Break Deli", "longitude": -84.36573, "has_menu": false, "awards": null, "user_review_count": 0}, {"business_operation_status": 1, "rating": null, "neighborhood": null, "image": null, "scorecard": null, "featured": false, "sample_categories": "Restaurants", "public_id": "corporate-gourmet-cafe-atlanta", "id": 829326390, "votes": null, "tagline": null, "has_video": false, "website": null, "offers": null, "latitude": 33.918878, "politanName": "Atlanta, GA Metro ", "phone_number": "7703506232", "tags": [{"primary": true, "id": 1722, "name": "Restaurants"}], "fax_number": null, "expansion": {"count": null, "uri": null}, "impression_id": "000b0000005130400a9cc2451dbe6605c379d463a4", "profile": "http://www.citysearch.com/profile/829326390/atlanta_ga/corporate_gourmet_cafe.html", "address": {"city": "Atlanta", "state": "GA", "street": "1140 Hammond Dr", "postal_code": "30328"}, "capProviderId": null, "distance": null, "has_offers": false, "name": "Corporate Gourmet Cafe", "longitude": -84.349762, "has_menu": false, "awards": null, "user_review_count": 0}, {"business_operation_status": 1, "rating": null, "neighborhood": null, "image": null, "scorecard": null, "featured": false, "sample_categories": "Restaurants", "public_id": "los-potrillos-mexican-restaurant-atlanta", "id": 831474500, "votes": null, "tagline": null, "has_video": false, "website": null, "offers": null, "latitude": 33.91626, "politanName": "Atlanta, GA Metro ", "phone_number": "6783993361", "tags": [{"primary": true, "id": 1722, "name": "Restaurants"}], "fax_number": null, "expansion": {"count": null, "uri": null}, "impression_id": "000b0000000630ca1d94f943ceb1dde7aefd0c587e", "profile": "http://www.citysearch.com/profile/831474500/atlanta_ga/los_potrillos_mexican_restaurant.html", "address": {"city": "Atlanta", "state": "GA", "street": "5785 Roswell Rd", "postal_code": "30328"}, "capProviderId": null, "distance": null, "has_offers": false, "name": "Los Potrillos Mexican Restaurant", "longitude": -84.379205, "has_menu": false, "awards": null, "user_review_count": 0}, {"business_operation_status": 1, "rating": null, "neighborhood": null, "image": null, "scorecard": null, "featured": false, "sample_categories": "Restaurants", "public_id": "grand-champion-bbq-marietta", "id": 836972670, "votes": null, "tagline": null, "has_video": false, "website": null, "offers": null, "latitude": 33.952602, "politanName": "Atlanta, GA Metro ", "phone_number": "7709934227", "tags": [{"primary": true, "id": 1722, "name": "Restaurants"}], "fax_number": null, "expansion": {"count": null, "uri": null}, "impression_id": "000b000000afb63dde01ce42ac87d6723c1034be7a", "profile": "http://www.citysearch.com/profile/836972670/marietta_ga/grand_champion_bbq.html", "address": {"city": "Marietta", "state": "GA", "street": "[empty]", "postal_code": "30062"}, "capProviderId": null, "distance": null, "has_offers": false, "name": "Grand Champion BBQ", "longitude": -84.549933, "has_menu": false, "awards": null, "user_review_count": 0}, {"business_operation_status": 1, "rating": null, "neighborhood": null, "image": null, "scorecard": null, "featured": false, "sample_categories": "Restaurants", "public_id": "corner-taqueria-smyrna", "id": 837793660, "votes": null, "tagline": null, "has_video": false, "website": "http://www.citysearch.com/profile/external/837793660/smyrna_ga/corner_taqueria.html", "offers": null, "latitude": 33.883705, "politanName": "Atlanta, GA Metro ", "phone_number": "6788420050", "tags": [{"primary": true, "id": 1722, "name": "Restaurants"}], "fax_number": null, "expansion": {"count": null, "uri": null}, "impression_id": "000b000000935a409d87e8458b8ee1721b4b4c73ba", "profile": "http://www.citysearch.com/profile/837793660/smyrna_ga/corner_taqueria.html", "address": {"city": "Smyrna", "state": "GA", "street": "2860 Atlanta Rd SE", "postal_code": "30080"}, "capProviderId": null, "distance": null, "has_offers": false, "name": "Corner Taqueria", "longitude": -84.514807, "has_menu": false, "awards": null, "user_review_count": 0}, {"business_operation_status": 1, "rating": null, "neighborhood": null, "image": null, "scorecard": null, "featured": false, "sample_categories": "Restaurants, French", "public_id": "crepe-cafe-marietta", "id": 773420440, "votes": null, "tagline": null, "has_video": false, "website": null, "offers": null, "latitude": 33.985873, "politanName": "Atlanta, GA Metro ", "phone_number": "7709710077", "tags": [{"primary": false, "id": 11219, "name": "French"}, {"primary": true, "id": 1722, "name": "Restaurants"}], "fax_number": null, "expansion": {"count": null, "uri": null}, "impression_id": "000b000000b0d873d46fd8465da76ba325217fd821", "profile": "http://www.citysearch.com/profile/773420440/marietta_ga/crepe_cafe.html", "address": {"city": "Marietta", "state": "GA", "street": "4375 Roswell Rd", "postal_code": "30062"}, "capProviderId": null, "distance": null, "has_offers": false, "name": "Crepe Cafe", "longitude": -84.423233, "has_menu": false, "awards": null, "user_review_count": 0}, {"business_operation_status": 1, "rating": null, "neighborhood": null, "image": null, "scorecard": null, "featured": false, "sample_categories": "Restaurants, Grocery Stores, Indian, American Express, Debit Card", "public_id": "amrutha-groceries-norcross", "id": 43841746, "votes": null, "tagline": null, "has_video": false, "website": null, "offers": null, "latitude": 33.878815, "politanName": "Atlanta, GA Metro ", "phone_number": "7709567589", "tags": [{"primary": false, "id": 1713, "name": "Grocery Stores"}, {"primary": false, "id": 11277, "name": "Indian"}, {"primary": false, "id": 11333, "name": "American Express"}, {"primary": false, "id": 11347, "name": "Debit Card"}, {"primary": false, "id": 11349, "name": "Discover"}, {"primary": false, "id": 11361, "name": "MasterCard"}, {"primary": false, "id": 11382, "name": "Visa"}, {"primary": true, "id": 1722, "name": "Restaurants"}], "fax_number": null, "expansion": {"count": null, "uri": null}, "impression_id": "000b000000a4eb3a75cf164031bac5729cbf7b03af", "profile": "http://www.citysearch.com/profile/43841746/norcross_ga/amrutha_groceries.html", "address": {"city": "Norcross", "state": "GA", "street": "2655 Car Pkwy", "postal_code": "30339"}, "capProviderId": null, "distance": null, "has_offers": false, "name": "Amrutha Groceries", "longitude": -84.464518, "has_menu": false, "awards": null, "user_review_count": 0}, {"business_operation_status": 1, "rating": null, "neighborhood": null, "image": null, "scorecard": null, "featured": false, "sample_categories": "Restaurants, Bars & Clubs", "public_id": "tio-bar-grill-smyrna", "id": 802510740, "votes": null, "tagline": null, "has_video": false, "website": null, "offers": null, "latitude": 33.886772, "politanName": "Atlanta, GA Metro ", "phone_number": "7709891065", "tags": [{"primary": false, "id": 164, "name": "Bars & Clubs"}, {"primary": true, "id": 1722, "name": "Restaurants"}], "fax_number": null, "expansion": {"count": null, "uri": null}, "impression_id": "000b0000007bacff8c8ce045d9822a606b63521876", "profile": "http://www.citysearch.com/profile/802510740/smyrna_ga/tio_bar_grill.html", "address": {"city": "Smyrna", "state": "GA", "street": "2731 S Cobb Dr Se", "postal_code": "30080"}, "capProviderId": null, "distance": null, "has_offers": false, "name": "Tio Bar & Grill", "longitude": -84.534827, "has_menu": false, "awards": null, "user_review_count": 0}, {"business_operation_status": 1, "rating": null, "neighborhood": null, "image": null, "scorecard": null, "featured": false, "sample_categories": "Wine Stores, Restaurants", "public_id": "atlantic-wine-spirits-snob-sandy", "id": 808279540, "votes": null, "tagline": null, "has_video": false, "website": null, "offers": null, "latitude": 33.9202, "politanName": "Atlanta, GA Metro ", "phone_number": "4042528170", "tags": [{"primary": false, "id": 1722, "name": "Restaurants"}, {"primary": true, "id": 1721, "name": "Wine Stores"}], "fax_number": null, "expansion": {"count": null, "uri": null}, "impression_id": "000b0000004580e494f2c1471494540a3f0421a016", "profile": "http://www.citysearch.com/profile/808279540/sandy_springs_ga/atlantic_wine_spirits_snob.html", "address": {"city": "Sandy Springs", "state": "GA", "street": "6010 Sandy Springs Cir", "postal_code": "30328"}, "capProviderId": null, "distance": null, "has_offers": false, "name": "Atlantic Wine & Spirits Snob", "longitude": -84.384878, "has_menu": false, "awards": null, "user_review_count": 0}, {"business_operation_status": 1, "rating": null, "neighborhood": null, "image": null, "scorecard": null, "featured": false, "sample_categories": "Ice Cream Parlors", "public_id": "consistency-enterprises-marietta", "id": 807599050, "votes": null, "tagline": null, "has_video": false, "website": null, "offers": null, "latitude": 34.003582, "politanName": "Atlanta, GA Metro ", "phone_number": "4045567996", "tags": [{"primary": true, "id": 1730, "name": "Ice Cream Parlors"}], "fax_number": null, "expansion": {"count": null, "uri": null}, "impression_id": "000b00000078425092f5164c7fa75210df7b55abfa", "profile": "http://www.citysearch.com/profile/807599050/marietta_ga/consistency_enterprises.html", "address": {"city": "Marietta", "state": "GA", "street": "2123 Plymouth Ln", "postal_code": "30062"}, "capProviderId": null, "distance": null, "has_offers": false, "name": "Consistency Enterprises", "longitude": -84.489848, "has_menu": false, "awards": null, "user_review_count": 0}, {"business_operation_status": 1, "rating": null, "neighborhood": null, "image": null, "scorecard": null, "featured": false, "sample_categories": "Restaurants", "public_id": "china-statistical-info-usa-marietta", "id": 810372840, "votes": null, "tagline": null, "has_video": false, "website": null, "offers": null, "latitude": 33.996599, "politanName": "Atlanta, GA Metro ", "phone_number": "7702180493", "tags": [{"primary": true, "id": 1722, "name": "Restaurants"}], "fax_number": null, "expansion": {"count": null, "uri": null}, "impression_id": "000b00000015479e6e2f7c4208aafa525a8858f665", "profile": "http://www.citysearch.com/profile/810372840/marietta_ga/china_statistical_info_usa.html", "address": {"city": "Marietta", "state": "GA", "street": "1441 Rosewood Creek Dr", "postal_code": "30066"}, "capProviderId": null, "distance": null, "has_offers": false, "name": "China Statistical Info USA", "longitude": -84.510317, "has_menu": false, "awards": null, "user_review_count": 0}, {"business_operation_status": 0, "rating": null, "neighborhood": null, "image": null, "scorecard": null, "featured": false, "sample_categories": "Restaurants, Health Food Stores", "public_id": "smoothie-king-atlanta-9", "id": 44776703, "votes": null, "tagline": null, "has_video": false, "website": "http://www.citysearch.com/profile/external/44776703/atlanta_ga/smoothie_king.html", "offers": null, "latitude": 33.864337, "politanName": "Atlanta, GA Metro ", "phone_number": "7704345987", "tags": [{"primary": false, "id": 1716, "name": "Health Food Stores"}, {"primary": true, "id": 1722, "name": "Restaurants"}], "fax_number": null, "expansion": {"count": null, "uri": null}, "impression_id": "000b000000b06b90d288de43a2855b80b3b105bfc5", "profile": "http://www.citysearch.com/profile/44776703/atlanta_ga/smoothie_king.html", "address": {"city": "Atlanta", "state": "GA", "street": "4338 Paces Ferry Rd SE", "postal_code": "30339"}, "capProviderId": null, "distance": null, "has_offers": false, "name": "Smoothie King", "longitude": -84.464965, "has_menu": false, "awards": null, "user_review_count": 0}, {"business_operation_status": 1, "rating": null, "neighborhood": null, "image": null, "scorecard": null, "featured": false, "sample_categories": "Restaurants", "public_id": "filimons-restaurant-smyrna", "id": 811872330, "votes": null, "tagline": null, "has_video": false, "website": null, "offers": null, "latitude": 33.887574, "politanName": "Atlanta, GA Metro ", "phone_number": "6782131556", "tags": [{"primary": true, "id": 1722, "name": "Restaurants"}], "fax_number": null, "expansion": {"count": null, "uri": null}, "impression_id": "000b00000035f1e6f800f1475d8e9b58749bcfc666", "profile": "http://www.citysearch.com/profile/811872330/smyrna_ga/filimon_s_restaurant.html", "address": {"city": "Smyrna", "state": "GA", "street": "601 Powder Springs St SE", "postal_code": "30080"}, "capProviderId": null, "distance": null, "has_offers": false, "name": "Filimon's Restaurant", "longitude": -84.535901, "has_menu": false, "awards": null, "user_review_count": 0}, {"business_operation_status": 1, "rating": null, "neighborhood": null, "image": null, "scorecard": null, "featured": false, "sample_categories": "Restaurants, Carry Out, Pizza, American Express, Discover", "public_id": "sandy-springs-chicken-atlanta", "id": 682429950, "votes": null, "tagline": null, "has_video": false, "website": "http://www.citysearch.com/profile/external/682429950/atlanta_ga/sandy_springs_chicken.html", "offers": null, "latitude": 33.921456, "politanName": "Atlanta, GA Metro ", "phone_number": "4043037727", "tags": [{"primary": false, "id": 11247, "name": "Carry Out"}, {"primary": false, "id": 11299, "name": "Pizza"}, {"primary": false, "id": 11333, "name": "American Express"}, {"primary": false, "id": 11349, "name": "Discover"}, {"primary": false, "id": 11361, "name": "MasterCard"}, {"primary": false, "id": 11382, "name": "Visa"}, {"primary": false, "id": 12839, "name": "Chicken"}, {"primary": true, "id": 1722, "name": "Restaurants"}], "fax_number": null, "expansion": {"count": null, "uri": null}, "impression_id": "000b0000001df3f720eabd4cf792d2eeb170308d0c", "profile": "http://www.citysearch.com/profile/682429950/atlanta_ga/sandy_springs_chicken.html", "address": {"city": "Atlanta", "state": "GA", "street": "6087 Roswell Rd Ne", "postal_code": "30328"}, "capProviderId": null, "distance": null, "has_offers": false, "name": "Sandy Springs Chicken", "longitude": -84.378652, "has_menu": false, "awards": null, "user_review_count": 0}, {"business_operation_status": 0, "rating": null, "neighborhood": null, "image": null, "scorecard": null, "featured": false, "sample_categories": "Restaurants", "public_id": "boiling-pot-atlanta", "id": 653572860, "votes": null, "tagline": null, "has_video": false, "website": null, "offers": null, "latitude": 33.953818, "politanName": "Atlanta, GA Metro ", "phone_number": "7706049300", "tags": [{"primary": true, "id": 1722, "name": "Restaurants"}], "fax_number": null, "expansion": {"count": null, "uri": null}, "impression_id": "000b000000e2413711af3044008a0907acd8a03928", "profile": "http://www.citysearch.com/profile/653572860/atlanta_ga/boiling_pot.html", "address": {"city": "Atlanta", "state": "GA", "street": "7285 Roswell Rd Ne", "postal_code": "30328"}, "capProviderId": null, "distance": null, "has_offers": false, "name": "Boiling Pot", "longitude": -84.365376, "has_menu": false, "awards": null, "user_review_count": 0}, {"business_operation_status": 1, "rating": null, "neighborhood": null, "image": null, "scorecard": null, "featured": false, "sample_categories": "Restaurants", "public_id": "silver-lodestone-inc-marietta", "id": 2873989, "votes": null, "tagline": null, "has_video": false, "website": "http://www.citysearch.com/profile/external/2873989/marietta_ga/silver_lodestone_inc.html", "offers": null, "latitude": 33.936462, "politanName": "Atlanta, GA Metro ", "phone_number": "7705907778", "tags": [{"primary": true, "id": 1722, "name": "Restaurants"}], "fax_number": null, "expansion": {"count": null, "uri": null}, "impression_id": "000b0000005b74d9dcb6fb4f7985d7a3aaf3416e75", "profile": "http://www.citysearch.com/profile/2873989/marietta_ga/silver_lodestone_inc.html", "address": {"city": "Marietta", "state": "GA", "street": "191 Garrison Rd SE Ste A", "postal_code": "30008"}, "capProviderId": null, "distance": null, "has_offers": false, "name": "Silver Lodestone Inc", "longitude": -84.547583, "has_menu": false, "awards": null, "user_review_count": 0}, {"business_operation_status": 1, "rating": null, "neighborhood": null, "image": null, "scorecard": null, "featured": false, "sample_categories": "Restaurants", "public_id": "nagoya-roswell", "id": 625136094, "votes": null, "tagline": null, "has_video": false, "website": null, "offers": null, "latitude": 34.004732, "politanName": "Atlanta, GA Metro ", "phone_number": "7709988899", "tags": [{"primary": true, "id": 1722, "name": "Restaurants"}], "fax_number": null, "expansion": {"count": null, "uri": null}, "impression_id": "000b0000001869c3b176a84e658dd4fde37af71dc7", "profile": "http://www.citysearch.com/profile/625136094/roswell_ga/nagoya.html", "address": {"city": "Roswell", "state": "GA", "street": "910 Marietta Hwy", "postal_code": "30075"}, "capProviderId": null, "distance": null, "has_offers": false, "name": "Nagoya", "longitude": -84.389163, "has_menu": false, "awards": null, "user_review_count": 0}, {"business_operation_status": 1, "rating": null, "neighborhood": null, "image": null, "scorecard": null, "featured": false, "sample_categories": "Restaurants, Diners", "public_id": "classic-stainless-steel-diners-atlanta", "id": 739045320, "votes": null, "tagline": null, "has_video": false, "website": null, "offers": null, "latitude": 33.885476, "politanName": "Atlanta, GA Metro ", "phone_number": "4042375170", "tags": [{"primary": false, "id": 1732, "name": "Diners"}, {"primary": true, "id": 1722, "name": "Restaurants"}], "fax_number": null, "expansion": {"count": null, "uri": null}, "impression_id": "000b00000046cfe0a30dc648ee8c043a010020258d", "profile": "http://www.citysearch.com/profile/739045320/atlanta_ga/classic_stainless_steel_diners.html", "address": {"city": "Atlanta", "state": "GA", "street": "600 Galleria Pkwy SE # 995", "postal_code": "30339"}, "capProviderId": null, "distance": null, "has_offers": false, "name": "Classic Stainless Steel Diners", "longitude": -84.461662, "has_menu": false, "awards": null, "user_review_count": 0}, {"business_operation_status": 1, "rating": null, "neighborhood": null, "image": null, "scorecard": null, "featured": false, "sample_categories": "Bars & Pubs, Bars & Clubs, Restaurants, Grill Restaurants, Carry Out", "public_id": "philippopolis-tavern-smyrna", "id": 748253380, "votes": null, "tagline": null, "has_video": false, "website": null, "offers": null, "latitude": 33.901006, "politanName": "Atlanta, GA Metro ", "phone_number": "6783836164", "tags": [{"primary": false, "id": 164, "name": "Bars & Clubs"}, {"primary": false, "id": 1722, "name": "Restaurants"}, {"primary": false, "id": 6191, "name": "Grill Restaurants"}, {"primary": false, "id": 11247, "name": "Carry Out"}, {"primary": false, "id": 11289, "name": "Mediterranean"}, {"primary": true, "id": 1686, "name": "Bars & Pubs"}], "fax_number": null, "expansion": {"count": null, "uri": null}, "impression_id": "000b000000483e89028c894cb59580299aeb3c98f7", "profile": "http://www.citysearch.com/profile/748253380/smyrna_ga/philippopolis_tavern.html", "address": {"city": "Smyrna", "state": "GA", "street": "1995 Windy Hill Rd SE", "postal_code": "30080"}, "capProviderId": null, "distance": null, "has_offers": false, "name": "Philippopolis Tavern", "longitude": -84.491036, "has_menu": false, "awards": null, "user_review_count": 0}, {"business_operation_status": 1, "rating": null, "neighborhood": null, "image": null, "scorecard": null, "featured": false, "sample_categories": "Restaurants", "public_id": "bawarchi-biryani-point-atlanta", "id": 612010264, "votes": null, "tagline": null, "has_video": false, "website": "http://www.citysearch.com/profile/external/612010264/atlanta_ga/bawarchi_biryani_point.html", "offers": null, "latitude": 33.935812, "politanName": "Atlanta, GA Metro ", "phone_number": "4042555052", "tags": [{"primary": true, "id": 1722, "name": "Restaurants"}], "fax_number": null, "expansion": {"count": null, "uri": null}, "impression_id": "000b0000006984eddd284744a48bc68612706203d4", "profile": "http://www.citysearch.com/profile/612010264/atlanta_ga/bawarchi_biryani_point.html", "address": {"city": "Atlanta", "state": "GA", "street": "6627 Roswell Rd # A", "postal_code": "30328"}, "capProviderId": null, "distance": null, "has_offers": false, "name": "Bawarchi Biryani Point", "longitude": -84.376854, "has_menu": false, "awards": null, "user_review_count": 0}, {"business_operation_status": 1, "rating": null, "neighborhood": null, "image": null, "scorecard": null, "featured": false, "sample_categories": "Restaurants", "public_id": "open-door-pediatrics-therapy-marietta", "id": 621872460, "votes": null, "tagline": null, "has_video": false, "website": "http://www.citysearch.com/profile/external/621872460/marietta_ga/open_door_pediatrics_therapy.html", "offers": null, "latitude": 33.950209, "politanName": "Atlanta, GA Metro ", "phone_number": "6782908910", "tags": [{"primary": true, "id": 1722, "name": "Restaurants"}], "fax_number": null, "expansion": {"count": null, "uri": null}, "impression_id": "000b000000baeb32f8417143c8951313dcbc663fcb", "profile": "http://www.citysearch.com/profile/621872460/marietta_ga/open_door_pediatrics_therapy.html", "address": {"city": "Marietta", "state": "GA", "street": "707 Whitlock Ave Sw # A41", "postal_code": "30064"}, "capProviderId": null, "distance": null, "has_offers": false, "name": "Open Door Pediatrics Therapy", "longitude": -84.573437, "has_menu": false, "awards": null, "user_review_count": 0}, {"business_operation_status": 1, "rating": null, "neighborhood": null, "image": null, "scorecard": null, "featured": false, "sample_categories": "Restaurants, Bars & Clubs, Ethnic Goods, Oriental Food Products, Asian", "public_id": "haiku-asian-restaurant-atlanta", "id": 622328850, "votes": null, "tagline": null, "has_video": false, "website": null, "offers": null, "latitude": 33.95065, "politanName": "Atlanta, GA Metro ", "phone_number": "7703911170", "tags": [{"primary": false, "id": 1722, "name": "Restaurants"}, {"primary": false, "id": 164, "name": "Bars & Clubs"}, {"primary": false, "id": 6041, "name": "Ethnic Goods"}, {"primary": false, "id": 11235, "name": "Asian"}, {"primary": false, "id": 11267, "name": "Food Delivery"}, {"primary": false, "id": 11333, "name": "American Express"}, {"primary": false, "id": 11347, "name": "Debit Card"}, {"primary": false, "id": 11349, "name": "Discover"}, {"primary": false, "id": 11361, "name": "MasterCard"}, {"primary": false, "id": 11382, "name": "Visa"}, {"primary": true, "id": 11157, "name": "Oriental Food Products"}], "fax_number": null, "expansion": {"count": null, "uri": null}, "impression_id": "000b000000f3ed326ed8f74df3b7dc2b30bb405ec7", "profile": "http://www.citysearch.com/profile/622328850/atlanta_ga/haiku_asian_restaurant.html", "address": {"city": "Atlanta", "state": "GA", "street": "7277 Roswell Rd Ne", "postal_code": "30328"}, "capProviderId": null, "distance": null, "has_offers": false, "name": "Haiku Asian Restaurant", "longitude": -84.368499, "has_menu": false, "awards": null, "user_review_count": 0}, {"business_operation_status": 1, "rating": null, "neighborhood": null, "image": null, "scorecard": null, "featured": false, "sample_categories": "Restaurants, Mexican", "public_id": "don-pedro-mexican-restaurant-marietta", "id": 45556665, "votes": null, "tagline": null, "has_video": false, "website": null, "offers": null, "latitude": 33.944297, "politanName": "Atlanta, GA Metro ", "phone_number": "6782900202", "tags": [{"primary": false, "id": 11208, "name": "Mexican"}, {"primary": true, "id": 1722, "name": "Restaurants"}], "fax_number": null, "expansion": {"count": null, "uri": null}, "impression_id": "000b00000070377b1bbfae4ac69fe7863897ea647a", "profile": "http://www.citysearch.com/profile/45556665/marietta_ga/don_pedro_mexican_restaurant.html", "address": {"city": "Marietta", "state": "GA", "street": "344 S Fairground St SE", "postal_code": "30060"}, "capProviderId": null, "distance": null, "has_offers": false, "name": "Don Pedro Mexican Restaurant", "longitude": -84.535657, "has_menu": false, "awards": null, "user_review_count": 0}, {"business_operation_status": 1, "rating": null, "neighborhood": null, "image": null, "scorecard": null, "featured": false, "sample_categories": "Restaurants", "public_id": "banquet-hall-de-las-america-marietta", "id": 775210860, "votes": null, "tagline": null, "has_video": false, "website": null, "offers": null, "latitude": 33.951285, "politanName": "Atlanta, GA Metro ", "phone_number": "7707941080", "tags": [{"primary": true, "id": 1722, "name": "Restaurants"}], "fax_number": null, "expansion": {"count": null, "uri": null}, "impression_id": "000b000000f09b24be64ed492db1fb6534cfced246", "profile": "http://www.citysearch.com/profile/775210860/marietta_ga/banquet_hall_de_las_america.html", "address": {"city": "Marietta", "state": "GA", "street": "737 Roswell St NE", "postal_code": "30060"}, "capProviderId": null, "distance": null, "has_offers": false, "name": "Banquet Hall De Las America", "longitude": -84.530697, "has_menu": false, "awards": null, "user_review_count": 0}, {"business_operation_status": 1, "rating": null, "neighborhood": null, "image": null, "scorecard": null, "featured": false, "sample_categories": "Restaurants, Bistros", "public_id": "bs-bistro-sandy", "id": 790693850, "votes": null, "tagline": null, "has_video": false, "website": null, "offers": null, "latitude": 33.9202, "politanName": "Atlanta, GA Metro ", "phone_number": "4043899258", "tags": [{"primary": false, "id": 13690, "name": "Bistros"}, {"primary": true, "id": 1722, "name": "Restaurants"}], "fax_number": null, "expansion": {"count": null, "uri": null}, "impression_id": "000b000000c7b9727f58a14ec38eac4f99c645a02a", "profile": "http://www.citysearch.com/profile/790693850/sandy_springs_ga/b_s_bistro.html", "address": {"city": "Sandy Springs", "state": "GA", "street": "6010 Sandy Springs Cir # B1", "postal_code": "30328"}, "capProviderId": null, "distance": null, "has_offers": false, "name": "B's Bistro", "longitude": -84.384878, "has_menu": true, "awards": null, "user_review_count": 0}, {"business_operation_status": 1, "rating": null, "neighborhood": null, "image": null, "scorecard": null, "featured": false, "sample_categories": "Restaurants, Pizza, Carry Out", "public_id": "johnnys-pizza-marietta", "id": 790893290, "votes": null, "tagline": null, "has_video": false, "website": null, "offers": null, "latitude": 33.968758, "politanName": "Atlanta, GA Metro ", "phone_number": "7705658665", "tags": [{"primary": false, "id": 1722, "name": "Restaurants"}, {"primary": false, "id": 11247, "name": "Carry Out"}, {"primary": true, "id": 11299, "name": "Pizza"}], "fax_number": null, "expansion": {"count": null, "uri": null}, "impression_id": "000b0000004419f681c9cb403ba7cb93aedc1c2749", "profile": "http://www.citysearch.com/profile/790893290/marietta_ga/johnnys_pizza.html", "address": {"city": "Marietta", "state": "GA", "street": "2100 Roswell Rd # 1100", "postal_code": "30062"}, "capProviderId": null, "distance": null, "has_offers": false, "name": "Johnnys Pizza", "longitude": -84.488447, "has_menu": false, "awards": null, "user_review_count": 0}, {"business_operation_status": 1, "rating": null, "neighborhood": null, "image": null, "scorecard": null, "featured": false, "sample_categories": "Restaurants, Catering, Carry Out", "public_id": "joes-crab-shack-marietta-2", "id": 807865760, "votes": null, "tagline": null, "has_video": false, "website": null, "offers": null, "latitude": 33.993933, "politanName": "Atlanta, GA Metro ", "phone_number": "7704228374", "tags": [{"primary": false, "id": 1705, "name": "Catering"}, {"primary": false, "id": 11247, "name": "Carry Out"}, {"primary": true, "id": 1722, "name": "Restaurants"}], "fax_number": null, "expansion": {"count": null, "uri": null}, "impression_id": "000b00000081ed28b207384e7f9ffd975b3fa95571", "profile": "http://www.citysearch.com/profile/807865760/marietta_ga/joe_s_crab_shack.html", "address": {"city": "Marietta", "state": "GA", "street": "225 Williams Dr", "postal_code": "30066"}, "capProviderId": null, "distance": null, "has_offers": false, "name": "Joe's Crab Shack", "longitude": -84.548113, "has_menu": false, "awards": null, "user_review_count": 0}, {"business_operation_status": 1, "rating": null, "neighborhood": null, "image": null, "scorecard": null, "featured": false, "sample_categories": "Restaurants", "public_id": "were-cookin-inc-atlanta", "id": 801144420, "votes": null, "tagline": null, "has_video": false, "website": null, "offers": null, "latitude": 33.859786, "politanName": "Atlanta, GA Metro ", "phone_number": "7704371134", "tags": [{"primary": true, "id": 1722, "name": "Restaurants"}], "fax_number": null, "expansion": {"count": null, "uri": null}, "impression_id": "000b0000001771b85702fc4978bed94ffd1a756772", "profile": "http://www.citysearch.com/profile/801144420/atlanta_ga/we_re_cookin_inc.html", "address": {"city": "Atlanta", "state": "GA", "street": "4199 Paces Ferry Rd Se # C", "postal_code": "30339"}, "capProviderId": null, "distance": null, "has_offers": false, "name": "We're Cookin INC", "longitude": -84.455353, "has_menu": false, "awards": null, "user_review_count": 0}, {"business_operation_status": 1, "rating": null, "neighborhood": null, "image": null, "scorecard": null, "featured": false, "sample_categories": "Restaurants", "public_id": "provence-french-bistro-marietta", "id": 811548460, "votes": null, "tagline": null, "has_video": false, "website": null, "offers": null, "latitude": 33.965305, "politanName": "Atlanta, GA Metro ", "phone_number": "7703215442", "tags": [{"primary": true, "id": 1722, "name": "Restaurants"}], "fax_number": null, "expansion": {"count": null, "uri": null}, "impression_id": "000b00000073488cb473954d70a3fe1781bdc52280", "profile": "http://www.citysearch.com/profile/811548460/marietta_ga/provence_french_bistro.html", "address": {"city": "Marietta", "state": "GA", "street": "4665 Lower Roswell Rd", "postal_code": "30068"}, "capProviderId": null, "distance": null, "has_offers": false, "name": "Provence French Bistro", "longitude": -84.415723, "has_menu": false, "awards": null, "user_review_count": 0}, {"business_operation_status": 1, "rating": null, "neighborhood": null, "image": null, "scorecard": null, "featured": false, "sample_categories": "Restaurants", "public_id": "grazie-marietta", "id": 818460400, "votes": null, "tagline": null, "has_video": false, "website": null, "offers": null, "latitude": 33.953111, "politanName": "Atlanta, GA Metro ", "phone_number": "7704998585", "tags": [{"primary": true, "id": 1722, "name": "Restaurants"}], "fax_number": null, "expansion": {"count": null, "uri": null}, "impression_id": "000b000000ef3ecb81c31149e2b1c6bac8f62435a5", "profile": "http://www.citysearch.com/profile/818460400/marietta_ga/grazie.html", "address": {"city": "Marietta", "state": "GA", "street": "1000 Whitlock Ave NW", "postal_code": "30064"}, "capProviderId": null, "distance": null, "has_offers": false, "name": "Grazie", "longitude": -84.581272, "has_menu": false, "awards": null, "user_review_count": 0}, {"business_operation_status": 1, "rating": null, "neighborhood": null, "image": null, "scorecard": null, "featured": false, "sample_categories": "Restaurants", "public_id": "chazzs-place-marietta", "id": 732185840, "votes": null, "tagline": null, "has_video": false, "website": null, "offers": null, "latitude": 33.964105, "politanName": "Atlanta, GA Metro ", "phone_number": "7706932334", "tags": [{"primary": true, "id": 1722, "name": "Restaurants"}], "fax_number": null, "expansion": {"count": null, "uri": null}, "impression_id": "000b0000001104ac5cec1d47a0aaecbdeca43db446", "profile": "http://www.citysearch.com/profile/732185840/marietta_ga/chazz_s_place.html", "address": {"city": "Marietta", "state": "GA", "street": "531 Roselane St NW", "postal_code": "30060"}, "capProviderId": null, "distance": null, "has_offers": false, "name": "Chazz's Place", "longitude": -84.557337, "has_menu": false, "awards": null, "user_review_count": 0}, {"business_operation_status": 1, "rating": null, "neighborhood": null, "image": null, "scorecard": null, "featured": false, "sample_categories": "Restaurants", "public_id": "olgas-porch-inc-marietta", "id": 732189800, "votes": null, "tagline": null, "has_video": false, "website": null, "offers": null, "latitude": 33.962903, "politanName": "Atlanta, GA Metro ", "phone_number": "6786374595", "tags": [{"primary": true, "id": 1722, "name": "Restaurants"}], "fax_number": null, "expansion": {"count": null, "uri": null}, "impression_id": "000b000000c9981ca1bb09432ca060961af30d938b", "profile": "http://www.citysearch.com/profile/732189800/marietta_ga/olgas_porch_inc.html", "address": {"city": "Marietta", "state": "GA", "street": "1591 Gresham Rd", "postal_code": "30062"}, "capProviderId": null, "distance": null, "has_offers": false, "name": "Olgas Porch Inc", "longitude": -84.50563, "has_menu": false, "awards": null, "user_review_count": 0}, {"business_operation_status": 1, "rating": null, "neighborhood": null, "image": null, "scorecard": null, "featured": false, "sample_categories": "Restaurants", "public_id": "quick-n-tasty-cafe-smyrna", "id": 732219770, "votes": null, "tagline": null, "has_video": false, "website": null, "offers": null, "latitude": 33.891129, "politanName": "Atlanta, GA Metro ", "phone_number": "7704386170", "tags": [{"primary": true, "id": 1722, "name": "Restaurants"}], "fax_number": null, "expansion": {"count": null, "uri": null}, "impression_id": "000b000000fa4dc1d9b7f548f0933964a5af3790fb", "profile": "http://www.citysearch.com/profile/732219770/smyrna_ga/quick_n_tasty_cafe.html", "address": {"city": "Smyrna", "state": "GA", "street": "1651 Roswell St SE", "postal_code": "30080"}, "capProviderId": null, "distance": null, "has_offers": false, "name": "Quick N Tasty Cafe", "longitude": -84.504659, "has_menu": false, "awards": null, "user_review_count": 0}, {"business_operation_status": 1, "rating": null, "neighborhood": null, "image": null, "scorecard": null, "featured": false, "sample_categories": "Restaurants", "public_id": "ogas-cafeteria-marietta", "id": 812725490, "votes": null, "tagline": null, "has_video": false, "website": null, "offers": null, "latitude": 34.017069, "politanName": "Atlanta, GA Metro ", "phone_number": "7705656700", "tags": [{"primary": true, "id": 1722, "name": "Restaurants"}], "fax_number": null, "expansion": {"count": null, "uri": null}, "impression_id": "000b000000697af78ae2914318ba830b1cf9a0be07", "profile": "http://www.citysearch.com/profile/812725490/marietta_ga/ogas_cafeteria.html", "address": {"city": "Marietta", "state": "GA", "street": "2778 Sandy Plains Rd", "postal_code": "30066"}, "capProviderId": null, "distance": null, "has_offers": false, "name": "Ogas Cafeteria", "longitude": -84.491613, "has_menu": false, "awards": null, "user_review_count": 0}, {"business_operation_status": 1, "rating": null, "neighborhood": null, "image": null, "scorecard": null, "featured": false, "sample_categories": "Restaurants", "public_id": "wingmaster-roswell", "id": 816795990, "votes": null, "tagline": null, "has_video": false, "website": null, "offers": null, "latitude": 34.011764, "politanName": "Atlanta, GA Metro ", "phone_number": "6784614612", "tags": [{"primary": true, "id": 1722, "name": "Restaurants"}], "fax_number": null, "expansion": {"count": null, "uri": null}, "impression_id": "000b000000f9c4876ea5b94dcaac43ec16d4b0f652", "profile": "http://www.citysearch.com/profile/816795990/roswell_ga/wingmaster.html", "address": {"city": "Roswell", "state": "GA", "street": "48 King St", "postal_code": "30075"}, "capProviderId": null, "distance": null, "has_offers": false, "name": "Wingmaster", "longitude": -84.36332, "has_menu": false, "awards": null, "user_review_count": 0}, {"business_operation_status": 1, "rating": null, "neighborhood": null, "image": null, "scorecard": null, "featured": false, "sample_categories": "Restaurants, Delis And Delicatessens, Carry Out", "public_id": "firehouse-subs-marietta-2", "id": 745603500, "votes": null, "tagline": null, "has_video": false, "website": null, "offers": null, "latitude": 33.95896, "politanName": "Atlanta, GA Metro ", "phone_number": "7707925993", "tags": [{"primary": false, "id": 1727, "name": "Delis And Delicatessens"}, {"primary": false, "id": 11247, "name": "Carry Out"}, {"primary": true, "id": 1722, "name": "Restaurants"}], "fax_number": null, "expansion": {"count": null, "uri": null}, "impression_id": "000b00000089c98f18ef004c41bf142d951fabd21c", "profile": "http://www.citysearch.com/profile/745603500/marietta_ga/firehouse_subs.html", "address": {"city": "Marietta", "state": "GA", "street": "145 N Marietta Pkwy NE", "postal_code": "30060"}, "capProviderId": null, "distance": null, "has_offers": false, "name": "Firehouse Subs", "longitude": -84.546879, "has_menu": false, "awards": null, "user_review_count": 0}, {"business_operation_status": 1, "rating": null, "neighborhood": null, "image": null, "scorecard": null, "featured": false, "sample_categories": "Restaurants", "public_id": "mamafus-smyrna", "id": 828608580, "votes": null, "tagline": null, "has_video": false, "website": null, "offers": null, "latitude": 33.884889, "politanName": "Atlanta, GA Metro ", "phone_number": "6782133663", "tags": [{"primary": true, "id": 1722, "name": "Restaurants"}], "fax_number": null, "expansion": {"count": null, "uri": null}, "impression_id": "000b00000088cf33f834b94428b7eaec13093b8e82", "profile": "http://www.citysearch.com/profile/828608580/smyrna_ga/mamafu_s.html", "address": {"city": "Smyrna", "state": "GA", "street": "400 Village Green Cir SE", "postal_code": "30080"}, "capProviderId": null, "distance": null, "has_offers": false, "name": "Mamafu's", "longitude": -84.516415, "has_menu": false, "awards": null, "user_review_count": 0}, {"business_operation_status": 1, "rating": null, "neighborhood": null, "image": null, "scorecard": null, "featured": false, "sample_categories": "Restaurants", "public_id": "bennigans-corp-atlanta", "id": 825862700, "votes": null, "tagline": null, "has_video": false, "website": null, "offers": null, "latitude": 33.904439, "politanName": "Atlanta, GA Metro ", "phone_number": "7709523004", "tags": [{"primary": true, "id": 1722, "name": "Restaurants"}], "fax_number": null, "expansion": {"count": null, "uri": null}, "impression_id": "000b000000612472e3f4a14069af880621306cbd3e", "profile": "http://www.citysearch.com/profile/825862700/atlanta_ga/bennigan_s_corp.html", "address": {"city": "Atlanta", "state": "GA", "street": "5525 Interstate North Pkwy", "postal_code": "30328"}, "capProviderId": null, "distance": null, "has_offers": false, "name": "Bennigan's Corp", "longitude": -84.437055, "has_menu": false, "awards": null, "user_review_count": 0}, {"business_operation_status": 1, "rating": null, "neighborhood": null, "image": null, "scorecard": null, "featured": false, "sample_categories": "Restaurants", "public_id": "anthonys-italian-kitchen-marietta", "id": 826910750, "votes": null, "tagline": null, "has_video": false, "website": null, "offers": null, "latitude": 33.952602, "politanName": "Atlanta, GA Metro ", "phone_number": "7705097757", "tags": [{"primary": true, "id": 1722, "name": "Restaurants"}], "fax_number": null, "expansion": {"count": null, "uri": null}, "impression_id": "000b00000093e8b61b071f4e4ca1d1f77497a3e04f", "profile": "http://www.citysearch.com/profile/826910750/marietta_ga/anthony_s_italian_kitchen.html", "address": {"city": "Marietta", "state": "GA", "street": "1323 Roswell Rd", "postal_code": "30062"}, "capProviderId": null, "distance": null, "has_offers": false, "name": "Anthony's Italian Kitchen", "longitude": -84.549933, "has_menu": true, "awards": null, "user_review_count": 0}, {"business_operation_status": 1, "rating": null, "neighborhood": null, "image": null, "scorecard": null, "featured": false, "sample_categories": "Restaurants, Carry Out", "public_id": "ruby-tuesday-atlanta-6", "id": 833545440, "votes": null, "tagline": null, "has_video": false, "website": null, "offers": null, "latitude": 33.907783, "politanName": "Atlanta, GA Metro ", "phone_number": "6785744550", "tags": [{"primary": false, "id": 11247, "name": "Carry Out"}, {"primary": true, "id": 1722, "name": "Restaurants"}], "fax_number": null, "expansion": {"count": null, "uri": null}, "impression_id": "000b000000c4ff6342c9024c40af74a92f83237f13", "profile": "http://www.citysearch.com/profile/833545440/atlanta_ga/ruby_tuesday.html", "address": {"city": "Atlanta", "state": "GA", "street": "3318 Cobb Pkwy SE", "postal_code": "30339"}, "capProviderId": null, "distance": null, "has_offers": false, "name": "Ruby Tuesday", "longitude": -84.492298, "has_menu": true, "awards": null, "user_review_count": 0}, {"business_operation_status": 1, "rating": null, "neighborhood": null, "image": null, "scorecard": null, "featured": false, "sample_categories": "Restaurants, Chinese, American Express, Discover, MasterCard", "public_id": "hong-kong-chinese-restaurant-marietta", "id": 775206160, "votes": null, "tagline": null, "has_video": false, "website": null, "offers": null, "latitude": 33.993754, "politanName": "Atlanta, GA Metro ", "phone_number": "7704256212", "tags": [{"primary": false, "id": 11252, "name": "Chinese"}, {"primary": false, "id": 11333, "name": "American Express"}, {"primary": false, "id": 11349, "name": "Discover"}, {"primary": false, "id": 11361, "name": "MasterCard"}, {"primary": false, "id": 11382, "name": "Visa"}, {"primary": true, "id": 1722, "name": "Restaurants"}], "fax_number": null, "expansion": {"count": null, "uri": null}, "impression_id": "000b00000096865d7669f34c2f97bf91cf206525c7", "profile": "http://www.citysearch.com/profile/775206160/marietta_ga/hong_kong_chinese_restaurant.html", "address": {"city": "Marietta", "state": "GA", "street": "2774 Cobb Pkwy NW", "postal_code": "30060"}, "capProviderId": null, "distance": null, "has_offers": false, "name": "Hong Kong Chinese Restaurant", "longitude": -84.581248, "has_menu": false, "awards": null, "user_review_count": 0}, {"business_operation_status": 1, "rating": null, "neighborhood": null, "image": null, "scorecard": null, "featured": false, "sample_categories": "Restaurants, Pizza", "public_id": "slice-of-heaven-smyrna", "id": 775222180, "votes": null, "tagline": null, "has_video": false, "website": null, "offers": null, "latitude": 33.873639, "politanName": "Atlanta, GA Metro ", "phone_number": "7704371440", "tags": [{"primary": false, "id": 11299, "name": "Pizza"}, {"primary": true, "id": 1722, "name": "Restaurants"}], "fax_number": null, "expansion": {"count": null, "uri": null}, "impression_id": "000b000000381eb91cde984865bd3349ea160d77a0", "profile": "http://www.citysearch.com/profile/775222180/smyrna_ga/slice_of_heaven.html", "address": {"city": "Smyrna", "state": "GA", "street": "3256 Atlanta Rd SE", "postal_code": "30080"}, "capProviderId": null, "distance": null, "has_offers": false, "name": "Slice of Heaven", "longitude": -84.501033, "has_menu": false, "awards": null, "user_review_count": 0}, {"business_operation_status": 1, "rating": null, "neighborhood": null, "image": null, "scorecard": null, "featured": false, "sample_categories": "Restaurants, Pizza, Carry Out", "public_id": "pizza-hut-marietta-12", "id": 775223530, "votes": null, "tagline": null, "has_video": false, "website": null, "offers": null, "latitude": 33.952602, "politanName": "Atlanta, GA Metro ", "phone_number": "7709716932", "tags": [{"primary": false, "id": 1722, "name": "Restaurants"}, {"primary": false, "id": 11247, "name": "Carry Out"}, {"primary": true, "id": 11299, "name": "Pizza"}], "fax_number": null, "expansion": {"count": null, "uri": null}, "impression_id": "000b00000054d6658b950a40e7a69711dfe1095f09", "profile": "http://www.citysearch.com/profile/775223530/marietta_ga/pizza_hut.html", "address": {"city": "Marietta", "state": "GA", "street": "2204 Roswell Rd", "postal_code": "30062"}, "capProviderId": null, "distance": null, "has_offers": false, "name": "Pizza Hut", "longitude": -84.549933, "has_menu": false, "awards": null, "user_review_count": 0}, {"business_operation_status": 1, "rating": null, "neighborhood": null, "image": null, "scorecard": null, "featured": false, "sample_categories": "Restaurants, Ice Cream Parlors", "public_id": "italios-gelato-cafe-inc-smyrna", "id": 777752430, "votes": null, "tagline": null, "has_video": false, "website": null, "offers": null, "latitude": 33.884019, "politanName": "Atlanta, GA Metro ", "phone_number": "7704380941", "tags": [{"primary": false, "id": 1730, "name": "Ice Cream Parlors"}, {"primary": true, "id": 1722, "name": "Restaurants"}], "fax_number": null, "expansion": {"count": null, "uri": null}, "impression_id": "000b0000009d32ece1a8e94ca790380295c1fa1e47", "profile": "http://www.citysearch.com/profile/777752430/smyrna_ga/italio_s_gelato_cafe_inc.html", "address": {"city": "Smyrna", "state": "GA", "street": "1265 W Spring St Se", "postal_code": "30080"}, "capProviderId": null, "distance": null, "has_offers": false, "name": "Italio's Gelato & Cafe INC", "longitude": -84.515924, "has_menu": false, "awards": null, "user_review_count": 2}, {"business_operation_status": 1, "rating": null, "neighborhood": null, "image": null, "scorecard": null, "featured": false, "sample_categories": "Restaurants, Italian, Pizza", "public_id": "coliseum-italian-restaurant-roswell", "id": 36285820, "votes": null, "tagline": null, "has_video": false, "website": null, "offers": null, "latitude": 34.003826, "politanName": "Atlanta, GA Metro ", "phone_number": "7706401511", "tags": [{"primary": false, "id": 11279, "name": "Italian"}, {"primary": false, "id": 11299, "name": "Pizza"}, {"primary": true, "id": 1722, "name": "Restaurants"}], "fax_number": null, "expansion": {"count": null, "uri": null}, "impression_id": "000b000000fd41092e55d848a8b048c3f123b00fa7", "profile": "http://www.citysearch.com/profile/36285820/roswell_ga/coliseum_italian_restaurant.html", "address": {"city": "Roswell", "state": "GA", "street": "880 Marietta Hwy", "postal_code": "30075"}, "capProviderId": null, "distance": null, "has_offers": false, "name": "Coliseum Italian Restaurant", "longitude": -84.391437, "has_menu": false, "awards": null, "user_review_count": 0}, {"business_operation_status": 1, "rating": null, "neighborhood": null, "image": null, "scorecard": null, "featured": false, "sample_categories": "Restaurants", "public_id": "grill-on-the-square-marietta", "id": 827975120, "votes": null, "tagline": null, "has_video": false, "website": null, "offers": null, "latitude": 33.952271, "politanName": "Atlanta, GA Metro ", "phone_number": "7704265161", "tags": [{"primary": true, "id": 1722, "name": "Restaurants"}], "fax_number": null, "expansion": {"count": null, "uri": null}, "impression_id": "000b000000ea1c53ad1c91479d83e4c23994a7ddf4", "profile": "http://www.citysearch.com/profile/827975120/marietta_ga/grill_on_the_square.html", "address": {"city": "Marietta", "state": "GA", "street": "70 S Park Sq NE # C", "postal_code": "30060"}, "capProviderId": null, "distance": null, "has_offers": false, "name": "Grill On The Square", "longitude": -84.549833, "has_menu": false, "awards": null, "user_review_count": 0}, {"business_operation_status": 1, "rating": null, "neighborhood": null, "image": null, "scorecard": null, "featured": false, "sample_categories": "Catering, Restaurants", "public_id": "carls-cafe-atlanta", "id": 35628553, "votes": null, "tagline": null, "has_video": false, "website": "http://www.citysearch.com/profile/external/35628553/atlanta_ga/carl_s_cafe.html", "offers": null, "latitude": 33.916678, "politanName": "Atlanta, GA Metro ", "phone_number": "4048438440", "tags": [{"primary": false, "id": 1722, "name": "Restaurants"}, {"primary": true, "id": 1705, "name": "Catering"}], "fax_number": null, "expansion": {"count": null, "uri": null}, "impression_id": "000b0000004572a0042d344711a19c03f98cd5bf6e", "profile": "http://www.citysearch.com/profile/35628553/atlanta_ga/carl_s_cafe.html", "address": {"city": "Atlanta", "state": "GA", "street": "5920 Roswell Rd NE Ste C104", "postal_code": "30328"}, "capProviderId": null, "distance": null, "has_offers": false, "name": "Carl's Cafe", "longitude": -84.381718, "has_menu": true, "awards": null, "user_review_count": 0}, {"business_operation_status": 1, "rating": null, "neighborhood": null, "image": null, "scorecard": null, "featured": false, "sample_categories": "Restaurants", "public_id": "cafe-1100-atlanta-2", "id": 805596080, "votes": null, "tagline": null, "has_video": false, "website": null, "offers": null, "latitude": 33.887519, "politanName": "Atlanta, GA Metro ", "phone_number": "7709334141", "tags": [{"primary": true, "id": 1722, "name": "Restaurants"}], "fax_number": null, "expansion": {"count": null, "uri": null}, "impression_id": "000b000000e2c5da07f0a2492ab7f895cab077690b", "profile": "http://www.citysearch.com/profile/805596080/atlanta_ga/cafe_1100.html", "address": {"city": "Atlanta", "state": "GA", "street": "900 Circle 75 Pkwy SE # 25", "postal_code": "30339"}, "capProviderId": null, "distance": null, "has_offers": false, "name": "Cafe 1100", "longitude": -84.467593, "has_menu": false, "awards": null, "user_review_count": 0}, {"business_operation_status": 1, "rating": null, "neighborhood": null, "image": null, "scorecard": null, "featured": false, "sample_categories": "Restaurants", "public_id": "moch-delights-atlanta", "id": 43872739, "votes": null, "tagline": null, "has_video": false, "website": null, "offers": null, "latitude": 33.909943, "politanName": "Atlanta, GA Metro ", "phone_number": "7706128999", "tags": [{"primary": true, "id": 1722, "name": "Restaurants"}], "fax_number": null, "expansion": {"count": null, "uri": null}, "impression_id": "000b0000000047b7b90cac45a5929b4cae5622cb46", "profile": "http://www.citysearch.com/profile/43872739/atlanta_ga/moch_delights.html", "address": {"city": "Atlanta", "state": "GA", "street": "1765 The Exchange SE", "postal_code": "30339"}, "capProviderId": null, "distance": null, "has_offers": false, "name": "Moch Delights", "longitude": -84.482145, "has_menu": false, "awards": null, "user_review_count": 0}], "histograms": [], "tag_ids": [1722], "uri": "http://api.citygridmedia.com:8080/search/places/v2/search/where?has_offers=false&type=restaurant&format=json&page=38&where=30067&rpp=50&histograms=false&publisher=10000009598&region_type=circle", "did_you_mean": "", "regions": [{"latitude": 33.930575, "default_radius": 3.78, "type": "postal_code", "name": "30067", "longitude": -84.463162}], "call_id": "000b000000139b3b267a2d4af3a9382c32fbedd3d2", "first_hit": 1851, "total_hits": 1972, "geo_ids": [26295], "page": 38, "last_hit": 1900}}