{"results": {"rpp": 50, "locations": [{"business_operation_status": 1, "rating": null, "neighborhood": null, "image": null, "scorecard": null, "featured": false, "sample_categories": "Restaurants", "public_id": "fused-bar-restaurant-roswell", "id": 672280920, "votes": null, "tagline": null, "has_video": false, "website": null, "offers": null, "latitude": 34.024666, "politanName": "Atlanta, GA Metro ", "phone_number": null, "tags": [{"primary": true, "id": 1722, "name": "Restaurants"}], "fax_number": null, "expansion": {"count": null, "uri": null}, "impression_id": "000b000000bb563408f34640e1ab2f784aabb8b2fd", "profile": "http://www.citysearch.com/profile/672280920/roswell_ga/fused_bar_restaurant.html", "address": {"city": "Roswell", "state": "GA", "street": "957 Canton St", "postal_code": "30075"}, "capProviderId": null, "distance": null, "has_offers": false, "name": "Fused Bar & Restaurant", "longitude": -84.361254, "has_menu": false, "awards": null, "user_review_count": 0}, {"business_operation_status": 1, "rating": null, "neighborhood": null, "image": null, "scorecard": null, "featured": false, "sample_categories": "Restaurants, Lounges", "public_id": "mill-kitchen-bar-roswell", "id": 775226660, "votes": null, "tagline": null, "has_video": false, "website": "http://www.citysearch.com/profile/external/775226660/roswell_ga/the_mill_kitchen_bar.html", "offers": null, "latitude": 34.014683, "politanName": "Atlanta, GA Metro ", "phone_number": "7708179345", "tags": [{"primary": false, "id": 1697, "name": "Lounges"}, {"primary": true, "id": 1722, "name": "Restaurants"}], "fax_number": null, "expansion": {"count": null, "uri": null}, "impression_id": "000b00000030ce9ffac02144cf917731a4877c50d1", "profile": "http://www.citysearch.com/profile/775226660/roswell_ga/the_mill_kitchen_bar.html", "address": {"city": "Roswell", "state": "GA", "street": "590 Mimosa Blvd", "postal_code": "30075"}, "capProviderId": null, "distance": null, "has_offers": false, "name": "The Mill Kitchen & Bar", "longitude": -84.363923, "has_menu": false, "awards": null, "user_review_count": 0}, {"business_operation_status": 1, "rating": null, "neighborhood": null, "image": null, "scorecard": null, "featured": false, "sample_categories": "Restaurants, Mexican", "public_id": "taqueria-la-guelaguetza-smyrna", "id": 777809650, "votes": null, "tagline": null, "has_video": false, "website": null, "offers": null, "latitude": 33.891089, "politanName": "Atlanta, GA Metro ", "phone_number": "6787660130", "tags": [{"primary": false, "id": 11208, "name": "Mexican"}, {"primary": true, "id": 1722, "name": "Restaurants"}], "fax_number": null, "expansion": {"count": null, "uri": null}, "impression_id": "000b00000017cb5bd8ad3d470c8e323256ceddcbaf", "profile": "http://www.citysearch.com/profile/777809650/smyrna_ga/taqueria_la_guelaguetza.html", "address": {"city": "Smyrna", "state": "GA", "street": "1651 Roswell St Se", "postal_code": "30080"}, "capProviderId": null, "distance": null, "has_offers": false, "name": "Taqueria La Guelaguetza", "longitude": -84.504679, "has_menu": false, "awards": null, "user_review_count": 0}, {"business_operation_status": 1, "rating": null, "neighborhood": null, "image": null, "scorecard": null, "featured": false, "sample_categories": "Restaurants, Mexican", "public_id": "taco-mac-sandy", "id": 781194630, "votes": null, "tagline": null, "has_video": false, "website": "http://www.citysearch.com/profile/external/781194630/sandy_springs_ga/taco_mac.html", "offers": null, "latitude": 33.907557, "politanName": "Atlanta, GA Metro ", "phone_number": "4042521434", "tags": [{"primary": false, "id": 11208, "name": "Mexican"}, {"primary": true, "id": 1722, "name": "Restaurants"}], "fax_number": null, "expansion": {"count": null, "uri": null}, "impression_id": "000b00000046ddc71f71264128a43a4fa780e23bd3", "profile": "http://www.citysearch.com/profile/781194630/sandy_springs_ga/taco_mac.html", "address": {"city": "Sandy Springs", "state": "GA", "street": "5600 Roswell Rd Ne", "postal_code": "30342"}, "capProviderId": null, "distance": null, "has_offers": false, "name": "Taco Mac", "longitude": -84.378776, "has_menu": false, "awards": null, "user_review_count": 0}, {"business_operation_status": 1, "rating": null, "neighborhood": null, "image": null, "scorecard": null, "featured": false, "sample_categories": "Restaurants", "public_id": "corner-cafe-atlanta-2", "id": 777682940, "votes": null, "tagline": null, "has_video": false, "website": null, "offers": null, "latitude": 33.894955, "politanName": "Atlanta, GA Metro ", "phone_number": "7709532555", "tags": [{"primary": true, "id": 1722, "name": "Restaurants"}], "fax_number": null, "expansion": {"count": null, "uri": null}, "impression_id": "000b000000557e3c85ecde4447b2508538824eef93", "profile": "http://www.citysearch.com/profile/777682940/atlanta_ga/corner_cafe.html", "address": {"city": "Atlanta", "state": "GA", "street": "380 Interstate North Se # 145", "postal_code": "30339"}, "capProviderId": null, "distance": null, "has_offers": false, "name": "Corner Cafe", "longitude": -84.460137, "has_menu": true, "awards": null, "user_review_count": 0}, {"business_operation_status": 1, "rating": null, "neighborhood": null, "image": null, "scorecard": null, "featured": false, "sample_categories": "Restaurants", "public_id": "sweet-spot-atlanta", "id": 787108200, "votes": null, "tagline": null, "has_video": false, "website": null, "offers": null, "latitude": 33.883731, "politanName": "Atlanta, GA Metro ", "phone_number": "7709539067", "tags": [{"primary": true, "id": 1722, "name": "Restaurants"}], "fax_number": null, "expansion": {"count": null, "uri": null}, "impression_id": "000b0000003660251411bd489c88643a46e43a0a64", "profile": "http://www.citysearch.com/profile/787108200/atlanta_ga/sweet_spot.html", "address": {"city": "Atlanta", "state": "GA", "street": "2815 Akers Mill Rd Se", "postal_code": "30339"}, "capProviderId": null, "distance": null, "has_offers": false, "name": "Sweet Spot", "longitude": -84.459836, "has_menu": false, "awards": null, "user_review_count": 0}, {"business_operation_status": 1, "rating": null, "neighborhood": null, "image": null, "scorecard": null, "featured": false, "sample_categories": "Restaurants, Chinese", "public_id": "pearl-china-atlanta", "id": 713424300, "votes": null, "tagline": null, "has_video": false, "website": null, "offers": null, "latitude": 33.950268, "politanName": "Atlanta, GA Metro ", "phone_number": "7704438859", "tags": [{"primary": false, "id": 11252, "name": "Chinese"}, {"primary": true, "id": 1722, "name": "Restaurants"}], "fax_number": null, "expansion": {"count": null, "uri": null}, "impression_id": "000b000000c405e64e5e244783a8945c80360d78c2", "profile": "http://www.citysearch.com/profile/713424300/atlanta_ga/pearl_china.html", "address": {"city": "Atlanta", "state": "GA", "street": "55 W Spalding Dr Ne", "postal_code": "30328"}, "capProviderId": null, "distance": null, "has_offers": false, "name": "Pearl China", "longitude": -84.383949, "has_menu": false, "awards": null, "user_review_count": 0}, {"business_operation_status": 1, "rating": null, "neighborhood": null, "image": null, "scorecard": null, "featured": false, "sample_categories": "Restaurants, Traditional American, Carry Out, Shop Online", "public_id": "ruby-tuesday-atlanta-5", "id": 801070950, "votes": null, "tagline": null, "has_video": false, "website": "http://www.citysearch.com/profile/external/801070950/atlanta_ga/ruby_tuesday.html", "offers": null, "latitude": 33.88416, "politanName": "Atlanta, GA Metro ", "phone_number": "7709552285", "tags": [{"primary": false, "id": 11190, "name": "Traditional American"}, {"primary": false, "id": 11247, "name": "Carry Out"}, {"primary": false, "id": 11375, "name": "Shop Online"}, {"primary": true, "id": 1722, "name": "Restaurants"}], "fax_number": null, "expansion": {"count": null, "uri": null}, "impression_id": "000b0000001eec42f6f0fc413baa340e4b732a0c10", "profile": "http://www.citysearch.com/profile/801070950/atlanta_ga/ruby_tuesday.html", "address": {"city": "Atlanta", "state": "GA", "street": "1 Galleria Pkwy NW", "postal_code": "30339"}, "capProviderId": null, "distance": null, "has_offers": false, "name": "Ruby Tuesday", "longitude": -84.463727, "has_menu": false, "awards": null, "user_review_count": 0}, {"business_operation_status": 1, "rating": null, "neighborhood": null, "image": null, "scorecard": null, "featured": false, "sample_categories": "Restaurants", "public_id": "fork-u-concepts-marietta", "id": 801125670, "votes": null, "tagline": null, "has_video": false, "website": null, "offers": null, "latitude": 33.952269, "politanName": "Atlanta, GA Metro ", "phone_number": "6789036243", "tags": [{"primary": true, "id": 1722, "name": "Restaurants"}], "fax_number": null, "expansion": {"count": null, "uri": null}, "impression_id": "000b000000e089233f285e4c82a67e30699c1c25df", "profile": "http://www.citysearch.com/profile/801125670/marietta_ga/fork_u_concepts.html", "address": {"city": "Marietta", "state": "GA", "street": "30 S Park Sq Ne", "postal_code": "30060"}, "capProviderId": null, "distance": null, "has_offers": false, "name": "Fork U Concepts", "longitude": -84.550109, "has_menu": false, "awards": null, "user_review_count": 0}, {"business_operation_status": 1, "rating": null, "neighborhood": null, "image": null, "scorecard": null, "featured": false, "sample_categories": "Restaurants, Carry Out, Shop Online, Chicken", "public_id": "kfc-marietta-11", "id": 801057620, "votes": null, "tagline": null, "has_video": false, "website": "http://www.citysearch.com/profile/external/801057620/marietta_ga/kfc.html", "offers": null, "latitude": 33.951359, "politanName": "Atlanta, GA Metro ", "phone_number": "7704274291", "tags": [{"primary": false, "id": 11247, "name": "Carry Out"}, {"primary": false, "id": 11375, "name": "Shop Online"}, {"primary": false, "id": 12839, "name": "Chicken"}, {"primary": true, "id": 1722, "name": "Restaurants"}], "fax_number": null, "expansion": {"count": null, "uri": null}, "impression_id": "000b000000818562b6ccb34833a333c940be643aaa", "profile": "http://www.citysearch.com/profile/801057620/marietta_ga/kfc.html", "address": {"city": "Marietta", "state": "GA", "street": "37 Powder Springs St", "postal_code": "30064"}, "capProviderId": null, "distance": null, "has_offers": false, "name": "KFC", "longitude": -84.550223, "has_menu": true, "awards": null, "user_review_count": 0}, {"business_operation_status": 1, "rating": null, "neighborhood": null, "image": null, "scorecard": null, "featured": false, "sample_categories": "Restaurants, Hamburgers", "public_id": "old-fashioned-hamburgers-atlanta", "id": 801095060, "votes": null, "tagline": null, "has_video": false, "website": null, "offers": null, "latitude": 33.885111, "politanName": "Atlanta, GA Metro ", "phone_number": "7709528424", "tags": [{"primary": false, "id": 11270, "name": "Hamburgers"}, {"primary": true, "id": 1722, "name": "Restaurants"}], "fax_number": null, "expansion": {"count": null, "uri": null}, "impression_id": "000b0000001ed75688f0084966b856cd1f2c16540f", "profile": "http://www.citysearch.com/profile/801095060/atlanta_ga/old_fashioned_hamburgers.html", "address": {"city": "Atlanta", "state": "GA", "street": "2808 Spring Rd Se", "postal_code": "30339"}, "capProviderId": null, "distance": null, "has_offers": false, "name": "Old Fashioned Hamburgers", "longitude": -84.472637, "has_menu": false, "awards": null, "user_review_count": 0}, {"business_operation_status": 1, "rating": null, "neighborhood": null, "image": null, "scorecard": null, "featured": false, "sample_categories": "Restaurants, Barbecue Restaurants", "public_id": "wings-xpress-marietta", "id": 803550980, "votes": null, "tagline": null, "has_video": false, "website": null, "offers": null, "latitude": 33.933132, "politanName": "Atlanta, GA Metro ", "phone_number": "6784621167", "tags": [{"primary": false, "id": 1724, "name": "Barbecue Restaurants"}, {"primary": true, "id": 1722, "name": "Restaurants"}], "fax_number": null, "expansion": {"count": null, "uri": null}, "impression_id": "000b0000007715ad60158f4587bcf6c7d86eef4f8c", "profile": "http://www.citysearch.com/profile/803550980/marietta_ga/wings_xpress.html", "address": {"city": "Marietta", "state": "GA", "street": "803 Powder Springs St # 2", "postal_code": "30064"}, "capProviderId": null, "distance": null, "has_offers": false, "name": "Wings Xpress", "longitude": -84.559871, "has_menu": false, "awards": null, "user_review_count": 0}, {"business_operation_status": 1, "rating": null, "neighborhood": null, "image": null, "scorecard": null, "featured": false, "sample_categories": "Restaurants", "public_id": "el-dorado-restaurant-marietta-2", "id": 821705220, "votes": null, "tagline": null, "has_video": false, "website": null, "offers": null, "latitude": 33.902517, "politanName": "Atlanta, GA Metro ", "phone_number": "7704347772", "tags": [{"primary": true, "id": 1722, "name": "Restaurants"}], "fax_number": null, "expansion": {"count": null, "uri": null}, "impression_id": "000b000000f692125f2d8042feb03da3c13e154388", "profile": "http://www.citysearch.com/profile/821705220/marietta_ga/el_dorado_restaurant.html", "address": {"city": "Marietta", "state": "GA", "street": "371 Pat Mell Rd SE # 125", "postal_code": "30060"}, "capProviderId": null, "distance": null, "has_offers": false, "name": "El Dorado Restaurant", "longitude": -84.543334, "has_menu": false, "awards": null, "user_review_count": 0}, {"business_operation_status": 1, "rating": null, "neighborhood": null, "image": null, "scorecard": null, "featured": false, "sample_categories": "Restaurants", "public_id": "corner-cafe-at-2000-atlanta", "id": 33572440, "votes": null, "tagline": null, "has_video": false, "website": null, "offers": null, "latitude": 33.906709, "politanName": "Atlanta, GA Metro ", "phone_number": "7706120059", "tags": [{"primary": true, "id": 1722, "name": "Restaurants"}], "fax_number": null, "expansion": {"count": null, "uri": null}, "impression_id": "000b000000a6298e1154a149c99e7a23ef073ac87f", "profile": "http://www.citysearch.com/profile/33572440/atlanta_ga/corner_cafe_at_2000.html", "address": {"city": "Atlanta", "state": "GA", "street": "2000 Riveredge Pkwy NW", "postal_code": "30328"}, "capProviderId": null, "distance": null, "has_offers": false, "name": "Corner Cafe At 2000", "longitude": -84.438622, "has_menu": false, "awards": null, "user_review_count": 1}, {"business_operation_status": 1, "rating": null, "neighborhood": null, "image": null, "scorecard": null, "featured": false, "sample_categories": "Coffeehouses, Doughnut Shops", "public_id": "donut-r-us-inc-atlanta", "id": 754805580, "votes": null, "tagline": null, "has_video": false, "website": null, "offers": null, "latitude": 33.865744, "politanName": "Atlanta, GA Metro ", "phone_number": "4047688307", "tags": [{"primary": false, "id": 1734, "name": "Doughnut Shops"}, {"primary": true, "id": 1726, "name": "Coffeehouses"}], "fax_number": null, "expansion": {"count": null, "uri": null}, "impression_id": "000b0000000b71e592c8eb4e7190217115cbc97d7b", "profile": "http://www.citysearch.com/profile/754805580/atlanta_ga/donut_r_us_inc.html", "address": {"city": "Atlanta", "state": "GA", "street": "2849 Paces Ferry Rd SE # 750", "postal_code": "30339"}, "capProviderId": null, "distance": null, "has_offers": false, "name": "Donut R US Inc", "longitude": -84.470966, "has_menu": false, "awards": null, "user_review_count": 0}, {"business_operation_status": 1, "rating": null, "neighborhood": null, "image": null, "scorecard": null, "featured": false, "sample_categories": "Restaurants", "public_id": "northridge-restaurant-inc-marietta", "id": 826655290, "votes": null, "tagline": null, "has_video": false, "website": null, "offers": null, "latitude": 34.034057, "politanName": "Atlanta, GA Metro ", "phone_number": "7706428676", "tags": [{"primary": true, "id": 1722, "name": "Restaurants"}], "fax_number": null, "expansion": {"count": null, "uri": null}, "impression_id": "000b000000213835b0a9b5483c825e5f1770fdce8f", "profile": "http://www.citysearch.com/profile/826655290/marietta_ga/northridge_restaurant_inc.html", "address": {"city": "Marietta", "state": "GA", "street": "3440 Orange Wood CT", "postal_code": "30062"}, "capProviderId": null, "distance": null, "has_offers": false, "name": "Northridge Restaurant Inc", "longitude": -84.435926, "has_menu": false, "awards": null, "user_review_count": 0}, {"business_operation_status": 1, "rating": null, "neighborhood": null, "image": null, "scorecard": null, "featured": false, "sample_categories": "Restaurants, Catering, Carry Out, Chicken", "public_id": "chickfila-marietta-12", "id": 775192090, "votes": null, "tagline": null, "has_video": false, "website": "http://www.citysearch.com/profile/external/775192090/marietta_ga/chick_fil_a.html", "offers": null, "latitude": 33.952602, "politanName": "Atlanta, GA Metro ", "phone_number": "7705659960", "tags": [{"primary": false, "id": 1705, "name": "Catering"}, {"primary": false, "id": 11247, "name": "Carry Out"}, {"primary": false, "id": 12839, "name": "Chicken"}, {"primary": true, "id": 1722, "name": "Restaurants"}], "fax_number": null, "expansion": {"count": null, "uri": null}, "impression_id": "000b00000081405beeacf74604a583770ebbfa2f07", "profile": "http://www.citysearch.com/profile/775192090/marietta_ga/chick_fil_a.html", "address": {"city": "Marietta", "state": "GA", "street": "5200 Buffington Rd", "postal_code": "30062"}, "capProviderId": null, "distance": null, "has_offers": false, "name": "Chick-Fil-A", "longitude": -84.549933, "has_menu": false, "awards": null, "user_review_count": 0}, {"business_operation_status": 1, "rating": null, "neighborhood": null, "image": null, "scorecard": null, "featured": false, "sample_categories": "Restaurants", "public_id": "lake-park-2400-llc-smyrna", "id": 775218280, "votes": null, "tagline": null, "has_video": false, "website": null, "offers": null, "latitude": 33.897534, "politanName": "Atlanta, GA Metro ", "phone_number": "7704349336", "tags": [{"primary": true, "id": 1722, "name": "Restaurants"}], "fax_number": null, "expansion": {"count": null, "uri": null}, "impression_id": "000b0000002466b904a27d419592181265585caf09", "profile": "http://www.citysearch.com/profile/775218280/smyrna_ga/lake_park_2400_llc.html", "address": {"city": "Smyrna", "state": "GA", "street": "2400 Lake Park Dr SE", "postal_code": "30080"}, "capProviderId": null, "distance": null, "has_offers": false, "name": "Lake Park 2400 LLC", "longitude": -84.484107, "has_menu": false, "awards": null, "user_review_count": 0}, {"business_operation_status": 1, "rating": null, "neighborhood": null, "image": null, "scorecard": null, "featured": false, "sample_categories": "Restaurants", "public_id": "bubba-ds-dawgs-inc-marietta", "id": 801089200, "votes": null, "tagline": null, "has_video": false, "website": null, "offers": null, "latitude": 34.01546, "politanName": "Atlanta, GA Metro ", "phone_number": "7703553212", "tags": [{"primary": true, "id": 1722, "name": "Restaurants"}], "fax_number": null, "expansion": {"count": null, "uri": null}, "impression_id": "000b0000004bb8e600d8c34370aeefd6b993d30c83", "profile": "http://www.citysearch.com/profile/801089200/marietta_ga/bubba_d_s_dawgs_inc.html", "address": {"city": "Marietta", "state": "GA", "street": "2690 Sandy Plains Rd", "postal_code": "30066"}, "capProviderId": null, "distance": null, "has_offers": false, "name": "Bubba D's Dawgs INC", "longitude": -84.493053, "has_menu": false, "awards": null, "user_review_count": 0}, {"business_operation_status": 1, "rating": null, "neighborhood": null, "image": null, "scorecard": null, "featured": false, "sample_categories": "Lounges, Restaurants", "public_id": "heat-lounge-atlanta", "id": 801129610, "votes": null, "tagline": null, "has_video": false, "website": null, "offers": null, "latitude": 33.92943, "politanName": "Atlanta, GA Metro ", "phone_number": "7703524328", "tags": [{"primary": false, "id": 1722, "name": "Restaurants"}, {"primary": true, "id": 1697, "name": "Lounges"}], "fax_number": null, "expansion": {"count": null, "uri": null}, "impression_id": "000b00000036d9e79ce60548069e23210f66febe12", "profile": "http://www.citysearch.com/profile/801129610/atlanta_ga/heat_lounge.html", "address": {"city": "Atlanta", "state": "GA", "street": "6355 Peachtree Dunwoody Rd", "postal_code": "30328"}, "capProviderId": null, "distance": null, "has_offers": false, "name": "Heat Lounge", "longitude": -84.351241, "has_menu": false, "awards": null, "user_review_count": 0}, {"business_operation_status": 1, "rating": null, "neighborhood": null, "image": null, "scorecard": null, "featured": false, "sample_categories": "Catering, Restaurants, Barbecue Restaurants, Carry Out, Family Style Dining", "public_id": "as-sonnys-real-pit-barbq", "id": 793392090, "votes": null, "tagline": null, "has_video": false, "website": null, "offers": null, "latitude": null, "politanName": null, "phone_number": "7703681653", "tags": [{"primary": false, "id": 1705, "name": "Catering"}, {"primary": false, "id": 1722, "name": "Restaurants"}, {"primary": false, "id": 1724, "name": "Barbecue Restaurants"}, {"primary": false, "id": 11262, "name": "Family Style Dining"}, {"primary": true, "id": 11247, "name": "Carry Out"}], "fax_number": null, "expansion": {"count": null, "uri": null}, "impression_id": "000b00000002080e3ef4a7483cbfcf7aaef65ed43e", "profile": "http://www.citysearch.com/profile/793392090/sonny_s_real_pit_bar_b_q.html", "address": {"city": null, "state": null, "street": null, "postal_code": null}, "capProviderId": null, "distance": null, "has_offers": false, "name": "Sonny's Real Pit Bar-B-Q", "longitude": null, "has_menu": false, "awards": null, "user_review_count": 0}, {"business_operation_status": 1, "rating": null, "neighborhood": null, "image": null, "scorecard": null, "featured": false, "sample_categories": "Catering, Personal Chefs, Computer & Internet Services, Wedding Cakes, Seafood", "public_id": "as-glamacook-oad", "id": 801975680, "votes": null, "tagline": null, "has_video": false, "website": null, "offers": null, "latitude": null, "politanName": null, "phone_number": "4043451924", "tags": [{"primary": false, "id": 1705, "name": "Catering"}, {"primary": false, "id": 3534, "name": "Personal Chefs"}, {"primary": false, "id": 674, "name": "Computer & Internet Services"}, {"primary": false, "id": 11057, "name": "Wedding Cakes"}, {"primary": false, "id": 11228, "name": "Seafood"}, {"primary": true, "id": 11267, "name": "Food Delivery"}], "fax_number": null, "expansion": {"count": null, "uri": null}, "impression_id": "000b0000006ae64bbf50954f238674c5a3874fb2b1", "profile": "http://www.citysearch.com/profile/801975680/_oad_ga/glamacook.html", "address": {"city": "(Oad)", "state": "GA", "street": null, "postal_code": "30032"}, "capProviderId": null, "distance": null, "has_offers": false, "name": "GlamaCook", "longitude": null, "has_menu": false, "awards": null, "user_review_count": 0}], "histograms": [], "tag_ids": [1722], "uri": "http://api.citygridmedia.com:8080/search/places/v2/search/where?has_offers=false&type=restaurant&format=json&page=40&where=30067&rpp=50&histograms=false&publisher=10000009598&region_type=circle", "did_you_mean": "", "regions": [{"latitude": 33.930575, "default_radius": 3.78, "type": "postal_code", "name": "30067", "longitude": -84.463162}], "call_id": "000b000000e3926730e3b44b0486ca823c31013746", "first_hit": 1951, "total_hits": 1972, "geo_ids": [26295], "page": 40, "last_hit": 1972}}