{"results": {"rpp": 50, "locations": [{"business_operation_status": 1, "rating": null, "neighborhood": null, "image": null, "scorecard": null, "featured": false, "sample_categories": "Restaurants", "public_id": "salar-restaurant-bakery-sandy", "id": 820552420, "votes": null, "tagline": null, "has_video": false, "website": null, "offers": null, "latitude": 33.925302, "politanName": "Atlanta, GA Metro ", "phone_number": "4042528181", "tags": [{"primary": true, "id": 1722, "name": "Restaurants"}], "fax_number": null, "expansion": {"count": null, "uri": null}, "impression_id": "000b00000037afcd5a6e9f459994c6ab17698d6c3d", "profile": "http://www.citysearch.com/profile/820552420/sandy_springs_ga/salar_restaurant_bakery.html", "address": {"city": "Sandy Springs", "state": "GA", "street": "5920 Roswell Rd", "postal_code": "30328"}, "capProviderId": null, "distance": null, "has_offers": false, "name": "Salar Restaurant & Bakery", "longitude": -84.385744, "has_menu": false, "awards": null, "user_review_count": 0}, {"business_operation_status": 1, "rating": null, "neighborhood": null, "image": null, "scorecard": null, "featured": false, "sample_categories": "Ice Cream Parlors", "public_id": "high-road-craft-ice-cream-inc-roswell", "id": 732210260, "votes": null, "tagline": null, "has_video": false, "website": null, "offers": null, "latitude": 34.043654, "politanName": "Atlanta, GA Metro ", "phone_number": "4045396444", "tags": [{"primary": true, "id": 1730, "name": "Ice Cream Parlors"}], "fax_number": null, "expansion": {"count": null, "uri": null}, "impression_id": "000b00000082c2ea9abc4b44279c9dc04f9f3b2bbb", "profile": "http://www.citysearch.com/profile/732210260/roswell_ga/high_road_craft_ice_cream_inc.html", "address": {"city": "Roswell", "state": "GA", "street": "4147 Edinburgh Trl NE", "postal_code": "30075"}, "capProviderId": null, "distance": null, "has_offers": false, "name": "High Road Craft Ice Cream Inc", "longitude": -84.429593, "has_menu": false, "awards": null, "user_review_count": 0}, {"business_operation_status": 1, "rating": null, "neighborhood": null, "image": null, "scorecard": null, "featured": false, "sample_categories": "Restaurants", "public_id": "tasting-roomsandy-springs-sandy", "id": 839906810, "votes": null, "tagline": null, "has_video": false, "website": null, "offers": null, "latitude": 33.9202, "politanName": "Atlanta, GA Metro ", "phone_number": "4042528170", "tags": [{"primary": true, "id": 1722, "name": "Restaurants"}], "fax_number": null, "expansion": {"count": null, "uri": null}, "impression_id": "000b00000089fea2a47f6d42e49ac7e7f93f80b811", "profile": "http://www.citysearch.com/profile/839906810/sandy_springs_ga/tasting_room_sandy_springs.html", "address": {"city": "Sandy Springs", "state": "GA", "street": "6010 Sandy Springs Cir", "postal_code": "30328"}, "capProviderId": null, "distance": null, "has_offers": false, "name": "Tasting Room-Sandy Springs", "longitude": -84.384878, "has_menu": false, "awards": null, "user_review_count": 0}, {"business_operation_status": 1, "rating": null, "neighborhood": null, "image": null, "scorecard": null, "featured": false, "sample_categories": "Restaurants", "public_id": "central-park-cafe-atlanta", "id": 37734202, "votes": null, "tagline": null, "has_video": false, "website": null, "offers": null, "latitude": 33.92754, "politanName": "Atlanta, GA Metro ", "phone_number": "7703959155", "tags": [{"primary": true, "id": 1722, "name": "Restaurants"}], "fax_number": null, "expansion": {"count": null, "uri": null}, "impression_id": "000b0000009b11046cfc0447a3a5b8b74921e8b42c", "profile": "http://www.citysearch.com/profile/37734202/atlanta_ga/central_park_cafe.html", "address": {"city": "Atlanta", "state": "GA", "street": "7000 Central Pkwy NE", "postal_code": "30328"}, "capProviderId": null, "distance": null, "has_offers": false, "name": "Central Park Cafe", "longitude": -84.349626, "has_menu": false, "awards": null, "user_review_count": 0}, {"business_operation_status": 1, "rating": null, "neighborhood": null, "image": null, "scorecard": null, "featured": false, "sample_categories": "Restaurants", "public_id": "leitos-gril-roswell", "id": 772195730, "votes": null, "tagline": null, "has_video": false, "website": null, "offers": null, "latitude": 34.034238, "politanName": "Atlanta, GA Metro ", "phone_number": "6788695480", "tags": [{"primary": true, "id": 1722, "name": "Restaurants"}], "fax_number": null, "expansion": {"count": null, "uri": null}, "impression_id": "000b00000014b907d8bd434ebbaffaecf0aaa7faf4", "profile": "http://www.citysearch.com/profile/772195730/roswell_ga/leito_s_gril.html", "address": {"city": "Roswell", "state": "GA", "street": "10479 Alpharetta St", "postal_code": "30075"}, "capProviderId": null, "distance": null, "has_offers": false, "name": "Leito's Gril", "longitude": -84.345527, "has_menu": false, "awards": null, "user_review_count": 0}, {"business_operation_status": 1, "rating": null, "neighborhood": null, "image": null, "scorecard": null, "featured": false, "sample_categories": "Restaurants", "public_id": "brazilian-tropical-bar-grill-atlanta", "id": 44422217, "votes": null, "tagline": null, "has_video": false, "website": null, "offers": null, "latitude": 34.002099, "politanName": "Atlanta, GA Metro ", "phone_number": "6783528584", "tags": [{"primary": true, "id": 1722, "name": "Restaurants"}], "fax_number": null, "expansion": {"count": null, "uri": null}, "impression_id": "000b0000004964e1907d7c4f799e80bbedf96663f6", "profile": "http://www.citysearch.com/profile/44422217/atlanta_ga/brazilian_tropical_bar_grill.html", "address": {"city": "Atlanta", "state": "GA", "street": "8883 Roswell Rd", "postal_code": "30350"}, "capProviderId": null, "distance": null, "has_offers": false, "name": "Brazilian Tropical Bar & Grill", "longitude": -84.350438, "has_menu": false, "awards": null, "user_review_count": 0}, {"business_operation_status": 0, "rating": null, "neighborhood": null, "image": null, "scorecard": null, "featured": false, "sample_categories": "Restaurants", "public_id": "yellow-house-roswell", "id": 44771210, "votes": null, "tagline": null, "has_video": false, "website": null, "offers": null, "latitude": 34.028147, "politanName": "Atlanta, GA Metro ", "phone_number": "7709925383", "tags": [{"primary": true, "id": 1722, "name": "Restaurants"}], "fax_number": null, "expansion": {"count": null, "uri": null}, "impression_id": "000b000000ea22c876b263424d8cbc97fa764aab5f", "profile": "http://www.citysearch.com/profile/44771210/roswell_ga/yellow_house.html", "address": {"city": "Roswell", "state": "GA", "street": "1088 Green St", "postal_code": "30075"}, "capProviderId": null, "distance": null, "has_offers": false, "name": "Yellow House", "longitude": -84.360335, "has_menu": false, "awards": null, "user_review_count": 2}, {"business_operation_status": 1, "rating": null, "neighborhood": null, "image": null, "scorecard": null, "featured": false, "sample_categories": "Restaurants, Pizza", "public_id": "fratelliss-new-york-pizza-roswell", "id": 777757890, "votes": null, "tagline": null, "has_video": false, "website": null, "offers": null, "latitude": 34.047226, "politanName": "Atlanta, GA Metro ", "phone_number": "6785850208", "tags": [{"primary": false, "id": 1722, "name": "Restaurants"}, {"primary": true, "id": 11299, "name": "Pizza"}], "fax_number": null, "expansion": {"count": null, "uri": null}, "impression_id": "000b000000887c4cf6242a49f7b576eed53f43ac80", "profile": "http://www.citysearch.com/profile/777757890/roswell_ga/fratellis_s_new_york_pizza.html", "address": {"city": "Roswell", "state": "GA", "street": "10930 Crabapple Rd", "postal_code": "30075"}, "capProviderId": null, "distance": null, "has_offers": false, "name": "Fratellis's New York Pizza", "longitude": -84.362959, "has_menu": false, "awards": null, "user_review_count": 0}, {"business_operation_status": 1, "rating": null, "neighborhood": null, "image": null, "scorecard": null, "featured": false, "sample_categories": "Restaurants", "public_id": "old-dixie-diner-atlanta", "id": 43879798, "votes": null, "tagline": null, "has_video": false, "website": null, "offers": null, "latitude": 33.91426, "politanName": "Atlanta, GA Metro ", "phone_number": "4049430435", "tags": [{"primary": true, "id": 1722, "name": "Restaurants"}], "fax_number": null, "expansion": {"count": null, "uri": null}, "impression_id": "000b000000d647ee0de4b14adbb4933a065442e7aa", "profile": "http://www.citysearch.com/profile/43879798/atlanta_ga/old_dixie_diner.html", "address": {"city": "Atlanta", "state": "GA", "street": "5825 Roswell Rd NE", "postal_code": "30328"}, "capProviderId": null, "distance": null, "has_offers": false, "name": "Old Dixie Diner", "longitude": -84.379139, "has_menu": false, "awards": null, "user_review_count": 0}, {"business_operation_status": 1, "rating": null, "neighborhood": null, "image": null, "scorecard": null, "featured": false, "sample_categories": "Restaurants, Thai, MasterCard, Visa", "public_id": "salah-thai-cuisine-marietta", "id": 605552940, "votes": null, "tagline": null, "has_video": false, "website": "http://www.citysearch.com/profile/external/605552940/marietta_ga/salah_thai_cuisine.html", "offers": null, "latitude": 33.904328, "politanName": "Atlanta, GA Metro ", "phone_number": "7709801890", "tags": [{"primary": false, "id": 11319, "name": "Thai"}, {"primary": false, "id": 11361, "name": "MasterCard"}, {"primary": false, "id": 11382, "name": "Visa"}, {"primary": true, "id": 1722, "name": "Restaurants"}], "fax_number": null, "expansion": {"count": null, "uri": null}, "impression_id": "000b000000adc5abbacc8b411aa4ddcf98eeef993c", "profile": "http://www.citysearch.com/profile/605552940/marietta_ga/salah_thai_cuisine.html", "address": {"city": "Marietta", "state": "GA", "street": "3000 Windy Hill Rd Se # A1", "postal_code": "30067"}, "capProviderId": null, "distance": null, "has_offers": false, "name": "Salah Thai Cuisine", "longitude": -84.466526, "has_menu": false, "awards": null, "user_review_count": 0}, {"business_operation_status": 1, "rating": null, "neighborhood": null, "image": null, "scorecard": null, "featured": false, "sample_categories": "Restaurants", "public_id": "taquito-expressholcomb-bridge-roswell", "id": 607055624, "votes": null, "tagline": null, "has_video": false, "website": null, "offers": null, "latitude": 34.02078, "politanName": "Atlanta, GA Metro ", "phone_number": "6785140656", "tags": [{"primary": true, "id": 1722, "name": "Restaurants"}], "fax_number": null, "expansion": {"count": null, "uri": null}, "impression_id": "000b0000006688a5b525e44b14b2d1b1c302587dcf", "profile": "http://www.citysearch.com/profile/607055624/roswell_ga/taquito_express_holcomb_bridge.html", "address": {"city": "Roswell", "state": "GA", "street": "1468 Holcomb Bridge Rd", "postal_code": "30076"}, "capProviderId": null, "distance": null, "has_offers": false, "name": "Taquito Express-Holcomb Bridge", "longitude": -84.318643, "has_menu": false, "awards": null, "user_review_count": 0}, {"business_operation_status": 1, "rating": null, "neighborhood": null, "image": null, "scorecard": null, "featured": false, "sample_categories": "Restaurants, Pizza, Carry Out", "public_id": "little-caesars-pizza-marietta-14", "id": 607327154, "votes": null, "tagline": null, "has_video": false, "website": "http://www.citysearch.com/profile/external/607327154/marietta_ga/little_caesars_pizza.html", "offers": null, "latitude": 33.951081, "politanName": "Atlanta, GA Metro ", "phone_number": "7709195595", "tags": [{"primary": false, "id": 1722, "name": "Restaurants"}, {"primary": false, "id": 11247, "name": "Carry Out"}, {"primary": true, "id": 11299, "name": "Pizza"}], "fax_number": null, "expansion": {"count": null, "uri": null}, "impression_id": "000b0000002a521d3a5fcc47468a9df2fe4a204d2e", "profile": "http://www.citysearch.com/profile/607327154/marietta_ga/little_caesars_pizza.html", "address": {"city": "Marietta", "state": "GA", "street": "36 Powder Springs St", "postal_code": "30064"}, "capProviderId": null, "distance": null, "has_offers": false, "name": "Little Caesars Pizza", "longitude": -84.55027, "has_menu": false, "awards": null, "user_review_count": 0}, {"business_operation_status": 1, "rating": null, "neighborhood": null, "image": null, "scorecard": null, "featured": false, "sample_categories": "Restaurants", "public_id": "angels-burrito-on-the-square-marietta", "id": 609728344, "votes": null, "tagline": null, "has_video": false, "website": null, "offers": null, "latitude": 33.952259, "politanName": "Atlanta, GA Metro ", "phone_number": "6785943352", "tags": [{"primary": true, "id": 1722, "name": "Restaurants"}], "fax_number": null, "expansion": {"count": null, "uri": null}, "impression_id": "000b00000061bab2c9bf8e446ab47c94fcc512f6bf", "profile": "http://www.citysearch.com/profile/609728344/marietta_ga/angel_s_burrito_on_the_square.html", "address": {"city": "Marietta", "state": "GA", "street": "154 Roswell St SE", "postal_code": "30060"}, "capProviderId": null, "distance": null, "has_offers": false, "name": "Angel's Burrito On The Square", "longitude": -84.548687, "has_menu": false, "awards": null, "user_review_count": 0}, {"business_operation_status": 1, "rating": null, "neighborhood": null, "image": null, "scorecard": null, "featured": false, "sample_categories": "Restaurants", "public_id": "fortune-dragon-chinese-rstrnt-sandy", "id": 818588520, "votes": null, "tagline": null, "has_video": false, "website": null, "offers": null, "latitude": 34.000417, "politanName": "Atlanta, GA Metro ", "phone_number": "7709923993", "tags": [{"primary": true, "id": 1722, "name": "Restaurants"}], "fax_number": null, "expansion": {"count": null, "uri": null}, "impression_id": "000b0000001c4bfa410b5f410aa11d1e9447f00417", "profile": "http://www.citysearch.com/profile/818588520/sandy_springs_ga/fortune_dragon_chinese_rstrnt.html", "address": {"city": "Sandy Springs", "state": "GA", "street": "8803 Roswell Rd", "postal_code": "30350"}, "capProviderId": null, "distance": null, "has_offers": false, "name": "FORTUNE DRAGON CHINESE RSTRNT", "longitude": -84.350432, "has_menu": false, "awards": null, "user_review_count": 0}, {"business_operation_status": 1, "rating": null, "neighborhood": null, "image": null, "scorecard": null, "featured": false, "sample_categories": "Restaurants, Pizza", "public_id": "capozzis-ny-pizza-pasta-marietta", "id": 611363274, "votes": null, "tagline": null, "has_video": false, "website": "http://www.citysearch.com/profile/external/611363274/marietta_ga/capozzi_s_ny_pizza_pasta.html", "offers": null, "latitude": 34.034941, "politanName": "Atlanta, GA Metro ", "phone_number": "7703211969", "tags": [{"primary": false, "id": 1722, "name": "Restaurants"}, {"primary": true, "id": 11299, "name": "Pizza"}], "fax_number": null, "expansion": {"count": null, "uri": null}, "impression_id": "000b000000c54a443f758e4a978eda9547e5400700", "profile": "http://www.citysearch.com/profile/611363274/marietta_ga/capozzi_s_ny_pizza_pasta.html", "address": {"city": "Marietta", "state": "GA", "street": "2960 Shallowford Rd # 101", "postal_code": "30066"}, "capProviderId": null, "distance": null, "has_offers": false, "name": "Capozzi's NY Pizza & Pasta", "longitude": -84.466786, "has_menu": false, "awards": null, "user_review_count": 3}, {"business_operation_status": 1, "rating": null, "neighborhood": null, "image": null, "scorecard": null, "featured": false, "sample_categories": "Restaurants, Delis And Delicatessens, Sandwich Shops, Carry Out", "public_id": "subway-atlanta-120", "id": 612019644, "votes": null, "tagline": null, "has_video": false, "website": "http://www.citysearch.com/profile/external/612019644/atlanta_ga/subway.html", "offers": null, "latitude": 33.919963, "politanName": "Atlanta, GA Metro ", "phone_number": "6783200901", "tags": [{"primary": false, "id": 1727, "name": "Delis And Delicatessens"}, {"primary": false, "id": 1736, "name": "Sandwich Shops"}, {"primary": false, "id": 11247, "name": "Carry Out"}, {"primary": true, "id": 1722, "name": "Restaurants"}], "fax_number": null, "expansion": {"count": null, "uri": null}, "impression_id": "000b00000098e618c160884f5e8889993b9b8eca2c", "profile": "http://www.citysearch.com/profile/612019644/atlanta_ga/subway.html", "address": {"city": "Atlanta", "state": "GA", "street": "1100 Hammond Dr # 410A", "postal_code": "30328"}, "capProviderId": null, "distance": null, "has_offers": false, "name": "Subway", "longitude": -84.352249, "has_menu": false, "awards": null, "user_review_count": 0}, {"business_operation_status": 1, "rating": null, "neighborhood": null, "image": null, "scorecard": null, "featured": false, "sample_categories": "Restaurants, Bakeries, Delis And Delicatessens, Carry Out, American Express", "public_id": "panera-bread-roswell", "id": 742263270, "votes": null, "tagline": null, "has_video": false, "website": "http://www.citysearch.com/profile/external/742263270/roswell_ga/panera_bread.html", "offers": null, "latitude": 34.061698, "politanName": "Atlanta, GA Metro ", "phone_number": "7706439570", "tags": [{"primary": false, "id": 1685, "name": "Bakeries"}, {"primary": false, "id": 1727, "name": "Delis And Delicatessens"}, {"primary": false, "id": 11247, "name": "Carry Out"}, {"primary": false, "id": 11333, "name": "American Express"}, {"primary": false, "id": 11347, "name": "Debit Card"}, {"primary": false, "id": 11349, "name": "Discover"}, {"primary": false, "id": 11361, "name": "MasterCard"}, {"primary": false, "id": 11382, "name": "Visa"}, {"primary": true, "id": 1722, "name": "Restaurants"}], "fax_number": null, "expansion": {"count": null, "uri": null}, "impression_id": "000b000000f27e2ca48e9b444eaf4b336319f786cd", "profile": "http://www.citysearch.com/profile/742263270/roswell_ga/panera_bread.html", "address": {"city": "Roswell", "state": "GA", "street": "1195 Woodstock Rd", "postal_code": "30075"}, "capProviderId": null, "distance": null, "has_offers": false, "name": "Panera Bread", "longitude": -84.400088, "has_menu": false, "awards": null, "user_review_count": 0}, {"business_operation_status": 1, "rating": null, "neighborhood": null, "image": null, "scorecard": null, "featured": false, "sample_categories": "Health Food Stores, Produce Markets, Juice & Smoothie Shops, Health Food Stores, Vitamins", "public_id": "juice-plus-roswell", "id": 2871440, "votes": null, "tagline": null, "has_video": false, "website": null, "offers": null, "latitude": 34.011678, "politanName": "Atlanta, GA Metro ", "phone_number": "7709935526", "tags": [{"primary": false, "id": 1716, "name": "Health Food Stores"}, {"primary": false, "id": 1717, "name": "Produce Markets"}, {"primary": false, "id": 1735, "name": "Juice & Smoothie Shops"}, {"primary": false, "id": 17570, "name": "Health Food Stores"}, {"primary": true, "id": 11164, "name": "Vitamins"}], "fax_number": null, "expansion": {"count": null, "uri": null}, "impression_id": "000b000000b649f93b97b346159009be04fc3e5ac9", "profile": "http://www.citysearch.com/profile/2871440/roswell_ga/juice_plus.html", "address": {"city": "Roswell", "state": "GA", "street": "479 S Atlanta St", "postal_code": "30075"}, "capProviderId": null, "distance": null, "has_offers": false, "name": "Juice Plus", "longitude": -84.362706, "has_menu": false, "awards": null, "user_review_count": 1}, {"business_operation_status": 1, "rating": 8.0, "neighborhood": null, "image": null, "scorecard": null, "featured": false, "sample_categories": "Restaurants, Mexican", "public_id": "el-toro-marietta-2", "id": 2903732, "votes": null, "tagline": null, "has_video": false, "website": null, "offers": null, "latitude": 33.977237, "politanName": "Atlanta, GA Metro ", "phone_number": "7709733173", "tags": [{"primary": false, "id": 1722, "name": "Restaurants"}, {"primary": true, "id": 11208, "name": "Mexican"}], "fax_number": null, "expansion": {"count": null, "uri": null}, "impression_id": "000b000000a5af4ffde0c2405db6b75c1a2b2a3cba", "profile": "http://www.citysearch.com/profile/2903732/marietta_ga/el_toro.html", "address": {"city": "Marietta", "state": "GA", "street": "1060 E Piedmont Rd", "postal_code": "30062"}, "capProviderId": null, "distance": null, "has_offers": false, "name": "El Toro", "longitude": -84.479761, "has_menu": true, "awards": null, "user_review_count": 0}, {"business_operation_status": 1, "rating": null, "neighborhood": null, "image": null, "scorecard": null, "featured": false, "sample_categories": "Restaurants, Chinese", "public_id": "wok-express-marietta", "id": 2910527, "votes": null, "tagline": null, "has_video": false, "website": null, "offers": null, "latitude": 33.920792, "politanName": "Atlanta, GA Metro ", "phone_number": "7709331888", "tags": [{"primary": false, "id": 11252, "name": "Chinese"}, {"primary": true, "id": 1722, "name": "Restaurants"}], "fax_number": null, "expansion": {"count": null, "uri": null}, "impression_id": "000b000000221bfb7c5a9845569560fa669eb30434", "profile": "http://www.citysearch.com/profile/2910527/marietta_ga/wok_express.html", "address": {"city": "Marietta", "state": "GA", "street": "1270 Powers Ferry Rd SE", "postal_code": "30067"}, "capProviderId": null, "distance": null, "has_offers": false, "name": "Wok Express", "longitude": -84.467912, "has_menu": false, "awards": null, "user_review_count": 1}, {"business_operation_status": 1, "rating": null, "neighborhood": null, "image": null, "scorecard": null, "featured": false, "sample_categories": "Restaurants, Traditional American, Carry Out", "public_id": "arbys-atlanta-16", "id": 742194410, "votes": null, "tagline": null, "has_video": false, "website": "http://www.citysearch.com/profile/external/742194410/atlanta_ga/arby_s.html", "offers": null, "latitude": 33.908945, "politanName": "Atlanta, GA Metro ", "phone_number": "4047625088", "tags": [{"primary": false, "id": 11190, "name": "Traditional American"}, {"primary": false, "id": 11247, "name": "Carry Out"}, {"primary": true, "id": 1722, "name": "Restaurants"}], "fax_number": null, "expansion": {"count": null, "uri": null}, "impression_id": "000b00000005d3370499234122aaa8d9f5aa82c528", "profile": "http://www.citysearch.com/profile/742194410/atlanta_ga/arby_s.html", "address": {"city": "Atlanta", "state": "GA", "street": "1700 the Exchange SE # 200", "postal_code": "30339"}, "capProviderId": null, "distance": null, "has_offers": false, "name": "Arby's", "longitude": -84.484196, "has_menu": false, "awards": null, "user_review_count": 0}, {"business_operation_status": 1, "rating": 8.0, "neighborhood": null, "image": null, "scorecard": null, "featured": false, "sample_categories": "Crowd Control, Generators, Household Appliances, Seafood", "public_id": "joes-crab-shack-smyrna", "id": 2922308, "votes": null, "tagline": null, "has_video": false, "website": "http://www.citysearch.com/profile/external/2922308/smyrna_ga/joe_s_crab_shack.html", "offers": null, "latitude": 33.897929, "politanName": "Atlanta, GA Metro ", "phone_number": "7709552722", "tags": [{"primary": false, "id": 26380, "name": "Crowd Control"}, {"primary": false, "id": 26420, "name": "Generators"}, {"primary": false, "id": 11228, "name": "Seafood"}, {"primary": true, "id": 3937, "name": "Household Appliances"}], "fax_number": null, "expansion": {"count": null, "uri": null}, "impression_id": "000b00000025fe0311dd3d455f956560c75cd06d08", "profile": "http://www.citysearch.com/profile/2922308/smyrna_ga/joe_s_crab_shack.html", "address": {"city": "Smyrna", "state": "GA", "street": "2175 Cobb Pkwy SE", "postal_code": "30080"}, "capProviderId": null, "distance": null, "has_offers": false, "name": "Joe's Crab Shack", "longitude": -84.482808, "has_menu": true, "awards": null, "user_review_count": 0}, {"business_operation_status": 1, "rating": null, "neighborhood": null, "image": null, "scorecard": null, "featured": false, "sample_categories": "Restaurants, Pizza", "public_id": "capozzis-pizza-marietta", "id": 748319980, "votes": null, "tagline": null, "has_video": false, "website": null, "offers": null, "latitude": 33.985529, "politanName": "Atlanta, GA Metro ", "phone_number": "7703215550", "tags": [{"primary": false, "id": 1722, "name": "Restaurants"}, {"primary": true, "id": 11299, "name": "Pizza"}], "fax_number": null, "expansion": {"count": null, "uri": null}, "impression_id": "000b00000000e6f362e17146d282d8bed4523ed801", "profile": "http://www.citysearch.com/profile/748319980/marietta_ga/capozzi_s_pizza.html", "address": {"city": "Marietta", "state": "GA", "street": "4285 Roswell Rd", "postal_code": "30062"}, "capProviderId": null, "distance": null, "has_offers": false, "name": "Capozzi's Pizza", "longitude": -84.424063, "has_menu": true, "awards": null, "user_review_count": 0}, {"business_operation_status": 1, "rating": null, "neighborhood": null, "image": null, "scorecard": null, "featured": false, "sample_categories": "Restaurants, Carry Out, Hamburgers", "public_id": "in-n-out-wings-n-burger-marietta", "id": 745593160, "votes": null, "tagline": null, "has_video": false, "website": "http://www.citysearch.com/profile/external/745593160/marietta_ga/in_n_out_wings_n_burger.html", "offers": null, "latitude": 33.923677, "politanName": "Atlanta, GA Metro ", "phone_number": "7705411960", "tags": [{"primary": false, "id": 11247, "name": "Carry Out"}, {"primary": false, "id": 11270, "name": "Hamburgers"}, {"primary": true, "id": 1722, "name": "Restaurants"}], "fax_number": null, "expansion": {"count": null, "uri": null}, "impression_id": "000b000000afec3875c52b407189c7bb9a0baa8846", "profile": "http://www.citysearch.com/profile/745593160/marietta_ga/in_n_out_wings_n_burger.html", "address": {"city": "Marietta", "state": "GA", "street": "2856 Delk Rd SE", "postal_code": "30067"}, "capProviderId": null, "distance": null, "has_offers": false, "name": "In N Out Wings N Burger", "longitude": -84.471351, "has_menu": false, "awards": null, "user_review_count": 0}, {"business_operation_status": 1, "rating": null, "neighborhood": null, "image": null, "scorecard": null, "featured": false, "sample_categories": "Restaurants, Pizza", "public_id": "gallas-pizza-atlanta-2", "id": 766801380, "votes": null, "tagline": null, "has_video": false, "website": "http://www.citysearch.com/profile/external/766801380/atlanta_ga/galla_s_pizza.html", "offers": null, "latitude": 33.932847, "politanName": "Atlanta, GA Metro ", "phone_number": "7709139399", "tags": [{"primary": false, "id": 1722, "name": "Restaurants"}, {"primary": true, "id": 11299, "name": "Pizza"}], "fax_number": null, "expansion": {"count": null, "uri": null}, "impression_id": "000b0000004e0988fcd9d6461385a3541bac03ccdc", "profile": "http://www.citysearch.com/profile/766801380/atlanta_ga/galla_s_pizza.html", "address": {"city": "Atlanta", "state": "GA", "street": "1155 Mount Vernon Hwy # 100", "postal_code": "30338"}, "capProviderId": null, "distance": null, "has_offers": false, "name": "Galla's Pizza", "longitude": -84.35114, "has_menu": true, "awards": null, "user_review_count": 0}, {"business_operation_status": 1, "rating": null, "neighborhood": null, "image": null, "scorecard": null, "featured": false, "sample_categories": "Bars & Pubs, Bars & Clubs, Restaurants", "public_id": "roswell-tap-llc-roswell", "id": 764900040, "votes": null, "tagline": null, "has_video": false, "website": "http://www.citysearch.com/profile/external/764900040/roswell_ga/roswell_tap_llc.html", "offers": null, "latitude": 34.028365, "politanName": "Atlanta, GA Metro ", "phone_number": "7709929206", "tags": [{"primary": false, "id": 164, "name": "Bars & Clubs"}, {"primary": false, "id": 1722, "name": "Restaurants"}, {"primary": true, "id": 1686, "name": "Bars & Pubs"}], "fax_number": null, "expansion": {"count": null, "uri": null}, "impression_id": "000b000000ae7ff8df997e49098f27495ee894fdaa", "profile": "http://www.citysearch.com/profile/764900040/roswell_ga/roswell_tap_llc.html", "address": {"city": "Roswell", "state": "GA", "street": "1090 Alpharetta St", "postal_code": "30075"}, "capProviderId": null, "distance": null, "has_offers": false, "name": "Roswell Tap Llc", "longitude": -84.358404, "has_menu": false, "awards": null, "user_review_count": 0}, {"business_operation_status": 1, "rating": null, "neighborhood": null, "image": null, "scorecard": null, "featured": false, "sample_categories": "Restaurants", "public_id": "ragamuffin-ice-cream-parlor-coffeehouse-roswell", "id": 672972420, "votes": null, "tagline": null, "has_video": false, "website": null, "offers": null, "latitude": 34.014811, "politanName": "Atlanta, GA Metro ", "phone_number": "7706567137", "tags": [{"primary": true, "id": 1722, "name": "Restaurants"}], "fax_number": null, "expansion": {"count": null, "uri": null}, "impression_id": "000b000000990551e549244942833b4512d238265a", "profile": "http://www.citysearch.com/profile/672972420/roswell_ga/ragamuffin_ice_cream_parlor_coffeehouse.html", "address": {"city": "Roswell", "state": "GA", "street": "585 Atlanta Street", "postal_code": "30075"}, "capProviderId": null, "distance": null, "has_offers": false, "name": "Ragamuffin Ice Cream Parlor & Coffeehouse", "longitude": -84.362391, "has_menu": false, "awards": null, "user_review_count": 0}, {"business_operation_status": 1, "rating": null, "neighborhood": null, "image": null, "scorecard": null, "featured": false, "sample_categories": "Carry Out", "public_id": "pizazz-inc-atlanta", "id": 787093210, "votes": null, "tagline": null, "has_video": false, "website": null, "offers": null, "latitude": 33.950619, "politanName": "Atlanta, GA Metro ", "phone_number": "7703961393", "tags": [{"primary": true, "id": 11247, "name": "Carry Out"}], "fax_number": null, "expansion": {"count": null, "uri": null}, "impression_id": "000b000000003641c393bf427e98ea568dea1de13a", "profile": "http://www.citysearch.com/profile/787093210/atlanta_ga/pizazz_inc.html", "address": {"city": "Atlanta", "state": "GA", "street": "5575 Chamblee Dunwoody Rd", "postal_code": "30338"}, "capProviderId": null, "distance": null, "has_offers": false, "name": "Pizazz INC", "longitude": -84.335979, "has_menu": false, "awards": null, "user_review_count": 0}, {"business_operation_status": 1, "rating": null, "neighborhood": null, "image": null, "scorecard": null, "featured": false, "sample_categories": "Restaurants, Japanese", "public_id": "bishoku-japanese-restaurant-sandy", "id": 787115080, "votes": null, "tagline": null, "has_video": false, "website": null, "offers": null, "latitude": 33.916242, "politanName": "Atlanta, GA Metro ", "phone_number": "4042527998", "tags": [{"primary": false, "id": 11202, "name": "Japanese"}, {"primary": true, "id": 1722, "name": "Restaurants"}], "fax_number": null, "expansion": {"count": null, "uri": null}, "impression_id": "000b000000adb57aef642b45eeb77e258f645f6039", "profile": "http://www.citysearch.com/profile/787115080/sandy_springs_ga/bishoku_japanese_restaurant.html", "address": {"city": "Sandy Springs", "state": "GA", "street": "5920 Roswell Rd", "postal_code": "30328"}, "capProviderId": null, "distance": null, "has_offers": false, "name": "Bishoku Japanese Restaurant", "longitude": -84.379244, "has_menu": false, "awards": null, "user_review_count": 0}, {"business_operation_status": 1, "rating": null, "neighborhood": null, "image": null, "scorecard": null, "featured": false, "sample_categories": "Restaurants, Pizza", "public_id": "brick-house-pizza-pasta-roswell-2", "id": 787114170, "votes": null, "tagline": null, "has_video": false, "website": null, "offers": null, "latitude": 34.034238, "politanName": "Atlanta, GA Metro ", "phone_number": "7706400023", "tags": [{"primary": false, "id": 11299, "name": "Pizza"}, {"primary": true, "id": 1722, "name": "Restaurants"}], "fax_number": null, "expansion": {"count": null, "uri": null}, "impression_id": "000b000000611df002810248d3bd8fb01a50de9a57", "profile": "http://www.citysearch.com/profile/787114170/roswell_ga/brick_house_pizza_pasta.html", "address": {"city": "Roswell", "state": "GA", "street": "10479 Alpharetta St", "postal_code": "30075"}, "capProviderId": null, "distance": null, "has_offers": false, "name": "Brick House Pizza & Pasta", "longitude": -84.345527, "has_menu": false, "awards": null, "user_review_count": 0}, {"business_operation_status": 1, "rating": null, "neighborhood": null, "image": null, "scorecard": null, "featured": false, "sample_categories": "Restaurants, Seafood", "public_id": "a-js-famous-seafood-poboys-marietta", "id": 793361500, "votes": null, "tagline": null, "has_video": false, "website": null, "offers": null, "latitude": 33.968758, "politanName": "Atlanta, GA Metro ", "phone_number": "6786273971", "tags": [{"primary": false, "id": 11228, "name": "Seafood"}, {"primary": true, "id": 1722, "name": "Restaurants"}], "fax_number": null, "expansion": {"count": null, "uri": null}, "impression_id": "000b000000fdf9d6ba83c345288dd76ffe7f32ff86", "profile": "http://www.citysearch.com/profile/793361500/marietta_ga/a_j_s_famous_seafood_poboys.html", "address": {"city": "Marietta", "state": "GA", "street": "2100 Roswell Rd", "postal_code": "30062"}, "capProviderId": null, "distance": null, "has_offers": false, "name": "A J's Famous Seafood & Poboys", "longitude": -84.488447, "has_menu": false, "awards": null, "user_review_count": 0}, {"business_operation_status": 1, "rating": null, "neighborhood": null, "image": null, "scorecard": null, "featured": false, "sample_categories": "Restaurants, Cafes", "public_id": "socrates-cafe-marietta", "id": 713427300, "votes": null, "tagline": null, "has_video": false, "website": null, "offers": null, "latitude": 33.930756, "politanName": "Atlanta, GA Metro ", "phone_number": "7707926042", "tags": [{"primary": false, "id": 6190, "name": "Cafes"}, {"primary": true, "id": 1722, "name": "Restaurants"}], "fax_number": null, "expansion": {"count": null, "uri": null}, "impression_id": "000b000000dfac570db2864c1d823c1c01903ffee5", "profile": "http://www.citysearch.com/profile/713427300/marietta_ga/socrates_cafe.html", "address": {"city": "Marietta", "state": "GA", "street": "1269 Barclay Cir Se", "postal_code": "30060"}, "capProviderId": null, "distance": null, "has_offers": false, "name": "Socrates Cafe", "longitude": -84.514539, "has_menu": false, "awards": null, "user_review_count": 0}, {"business_operation_status": 1, "rating": null, "neighborhood": null, "image": null, "scorecard": null, "featured": false, "sample_categories": "Restaurants", "public_id": "hoof-ale-marietta", "id": 796118290, "votes": null, "tagline": null, "has_video": false, "website": null, "offers": null, "latitude": 33.968758, "politanName": "Atlanta, GA Metro ", "phone_number": "7709710334", "tags": [{"primary": true, "id": 1722, "name": "Restaurants"}], "fax_number": null, "expansion": {"count": null, "uri": null}, "impression_id": "000b0000004a969e86661e438aba800a52caf50a13", "profile": "http://www.citysearch.com/profile/796118290/marietta_ga/hoof_ale.html", "address": {"city": "Marietta", "state": "GA", "street": "2100 Roswell Rd", "postal_code": "30062"}, "capProviderId": null, "distance": null, "has_offers": false, "name": "Hoof & Ale", "longitude": -84.488447, "has_menu": false, "awards": null, "user_review_count": 0}, {"business_operation_status": 0, "rating": null, "neighborhood": null, "image": null, "scorecard": null, "featured": false, "sample_categories": "Restaurants, Traditional American", "public_id": "shoneys-marietta", "id": 2900905, "votes": null, "tagline": null, "has_video": false, "website": null, "offers": null, "latitude": 33.9485, "politanName": "Atlanta, GA Metro ", "phone_number": "7704225333", "tags": [{"primary": false, "id": 11190, "name": "Traditional American"}, {"primary": true, "id": 1722, "name": "Restaurants"}], "fax_number": null, "expansion": {"count": null, "uri": null}, "impression_id": "000b00000084202955afdb487aaf5f040e55143b8a", "profile": "http://www.citysearch.com/profile/2900905/marietta_ga/shoney_s.html", "address": {"city": "Marietta", "state": "GA", "street": "155 Cobb Pkwy S", "postal_code": "30060"}, "capProviderId": null, "distance": null, "has_offers": false, "name": "Shoney's", "longitude": -84.518323, "has_menu": true, "awards": null, "user_review_count": 0}, {"business_operation_status": 1, "rating": 7.0, "neighborhood": null, "image": null, "scorecard": null, "featured": false, "sample_categories": "Sandwich Shops, Restaurants, Soups", "public_id": "my-friends-place-atlanta-7", "id": 3019462, "votes": null, "tagline": null, "has_video": false, "website": "http://www.citysearch.com/profile/external/3019462/atlanta_ga/my_friend_s_place.html", "offers": null, "latitude": 33.917671, "politanName": "Atlanta, GA Metro ", "phone_number": "4042526280", "tags": [{"primary": false, "id": 1722, "name": "Restaurants"}, {"primary": false, "id": 11311, "name": "Soups"}, {"primary": true, "id": 1736, "name": "Sandwich Shops"}], "fax_number": null, "expansion": {"count": null, "uri": null}, "impression_id": "000b0000009f418f6fab304a1d96954469dd6d7653", "profile": "http://www.citysearch.com/profile/3019462/atlanta_ga/my_friend_s_place.html", "address": {"city": "Atlanta", "state": "GA", "street": "5952 Roswell Rd NE", "postal_code": "30328"}, "capProviderId": null, "distance": null, "has_offers": false, "name": "My Friend's Place", "longitude": -84.37912, "has_menu": true, "awards": null, "user_review_count": 3}, {"business_operation_status": 1, "rating": null, "neighborhood": null, "image": null, "scorecard": null, "featured": false, "sample_categories": "Restaurants", "public_id": "papinos-mediterranean-rstrnt-atlanta", "id": 808035120, "votes": null, "tagline": null, "has_video": false, "website": null, "offers": null, "latitude": 33.918703, "politanName": "Atlanta, GA Metro ", "phone_number": "7705220394", "tags": [{"primary": true, "id": 1722, "name": "Restaurants"}], "fax_number": null, "expansion": {"count": null, "uri": null}, "impression_id": "000b00000097f53f3343cc40aeac2a2700a4effec4", "profile": "http://www.citysearch.com/profile/808035120/atlanta_ga/papino_s_mediterranean_rstrnt.html", "address": {"city": "Atlanta", "state": "GA", "street": "1155 Hammond Dr", "postal_code": "30328"}, "capProviderId": null, "distance": null, "has_offers": false, "name": "Papino's Mediterranean Rstrnt", "longitude": -84.350593, "has_menu": false, "awards": null, "user_review_count": 0}, {"business_operation_status": 1, "rating": null, "neighborhood": null, "image": null, "scorecard": null, "featured": false, "sample_categories": "Restaurants", "public_id": "cafe-at-pharr-atlanta-4", "id": 803548930, "votes": null, "tagline": null, "has_video": false, "website": null, "offers": null, "latitude": 33.947501, "politanName": "Atlanta, GA Metro ", "phone_number": "4705456583", "tags": [{"primary": true, "id": 1722, "name": "Restaurants"}], "fax_number": null, "expansion": {"count": null, "uri": null}, "impression_id": "000b0000003c19d9d1372d42d8bb1dfb72d30a1cd4", "profile": "http://www.citysearch.com/profile/803548930/atlanta_ga/cafe_at_pharr.html", "address": {"city": "Atlanta", "state": "GA", "street": "5533 Chamblee Dunwoody Rd", "postal_code": "30338"}, "capProviderId": null, "distance": null, "has_offers": false, "name": "Cafe At Pharr", "longitude": -84.335375, "has_menu": true, "awards": null, "user_review_count": 0}, {"business_operation_status": 1, "rating": null, "neighborhood": null, "image": null, "scorecard": null, "featured": false, "sample_categories": "Coffeehouses", "public_id": "ashley-cooper-coffee-marietta", "id": 816560520, "votes": null, "tagline": null, "has_video": false, "website": null, "offers": null, "latitude": 33.970881, "politanName": "Atlanta, GA Metro ", "phone_number": "7704229615", "tags": [{"primary": true, "id": 1726, "name": "Coffeehouses"}], "fax_number": null, "expansion": {"count": null, "uri": null}, "impression_id": "000b00000094dd063744314603b8160fdd5d833efc", "profile": "http://www.citysearch.com/profile/816560520/marietta_ga/ashley_cooper_coffee.html", "address": {"city": "Marietta", "state": "GA", "street": "829 Pickens Industrial Dr # 11", "postal_code": "30062"}, "capProviderId": null, "distance": null, "has_offers": false, "name": "Ashley Cooper Coffee", "longitude": -84.525365, "has_menu": false, "awards": null, "user_review_count": 0}, {"business_operation_status": 1, "rating": null, "neighborhood": null, "image": null, "scorecard": null, "featured": false, "sample_categories": "Restaurants", "public_id": "warren-connie-sandy", "id": 816722420, "votes": null, "tagline": null, "has_video": false, "website": null, "offers": null, "latitude": 33.995409, "politanName": "Atlanta, GA Metro ", "phone_number": "7705870190", "tags": [{"primary": true, "id": 1722, "name": "Restaurants"}], "fax_number": null, "expansion": {"count": null, "uri": null}, "impression_id": "000b000000c1fb363a203a4e27a8378899622893c5", "profile": "http://www.citysearch.com/profile/816722420/sandy_springs_ga/warren_connie.html", "address": {"city": "Sandy Springs", "state": "GA", "street": "8725 Roswell Rd", "postal_code": "30350"}, "capProviderId": null, "distance": null, "has_offers": false, "name": "Warren Connie", "longitude": -84.349807, "has_menu": false, "awards": null, "user_review_count": 0}, {"business_operation_status": 1, "rating": null, "neighborhood": null, "image": null, "scorecard": null, "featured": false, "sample_categories": "Restaurants, Hamburgers", "public_id": "moxie-burger-marietta", "id": 748274780, "votes": null, "tagline": null, "has_video": false, "website": "http://www.citysearch.com/profile/external/748274780/marietta_ga/moxie_burger.html", "offers": null, "latitude": 33.950996, "politanName": "Atlanta, GA Metro ", "phone_number": "7704851432", "tags": [{"primary": false, "id": 11270, "name": "Hamburgers"}, {"primary": true, "id": 1722, "name": "Restaurants"}], "fax_number": null, "expansion": {"count": null, "uri": null}, "impression_id": "000b0000008e748809a3ea47beaeb44b7d201851f4", "profile": "http://www.citysearch.com/profile/748274780/marietta_ga/moxie_burger.html", "address": {"city": "Marietta", "state": "GA", "street": "255 Village Pkwy NE", "postal_code": "30067"}, "capProviderId": null, "distance": null, "has_offers": false, "name": "Moxie Burger", "longitude": -84.413999, "has_menu": false, "awards": null, "user_review_count": 0}, {"business_operation_status": 1, "rating": null, "neighborhood": null, "image": null, "scorecard": null, "featured": false, "sample_categories": "Delis And Delicatessens", "public_id": "european-deli-atlanta", "id": 822085600, "votes": null, "tagline": null, "has_video": false, "website": null, "offers": null, "latitude": 33.990065, "politanName": "Atlanta, GA Metro ", "phone_number": "7705185944", "tags": [{"primary": true, "id": 1727, "name": "Delis And Delicatessens"}], "fax_number": null, "expansion": {"count": null, "uri": null}, "impression_id": "000b000000922c9df59fcf4329922baa2fef979b63", "profile": "http://www.citysearch.com/profile/822085600/atlanta_ga/european_deli.html", "address": {"city": "Atlanta", "state": "GA", "street": "8610 Roswell Rd # 470", "postal_code": "30350"}, "capProviderId": null, "distance": null, "has_offers": false, "name": "European Deli", "longitude": -84.343688, "has_menu": false, "awards": null, "user_review_count": 0}, {"business_operation_status": 1, "rating": null, "neighborhood": null, "image": null, "scorecard": null, "featured": false, "sample_categories": "Restaurants, Pizza", "public_id": "amore-pizza-roswell", "id": 822108460, "votes": null, "tagline": null, "has_video": false, "website": null, "offers": null, "latitude": 34.042379, "politanName": "Atlanta, GA Metro ", "phone_number": "7705873570", "tags": [{"primary": false, "id": 1722, "name": "Restaurants"}, {"primary": true, "id": 11299, "name": "Pizza"}], "fax_number": null, "expansion": {"count": null, "uri": null}, "impression_id": "000b0000007f9ca3dd823b43e1930d9ebd6bd6bf81", "profile": "http://www.citysearch.com/profile/822108460/roswell_ga/amore_pizza.html", "address": {"city": "Roswell", "state": "GA", "street": "180 Shelli Ln", "postal_code": "30075"}, "capProviderId": null, "distance": null, "has_offers": false, "name": "Amore Pizza", "longitude": -84.361548, "has_menu": false, "awards": null, "user_review_count": 0}, {"business_operation_status": 1, "rating": null, "neighborhood": null, "image": null, "scorecard": null, "featured": false, "sample_categories": "Restaurants", "public_id": "pwp-east-roswell", "id": 823630890, "votes": null, "tagline": null, "has_video": false, "website": null, "offers": null, "latitude": 34.047996, "politanName": "Atlanta, GA Metro ", "phone_number": "7706144092", "tags": [{"primary": true, "id": 1722, "name": "Restaurants"}], "fax_number": null, "expansion": {"count": null, "uri": null}, "impression_id": "000b00000038548865bbe94914bbd8b299492807b9", "profile": "http://www.citysearch.com/profile/823630890/roswell_ga/pwp_east.html", "address": {"city": "Roswell", "state": "GA", "street": "100 Pasifino Pl", "postal_code": "30075"}, "capProviderId": null, "distance": null, "has_offers": false, "name": "PWP East", "longitude": -84.387169, "has_menu": false, "awards": null, "user_review_count": 0}, {"business_operation_status": 1, "rating": null, "neighborhood": null, "image": null, "scorecard": null, "featured": false, "sample_categories": "Restaurants", "public_id": "restaurants-institutions-roswell", "id": 825668930, "votes": null, "tagline": null, "has_video": false, "website": null, "offers": null, "latitude": 34.069224, "politanName": "Atlanta, GA Metro ", "phone_number": "6784614063", "tags": [{"primary": true, "id": 1722, "name": "Restaurants"}], "fax_number": null, "expansion": {"count": null, "uri": null}, "impression_id": "000b0000005374a6731bdb40579bbbf1697418efec", "profile": "http://www.citysearch.com/profile/825668930/roswell_ga/restaurants_institutions.html", "address": {"city": "Roswell", "state": "GA", "street": "1985 Trotters Ridge Way", "postal_code": "30075"}, "capProviderId": null, "distance": null, "has_offers": false, "name": "Restaurants & Institutions", "longitude": -84.417897, "has_menu": false, "awards": null, "user_review_count": 0}, {"business_operation_status": 1, "rating": null, "neighborhood": null, "image": null, "scorecard": null, "featured": false, "sample_categories": "Restaurants", "public_id": "fishbowl-asian-bistro-inc-roswell", "id": 824437860, "votes": null, "tagline": null, "has_video": false, "website": null, "offers": null, "latitude": 34.047226, "politanName": "Atlanta, GA Metro ", "phone_number": "6784618765", "tags": [{"primary": true, "id": 1722, "name": "Restaurants"}], "fax_number": null, "expansion": {"count": null, "uri": null}, "impression_id": "000b000000622decbd839848a5a20f3ec58a1097de", "profile": "http://www.citysearch.com/profile/824437860/roswell_ga/fishbowl_asian_bistro_inc.html", "address": {"city": "Roswell", "state": "GA", "street": "10930 Crabapple Rd # 5", "postal_code": "30075"}, "capProviderId": null, "distance": null, "has_offers": false, "name": "Fishbowl Asian Bistro Inc", "longitude": -84.362959, "has_menu": false, "awards": null, "user_review_count": 0}, {"business_operation_status": 1, "rating": null, "neighborhood": null, "image": null, "scorecard": null, "featured": false, "sample_categories": "Restaurants", "public_id": "chicagos-steak-seafood-pas-sandy", "id": 820010590, "votes": null, "tagline": null, "has_video": false, "website": null, "offers": null, "latitude": 33.925302, "politanName": "Atlanta, GA Metro ", "phone_number": "4042578883", "tags": [{"primary": true, "id": 1722, "name": "Restaurants"}], "fax_number": null, "expansion": {"count": null, "uri": null}, "impression_id": "000b00000024fa3364cf6144a08af44bec59607620", "profile": "http://www.citysearch.com/profile/820010590/sandy_springs_ga/chicagos_steak_seafood_pas.html", "address": {"city": "Sandy Springs", "state": "GA", "street": "5920 Roswell Rd", "postal_code": "30328"}, "capProviderId": null, "distance": null, "has_offers": false, "name": "Chicagos Steak Seafood & Pas", "longitude": -84.385744, "has_menu": false, "awards": null, "user_review_count": 0}, {"business_operation_status": 1, "rating": null, "neighborhood": null, "image": null, "scorecard": null, "featured": false, "sample_categories": "Restaurants", "public_id": "ocho-rios-jamaican-cuisine-roswell", "id": 825268650, "votes": null, "tagline": null, "has_video": false, "website": null, "offers": null, "latitude": 34.031486, "politanName": "Atlanta, GA Metro ", "phone_number": "7709921551", "tags": [{"primary": true, "id": 1722, "name": "Restaurants"}], "fax_number": null, "expansion": {"count": null, "uri": null}, "impression_id": "000b00000093ab74169b174d3dafef056a46afbb8d", "profile": "http://www.citysearch.com/profile/825268650/roswell_ga/ocho_rios_jamaican_cuisine.html", "address": {"city": "Roswell", "state": "GA", "street": "1255 Grimes Bridge Rd # C", "postal_code": "30075"}, "capProviderId": null, "distance": null, "has_offers": false, "name": "Ocho Rios Jamaican Cuisine", "longitude": -84.3411, "has_menu": true, "awards": null, "user_review_count": 0}, {"business_operation_status": 1, "rating": null, "neighborhood": null, "image": null, "scorecard": null, "featured": false, "sample_categories": "Restaurants, Seafood", "public_id": "crabby-bills-seafood-rstrnt-roswell", "id": 33674564, "votes": null, "tagline": null, "has_video": false, "website": null, "offers": null, "latitude": 34.041263, "politanName": "Atlanta, GA Metro ", "phone_number": "7706429770", "tags": [{"primary": false, "id": 11228, "name": "Seafood"}, {"primary": true, "id": 1722, "name": "Restaurants"}], "fax_number": null, "expansion": {"count": null, "uri": null}, "impression_id": "000b00000025cd817862a940b4a09455e628b7fe57", "profile": "http://www.citysearch.com/profile/33674564/roswell_ga/crabby_bill_s_seafood_rstrnt.html", "address": {"city": "Roswell", "state": "GA", "street": "10730 Alpharetta Hwy", "postal_code": "30076"}, "capProviderId": null, "distance": null, "has_offers": false, "name": "Crabby Bill's Seafood Rstrnt", "longitude": -84.342256, "has_menu": false, "awards": null, "user_review_count": 1}, {"business_operation_status": 1, "rating": null, "neighborhood": null, "image": null, "scorecard": null, "featured": false, "sample_categories": "Coffeehouses, Doughnut Shops, Banks", "public_id": "dunkin-donuts-dunwoody", "id": 3027529, "votes": null, "tagline": null, "has_video": false, "website": "http://www.citysearch.com/profile/external/3027529/dunwoody_ga/dunkin_donuts.html", "offers": null, "latitude": 33.943485, "politanName": "Atlanta, GA Metro ", "phone_number": "6785879895", "tags": [{"primary": false, "id": 1726, "name": "Coffeehouses"}, {"primary": false, "id": 1622, "name": "Banks"}, {"primary": true, "id": 1734, "name": "Doughnut Shops"}], "fax_number": null, "expansion": {"count": null, "uri": null}, "impression_id": "000b000000a663970206584327a41eecaf62bf5d59", "profile": "http://www.citysearch.com/profile/3027529/dunwoody_ga/dunkin_donuts.html", "address": {"city": "Dunwoody", "state": "GA", "street": "1545 Mount Vernon Rd", "postal_code": "30338"}, "capProviderId": null, "distance": null, "has_offers": false, "name": "Dunkin' Donuts", "longitude": -84.337084, "has_menu": false, "awards": null, "user_review_count": 0}, {"business_operation_status": 0, "rating": null, "neighborhood": null, "image": null, "scorecard": null, "featured": false, "sample_categories": "Restaurants, Convenience Stores", "public_id": "pantry-marietta", "id": 777697380, "votes": null, "tagline": null, "has_video": false, "website": null, "offers": null, "latitude": 33.970591, "politanName": "Atlanta, GA Metro ", "phone_number": "7704198988", "tags": [{"primary": false, "id": 1714, "name": "Convenience Stores"}, {"primary": true, "id": 1722, "name": "Restaurants"}], "fax_number": null, "expansion": {"count": null, "uri": null}, "impression_id": "000b0000006664ca7af2694497b80a8d86817092dc", "profile": "http://www.citysearch.com/profile/777697380/marietta_ga/pantry.html", "address": {"city": "Marietta", "state": "GA", "street": "790 Church St Ne # 210", "postal_code": "30060"}, "capProviderId": null, "distance": null, "has_offers": false, "name": "Pantry", "longitude": -84.550288, "has_menu": false, "awards": null, "user_review_count": 0}], "histograms": [], "tag_ids": [1722], "uri": "http://api.citygridmedia.com:8080/search/places/v2/search/where?has_offers=false&type=restaurant&format=json&page=32&where=30068&rpp=50&histograms=false&publisher=10000009598&region_type=circle", "did_you_mean": "", "regions": [{"latitude": 33.967813, "default_radius": 3.91, "type": "postal_code", "name": "30068", "longitude": -84.433422}], "call_id": "000b000000b10050ebc07b42738496adeb8bd5b14d", "first_hit": 1551, "total_hits": 2028, "geo_ids": [26296], "page": 32, "last_hit": 1600}}