{"results": {"rpp": 50, "locations": [{"business_operation_status": 1, "rating": null, "neighborhood": null, "image": null, "scorecard": null, "featured": false, "sample_categories": "Restaurants, Asian, Chinese", "public_id": "hibachi-buffet-marietta", "id": 713488530, "votes": null, "tagline": null, "has_video": false, "website": "http://www.citysearch.com/profile/external/713488530/marietta_ga/hibachi_buffet.html", "offers": null, "latitude": 33.968527, "politanName": "Atlanta, GA Metro ", "phone_number": "7703218202", "tags": [{"primary": false, "id": 11235, "name": "Asian"}, {"primary": false, "id": 11252, "name": "Chinese"}, {"primary": true, "id": 1722, "name": "Restaurants"}], "fax_number": null, "expansion": {"count": null, "uri": null}, "impression_id": "000b000000b1428a3e11cd4c59a1e815fd6c37b73b", "profile": "http://www.citysearch.com/profile/713488530/marietta_ga/hibachi_buffet.html", "address": {"city": "Marietta", "state": "GA", "street": "2145 Roswell Rd # 260", "postal_code": "30062"}, "capProviderId": null, "distance": null, "has_offers": false, "name": "Hibachi Buffet", "longitude": -84.491622, "has_menu": false, "awards": null, "user_review_count": 0}, {"business_operation_status": 1, "rating": null, "neighborhood": null, "image": null, "scorecard": null, "featured": false, "sample_categories": "Ice Cream Parlors", "public_id": "high-road-craft-ice-cream-inc-marietta", "id": 803512700, "votes": null, "tagline": null, "has_video": false, "website": null, "offers": null, "latitude": 33.982909, "politanName": "Atlanta, GA Metro ", "phone_number": "7705651652", "tags": [{"primary": true, "id": 1730, "name": "Ice Cream Parlors"}], "fax_number": null, "expansion": {"count": null, "uri": null}, "impression_id": "000b000000d42467129cf14336b03adcdd17f6b6b9", "profile": "http://www.citysearch.com/profile/803512700/marietta_ga/high_road_craft_ice_cream_inc.html", "address": {"city": "Marietta", "state": "GA", "street": "1730 W Oak Commons Ct", "postal_code": "30062"}, "capProviderId": null, "distance": null, "has_offers": false, "name": "High Road Craft Ice Cream INC", "longitude": -84.523354, "has_menu": false, "awards": null, "user_review_count": 0}, {"business_operation_status": 1, "rating": null, "neighborhood": null, "image": null, "scorecard": null, "featured": false, "sample_categories": "Delis And Delicatessens, Restaurants", "public_id": "delectable-samplings-marietta", "id": 45988505, "votes": null, "tagline": null, "has_video": false, "website": "http://www.citysearch.com/profile/external/45988505/marietta_ga/delectable_samplings.html", "offers": null, "latitude": 34.020169, "politanName": "Atlanta, GA Metro ", "phone_number": "7709985113", "tags": [{"primary": false, "id": 1722, "name": "Restaurants"}, {"primary": true, "id": 1727, "name": "Delis And Delicatessens"}], "fax_number": null, "expansion": {"count": null, "uri": null}, "impression_id": "000b00000053c8ebbbd36e424d9375d373b23bce32", "profile": "http://www.citysearch.com/profile/45988505/marietta_ga/delectable_samplings.html", "address": {"city": "Marietta", "state": "GA", "street": "4572 Snowchase Way", "postal_code": "30062"}, "capProviderId": null, "distance": null, "has_offers": false, "name": "Delectable Samplings", "longitude": -84.420349, "has_menu": false, "awards": null, "user_review_count": 0}, {"business_operation_status": 1, "rating": null, "neighborhood": null, "image": null, "scorecard": null, "featured": false, "sample_categories": "Restaurants, Barbecue Restaurants", "public_id": "wings-burger-haven-marietta", "id": 653579150, "votes": null, "tagline": null, "has_video": false, "website": null, "offers": null, "latitude": 33.988155, "politanName": "Atlanta, GA Metro ", "phone_number": "6784679223", "tags": [{"primary": false, "id": 1724, "name": "Barbecue Restaurants"}, {"primary": true, "id": 1722, "name": "Restaurants"}], "fax_number": null, "expansion": {"count": null, "uri": null}, "impression_id": "000b000000a0833b72e90b47c8a24b40b413dc43a4", "profile": "http://www.citysearch.com/profile/653579150/marietta_ga/wings_burger_haven.html", "address": {"city": "Marietta", "state": "GA", "street": "1410 Glenover Cir", "postal_code": "30062"}, "capProviderId": null, "distance": null, "has_offers": false, "name": "Wings & Burger Haven", "longitude": -84.511569, "has_menu": false, "awards": null, "user_review_count": 0}, {"business_operation_status": 1, "rating": null, "neighborhood": null, "image": null, "scorecard": null, "featured": false, "sample_categories": "Restaurants", "public_id": "cantons-donuts-marietta", "id": 805665440, "votes": null, "tagline": null, "has_video": false, "website": null, "offers": null, "latitude": 33.951218, "politanName": "Atlanta, GA Metro ", "phone_number": "7705792399", "tags": [{"primary": true, "id": 1722, "name": "Restaurants"}], "fax_number": null, "expansion": {"count": null, "uri": null}, "impression_id": "000b000000d3472098b4ac40c0a39e61cf5f85cba7", "profile": "http://www.citysearch.com/profile/805665440/marietta_ga/canton_s_donuts.html", "address": {"city": "Marietta", "state": "GA", "street": "1516 Roswell Rd", "postal_code": "30062"}, "capProviderId": null, "distance": null, "has_offers": false, "name": "Canton's Donuts", "longitude": -84.508253, "has_menu": false, "awards": null, "user_review_count": 0}, {"business_operation_status": 1, "rating": null, "neighborhood": null, "image": null, "scorecard": null, "featured": false, "sample_categories": "Doughnut Shops, Restaurants", "public_id": "ioans-donuts-holdings-marietta", "id": 45992648, "votes": null, "tagline": null, "has_video": false, "website": null, "offers": null, "latitude": 33.985611, "politanName": "Atlanta, GA Metro ", "phone_number": "6786241035", "tags": [{"primary": false, "id": 1722, "name": "Restaurants"}, {"primary": true, "id": 1734, "name": "Doughnut Shops"}], "fax_number": null, "expansion": {"count": null, "uri": null}, "impression_id": "000b00000098716e40f2554fdc9245a72a8ddd05cf", "profile": "http://www.citysearch.com/profile/45992648/marietta_ga/ioans_donuts_holdings.html", "address": {"city": "Marietta", "state": "GA", "street": "1509 Johnson Ferry Rd", "postal_code": "30062"}, "capProviderId": null, "distance": null, "has_offers": false, "name": "Ioans Donuts Holdings", "longitude": -84.427286, "has_menu": false, "awards": null, "user_review_count": 0}, {"business_operation_status": 1, "rating": null, "neighborhood": null, "image": null, "scorecard": null, "featured": false, "sample_categories": "Restaurants, Cafes", "public_id": "giga-bites-cafe-marietta", "id": 631962750, "votes": null, "tagline": null, "has_video": false, "website": null, "offers": null, "latitude": 33.991608, "politanName": "Atlanta, GA Metro ", "phone_number": "4045186735", "tags": [{"primary": false, "id": 6190, "name": "Cafes"}, {"primary": true, "id": 1722, "name": "Restaurants"}], "fax_number": null, "expansion": {"count": null, "uri": null}, "impression_id": "000b000000bf3a2b7d20094d53b8659ddd9eb29670", "profile": "http://www.citysearch.com/profile/631962750/marietta_ga/giga_bites_cafe.html", "address": {"city": "Marietta", "state": "GA", "street": "2791 Craig Ct", "postal_code": "30062"}, "capProviderId": null, "distance": null, "has_offers": false, "name": "Giga Bites Cafe", "longitude": -84.47001, "has_menu": false, "awards": null, "user_review_count": 0}, {"business_operation_status": 1, "rating": null, "neighborhood": null, "image": null, "scorecard": null, "featured": false, "sample_categories": "Restaurants", "public_id": "stoney-river-legendary-steaks-marietta", "id": 732164930, "votes": null, "tagline": null, "has_video": false, "website": null, "offers": null, "latitude": 34.009709, "politanName": "Atlanta, GA Metro ", "phone_number": "7706671201", "tags": [{"primary": true, "id": 1722, "name": "Restaurants"}], "fax_number": null, "expansion": {"count": null, "uri": null}, "impression_id": "000b000000be0d2dde8e8a4f2eb2cb1651aaf3cbef", "profile": "http://www.citysearch.com/profile/732164930/marietta_ga/stoney_river_legendary_steaks.html", "address": {"city": "Marietta", "state": "GA", "street": "2440 Sandy Plains Rd # 1-150", "postal_code": "30066"}, "capProviderId": null, "distance": null, "has_offers": false, "name": "Stoney River Legendary Steaks", "longitude": -84.496627, "has_menu": false, "awards": null, "user_review_count": 0}, {"business_operation_status": 1, "rating": null, "neighborhood": null, "image": null, "scorecard": null, "featured": false, "sample_categories": "Restaurants", "public_id": "grand-champion-bbq-marietta", "id": 836972670, "votes": null, "tagline": null, "has_video": false, "website": null, "offers": null, "latitude": 33.952602, "politanName": "Atlanta, GA Metro ", "phone_number": "7709934227", "tags": [{"primary": true, "id": 1722, "name": "Restaurants"}], "fax_number": null, "expansion": {"count": null, "uri": null}, "impression_id": "000b000000cae35d0486e241ef8a0e0edc8ff1a77a", "profile": "http://www.citysearch.com/profile/836972670/marietta_ga/grand_champion_bbq.html", "address": {"city": "Marietta", "state": "GA", "street": "[empty]", "postal_code": "30062"}, "capProviderId": null, "distance": null, "has_offers": false, "name": "Grand Champion BBQ", "longitude": -84.549933, "has_menu": false, "awards": null, "user_review_count": 0}, {"business_operation_status": 1, "rating": null, "neighborhood": null, "image": null, "scorecard": null, "featured": false, "sample_categories": "Restaurants, French", "public_id": "crepe-cafe-marietta", "id": 773420440, "votes": null, "tagline": null, "has_video": false, "website": null, "offers": null, "latitude": 33.985873, "politanName": "Atlanta, GA Metro ", "phone_number": "7709710077", "tags": [{"primary": false, "id": 11219, "name": "French"}, {"primary": true, "id": 1722, "name": "Restaurants"}], "fax_number": null, "expansion": {"count": null, "uri": null}, "impression_id": "000b0000001ccbfd980ca2445d8380e25747137ee2", "profile": "http://www.citysearch.com/profile/773420440/marietta_ga/crepe_cafe.html", "address": {"city": "Marietta", "state": "GA", "street": "4375 Roswell Rd", "postal_code": "30062"}, "capProviderId": null, "distance": null, "has_offers": false, "name": "Crepe Cafe", "longitude": -84.423233, "has_menu": false, "awards": null, "user_review_count": 0}, {"business_operation_status": 1, "rating": null, "neighborhood": null, "image": null, "scorecard": null, "featured": false, "sample_categories": "Ice Cream Parlors", "public_id": "consistency-enterprises-marietta", "id": 807599050, "votes": null, "tagline": null, "has_video": false, "website": null, "offers": null, "latitude": 34.003582, "politanName": "Atlanta, GA Metro ", "phone_number": "4045567996", "tags": [{"primary": true, "id": 1730, "name": "Ice Cream Parlors"}], "fax_number": null, "expansion": {"count": null, "uri": null}, "impression_id": "000b0000000adec8fb36764a959fc3955983ff117f", "profile": "http://www.citysearch.com/profile/807599050/marietta_ga/consistency_enterprises.html", "address": {"city": "Marietta", "state": "GA", "street": "2123 Plymouth Ln", "postal_code": "30062"}, "capProviderId": null, "distance": null, "has_offers": false, "name": "Consistency Enterprises", "longitude": -84.489848, "has_menu": false, "awards": null, "user_review_count": 0}, {"business_operation_status": 0, "rating": null, "neighborhood": null, "image": null, "scorecard": null, "featured": false, "sample_categories": "Restaurants, Delis And Delicatessens, Sandwich Shops, Carry Out", "public_id": "subway-roswell-15", "id": 764895940, "votes": null, "tagline": null, "has_video": false, "website": "http://www.citysearch.com/profile/external/764895940/roswell_ga/subway.html", "offers": null, "latitude": 34.06146, "politanName": "Atlanta, GA Metro ", "phone_number": "7705879194", "tags": [{"primary": false, "id": 1727, "name": "Delis And Delicatessens"}, {"primary": false, "id": 1736, "name": "Sandwich Shops"}, {"primary": false, "id": 11247, "name": "Carry Out"}, {"primary": true, "id": 1722, "name": "Restaurants"}], "fax_number": null, "expansion": {"count": null, "uri": null}, "impression_id": "000b000000784a90a6f9e94af08ffb4bfaad50aca6", "profile": "http://www.citysearch.com/profile/764895940/roswell_ga/subway.html", "address": {"city": "Roswell", "state": "GA", "street": "4651 Woodstock Rd", "postal_code": "30075"}, "capProviderId": null, "distance": null, "has_offers": false, "name": "SUBWAY", "longitude": -84.421723, "has_menu": false, "awards": null, "user_review_count": 0}, {"business_operation_status": 1, "rating": null, "neighborhood": null, "image": null, "scorecard": null, "featured": false, "sample_categories": "Restaurants, Pizza, Carry Out", "public_id": "johnnys-pizza-marietta", "id": 790893290, "votes": null, "tagline": null, "has_video": false, "website": null, "offers": null, "latitude": 33.968758, "politanName": "Atlanta, GA Metro ", "phone_number": "7705658665", "tags": [{"primary": false, "id": 1722, "name": "Restaurants"}, {"primary": false, "id": 11247, "name": "Carry Out"}, {"primary": true, "id": 11299, "name": "Pizza"}], "fax_number": null, "expansion": {"count": null, "uri": null}, "impression_id": "000b00000022a6d6aea83442f195493d9cd6acafbb", "profile": "http://www.citysearch.com/profile/790893290/marietta_ga/johnnys_pizza.html", "address": {"city": "Marietta", "state": "GA", "street": "2100 Roswell Rd # 1100", "postal_code": "30062"}, "capProviderId": null, "distance": null, "has_offers": false, "name": "Johnnys Pizza", "longitude": -84.488447, "has_menu": false, "awards": null, "user_review_count": 0}, {"business_operation_status": 1, "rating": null, "neighborhood": null, "image": null, "scorecard": null, "featured": false, "sample_categories": "Restaurants", "public_id": "olgas-porch-inc-marietta", "id": 732189800, "votes": null, "tagline": null, "has_video": false, "website": null, "offers": null, "latitude": 33.962903, "politanName": "Atlanta, GA Metro ", "phone_number": "6786374595", "tags": [{"primary": true, "id": 1722, "name": "Restaurants"}], "fax_number": null, "expansion": {"count": null, "uri": null}, "impression_id": "000b00000077f6d4f223bd4afe8ccb806c0b3455c9", "profile": "http://www.citysearch.com/profile/732189800/marietta_ga/olgas_porch_inc.html", "address": {"city": "Marietta", "state": "GA", "street": "1591 Gresham Rd", "postal_code": "30062"}, "capProviderId": null, "distance": null, "has_offers": false, "name": "Olgas Porch Inc", "longitude": -84.50563, "has_menu": false, "awards": null, "user_review_count": 0}, {"business_operation_status": 1, "rating": null, "neighborhood": null, "image": null, "scorecard": null, "featured": false, "sample_categories": "Restaurants", "public_id": "ogas-cafeteria-marietta", "id": 812725490, "votes": null, "tagline": null, "has_video": false, "website": null, "offers": null, "latitude": 34.017069, "politanName": "Atlanta, GA Metro ", "phone_number": "7705656700", "tags": [{"primary": true, "id": 1722, "name": "Restaurants"}], "fax_number": null, "expansion": {"count": null, "uri": null}, "impression_id": "000b000000eb21574d431f455788e706902d1dd551", "profile": "http://www.citysearch.com/profile/812725490/marietta_ga/ogas_cafeteria.html", "address": {"city": "Marietta", "state": "GA", "street": "2778 Sandy Plains Rd", "postal_code": "30066"}, "capProviderId": null, "distance": null, "has_offers": false, "name": "Ogas Cafeteria", "longitude": -84.491613, "has_menu": false, "awards": null, "user_review_count": 0}, {"business_operation_status": 1, "rating": null, "neighborhood": null, "image": null, "scorecard": null, "featured": false, "sample_categories": "Restaurants", "public_id": "anthonys-italian-kitchen-marietta", "id": 826910750, "votes": null, "tagline": null, "has_video": false, "website": null, "offers": null, "latitude": 33.952602, "politanName": "Atlanta, GA Metro ", "phone_number": "7705097757", "tags": [{"primary": true, "id": 1722, "name": "Restaurants"}], "fax_number": null, "expansion": {"count": null, "uri": null}, "impression_id": "000b000000515fd67afa094818a53ba43cc18b212b", "profile": "http://www.citysearch.com/profile/826910750/marietta_ga/anthony_s_italian_kitchen.html", "address": {"city": "Marietta", "state": "GA", "street": "1323 Roswell Rd", "postal_code": "30062"}, "capProviderId": null, "distance": null, "has_offers": false, "name": "Anthony's Italian Kitchen", "longitude": -84.549933, "has_menu": true, "awards": null, "user_review_count": 0}, {"business_operation_status": 1, "rating": null, "neighborhood": null, "image": null, "scorecard": null, "featured": false, "sample_categories": "Ice Cream Parlors, Dairy Products", "public_id": "flavorich-inc-marietta", "id": 764859740, "votes": null, "tagline": null, "has_video": false, "website": "http://www.citysearch.com/profile/external/764859740/marietta_ga/flav_o_rich_inc.html", "offers": null, "latitude": 33.986137, "politanName": "Atlanta, GA Metro ", "phone_number": "6782901326", "tags": [{"primary": false, "id": 1730, "name": "Ice Cream Parlors"}, {"primary": true, "id": 12837, "name": "Dairy Products"}], "fax_number": null, "expansion": {"count": null, "uri": null}, "impression_id": "000b0000001b950a70fb0943e28c6bc02ae3a917f1", "profile": "http://www.citysearch.com/profile/764859740/marietta_ga/flav_o_rich_inc.html", "address": {"city": "Marietta", "state": "GA", "street": "1449 Cobb Pkwy N", "postal_code": "30062"}, "capProviderId": null, "distance": null, "has_offers": false, "name": "Flav-O-Rich Inc", "longitude": -84.571376, "has_menu": false, "awards": null, "user_review_count": 0}, {"business_operation_status": 1, "rating": null, "neighborhood": null, "image": null, "scorecard": null, "featured": false, "sample_categories": "Restaurants, Pizza, Carry Out", "public_id": "pizza-hut-marietta-12", "id": 775223530, "votes": null, "tagline": null, "has_video": false, "website": null, "offers": null, "latitude": 33.952602, "politanName": "Atlanta, GA Metro ", "phone_number": "7709716932", "tags": [{"primary": false, "id": 1722, "name": "Restaurants"}, {"primary": false, "id": 11247, "name": "Carry Out"}, {"primary": true, "id": 11299, "name": "Pizza"}], "fax_number": null, "expansion": {"count": null, "uri": null}, "impression_id": "000b000000a277db75e49944db9caf205e97a6e10a", "profile": "http://www.citysearch.com/profile/775223530/marietta_ga/pizza_hut.html", "address": {"city": "Marietta", "state": "GA", "street": "2204 Roswell Rd", "postal_code": "30062"}, "capProviderId": null, "distance": null, "has_offers": false, "name": "Pizza Hut", "longitude": -84.549933, "has_menu": false, "awards": null, "user_review_count": 0}, {"business_operation_status": 1, "rating": null, "neighborhood": null, "image": null, "scorecard": null, "featured": false, "sample_categories": "Carry Out", "public_id": "lucyann-s-co-llc-marietta", "id": 810787170, "votes": null, "tagline": null, "has_video": false, "website": null, "offers": null, "latitude": 34.011742, "politanName": "Atlanta, GA Metro ", "phone_number": "6785609088", "tags": [{"primary": true, "id": 11247, "name": "Carry Out"}], "fax_number": null, "expansion": {"count": null, "uri": null}, "impression_id": "000b000000020435765dec46098732ab19362096a1", "profile": "http://www.citysearch.com/profile/810787170/marietta_ga/lucyann_s_co_llc.html", "address": {"city": "Marietta", "state": "GA", "street": "2550 Sandy Plains Rd # 100", "postal_code": "30066"}, "capProviderId": null, "distance": null, "has_offers": false, "name": "Lucyann S Co LLC", "longitude": -84.495056, "has_menu": false, "awards": null, "user_review_count": 0}, {"business_operation_status": 1, "rating": null, "neighborhood": null, "image": null, "scorecard": null, "featured": false, "sample_categories": "Restaurants", "public_id": "dinner-afare-marietta-2", "id": 819840300, "votes": null, "tagline": null, "has_video": false, "website": "http://www.citysearch.com/profile/external/819840300/marietta_ga/dinner_a_fare.html", "offers": null, "latitude": 33.98752, "politanName": "Atlanta, GA Metro ", "phone_number": "7705656551", "tags": [{"primary": true, "id": 1722, "name": "Restaurants"}], "fax_number": null, "expansion": {"count": null, "uri": null}, "impression_id": "000b0000007621b99105a744929f1d6e1d35e8dfb5", "profile": "http://www.citysearch.com/profile/819840300/marietta_ga/dinner_a_fare.html", "address": {"city": "Marietta", "state": "GA", "street": "4475 Roswell Rd # 1420", "postal_code": "30062"}, "capProviderId": null, "distance": null, "has_offers": false, "name": "Dinner A'fare", "longitude": -84.42189, "has_menu": true, "awards": null, "user_review_count": 0}, {"business_operation_status": 1, "rating": null, "neighborhood": null, "image": null, "scorecard": null, "featured": false, "sample_categories": "Restaurants", "public_id": "jims-catfish-marietta", "id": 824115460, "votes": null, "tagline": null, "has_video": false, "website": null, "offers": null, "latitude": 34.015715, "politanName": "Atlanta, GA Metro ", "phone_number": "7709989459", "tags": [{"primary": true, "id": 1722, "name": "Restaurants"}], "fax_number": null, "expansion": {"count": null, "uri": null}, "impression_id": "000b0000000c762c2a07aa4deea472b3cef23dfc4e", "profile": "http://www.citysearch.com/profile/824115460/marietta_ga/jims_catfish.html", "address": {"city": "Marietta", "state": "GA", "street": "2725 Alpine Trl", "postal_code": "30062"}, "capProviderId": null, "distance": null, "has_offers": false, "name": "Jims Catfish", "longitude": -84.424967, "has_menu": false, "awards": null, "user_review_count": 0}, {"business_operation_status": 1, "rating": null, "neighborhood": null, "image": null, "scorecard": null, "featured": false, "sample_categories": "Restaurants", "public_id": "frankles-marietta", "id": 610973754, "votes": null, "tagline": null, "has_video": false, "website": null, "offers": null, "latitude": 33.978873, "politanName": "Atlanta, GA Metro ", "phone_number": "6783246100", "tags": [{"primary": true, "id": 1722, "name": "Restaurants"}], "fax_number": null, "expansion": {"count": null, "uri": null}, "impression_id": "000b000000b9957171e3e5494aacee3f922cc5976c", "profile": "http://www.citysearch.com/profile/610973754/marietta_ga/frankle_s.html", "address": {"city": "Marietta", "state": "GA", "street": "3125 Roswell Rd", "postal_code": "30062"}, "capProviderId": null, "distance": null, "has_offers": false, "name": "Frankle's", "longitude": -84.462166, "has_menu": false, "awards": null, "user_review_count": 0}, {"business_operation_status": 1, "rating": null, "neighborhood": null, "image": null, "scorecard": null, "featured": false, "sample_categories": "Restaurants", "public_id": "r-cs-southern-cooking-marietta", "id": 754855600, "votes": null, "tagline": null, "has_video": false, "website": null, "offers": null, "latitude": 33.951248, "politanName": "Atlanta, GA Metro ", "phone_number": "7704854668", "tags": [{"primary": true, "id": 1722, "name": "Restaurants"}], "fax_number": null, "expansion": {"count": null, "uri": null}, "impression_id": "000b0000006b1420205d644cd39804e639073858bf", "profile": "http://www.citysearch.com/profile/754855600/marietta_ga/r_c_s_southern_cooking.html", "address": {"city": "Marietta", "state": "GA", "street": "1516 Roswell Rd", "postal_code": "30062"}, "capProviderId": null, "distance": null, "has_offers": false, "name": "R C's Southern Cooking", "longitude": -84.508172, "has_menu": false, "awards": null, "user_review_count": 0}, {"business_operation_status": 1, "rating": null, "neighborhood": null, "image": null, "scorecard": null, "featured": false, "sample_categories": "Barbecue Restaurants", "public_id": "wanyes-brother-bbq-marietta", "id": 777668500, "votes": null, "tagline": null, "has_video": false, "website": null, "offers": null, "latitude": 33.977691, "politanName": "Atlanta, GA Metro ", "phone_number": "6783313892", "tags": [{"primary": true, "id": 1724, "name": "Barbecue Restaurants"}], "fax_number": null, "expansion": {"count": null, "uri": null}, "impression_id": "000b00000069a39f60073b4dc282d240938a762b0c", "profile": "http://www.citysearch.com/profile/777668500/marietta_ga/wanye_s_brother_bbq.html", "address": {"city": "Marietta", "state": "GA", "street": "1160 Hayes Industrial Dr", "postal_code": "30062"}, "capProviderId": null, "distance": null, "has_offers": false, "name": "Wanye's Brother BBQ", "longitude": -84.542327, "has_menu": false, "awards": null, "user_review_count": 0}, {"business_operation_status": 1, "rating": null, "neighborhood": null, "image": null, "scorecard": null, "featured": false, "sample_categories": "Restaurants, Mexican", "public_id": "chepes-mexican-grill-iii-llc-marietta", "id": 655846240, "votes": null, "tagline": null, "has_video": false, "website": null, "offers": null, "latitude": 34.036382, "politanName": "Atlanta, GA Metro ", "phone_number": "7709711171", "tags": [{"primary": false, "id": 11208, "name": "Mexican"}, {"primary": true, "id": 1722, "name": "Restaurants"}], "fax_number": null, "expansion": {"count": null, "uri": null}, "impression_id": "000b000000209c3ea8b69643cb90089e684d72bd12", "profile": "http://www.citysearch.com/profile/655846240/marietta_ga/chepe_s_mexican_grill_iii_llc.html", "address": {"city": "Marietta", "state": "GA", "street": "3052 Shallowford Rd", "postal_code": "30062"}, "capProviderId": null, "distance": null, "has_offers": false, "name": "Chepe's Mexican Grill Iii Llc", "longitude": -84.461652, "has_menu": false, "awards": null, "user_review_count": 0}, {"business_operation_status": 1, "rating": null, "neighborhood": null, "image": null, "scorecard": null, "featured": false, "sample_categories": "Restaurants", "public_id": "northridge-restaurant-inc-marietta", "id": 826655290, "votes": null, "tagline": null, "has_video": false, "website": null, "offers": null, "latitude": 34.034057, "politanName": "Atlanta, GA Metro ", "phone_number": "7706428676", "tags": [{"primary": true, "id": 1722, "name": "Restaurants"}], "fax_number": null, "expansion": {"count": null, "uri": null}, "impression_id": "000b00000032437581eb954ecc8247a5a83a127fe1", "profile": "http://www.citysearch.com/profile/826655290/marietta_ga/northridge_restaurant_inc.html", "address": {"city": "Marietta", "state": "GA", "street": "3440 Orange Wood CT", "postal_code": "30062"}, "capProviderId": null, "distance": null, "has_offers": false, "name": "Northridge Restaurant Inc", "longitude": -84.435926, "has_menu": false, "awards": null, "user_review_count": 0}, {"business_operation_status": 1, "rating": null, "neighborhood": null, "image": null, "scorecard": null, "featured": false, "sample_categories": "Restaurants, Catering, Carry Out, Chicken", "public_id": "chickfila-marietta-12", "id": 775192090, "votes": null, "tagline": null, "has_video": false, "website": "http://www.citysearch.com/profile/external/775192090/marietta_ga/chick_fil_a.html", "offers": null, "latitude": 33.952602, "politanName": "Atlanta, GA Metro ", "phone_number": "7705659960", "tags": [{"primary": false, "id": 1705, "name": "Catering"}, {"primary": false, "id": 11247, "name": "Carry Out"}, {"primary": false, "id": 12839, "name": "Chicken"}, {"primary": true, "id": 1722, "name": "Restaurants"}], "fax_number": null, "expansion": {"count": null, "uri": null}, "impression_id": "000b0000003f62a16c3a14422a9fb7a348fdac936a", "profile": "http://www.citysearch.com/profile/775192090/marietta_ga/chick_fil_a.html", "address": {"city": "Marietta", "state": "GA", "street": "5200 Buffington Rd", "postal_code": "30062"}, "capProviderId": null, "distance": null, "has_offers": false, "name": "Chick-Fil-A", "longitude": -84.549933, "has_menu": false, "awards": null, "user_review_count": 0}, {"business_operation_status": 1, "rating": null, "neighborhood": null, "image": null, "scorecard": null, "featured": false, "sample_categories": "Restaurants", "public_id": "bubba-ds-dawgs-inc-marietta", "id": 801089200, "votes": null, "tagline": null, "has_video": false, "website": null, "offers": null, "latitude": 34.01546, "politanName": "Atlanta, GA Metro ", "phone_number": "7703553212", "tags": [{"primary": true, "id": 1722, "name": "Restaurants"}], "fax_number": null, "expansion": {"count": null, "uri": null}, "impression_id": "000b00000021c4b8eb95944fc3995aa0ed8f0ac86f", "profile": "http://www.citysearch.com/profile/801089200/marietta_ga/bubba_d_s_dawgs_inc.html", "address": {"city": "Marietta", "state": "GA", "street": "2690 Sandy Plains Rd", "postal_code": "30066"}, "capProviderId": null, "distance": null, "has_offers": false, "name": "Bubba D's Dawgs INC", "longitude": -84.493053, "has_menu": false, "awards": null, "user_review_count": 0}, {"business_operation_status": 1, "rating": 9.0, "neighborhood": null, "image": "http://images.citysearch.net/assets/imgdb/5e/71/0b/21/97/7d/45/7f/9f/88/09/59/89/07/78/e0.jpg", "scorecard": null, "featured": false, "sample_categories": "Catering, Restaurants, Dessert Shops, Italian, $$", "public_id": "sugo-roswell-2", "id": 40841254, "votes": null, "tagline": "Sugo Restaurant & Tapas- A Blend of Italian & Greek Cuisine", "has_video": false, "website": "http://www.citysearch.com/profile/external/40841254/roswell_ga/sugo.html", "offers": null, "latitude": 34.009785, "politanName": "Atlanta, GA Metro ", "phone_number": "7706419131", "tags": [{"primary": false, "id": 1705, "name": "Catering"}, {"primary": false, "id": 1722, "name": "Restaurants"}, {"primary": false, "id": 1728, "name": "Dessert Shops"}, {"primary": false, "id": 11232, "name": "$$"}, {"primary": false, "id": 11244, "name": "Business Dining"}, {"primary": false, "id": 11256, "name": "Date Spot"}, {"primary": false, "id": 11262, "name": "Family Style Dining"}, {"primary": false, "id": 11263, "name": "Family-Friendly Dining"}, {"primary": false, "id": 11268, "name": "Greek"}, {"primary": false, "id": 11269, "name": "Group Dining"}, {"primary": false, "id": 11272, "name": "Hidden Find"}, {"primary": false, "id": 11284, "name": "Local Favorite"}, {"primary": false, "id": 11289, "name": "Mediterranean"}, {"primary": false, "id": 11296, "name": "Outdoor Dining"}, {"primary": false, "id": 11299, "name": "Pizza"}, {"primary": false, "id": 11303, "name": "Private Parties"}, {"primary": false, "id": 11304, "name": "Private Rooms"}, {"primary": false, "id": 11307, "name": "Romantic Dining"}, {"primary": false, "id": 11310, "name": "Sommelier"}, {"primary": false, "id": 11324, "name": "Upscale Casual Dining"}, {"primary": false, "id": 11339, "name": "Cash"}, {"primary": false, "id": 11361, "name": "MasterCard"}, {"primary": false, "id": 11382, "name": "Visa"}, {"primary": true, "id": 11279, "name": "Italian"}], "fax_number": null, "expansion": {"count": null, "uri": null}, "impression_id": "000b0000006300ea8b89524bde8504b4bbd11a5860", "profile": "http://www.citysearch.com/profile/40841254/roswell_ga/sugo.html", "address": {"city": "Roswell", "state": "GA", "street": "408 S Atlanta St", "postal_code": "30075"}, "capProviderId": null, "distance": null, "has_offers": false, "name": "Sugo", "longitude": -84.361532, "has_menu": true, "awards": null, "user_review_count": 42}, {"business_operation_status": 1, "rating": 6.0, "neighborhood": null, "image": "http://i1.ypcdn.com/newdisplay_distr/sbc/ccb8f681e523456cb9aa752030306a85.gif", "scorecard": null, "featured": true, "sample_categories": "Restaurants, Bars & Clubs, Catering, Mexican, Carry Out", "public_id": "border-mexican-restaurant-smyrna", "id": 2923018, "votes": null, "tagline": "Authentic Mexican food! Full bar! Patio!", "has_video": false, "website": "http://www.citysearch.com/profile/external/2923018/smyrna_ga/on_border_mexican_restaurant.html", "offers": null, "latitude": 33.890145, "politanName": "Atlanta, GA Metro ", "phone_number": "6788238746", "tags": [{"primary": false, "id": 164, "name": "Bars & Clubs"}, {"primary": false, "id": 1705, "name": "Catering"}, {"primary": false, "id": 11208, "name": "Mexican"}, {"primary": false, "id": 11247, "name": "Carry Out"}, {"primary": false, "id": 11333, "name": "American Express"}, {"primary": false, "id": 11349, "name": "Discover"}, {"primary": false, "id": 11361, "name": "MasterCard"}, {"primary": false, "id": 11382, "name": "Visa"}, {"primary": true, "id": 1722, "name": "Restaurants"}], "fax_number": null, "expansion": {"count": null, "uri": null}, "impression_id": "000b0000006abbf3cd489e4b888837798243f93c5a", "profile": "http://www.citysearch.com/profile/2923018/smyrna_ga/on_border_mexican_restaurant.html", "address": {"city": "Smyrna", "state": "GA", "street": "2569 Cobb Pkwy SE", "postal_code": "30080"}, "capProviderId": 11, "distance": null, "has_offers": false, "name": "On-Border Mexican Restaurant", "longitude": -84.474942, "has_menu": true, "awards": null, "user_review_count": 71}, {"business_operation_status": 1, "rating": 9.0, "neighborhood": null, "image": "http://images.citysearch.net/assets/imgdb/15/f3/76/8d/29/1a/4c/0a/b6/70/1b/be/fd/12/c9/b7.png", "scorecard": null, "featured": false, "sample_categories": "Restaurants, Brazilian, Steakhouse", "public_id": "picanha-steakhouse-buffet-marietta", "id": 602810462, "votes": null, "tagline": "Traditional Churrascos and Hot Latin Dishes in Marietta - Picanha ", "has_video": false, "website": null, "offers": null, "latitude": 33.918666, "politanName": "Atlanta, GA Metro ", "phone_number": "7702260434", "tags": [{"primary": false, "id": 11204, "name": "Brazilian"}, {"primary": false, "id": 11316, "name": "Steakhouse"}, {"primary": true, "id": 1722, "name": "Restaurants"}], "fax_number": null, "expansion": {"count": null, "uri": null}, "impression_id": "000b000000f8b711f273f041bfb410ead0223576a6", "profile": "http://www.citysearch.com/profile/602810462/marietta_ga/picanha_steakhouse_buffet.html", "address": {"city": "Marietta", "state": "GA", "street": "1360 Powers Ferry Road", "postal_code": "30067"}, "capProviderId": null, "distance": null, "has_offers": false, "name": "Picanha Steakhouse & Buffet", "longitude": -84.469414, "has_menu": false, "awards": null, "user_review_count": 2}, {"business_operation_status": 1, "rating": 8.0, "neighborhood": null, "image": "http://images.citysearch.net/assets/imgdb/merchant/2015/3/18/0/zKAXTjbf208.jpeg", "scorecard": null, "featured": true, "sample_categories": "Restaurants, New American, Traditional American, Seafood, $$", "public_id": "longhorn-steakhouse-marietta-2", "id": 2906120, "votes": null, "tagline": "Come in today & enjoy what we call a \"cut-above\" experience", "has_video": false, "website": "http://www.citysearch.com/profile/external/2906120/marietta_ga/longhorn_steakhouse.html", "offers": null, "latitude": 33.947061, "politanName": "Atlanta, GA Metro ", "phone_number": "6787019006", "tags": [{"primary": false, "id": 11189, "name": "New American"}, {"primary": false, "id": 11190, "name": "Traditional American"}, {"primary": false, "id": 11228, "name": "Seafood"}, {"primary": false, "id": 11232, "name": "$$"}, {"primary": false, "id": 11247, "name": "Carry Out"}, {"primary": false, "id": 11258, "name": "Dine At The Bar"}, {"primary": false, "id": 11263, "name": "Family-Friendly Dining"}, {"primary": false, "id": 11269, "name": "Group Dining"}, {"primary": false, "id": 11316, "name": "Steakhouse"}, {"primary": false, "id": 11333, "name": "American Express"}, {"primary": false, "id": 11349, "name": "Discover"}, {"primary": false, "id": 11361, "name": "MasterCard"}, {"primary": false, "id": 11382, "name": "Visa"}, {"primary": true, "id": 1722, "name": "Restaurants"}], "fax_number": null, "expansion": {"count": null, "uri": null}, "impression_id": "000b0000003e4da6e8269c4d2b9f0f5bd8cbd2c083", "profile": "http://www.citysearch.com/profile/2906120/marietta_ga/longhorn_steakhouse.html", "address": {"city": "Marietta", "state": "GA", "street": "2636 Dallas Hwy. SW", "postal_code": "30064"}, "capProviderId": 1, "distance": null, "has_offers": false, "name": "LongHorn Steakhouse", "longitude": -84.628665, "has_menu": true, "awards": null, "user_review_count": 2}, {"business_operation_status": 1, "rating": null, "neighborhood": null, "image": "http://images.citysearch.net/assets/imgdb/merchant/2015/3/18/0/zKAXTjbf208.jpeg", "scorecard": null, "featured": true, "sample_categories": "Restaurants, New American, Traditional American, Seafood, $$", "public_id": "longhorn-steakhouse-marietta", "id": 2912192, "votes": null, "tagline": "Come in today & enjoy what we call a \"cut-above\" experience", "has_video": false, "website": "http://www.citysearch.com/profile/external/2912192/marietta_ga/longhorn_steakhouse.html", "offers": null, "latitude": 33.966176, "politanName": "Atlanta, GA Metro ", "phone_number": "4702391421", "tags": [{"primary": false, "id": 11189, "name": "New American"}, {"primary": false, "id": 11190, "name": "Traditional American"}, {"primary": false, "id": 11228, "name": "Seafood"}, {"primary": false, "id": 11232, "name": "$$"}, {"primary": false, "id": 11247, "name": "Carry Out"}, {"primary": false, "id": 11258, "name": "Dine At The Bar"}, {"primary": false, "id": 11263, "name": "Family-Friendly Dining"}, {"primary": false, "id": 11267, "name": "Food Delivery"}, {"primary": false, "id": 11269, "name": "Group Dining"}, {"primary": false, "id": 11316, "name": "Steakhouse"}, {"primary": false, "id": 11333, "name": "American Express"}, {"primary": false, "id": 11339, "name": "Cash"}, {"primary": false, "id": 11347, "name": "Debit Card"}, {"primary": false, "id": 11348, "name": "Diners Club"}, {"primary": false, "id": 11349, "name": "Discover"}, {"primary": false, "id": 11361, "name": "MasterCard"}, {"primary": false, "id": 11382, "name": "Visa"}, {"primary": true, "id": 1722, "name": "Restaurants"}], "fax_number": null, "expansion": {"count": null, "uri": null}, "impression_id": "000b000000b35c32a68d114394b4e58605349926bc", "profile": "http://www.citysearch.com/profile/2912192/marietta_ga/longhorn_steakhouse.html", "address": {"city": "Marietta", "state": "GA", "street": "4721 Lower Roswell Rd", "postal_code": "30068"}, "capProviderId": 1, "distance": null, "has_offers": false, "name": "LongHorn Steakhouse", "longitude": -84.414117, "has_menu": true, "awards": null, "user_review_count": 0}, {"business_operation_status": 1, "rating": 7.0, "neighborhood": null, "image": "http://images.citysearch.net/assets/imgdb/merchant/2015/3/3/0/XbDaJnPm123.jpeg", "scorecard": null, "featured": true, "sample_categories": "Restaurants, New American, Carry Out, Family Style Dining, Family-Friendly Dining", "public_id": "olive-garden-kennesaw", "id": 2955103, "votes": null, "tagline": "Buy One Take One is Back! Starting at $12.99", "has_video": false, "website": "http://www.citysearch.com/profile/external/2955103/kennesaw_ga/olive_garden.html", "offers": null, "latitude": 34.01221, "politanName": "Atlanta, GA Metro ", "phone_number": "7704243668", "tags": [{"primary": false, "id": 11189, "name": "New American"}, {"primary": false, "id": 11247, "name": "Carry Out"}, {"primary": false, "id": 11262, "name": "Family Style Dining"}, {"primary": false, "id": 11263, "name": "Family-Friendly Dining"}, {"primary": false, "id": 11279, "name": "Italian"}, {"primary": false, "id": 11286, "name": "Lunch Spot"}, {"primary": false, "id": 11333, "name": "American Express"}, {"primary": false, "id": 11349, "name": "Discover"}, {"primary": false, "id": 11361, "name": "MasterCard"}, {"primary": false, "id": 11382, "name": "Visa"}, {"primary": true, "id": 1722, "name": "Restaurants"}], "fax_number": null, "expansion": {"count": null, "uri": null}, "impression_id": "000b000000a1218f1c74064bc1886374f2183ab92a", "profile": "http://www.citysearch.com/profile/2955103/kennesaw_ga/olive_garden.html", "address": {"city": "Kennesaw", "state": "GA", "street": "429 Barrett Pkwy", "postal_code": "30144"}, "capProviderId": 1, "distance": null, "has_offers": false, "name": "Olive Garden", "longitude": -84.562972, "has_menu": true, "awards": null, "user_review_count": 4}, {"business_operation_status": 1, "rating": 6.0, "neighborhood": null, "image": "http://images.citysearch.net/assets/imgdb/merchant/2015/3/3/0/XbDaJnPm123.jpeg", "scorecard": null, "featured": true, "sample_categories": "Restaurants, New American, Carry Out, Family Style Dining, Family-Friendly Dining", "public_id": "olive-garden-roswell", "id": 2918314, "votes": null, "tagline": "Buy One Take One is Back! Starting at $12.99", "has_video": false, "website": "http://www.citysearch.com/profile/external/2918314/roswell_ga/olive_garden.html", "offers": null, "latitude": 34.027437, "politanName": "Atlanta, GA Metro ", "phone_number": "7706420395", "tags": [{"primary": false, "id": 11189, "name": "New American"}, {"primary": false, "id": 11247, "name": "Carry Out"}, {"primary": false, "id": 11262, "name": "Family Style Dining"}, {"primary": false, "id": 11263, "name": "Family-Friendly Dining"}, {"primary": false, "id": 11279, "name": "Italian"}, {"primary": false, "id": 11286, "name": "Lunch Spot"}, {"primary": true, "id": 1722, "name": "Restaurants"}], "fax_number": null, "expansion": {"count": null, "uri": null}, "impression_id": "000b000000bb06fa0146fa4c7eb46e763df234eac1", "profile": "http://www.citysearch.com/profile/2918314/roswell_ga/olive_garden.html", "address": {"city": "Roswell", "state": "GA", "street": "905 Holcomb Bridge Rd", "postal_code": "30076"}, "capProviderId": 1, "distance": null, "has_offers": false, "name": "Olive Garden", "longitude": -84.335375, "has_menu": true, "awards": null, "user_review_count": 7}, {"business_operation_status": 1, "rating": 9.0, "neighborhood": null, "image": "http://images.citysearch.net/assets/imgdb2/reinvent/profile/2012/9/4/14/hxsDTKwo.jpg", "scorecard": null, "featured": false, "sample_categories": "Restaurants, Wine Bars, Organic Foods, Asian, Thai", "public_id": "lthai-west-organic-cuisine-wine-bar-smyrna", "id": 603158332, "votes": null, "tagline": "Same great menu, brand new location in Smyrna", "has_video": false, "website": "http://www.citysearch.com/profile/external/603158332/smyrna_ga/l_thai_west_organic_cuisine_wine_bar.html", "offers": null, "latitude": 33.842892, "politanName": "Atlanta, GA Metro ", "phone_number": "7704344344", "tags": [{"primary": false, "id": 1704, "name": "Wine Bars"}, {"primary": false, "id": 11173, "name": "Organic Foods"}, {"primary": false, "id": 11235, "name": "Asian"}, {"primary": false, "id": 11319, "name": "Thai"}, {"primary": false, "id": 11333, "name": "American Express"}, {"primary": false, "id": 11339, "name": "Cash"}, {"primary": false, "id": 11361, "name": "MasterCard"}, {"primary": false, "id": 11382, "name": "Visa"}, {"primary": false, "id": 14910, "name": "Organic"}, {"primary": true, "id": 1722, "name": "Restaurants"}], "fax_number": null, "expansion": {"count": null, "uri": null}, "impression_id": "000b000000c8116c687d124cf898a4c159a6cd965c", "profile": "http://www.citysearch.com/profile/603158332/smyrna_ga/l_thai_west_organic_cuisine_wine_bar.html", "address": {"city": "Smyrna", "state": "GA", "street": "4500 W Village Pl SE Ste 1017", "postal_code": "30080"}, "capProviderId": null, "distance": null, "has_offers": false, "name": "L'Thai West Organic Cuisine & Wine Bar", "longitude": -84.490261, "has_menu": false, "awards": null, "user_review_count": 19}, {"business_operation_status": 1, "rating": 10.0, "neighborhood": null, "image": "http://images.citysearch.net/assets/imgdb/merchant/2012/3/21/0/zUfdpINR279.jpeg", "scorecard": null, "featured": false, "sample_categories": "Grill Restaurants, Bars & Pubs, Sports Bars, Restaurants, Pizza", "public_id": "blue-moon-pizza-marietta-2", "id": 37244513, "votes": null, "tagline": null, "has_video": false, "website": "http://www.citysearch.com/profile/external/37244513/marietta_ga/blue_moon_pizza.html", "offers": null, "latitude": 33.90373, "politanName": "Atlanta, GA Metro ", "phone_number": "7709842444", "tags": [{"primary": false, "id": 1686, "name": "Bars & Pubs"}, {"primary": false, "id": 1701, "name": "Sports Bars"}, {"primary": false, "id": 1722, "name": "Restaurants"}, {"primary": false, "id": 11299, "name": "Pizza"}, {"primary": false, "id": 11333, "name": "American Express"}, {"primary": false, "id": 11349, "name": "Discover"}, {"primary": false, "id": 11361, "name": "MasterCard"}, {"primary": false, "id": 11382, "name": "Visa"}, {"primary": true, "id": 6191, "name": "Grill Restaurants"}], "fax_number": null, "expansion": {"count": null, "uri": null}, "impression_id": "000b0000000005fd4205f146e18b7c7b275bfa9dd2", "profile": "http://www.citysearch.com/profile/37244513/marietta_ga/blue_moon_pizza.html", "address": {"city": "Marietta", "state": "GA", "street": "2359 Windy Hill Rd Se Ste 100", "postal_code": "30067"}, "capProviderId": null, "distance": null, "has_offers": false, "name": "Blue Moon Pizza", "longitude": -84.484545, "has_menu": true, "awards": null, "user_review_count": 78}, {"business_operation_status": 1, "rating": 10.0, "neighborhood": null, "image": "http://o3.aolcdn.com/dims-shared/dims3/PATCH/resize/600x450/http://hss-prod.hss.aol.com/hss/storage/patch/70f4b9d44b921e080c50cf6033c1dfb3", "scorecard": null, "featured": false, "sample_categories": "Restaurants, Traditional American, Californian, $$, Lunch Spot", "public_id": "greenwoods-on-green-street-roswell", "id": 2916709, "votes": null, "tagline": null, "has_video": false, "website": "http://www.citysearch.com/profile/external/2916709/roswell_ga/greenwoods_on_green_street.html", "offers": null, "latitude": 34.02815, "politanName": "Atlanta, GA Metro ", "phone_number": "7709925383", "tags": [{"primary": false, "id": 11190, "name": "Traditional American"}, {"primary": false, "id": 11191, "name": "Californian"}, {"primary": false, "id": 11232, "name": "$$"}, {"primary": false, "id": 11286, "name": "Lunch Spot"}, {"primary": false, "id": 11312, "name": "Southern"}, {"primary": false, "id": 11339, "name": "Cash"}, {"primary": false, "id": 11341, "name": "Check"}, {"primary": false, "id": 11349, "name": "Discover"}, {"primary": false, "id": 11361, "name": "MasterCard"}, {"primary": false, "id": 11382, "name": "Visa"}, {"primary": true, "id": 1722, "name": "Restaurants"}], "fax_number": null, "expansion": {"count": null, "uri": null}, "impression_id": "000b000000a25cec9bfcff4b27a044e69eade765f8", "profile": "http://www.citysearch.com/profile/2916709/roswell_ga/greenwoods_on_green_street.html", "address": {"city": "Roswell", "state": "GA", "street": "1087 Green St", "postal_code": "30075"}, "capProviderId": null, "distance": null, "has_offers": false, "name": "Greenwoods On Green Street", "longitude": -84.359739, "has_menu": false, "awards": null, "user_review_count": 30}, {"business_operation_status": 1, "rating": 9.0, "neighborhood": null, "image": "http://o2.aolcdn.com/dims-shared/dims3/PATCH/resize/600x450/http://hss-prod.hss.aol.com/hss/storage/patch/67219c44c72e23a9b493eb9aaf9c695b", "scorecard": null, "featured": false, "sample_categories": "Bakeries, Restaurants, French, $, Cheap Eats", "public_id": "douceur-de-france-marietta", "id": 11642899, "votes": null, "tagline": null, "has_video": false, "website": "http://www.citysearch.com/profile/external/11642899/marietta_ga/douceur_de_france.html", "offers": null, "latitude": 33.938896, "politanName": "Atlanta, GA Metro ", "phone_number": "7704255050", "tags": [{"primary": false, "id": 1722, "name": "Restaurants"}, {"primary": false, "id": 11219, "name": "French"}, {"primary": false, "id": 11231, "name": "$"}, {"primary": false, "id": 11249, "name": "Cheap Eats"}, {"primary": false, "id": 11339, "name": "Cash"}, {"primary": true, "id": 1685, "name": "Bakeries"}], "fax_number": null, "expansion": {"count": null, "uri": null}, "impression_id": "000b0000006c1e562ba36a4ba68ddb12a707b9808c", "profile": "http://www.citysearch.com/profile/11642899/marietta_ga/douceur_de_france.html", "address": {"city": "Marietta", "state": "GA", "street": "367 Glover St SE", "postal_code": "30060"}, "capProviderId": null, "distance": null, "has_offers": false, "name": "Douceur De France", "longitude": -84.542509, "has_menu": true, "awards": null, "user_review_count": 17}, {"business_operation_status": 1, "rating": 8.0, "neighborhood": null, "image": null, "scorecard": null, "featured": false, "sample_categories": "Restaurants, Traditional American, $$, Cajun & Creole, Family-Friendly Dining", "public_id": "copelands-of-new-orleans-kennesaw", "id": 11526325, "votes": null, "tagline": null, "has_video": false, "website": "http://www.citysearch.com/profile/external/11526325/kennesaw_ga/copeland_s_of_new_orleans.html", "offers": null, "latitude": 34.001836, "politanName": "Atlanta, GA Metro ", "phone_number": "7709199612", "tags": [{"primary": false, "id": 11190, "name": "Traditional American"}, {"primary": false, "id": 11232, "name": "$$"}, {"primary": false, "id": 11245, "name": "Cajun & Creole"}, {"primary": false, "id": 11263, "name": "Family-Friendly Dining"}, {"primary": false, "id": 11269, "name": "Group Dining"}, {"primary": false, "id": 11333, "name": "American Express"}, {"primary": false, "id": 11349, "name": "Discover"}, {"primary": false, "id": 11361, "name": "MasterCard"}, {"primary": false, "id": 11382, "name": "Visa"}, {"primary": true, "id": 1722, "name": "Restaurants"}], "fax_number": null, "expansion": {"count": null, "uri": null}, "impression_id": "000b000000213baac608c34228bf00989f4ddb7def", "profile": "http://www.citysearch.com/profile/11526325/kennesaw_ga/copeland_s_of_new_orleans.html", "address": {"city": "Kennesaw", "state": "GA", "street": "1142 Ernest W Barrett Pkwy NW", "postal_code": "30144"}, "capProviderId": null, "distance": null, "has_offers": false, "name": "Copeland's Of New Orleans", "longitude": -84.582883, "has_menu": true, "awards": null, "user_review_count": 14}, {"business_operation_status": 1, "rating": 9.0, "neighborhood": null, "image": "http://o3.aolcdn.com/dims-shared/dims3/PATCH/resize/600x450/http://hss-prod.hss.aol.com/hss/storage/patch/7044550661ba0785470745a6f6d3c6ca", "scorecard": null, "featured": false, "sample_categories": "Ethnic Food Markets, Restaurants, Sushi, Japanese, Asian", "public_id": "shallots-sushi-thai-cuisine-roswell", "id": 41920004, "votes": null, "tagline": "Sushi & Thai Under One Roof", "has_video": false, "website": "http://www.citysearch.com/profile/external/41920004/roswell_ga/la_voh_thai_sushi_bar.html", "offers": null, "latitude": 34.03188, "politanName": "Atlanta, GA Metro ", "phone_number": "7709923500", "tags": [{"primary": false, "id": 1722, "name": "Restaurants"}, {"primary": false, "id": 11201, "name": "Sushi"}, {"primary": false, "id": 11202, "name": "Japanese"}, {"primary": false, "id": 11235, "name": "Asian"}, {"primary": false, "id": 11247, "name": "Carry Out"}, {"primary": false, "id": 11249, "name": "Cheap Eats"}, {"primary": false, "id": 11263, "name": "Family-Friendly Dining"}, {"primary": false, "id": 11269, "name": "Group Dining"}, {"primary": false, "id": 11286, "name": "Lunch Spot"}, {"primary": false, "id": 11319, "name": "Thai"}, {"primary": false, "id": 11333, "name": "American Express"}, {"primary": false, "id": 11349, "name": "Discover"}, {"primary": false, "id": 11361, "name": "MasterCard"}, {"primary": false, "id": 11367, "name": "Open 7 Days"}, {"primary": false, "id": 11382, "name": "Visa"}, {"primary": true, "id": 1712, "name": "Ethnic Food Markets"}], "fax_number": null, "expansion": {"count": null, "uri": null}, "impression_id": "000b00000003b88ab194ba4f8ebd9f769e2b392a37", "profile": "http://www.citysearch.com/profile/41920004/roswell_ga/la_voh_thai_sushi_bar.html", "address": {"city": "Roswell", "state": "GA", "street": "695 Holcomb Bridge Rd", "postal_code": "30076"}, "capProviderId": null, "distance": null, "has_offers": false, "name": "La Voh Thai & Sushi Bar", "longitude": -84.340642, "has_menu": true, "awards": null, "user_review_count": 43}, {"business_operation_status": 1, "rating": 9.0, "neighborhood": null, "image": "http://images.citysearch.net/assets/imgdb/99/df/f1/36/3b/74/42/08/a7/51/33/1b/3a/7e/58/2d.jpg", "scorecard": null, "featured": false, "sample_categories": "Pubs, Restaurants, Cafes, Southern, Traditional American", "public_id": "fickle-pickle-roswell", "id": 39295642, "votes": null, "tagline": "Best Casual spot for Lunch and Dinner", "has_video": false, "website": "http://www.citysearch.com/profile/external/39295642/roswell_ga/fickle_pickle.html", "offers": "Kids Eat FREE Tuesday Nights! ", "latitude": 34.028144, "politanName": "Atlanta, GA Metro ", "phone_number": "7706509838", "tags": [{"primary": false, "id": 1687, "name": "Pubs"}, {"primary": false, "id": 1722, "name": "Restaurants"}, {"primary": false, "id": 6190, "name": "Cafes"}, {"primary": false, "id": 11190, "name": "Traditional American"}, {"primary": false, "id": 11240, "name": "Brunch"}, {"primary": false, "id": 11243, "name": "Business Breakfast"}, {"primary": false, "id": 11244, "name": "Business Dining"}, {"primary": false, "id": 11258, "name": "Dine At The Bar"}, {"primary": false, "id": 11263, "name": "Family-Friendly Dining"}, {"primary": false, "id": 11269, "name": "Group Dining"}, {"primary": false, "id": 11294, "name": "Notable Wine List"}, {"primary": false, "id": 11296, "name": "Outdoor Dining"}, {"primary": false, "id": 11307, "name": "Romantic Dining"}, {"primary": false, "id": 11333, "name": "American Express"}, {"primary": false, "id": 11349, "name": "Discover"}, {"primary": false, "id": 11361, "name": "MasterCard"}, {"primary": false, "id": 11382, "name": "Visa"}, {"primary": false, "id": 12821, "name": "Casual Date Spot"}, {"primary": true, "id": 11312, "name": "Southern"}], "fax_number": null, "expansion": {"count": null, "uri": null}, "impression_id": "000b000000e795ef009dc74a2f88f17bad28f38f9b", "profile": "http://www.citysearch.com/profile/39295642/roswell_ga/fickle_pickle.html", "address": {"city": "Roswell", "state": "GA", "street": "1085 Canton St", "postal_code": "30075"}, "capProviderId": null, "distance": null, "has_offers": true, "name": "Fickle Pickle", "longitude": -84.361595, "has_menu": true, "awards": null, "user_review_count": 19}, {"business_operation_status": 1, "rating": 9.0, "neighborhood": null, "image": "http://images.citysearch.net/assets/imgdb/merchant/2010/12/15/0/sdOYfRSY93.jpeg", "scorecard": null, "featured": false, "sample_categories": "Restaurants, Bars & Pubs, Pubs, Irish Pubs, English Pubs", "public_id": "keegans-public-house-kennesaw", "id": 622065270, "votes": null, "tagline": "\" Kennesaw's Best Pub\"", "has_video": false, "website": "http://www.citysearch.com/profile/external/622065270/kennesaw_ga/keegans_public_house.html", "offers": null, "latitude": 33.994278, "politanName": "Atlanta, GA Metro ", "phone_number": "6782132460", "tags": [{"primary": false, "id": 1686, "name": "Bars & Pubs"}, {"primary": false, "id": 1687, "name": "Pubs"}, {"primary": false, "id": 1688, "name": "Irish Pubs"}, {"primary": false, "id": 1689, "name": "English Pubs"}, {"primary": false, "id": 1698, "name": "Neighborhood Bars"}, {"primary": false, "id": 1701, "name": "Sports Bars"}, {"primary": false, "id": 1702, "name": "Taverns"}, {"primary": false, "id": 10034, "name": "Late-Night Scene"}, {"primary": false, "id": 10035, "name": "Live Music"}, {"primary": false, "id": 10037, "name": "Outdoor Seating"}, {"primary": false, "id": 11070, "name": "Darts"}, {"primary": false, "id": 11086, "name": "Drink Specials"}, {"primary": false, "id": 11090, "name": "Happy Hour"}, {"primary": false, "id": 11102, "name": "Notable Beer List"}, {"primary": false, "id": 11221, "name": "Irish"}, {"primary": false, "id": 11232, "name": "$$"}, {"primary": false, "id": 11269, "name": "Group Dining"}, {"primary": false, "id": 11283, "name": "Live Music"}, {"primary": false, "id": 11284, "name": "Local Favorite"}, {"primary": false, "id": 11286, "name": "Lunch Spot"}, {"primary": false, "id": 11296, "name": "Outdoor Dining"}, {"primary": false, "id": 11324, "name": "Upscale Casual Dining"}, {"primary": false, "id": 11333, "name": "American Express"}, {"primary": false, "id": 11339, "name": "Cash"}, {"primary": false, "id": 11349, "name": "Discover"}, {"primary": false, "id": 11361, "name": "MasterCard"}, {"primary": false, "id": 11382, "name": "Visa"}, {"primary": false, "id": 12821, "name": "Casual Date Spot"}, {"primary": false, "id": 14890, "name": "Comfort Food"}, {"primary": true, "id": 1722, "name": "Restaurants"}], "fax_number": null, "expansion": {"count": null, "uri": null}, "impression_id": "000b000000e37d23d449604467a62624181ff08bee", "profile": "http://www.citysearch.com/profile/622065270/kennesaw_ga/keegans_public_house.html", "address": {"city": "Kennesaw", "state": "GA", "street": "1625 Ridenour Blvd NW 301", "postal_code": "30152"}, "capProviderId": null, "distance": null, "has_offers": false, "name": "Keegans Public House", "longitude": -84.592498, "has_menu": true, "awards": null, "user_review_count": 3}, {"business_operation_status": 1, "rating": 10.0, "neighborhood": null, "image": "http://images.citysearch.net/assets/imgdb/f0/9f/9b/8f/bb/7b/42/62/a2/dd/95/94/8a/f0/df/18.jpg", "scorecard": null, "featured": false, "sample_categories": "Juice & Smoothie Shops, Restaurants, Delis And Delicatessens, Health Food, Vegetarian", "public_id": "froots-roswell", "id": 603169352, "votes": null, "tagline": "Luscious Smoothies and gourmet wraps in Roswell.", "has_video": false, "website": "http://www.citysearch.com/profile/external/603169352/roswell_ga/froots.html", "offers": null, "latitude": 34.056359, "politanName": "Atlanta, GA Metro ", "phone_number": "6784615000", "tags": [{"primary": false, "id": 1722, "name": "Restaurants"}, {"primary": false, "id": 1727, "name": "Delis And Delicatessens"}, {"primary": false, "id": 11200, "name": "Health Food"}, {"primary": false, "id": 11230, "name": "Vegetarian"}, {"primary": true, "id": 1735, "name": "Juice & Smoothie Shops"}], "fax_number": null, "expansion": {"count": null, "uri": null}, "impression_id": "000b000000878d755bd7fb48b898ea93177905861e", "profile": "http://www.citysearch.com/profile/603169352/roswell_ga/froots.html", "address": {"city": "Roswell", "state": "GA", "street": "640 W Crossville Rd Ste 500", "postal_code": "30075"}, "capProviderId": null, "distance": null, "has_offers": false, "name": "Froots", "longitude": -84.378656, "has_menu": false, "awards": null, "user_review_count": 16}, {"business_operation_status": 1, "rating": null, "neighborhood": null, "image": "http://images.citysearch.net/assets/imgdb/merchant/2011/7/29/0/ZAMmXokx277.jpeg", "scorecard": null, "featured": false, "sample_categories": "Restaurants, Bar Scene, Brunch, Business Dining, Casual Date Spot", "public_id": "table-main-a-southern-tavern-roswell", "id": 605184072, "votes": null, "tagline": "Serving American cuisine with a Southern flair in Historic Roswell, GA", "has_video": false, "website": "http://www.citysearch.com/profile/external/605184072/roswell_ga/table_main_a_southern_tavern.html", "offers": null, "latitude": 34.026538, "politanName": "Atlanta, GA Metro ", "phone_number": "6788695178", "tags": [{"primary": false, "id": 1722, "name": "Restaurants"}, {"primary": false, "id": 11240, "name": "Brunch"}, {"primary": false, "id": 11244, "name": "Business Dining"}, {"primary": false, "id": 12821, "name": "Casual Date Spot"}, {"primary": true, "id": 11238, "name": "Bar Scene"}], "fax_number": null, "expansion": {"count": null, "uri": null}, "impression_id": "000b00000031f31cad81b5475cb1006db465444936", "profile": "http://www.citysearch.com/profile/605184072/roswell_ga/table_main_a_southern_tavern.html", "address": {"city": "Roswell", "state": "GA", "street": "1028 Canton St", "postal_code": "30075"}, "capProviderId": null, "distance": null, "has_offers": false, "name": "Table & Main | a southern tavern", "longitude": -84.361914, "has_menu": false, "awards": null, "user_review_count": 0}, {"business_operation_status": 1, "rating": 9.0, "neighborhood": null, "image": "http://o3.aolcdn.com/dims-shared/dims3/PATCH/resize/600x450/http://hss-prod.hss.aol.com/hss/storage/patch/e86137254c4247e4ca79b2ad9f3cd25d", "scorecard": null, "featured": false, "sample_categories": "Restaurants, Bars & Clubs, Bars & Pubs, Traditional American, Seafood", "public_id": "whitlocks-grill-marietta", "id": 2906507, "votes": null, "tagline": "Voted \"Amazing Food!\"", "has_video": false, "website": "http://www.citysearch.com/profile/external/2906507/marietta_ga/whitlock_s_grill.html", "offers": null, "latitude": 33.952132, "politanName": "Atlanta, GA Metro ", "phone_number": "7705901500", "tags": [{"primary": false, "id": 164, "name": "Bars & Clubs"}, {"primary": false, "id": 1686, "name": "Bars & Pubs"}, {"primary": false, "id": 11190, "name": "Traditional American"}, {"primary": false, "id": 11228, "name": "Seafood"}, {"primary": false, "id": 11265, "name": "Fine Dining"}, {"primary": false, "id": 11316, "name": "Steakhouse"}, {"primary": false, "id": 11333, "name": "American Express"}, {"primary": false, "id": 11348, "name": "Diners Club"}, {"primary": false, "id": 11349, "name": "Discover"}, {"primary": false, "id": 11361, "name": "MasterCard"}, {"primary": false, "id": 11382, "name": "Visa"}, {"primary": true, "id": 1722, "name": "Restaurants"}], "fax_number": null, "expansion": {"count": null, "uri": null}, "impression_id": "000b000000ea315b812c184b4e9bee1f4869d502a5", "profile": "http://www.citysearch.com/profile/2906507/marietta_ga/whitlock_s_grill.html", "address": {"city": "Marietta", "state": "GA", "street": "990 Whitlock Ave NW", "postal_code": "30064"}, "capProviderId": null, "distance": null, "has_offers": false, "name": "Whitlock's Grill", "longitude": -84.578568, "has_menu": false, "awards": null, "user_review_count": 13}, {"business_operation_status": 1, "rating": 10.0, "neighborhood": null, "image": "http://images.citysearch.net/assets/imgdb/merchant/2010/12/22/0/LDilTlHf43.jpeg", "scorecard": null, "featured": false, "sample_categories": "Restaurants, Food & Dining, Catering, Carry Out, Family-Friendly Dining", "public_id": "lucky-13-pizzeria-smyrna", "id": 604269872, "votes": null, "tagline": "New York Style Pizza By The Slice", "has_video": false, "website": null, "offers": null, "latitude": 33.88355, "politanName": "Atlanta, GA Metro ", "phone_number": "7704058813", "tags": [{"primary": false, "id": 1684, "name": "Food & Dining"}, {"primary": false, "id": 1705, "name": "Catering"}, {"primary": false, "id": 11247, "name": "Carry Out"}, {"primary": false, "id": 11263, "name": "Family-Friendly Dining"}, {"primary": false, "id": 11267, "name": "Food Delivery"}, {"primary": false, "id": 11272, "name": "Hidden Find"}, {"primary": false, "id": 11279, "name": "Italian"}, {"primary": false, "id": 11286, "name": "Lunch Spot"}, {"primary": false, "id": 11299, "name": "Pizza"}, {"primary": false, "id": 11339, "name": "Cash"}, {"primary": false, "id": 11349, "name": "Discover"}, {"primary": false, "id": 11361, "name": "MasterCard"}, {"primary": false, "id": 11382, "name": "Visa"}, {"primary": false, "id": 12821, "name": "Casual Date Spot"}, {"primary": true, "id": 1722, "name": "Restaurants"}], "fax_number": null, "expansion": {"count": null, "uri": null}, "impression_id": "000b000000c919d6b630234029a4b9b99c41192044", "profile": "http://www.citysearch.com/profile/604269872/smyrna_ga/lucky_13_pizzeria.html", "address": {"city": "Smyrna", "state": "GA", "street": "2517 Spring Rd SE 100", "postal_code": "30080"}, "capProviderId": null, "distance": null, "has_offers": false, "name": "Lucky 13 Pizzeria", "longitude": -84.480515, "has_menu": true, "awards": null, "user_review_count": 12}, {"business_operation_status": 1, "rating": 9.0, "neighborhood": null, "image": "http://images.citysearch.net/assets/imgdb/ef/a3/36/3f/72/e0/46/d2/a5/32/ec/67/52/38/3e/3f.png", "scorecard": null, "featured": false, "sample_categories": "Restaurants, Greek, Pizza, MasterCard, Visa", "public_id": "christos-pizza-marietta", "id": 2910558, "votes": null, "tagline": "Serving Atlanta's best pizza & greek cuisine since 1981", "has_video": false, "website": "http://www.citysearch.com/profile/external/2910558/marietta_ga/christos_pizza.html", "offers": null, "latitude": 33.92306, "politanName": "Atlanta, GA Metro ", "phone_number": "7709521965", "tags": [{"primary": false, "id": 1722, "name": "Restaurants"}, {"primary": false, "id": 11299, "name": "Pizza"}, {"primary": false, "id": 11361, "name": "MasterCard"}, {"primary": false, "id": 11382, "name": "Visa"}, {"primary": true, "id": 11268, "name": "Greek"}], "fax_number": null, "expansion": {"count": null, "uri": null}, "impression_id": "000b0000008d31f26ef0eb4d7e9232a14e6286e8ac", "profile": "http://www.citysearch.com/profile/2910558/marietta_ga/christos_pizza.html", "address": {"city": "Marietta", "state": "GA", "street": "2900 Delk Rd SE Ste 1700", "postal_code": "30067"}, "capProviderId": null, "distance": null, "has_offers": false, "name": "Christos' Pizza", "longitude": -84.467405, "has_menu": true, "awards": null, "user_review_count": 21}, {"business_operation_status": 1, "rating": 10.0, "neighborhood": null, "image": "http://images.citysearch.net/assets/imgdb/merchant/2010/11/9/0/CrLmmmpZ212.jpeg", "scorecard": null, "featured": false, "sample_categories": "Restaurants, Corporate Catering, Catering, Delis And Delicatessens, Sandwich Shops", "public_id": "baldinos-giant-jersey-subs-marietta-2", "id": 2909705, "votes": null, "tagline": "Atlanta's Best Kept Sandwich and Sub Secret - Also Serving Marietta Area!", "has_video": false, "website": "http://www.citysearch.com/profile/external/2909705/marietta_ga/baldinos_giant_jersey_subs.html", "offers": "Home of the Daily Special - $3.49!", "latitude": 33.949818, "politanName": "Atlanta, GA Metro ", "phone_number": "7703211177", "tags": [{"primary": false, "id": 13670, "name": "Corporate Catering"}, {"primary": false, "id": 1705, "name": "Catering"}, {"primary": false, "id": 1727, "name": "Delis And Delicatessens"}, {"primary": false, "id": 1736, "name": "Sandwich Shops"}, {"primary": false, "id": 11189, "name": "New American"}, {"primary": false, "id": 11199, "name": "Fast Food"}, {"primary": false, "id": 11231, "name": "$"}, {"primary": false, "id": 11247, "name": "Carry Out"}, {"primary": false, "id": 11249, "name": "Cheap Eats"}, {"primary": false, "id": 11262, "name": "Family Style Dining"}, {"primary": false, "id": 11263, "name": "Family-Friendly Dining"}, {"primary": false, "id": 11279, "name": "Italian"}, {"primary": false, "id": 11286, "name": "Lunch Spot"}, {"primary": false, "id": 11333, "name": "American Express"}, {"primary": false, "id": 11339, "name": "Cash"}, {"primary": false, "id": 11349, "name": "Discover"}, {"primary": false, "id": 11361, "name": "MasterCard"}, {"primary": false, "id": 11369, "name": "Parking Lot"}, {"primary": false, "id": 11382, "name": "Visa"}, {"primary": true, "id": 1722, "name": "Restaurants"}], "fax_number": null, "expansion": {"count": null, "uri": null}, "impression_id": "000b0000002a06bc9aa4094dbe881a56f52943c2e7", "profile": "http://www.citysearch.com/profile/2909705/marietta_ga/baldinos_giant_jersey_subs.html", "address": {"city": "Marietta", "state": "GA", "street": "80 Powers Ferry Rd Se", "postal_code": "30067"}, "capProviderId": null, "distance": null, "has_offers": true, "name": "Baldinos Giant Jersey Subs", "longitude": -84.511122, "has_menu": true, "awards": null, "user_review_count": 4}, {"business_operation_status": 1, "rating": 10.0, "neighborhood": null, "image": "http://images.citysearch.net/assets/imgdb/merchant/2011/1/20/0/UsWNQgew42.jpeg", "scorecard": null, "featured": false, "sample_categories": "Catering, Restaurants, Pizza, Carry Out, Italian", "public_id": "johnnys-new-york-style-pizza-kennesaw", "id": 622133260, "votes": null, "tagline": "Your Neighborhood Pizzeria in Kennesaw, GA", "has_video": false, "website": null, "offers": "Lunch Specials, $5 off any orders over $25 ", "latitude": 33.99449, "politanName": "Atlanta, GA Metro ", "phone_number": "6789960911", "tags": [{"primary": false, "id": 1705, "name": "Catering"}, {"primary": false, "id": 1722, "name": "Restaurants"}, {"primary": false, "id": 11247, "name": "Carry Out"}, {"primary": false, "id": 11279, "name": "Italian"}, {"primary": false, "id": 11286, "name": "Lunch Spot"}, {"primary": false, "id": 12821, "name": "Casual Date Spot"}, {"primary": false, "id": 12822, "name": "Dining Discounts"}, {"primary": true, "id": 11299, "name": "Pizza"}], "fax_number": null, "expansion": {"count": null, "uri": null}, "impression_id": "000b000000f755417a2db640648f05a765db986bf6", "profile": "http://www.citysearch.com/profile/622133260/kennesaw_ga/johnny_s_new_york_style_pizza.html", "address": {"city": "Kennesaw", "state": "GA", "street": "1615 Ridenour Blvd NW", "postal_code": "30152"}, "capProviderId": null, "distance": null, "has_offers": true, "name": "Johnny's New York Style Pizza", "longitude": -84.592515, "has_menu": true, "awards": null, "user_review_count": 3}], "histograms": [], "tag_ids": [1722], "uri": "http://api.citygridmedia.com:8080/search/places/v2/search/where?has_offers=false&type=restaurant&format=json&page=5&where=30062&rpp=50&histograms=false&publisher=10000009598&region_type=circle", "did_you_mean": "", "regions": [{"latitude": 34.001368, "default_radius": 5.22, "type": "postal_code", "name": "30062", "longitude": -84.466397}], "call_id": "000b00000093adf1d9f6814345baac07b12fdd6393", "first_hit": 201, "total_hits": 2160, "geo_ids": [26292], "page": 5, "last_hit": 250}}