{"results": {"rpp": 50, "locations": [{"business_operation_status": 1, "rating": null, "neighborhood": null, "image": null, "scorecard": null, "featured": false, "sample_categories": "Restaurants, Asian", "public_id": "asia-buffet-marietta", "id": 713444490, "votes": null, "tagline": null, "has_video": false, "website": null, "offers": null, "latitude": 33.921568, "politanName": "Atlanta, GA Metro ", "phone_number": "7706358309", "tags": [{"primary": false, "id": 11235, "name": "Asian"}, {"primary": true, "id": 1722, "name": "Restaurants"}], "fax_number": null, "expansion": {"count": null, "uri": null}, "impression_id": "000b00000036f2e95a294f404ba96284bf4feec750", "profile": "http://www.citysearch.com/profile/713444490/marietta_ga/asia_buffet.html", "address": {"city": "Marietta", "state": "GA", "street": "1177 Bellemeade Dr Sw", "postal_code": "30008"}, "capProviderId": null, "distance": null, "has_offers": false, "name": "Asia Buffet", "longitude": -84.574372, "has_menu": false, "awards": null, "user_review_count": 0}, {"business_operation_status": 1, "rating": null, "neighborhood": null, "image": null, "scorecard": null, "featured": false, "sample_categories": "Ice Cream Parlors", "public_id": "yogurt-fresco-acworth", "id": 713649060, "votes": null, "tagline": null, "has_video": false, "website": null, "offers": null, "latitude": 33.998646, "politanName": "Atlanta, GA Metro ", "phone_number": "7704227979", "tags": [{"primary": true, "id": 1730, "name": "Ice Cream Parlors"}], "fax_number": null, "expansion": {"count": null, "uri": null}, "impression_id": "000b00000066977153cec04032abfe61810a92d203", "profile": "http://www.citysearch.com/profile/713649060/acworth_ga/yogurt_fresco.html", "address": {"city": "Acworth", "state": "GA", "street": "5340 Brookstone Dr NW", "postal_code": "30101"}, "capProviderId": null, "distance": null, "has_offers": false, "name": "Yogurt Fresco", "longitude": -84.707915, "has_menu": false, "awards": null, "user_review_count": 0}, {"business_operation_status": 1, "rating": null, "neighborhood": null, "image": null, "scorecard": null, "featured": false, "sample_categories": "Restaurants", "public_id": "asian-grill-marietta", "id": 813218910, "votes": null, "tagline": null, "has_video": false, "website": null, "offers": null, "latitude": 33.948939, "politanName": "Atlanta, GA Metro ", "phone_number": "6785602037", "tags": [{"primary": true, "id": 1722, "name": "Restaurants"}], "fax_number": null, "expansion": {"count": null, "uri": null}, "impression_id": "000b00000015aca02594b94698800f8294e0cefc97", "profile": "http://www.citysearch.com/profile/813218910/marietta_ga/asian_grill.html", "address": {"city": "Marietta", "state": "GA", "street": "279 Powers Ferry Rd SE # F", "postal_code": "30067"}, "capProviderId": null, "distance": null, "has_offers": false, "name": "Asian Grill", "longitude": -84.503582, "has_menu": false, "awards": null, "user_review_count": 0}, {"business_operation_status": 1, "rating": null, "neighborhood": null, "image": null, "scorecard": null, "featured": false, "sample_categories": "Restaurants", "public_id": "vuelve-a-la-vida-marietta", "id": 814278210, "votes": null, "tagline": null, "has_video": false, "website": null, "offers": null, "latitude": 33.904786, "politanName": "Atlanta, GA Metro ", "phone_number": "7708019450", "tags": [{"primary": true, "id": 1722, "name": "Restaurants"}], "fax_number": null, "expansion": {"count": null, "uri": null}, "impression_id": "000b000000a5a9b43f5fcc43fa9d61ba40b7507b47", "profile": "http://www.citysearch.com/profile/814278210/marietta_ga/vuelve_a_la_vida.html", "address": {"city": "Marietta", "state": "GA", "street": "1991 S Cobb Dr SE", "postal_code": "30060"}, "capProviderId": null, "distance": null, "has_offers": false, "name": "Vuelve A La Vida", "longitude": -84.542421, "has_menu": true, "awards": null, "user_review_count": 0}, {"business_operation_status": 1, "rating": null, "neighborhood": null, "image": null, "scorecard": null, "featured": false, "sample_categories": "Restaurants, Bars & Clubs", "public_id": "ronnie-johns-beach-cafe-marietta", "id": 732176830, "votes": null, "tagline": null, "has_video": false, "website": "http://www.citysearch.com/profile/external/732176830/marietta_ga/ronnie_johns_beach_cafe.html", "offers": null, "latitude": 33.997727, "politanName": "Atlanta, GA Metro ", "phone_number": "7703565251", "tags": [{"primary": false, "id": 164, "name": "Bars & Clubs"}, {"primary": true, "id": 1722, "name": "Restaurants"}], "fax_number": null, "expansion": {"count": null, "uri": null}, "impression_id": "000b0000008397ee5dc5284a20a70d35a16ebc129f", "profile": "http://www.citysearch.com/profile/732176830/marietta_ga/ronnie_johns_beach_cafe.html", "address": {"city": "Marietta", "state": "GA", "street": "1951 Canton Rd # 330", "postal_code": "30066"}, "capProviderId": null, "distance": null, "has_offers": false, "name": "Ronnie Johns Beach Cafe", "longitude": -84.525055, "has_menu": false, "awards": null, "user_review_count": 0}, {"business_operation_status": 1, "rating": null, "neighborhood": null, "image": null, "scorecard": null, "featured": false, "sample_categories": "Restaurants, Barbecue Restaurants", "public_id": "dickeys-barbecue-pit-kennesaw", "id": 732187360, "votes": null, "tagline": null, "has_video": false, "website": "http://www.citysearch.com/profile/external/732187360/kennesaw_ga/dickey_s_barbecue_pit.html", "offers": null, "latitude": 33.994278, "politanName": "Atlanta, GA Metro ", "phone_number": "7704277655", "tags": [{"primary": false, "id": 1724, "name": "Barbecue Restaurants"}, {"primary": true, "id": 1722, "name": "Restaurants"}], "fax_number": null, "expansion": {"count": null, "uri": null}, "impression_id": "000b0000000367a93cfccf4a2f941390486e9ec3c4", "profile": "http://www.citysearch.com/profile/732187360/kennesaw_ga/dickey_s_barbecue_pit.html", "address": {"city": "Kennesaw", "state": "GA", "street": "1610 Ridenour Blvd NW", "postal_code": "30152"}, "capProviderId": null, "distance": null, "has_offers": false, "name": "Dickey's Barbecue Pit", "longitude": -84.592498, "has_menu": true, "awards": null, "user_review_count": 0}, {"business_operation_status": 1, "rating": null, "neighborhood": null, "image": null, "scorecard": null, "featured": false, "sample_categories": "Restaurants", "public_id": "restaurant-industry-consultant-marietta", "id": 757964760, "votes": null, "tagline": null, "has_video": false, "website": null, "offers": null, "latitude": 33.858788, "politanName": "Atlanta, GA Metro ", "phone_number": "4046450430", "tags": [{"primary": true, "id": 1722, "name": "Restaurants"}], "fax_number": null, "expansion": {"count": null, "uri": null}, "impression_id": "000b0000005b83b5de6cee42fdb1efd51ecd6143f3", "profile": "http://www.citysearch.com/profile/757964760/marietta_ga/restaurant_industry_consultant.html", "address": {"city": "Marietta", "state": "GA", "street": "2040 Indian Springs Dr SW", "postal_code": "30008"}, "capProviderId": null, "distance": null, "has_offers": false, "name": "Restaurant Industry Consultant", "longitude": -84.613932, "has_menu": false, "awards": null, "user_review_count": 0}, {"business_operation_status": 1, "rating": null, "neighborhood": null, "image": null, "scorecard": null, "featured": false, "sample_categories": "Doughnut Shops", "public_id": "paradise-donuts-of-ga-llc-dallas", "id": 764878810, "votes": null, "tagline": null, "has_video": false, "website": "http://www.citysearch.com/profile/external/764878810/dallas_ga/paradise_donuts_of_ga_llc.html", "offers": null, "latitude": 34.002114, "politanName": "Atlanta, GA Metro ", "phone_number": "7709668977", "tags": [{"primary": true, "id": 1734, "name": "Doughnut Shops"}], "fax_number": null, "expansion": {"count": null, "uri": null}, "impression_id": "000b000000ba636ea2c3eb48c98dd5699bb507b905", "profile": "http://www.citysearch.com/profile/764878810/dallas_ga/paradise_donuts_of_ga_llc.html", "address": {"city": "Dallas", "state": "GA", "street": "8492 Hiram Acworth Hwy", "postal_code": "30157"}, "capProviderId": null, "distance": null, "has_offers": false, "name": "Paradise Donuts of Ga LLC", "longitude": -84.751276, "has_menu": true, "awards": null, "user_review_count": 1}, {"business_operation_status": 1, "rating": null, "neighborhood": null, "image": null, "scorecard": null, "featured": false, "sample_categories": "Restaurants", "public_id": "east-meets-west-austell", "id": 764918680, "votes": null, "tagline": null, "has_video": false, "website": null, "offers": null, "latitude": 33.831253, "politanName": "Atlanta, GA Metro ", "phone_number": "7709481451", "tags": [{"primary": true, "id": 1722, "name": "Restaurants"}], "fax_number": null, "expansion": {"count": null, "uri": null}, "impression_id": "000b0000005af8a175d6c144719373497ad67ec1fd", "profile": "http://www.citysearch.com/profile/764918680/austell_ga/east_meets_west.html", "address": {"city": "Austell", "state": "GA", "street": "5010 Flint Hill Rd", "postal_code": "30106"}, "capProviderId": null, "distance": null, "has_offers": false, "name": "East Meets West", "longitude": -84.624253, "has_menu": false, "awards": null, "user_review_count": 0}, {"business_operation_status": 1, "rating": null, "neighborhood": null, "image": null, "scorecard": null, "featured": false, "sample_categories": "Restaurants, Barbecue Restaurants, Carry Out, Pizza", "public_id": "wing-street-marietta", "id": 764937850, "votes": null, "tagline": null, "has_video": false, "website": "http://www.citysearch.com/profile/external/764937850/marietta_ga/wing_street.html", "offers": null, "latitude": 34.012753, "politanName": "Atlanta, GA Metro ", "phone_number": "7705784200", "tags": [{"primary": false, "id": 1724, "name": "Barbecue Restaurants"}, {"primary": false, "id": 11247, "name": "Carry Out"}, {"primary": false, "id": 11299, "name": "Pizza"}, {"primary": true, "id": 1722, "name": "Restaurants"}], "fax_number": null, "expansion": {"count": null, "uri": null}, "impression_id": "000b000000ed7ea791f36d43e5b1e7dcf528102a36", "profile": "http://www.citysearch.com/profile/764937850/marietta_ga/wing_street.html", "address": {"city": "Marietta", "state": "GA", "street": "2565 E Piedmont Rd", "postal_code": "30062"}, "capProviderId": null, "distance": null, "has_offers": false, "name": "Wing Street", "longitude": -84.494027, "has_menu": false, "awards": null, "user_review_count": 0}, {"business_operation_status": 1, "rating": null, "neighborhood": null, "image": null, "scorecard": null, "featured": false, "sample_categories": "Delis And Delicatessens", "public_id": "american-deli-austell", "id": 764886810, "votes": null, "tagline": null, "has_video": false, "website": null, "offers": null, "latitude": 33.856949, "politanName": "Atlanta, GA Metro ", "phone_number": "7708018888", "tags": [{"primary": true, "id": 1727, "name": "Delis And Delicatessens"}], "fax_number": null, "expansion": {"count": null, "uri": null}, "impression_id": "000b000000eaf6889e642743e18b990f6f4cb1a772", "profile": "http://www.citysearch.com/profile/764886810/austell_ga/american_deli.html", "address": {"city": "Austell", "state": "GA", "street": "3961 Floyd Rd", "postal_code": "30106"}, "capProviderId": null, "distance": null, "has_offers": false, "name": "American Deli", "longitude": -84.590442, "has_menu": false, "awards": null, "user_review_count": 0}, {"business_operation_status": 1, "rating": null, "neighborhood": null, "image": null, "scorecard": null, "featured": false, "sample_categories": "Restaurants, MasterCard, Visa", "public_id": "windy-city-grill-marietta", "id": 764935950, "votes": null, "tagline": null, "has_video": false, "website": "http://www.citysearch.com/profile/external/764935950/marietta_ga/windy_city_grill.html", "offers": null, "latitude": 34.048278, "politanName": "Atlanta, GA Metro ", "phone_number": "6784017735", "tags": [{"primary": false, "id": 11361, "name": "MasterCard"}, {"primary": false, "id": 11382, "name": "Visa"}, {"primary": true, "id": 1722, "name": "Restaurants"}], "fax_number": null, "expansion": {"count": null, "uri": null}, "impression_id": "000b0000003ca002b368f54340bbdc2aa121ed05e6", "profile": "http://www.citysearch.com/profile/764935950/marietta_ga/windy_city_grill.html", "address": {"city": "Marietta", "state": "GA", "street": "4017 Canton Rd", "postal_code": "30066"}, "capProviderId": null, "distance": null, "has_offers": false, "name": "Windy City Grill", "longitude": -84.52851, "has_menu": false, "awards": null, "user_review_count": 0}, {"business_operation_status": 1, "rating": null, "neighborhood": null, "image": null, "scorecard": null, "featured": false, "sample_categories": "Restaurants, Traditional American", "public_id": "red-eyed-mule-marietta", "id": 655819920, "votes": null, "tagline": null, "has_video": false, "website": "http://www.citysearch.com/profile/external/655819920/marietta_ga/red_eyed_mule.html", "offers": null, "latitude": 33.974961, "politanName": "Atlanta, GA Metro ", "phone_number": "6788094546", "tags": [{"primary": false, "id": 11190, "name": "Traditional American"}, {"primary": true, "id": 1722, "name": "Restaurants"}], "fax_number": null, "expansion": {"count": null, "uri": null}, "impression_id": "000b000000423c39c907d84b589a78f1f62780f457", "profile": "http://www.citysearch.com/profile/655819920/marietta_ga/red_eyed_mule.html", "address": {"city": "Marietta", "state": "GA", "street": "1405 Church Street Ext Ne", "postal_code": "30060"}, "capProviderId": null, "distance": null, "has_offers": false, "name": "Red Eyed Mule", "longitude": -84.552997, "has_menu": true, "awards": null, "user_review_count": 0}, {"business_operation_status": 0, "rating": null, "neighborhood": null, "image": null, "scorecard": null, "featured": false, "sample_categories": "Restaurants", "public_id": "montana-waffle-co-marietta", "id": 775224500, "votes": null, "tagline": null, "has_video": false, "website": null, "offers": null, "latitude": 33.972274, "politanName": "Atlanta, GA Metro ", "phone_number": "7702182707", "tags": [{"primary": true, "id": 1722, "name": "Restaurants"}], "fax_number": null, "expansion": {"count": null, "uri": null}, "impression_id": "000b0000004afba389cba246b7a3dbd92a29e17fab", "profile": "http://www.citysearch.com/profile/775224500/marietta_ga/montana_waffle_co.html", "address": {"city": "Marietta", "state": "GA", "street": "140 Vann St NE", "postal_code": "30060"}, "capProviderId": null, "distance": null, "has_offers": false, "name": "Montana Waffle Co", "longitude": -84.548786, "has_menu": false, "awards": null, "user_review_count": 0}, {"business_operation_status": 0, "rating": null, "neighborhood": null, "image": null, "scorecard": null, "featured": false, "sample_categories": "Ice Cream Parlors", "public_id": "la-michoacana-helados-marietta", "id": 779703880, "votes": null, "tagline": null, "has_video": false, "website": null, "offers": null, "latitude": 33.904406, "politanName": "Atlanta, GA Metro ", "phone_number": "4049179790", "tags": [{"primary": true, "id": 1730, "name": "Ice Cream Parlors"}], "fax_number": null, "expansion": {"count": null, "uri": null}, "impression_id": "000b00000026ed2d4d4e8b49b8be913657bac4d0b8", "profile": "http://www.citysearch.com/profile/779703880/marietta_ga/la_michoacana_helados.html", "address": {"city": "Marietta", "state": "GA", "street": "334 Dink Ln Se", "postal_code": "30060"}, "capProviderId": null, "distance": null, "has_offers": false, "name": "La Michoacana Helados", "longitude": -84.542831, "has_menu": false, "awards": null, "user_review_count": 0}, {"business_operation_status": 1, "rating": null, "neighborhood": null, "image": null, "scorecard": null, "featured": false, "sample_categories": "Restaurants, Mexican", "public_id": "jumping-beans-marietta", "id": 681338130, "votes": null, "tagline": null, "has_video": false, "website": null, "offers": null, "latitude": 33.951322, "politanName": "Atlanta, GA Metro ", "phone_number": "7704209092", "tags": [{"primary": false, "id": 11208, "name": "Mexican"}, {"primary": true, "id": 1722, "name": "Restaurants"}], "fax_number": null, "expansion": {"count": null, "uri": null}, "impression_id": "000b0000007e00af2b2718411f9ca3fb56b16b00df", "profile": "http://www.citysearch.com/profile/681338130/marietta_ga/jumping_beans.html", "address": {"city": "Marietta", "state": "GA", "street": "749 Roswell St NE", "postal_code": "30060"}, "capProviderId": null, "distance": null, "has_offers": false, "name": "Jumping Beans", "longitude": -84.530069, "has_menu": false, "awards": null, "user_review_count": 0}, {"business_operation_status": 1, "rating": null, "neighborhood": null, "image": null, "scorecard": null, "featured": false, "sample_categories": "Restaurants, Bars & Clubs, American Express, Discover, MasterCard", "public_id": "hemingways-marietta", "id": 682627370, "votes": null, "tagline": null, "has_video": false, "website": "http://www.citysearch.com/profile/external/682627370/marietta_ga/hemingway_s.html", "offers": null, "latitude": 33.952683, "politanName": "Atlanta, GA Metro ", "phone_number": "7704275445", "tags": [{"primary": false, "id": 164, "name": "Bars & Clubs"}, {"primary": false, "id": 11333, "name": "American Express"}, {"primary": false, "id": 11349, "name": "Discover"}, {"primary": false, "id": 11361, "name": "MasterCard"}, {"primary": false, "id": 11382, "name": "Visa"}, {"primary": true, "id": 1722, "name": "Restaurants"}], "fax_number": null, "expansion": {"count": null, "uri": null}, "impression_id": "000b000000d770c84afab44524a0660c2abcece6e6", "profile": "http://www.citysearch.com/profile/682627370/marietta_ga/hemingway_s.html", "address": {"city": "Marietta", "state": "GA", "street": "29 W Park Sq Ne", "postal_code": "30060"}, "capProviderId": null, "distance": null, "has_offers": false, "name": "Hemingway's", "longitude": -84.550462, "has_menu": true, "awards": null, "user_review_count": 12}, {"business_operation_status": 1, "rating": null, "neighborhood": null, "image": null, "scorecard": null, "featured": false, "sample_categories": "Ice Cream Parlors", "public_id": "jimmies-ice-cream-co-marietta", "id": 802518500, "votes": null, "tagline": null, "has_video": false, "website": null, "offers": null, "latitude": 34.013992, "politanName": "Atlanta, GA Metro ", "phone_number": "7706720051", "tags": [{"primary": true, "id": 1730, "name": "Ice Cream Parlors"}], "fax_number": null, "expansion": {"count": null, "uri": null}, "impression_id": "000b0000004746e47055654fad82ad692097a44aa0", "profile": "http://www.citysearch.com/profile/802518500/marietta_ga/jimmie_s_ice_cream_co.html", "address": {"city": "Marietta", "state": "GA", "street": "2595 Sandy Plains Rd", "postal_code": "30066"}, "capProviderId": null, "distance": null, "has_offers": false, "name": "Jimmie's Ice Cream Co", "longitude": -84.495703, "has_menu": false, "awards": null, "user_review_count": 0}, {"business_operation_status": 1, "rating": null, "neighborhood": null, "image": null, "scorecard": null, "featured": false, "sample_categories": "Restaurants, Barbecue Restaurants", "public_id": "a-town-wings-austell", "id": 706970640, "votes": null, "tagline": null, "has_video": false, "website": null, "offers": null, "latitude": 33.856339, "politanName": "Atlanta, GA Metro ", "phone_number": "7709419460", "tags": [{"primary": false, "id": 1724, "name": "Barbecue Restaurants"}, {"primary": true, "id": 1722, "name": "Restaurants"}], "fax_number": null, "expansion": {"count": null, "uri": null}, "impression_id": "000b0000007b2db3a8244b4b7d9e7227346a0cdfaa", "profile": "http://www.citysearch.com/profile/706970640/austell_ga/a_town_wings.html", "address": {"city": "Austell", "state": "GA", "street": "3999 Austell Rd # 1001", "postal_code": "30106"}, "capProviderId": null, "distance": null, "has_offers": false, "name": "A Town Wings", "longitude": -84.599753, "has_menu": false, "awards": null, "user_review_count": 0}, {"business_operation_status": 1, "rating": null, "neighborhood": null, "image": null, "scorecard": null, "featured": false, "sample_categories": "Restaurants", "public_id": "aramark-marietta-2", "id": 805946400, "votes": null, "tagline": null, "has_video": false, "website": null, "offers": null, "latitude": 33.984208, "politanName": "Atlanta, GA Metro ", "phone_number": "7705785577", "tags": [{"primary": true, "id": 1722, "name": "Restaurants"}], "fax_number": null, "expansion": {"count": null, "uri": null}, "impression_id": "000b00000030f7c67de15847eaa42ae679dc0be8c4", "profile": "http://www.citysearch.com/profile/805946400/marietta_ga/aramark.html", "address": {"city": "Marietta", "state": "GA", "street": "901 Sawyer Rd", "postal_code": "30062"}, "capProviderId": null, "distance": null, "has_offers": false, "name": "Aramark", "longitude": -84.529003, "has_menu": false, "awards": null, "user_review_count": 0}, {"business_operation_status": 0, "rating": null, "neighborhood": null, "image": null, "scorecard": null, "featured": false, "sample_categories": "Restaurants, Delis And Delicatessens, American Express, Debit Card, Discover", "public_id": "lennys-sub-shop-marietta", "id": 732210960, "votes": null, "tagline": null, "has_video": false, "website": null, "offers": null, "latitude": 33.946428, "politanName": "Atlanta, GA Metro ", "phone_number": "6785946940", "tags": [{"primary": false, "id": 1727, "name": "Delis And Delicatessens"}, {"primary": false, "id": 11333, "name": "American Express"}, {"primary": false, "id": 11347, "name": "Debit Card"}, {"primary": false, "id": 11349, "name": "Discover"}, {"primary": false, "id": 11361, "name": "MasterCard"}, {"primary": false, "id": 11382, "name": "Visa"}, {"primary": true, "id": 1722, "name": "Restaurants"}], "fax_number": null, "expansion": {"count": null, "uri": null}, "impression_id": "000b000000b314c2a8d7fd4390a4bc714292743c66", "profile": "http://www.citysearch.com/profile/732210960/marietta_ga/lenny_s_sub_shop.html", "address": {"city": "Marietta", "state": "GA", "street": "270 Cobb Pkwy S", "postal_code": "30060"}, "capProviderId": null, "distance": null, "has_offers": false, "name": "Lenny's Sub Shop", "longitude": -84.520358, "has_menu": false, "awards": null, "user_review_count": 0}, {"business_operation_status": 1, "rating": null, "neighborhood": null, "image": null, "scorecard": null, "featured": false, "sample_categories": "Restaurants, Bars & Pubs, Carry Out", "public_id": "chilis-grill-bar-marietta-4", "id": 764886130, "votes": null, "tagline": null, "has_video": false, "website": null, "offers": null, "latitude": 33.939526, "politanName": "Atlanta, GA Metro ", "phone_number": "7704230897", "tags": [{"primary": false, "id": 1686, "name": "Bars & Pubs"}, {"primary": false, "id": 11247, "name": "Carry Out"}, {"primary": true, "id": 1722, "name": "Restaurants"}], "fax_number": null, "expansion": {"count": null, "uri": null}, "impression_id": "000b000000ddcaeaa20c4c44b8ad2c584720d3a8e3", "profile": "http://www.citysearch.com/profile/764886130/marietta_ga/chili_s_grill_bar.html", "address": {"city": "Marietta", "state": "GA", "street": "555 Commerce Ave SE", "postal_code": "30067"}, "capProviderId": null, "distance": null, "has_offers": false, "name": "Chili's Grill & Bar", "longitude": -84.506501, "has_menu": false, "awards": null, "user_review_count": 0}, {"business_operation_status": 1, "rating": null, "neighborhood": null, "image": null, "scorecard": null, "featured": false, "sample_categories": "Grocery Stores, Restaurants", "public_id": "royal-groceries-rstrnt-llc-marietta", "id": 764910880, "votes": null, "tagline": null, "has_video": false, "website": null, "offers": null, "latitude": 33.95073, "politanName": "Atlanta, GA Metro ", "phone_number": "7709738414", "tags": [{"primary": false, "id": 1722, "name": "Restaurants"}, {"primary": true, "id": 1713, "name": "Grocery Stores"}], "fax_number": null, "expansion": {"count": null, "uri": null}, "impression_id": "000b0000009b1085ff29fc40ceb7dc56e4a728c7c6", "profile": "http://www.citysearch.com/profile/764910880/marietta_ga/royal_groceries_rstrnt_llc.html", "address": {"city": "Marietta", "state": "GA", "street": "1392 Roswell Rd", "postal_code": "30062"}, "capProviderId": null, "distance": null, "has_offers": false, "name": "Royal Groceries & Rstrnt Llc", "longitude": -84.511253, "has_menu": false, "awards": null, "user_review_count": 0}, {"business_operation_status": 1, "rating": null, "neighborhood": null, "image": null, "scorecard": null, "featured": false, "sample_categories": "Restaurants, Pizza", "public_id": "pisanos-pizzeria-kennesaw", "id": 775204020, "votes": null, "tagline": null, "has_video": false, "website": null, "offers": null, "latitude": 34.02042, "politanName": "Atlanta, GA Metro ", "phone_number": "7709190518", "tags": [{"primary": false, "id": 11299, "name": "Pizza"}, {"primary": true, "id": 1722, "name": "Restaurants"}], "fax_number": null, "expansion": {"count": null, "uri": null}, "impression_id": "000b000000fccd800d5c42422985d2d3e2075de0f7", "profile": "http://www.citysearch.com/profile/775204020/kennesaw_ga/pisano_s_pizzeria.html", "address": {"city": "Kennesaw", "state": "GA", "street": "2740 Summers St NW", "postal_code": "30144"}, "capProviderId": null, "distance": null, "has_offers": false, "name": "Pisano's Pizzeria", "longitude": -84.614265, "has_menu": true, "awards": null, "user_review_count": 0}, {"business_operation_status": 1, "rating": null, "neighborhood": null, "image": null, "scorecard": null, "featured": false, "sample_categories": "Restaurants, Traditional American", "public_id": "all-american-coney-island-dallas", "id": 781204740, "votes": null, "tagline": null, "has_video": false, "website": null, "offers": null, "latitude": 34.012752, "politanName": "Atlanta, GA Metro ", "phone_number": "6785058920", "tags": [{"primary": false, "id": 11190, "name": "Traditional American"}, {"primary": true, "id": 1722, "name": "Restaurants"}], "fax_number": null, "expansion": {"count": null, "uri": null}, "impression_id": "000b0000008f3c9c042fce489f9d74d26d55b980cd", "profile": "http://www.citysearch.com/profile/781204740/dallas_ga/all_american_coney_island.html", "address": {"city": "Dallas", "state": "GA", "street": "8879 Dallas Acworth Hwy", "postal_code": "30132"}, "capProviderId": null, "distance": null, "has_offers": false, "name": "All American Coney Island", "longitude": -84.754548, "has_menu": false, "awards": null, "user_review_count": 0}, {"business_operation_status": 1, "rating": null, "neighborhood": null, "image": null, "scorecard": null, "featured": false, "sample_categories": "Restaurants, Mexican", "public_id": "el-taco-azteco-bar-grill-marietta", "id": 779707060, "votes": null, "tagline": null, "has_video": false, "website": null, "offers": null, "latitude": 33.976739, "politanName": "Atlanta, GA Metro ", "phone_number": "6782752349", "tags": [{"primary": false, "id": 11208, "name": "Mexican"}, {"primary": true, "id": 1722, "name": "Restaurants"}], "fax_number": null, "expansion": {"count": null, "uri": null}, "impression_id": "000b00000099324e1080474fe288f79f4fbf0737ee", "profile": "http://www.citysearch.com/profile/779707060/marietta_ga/el_taco_azteco_bar_grill.html", "address": {"city": "Marietta", "state": "GA", "street": "1050 E Piedmont Rd", "postal_code": "30062"}, "capProviderId": null, "distance": null, "has_offers": false, "name": "El Taco Azteco Bar & Grill", "longitude": -84.479676, "has_menu": false, "awards": null, "user_review_count": 0}, {"business_operation_status": 1, "rating": null, "neighborhood": null, "image": null, "scorecard": null, "featured": false, "sample_categories": "Restaurants, Seafood", "public_id": "catfish-jims-seafood-chicken-kennesaw", "id": 779708410, "votes": null, "tagline": null, "has_video": false, "website": null, "offers": null, "latitude": 34.00159, "politanName": "Atlanta, GA Metro ", "phone_number": "6782908808", "tags": [{"primary": false, "id": 11228, "name": "Seafood"}, {"primary": true, "id": 1722, "name": "Restaurants"}], "fax_number": null, "expansion": {"count": null, "uri": null}, "impression_id": "000b0000002f2bdf87bf0e46d2a5bb6b8efafdebf0", "profile": "http://www.citysearch.com/profile/779708410/kennesaw_ga/catfish_jim_s_seafood_chicken.html", "address": {"city": "Kennesaw", "state": "GA", "street": "1997 Cobb Pkwy NW", "postal_code": "30152"}, "capProviderId": null, "distance": null, "has_offers": false, "name": "Catfish Jim's Seafood Chicken", "longitude": -84.597118, "has_menu": false, "awards": null, "user_review_count": 3}, {"business_operation_status": 1, "rating": null, "neighborhood": null, "image": null, "scorecard": null, "featured": false, "sample_categories": "Restaurants", "public_id": "karlas-kafe-acworth", "id": 764927070, "votes": null, "tagline": null, "has_video": false, "website": null, "offers": null, "latitude": 34.038484, "politanName": "Atlanta, GA Metro ", "phone_number": "6784584876", "tags": [{"primary": true, "id": 1722, "name": "Restaurants"}], "fax_number": null, "expansion": {"count": null, "uri": null}, "impression_id": "000b0000006f1651b7bdb246e4b2565158b7d5660b", "profile": "http://www.citysearch.com/profile/764927070/acworth_ga/karla_s_kafe.html", "address": {"city": "Acworth", "state": "GA", "street": "3459 Cobb Pkwy NW", "postal_code": "30101"}, "capProviderId": null, "distance": null, "has_offers": false, "name": "Karla's Kafe", "longitude": -84.691795, "has_menu": false, "awards": null, "user_review_count": 0}, {"business_operation_status": 1, "rating": null, "neighborhood": null, "image": null, "scorecard": null, "featured": false, "sample_categories": "Restaurants, Pizza", "public_id": "luckys-new-york-style-pizza-dallas", "id": 790692420, "votes": null, "tagline": null, "has_video": false, "website": null, "offers": null, "latitude": 34.027382, "politanName": "Atlanta, GA Metro ", "phone_number": "6785747499", "tags": [{"primary": false, "id": 11299, "name": "Pizza"}, {"primary": true, "id": 1722, "name": "Restaurants"}], "fax_number": null, "expansion": {"count": null, "uri": null}, "impression_id": "000b000000120350f48552410c84f4fe4fb29cc8ff", "profile": "http://www.citysearch.com/profile/790692420/dallas_ga/lucky_s_new_york_style_pizza.html", "address": {"city": "Dallas", "state": "GA", "street": "51 Seven Hills Blvd", "postal_code": "30132"}, "capProviderId": null, "distance": null, "has_offers": false, "name": "Lucky's New York Style Pizza", "longitude": -84.776854, "has_menu": false, "awards": null, "user_review_count": 0}, {"business_operation_status": 1, "rating": null, "neighborhood": null, "image": null, "scorecard": null, "featured": false, "sample_categories": "Restaurants", "public_id": "mablton-cafe-mableton", "id": 682238240, "votes": null, "tagline": null, "has_video": false, "website": null, "offers": null, "latitude": 33.817964, "politanName": "Atlanta, GA Metro ", "phone_number": "7709412233", "tags": [{"primary": true, "id": 1722, "name": "Restaurants"}], "fax_number": null, "expansion": {"count": null, "uri": null}, "impression_id": "000b0000004c8621960a58497d8b5011cbf0d2c4b2", "profile": "http://www.citysearch.com/profile/682238240/mableton_ga/mablton_cafe.html", "address": {"city": "Mableton", "state": "GA", "street": "5590 Mableton Pkwy Sw # 102", "postal_code": "30126"}, "capProviderId": null, "distance": null, "has_offers": false, "name": "Mablton Cafe", "longitude": -84.576041, "has_menu": false, "awards": null, "user_review_count": 0}, {"business_operation_status": 1, "rating": null, "neighborhood": null, "image": null, "scorecard": null, "featured": false, "sample_categories": "Restaurants, Traditional American, Carry Out, American Express, Discover", "public_id": "arbys-austell", "id": 682522910, "votes": null, "tagline": null, "has_video": false, "website": "http://www.citysearch.com/profile/external/682522910/austell_ga/arby_s.html", "offers": null, "latitude": 33.802759, "politanName": "Atlanta, GA Metro ", "phone_number": "7707390339", "tags": [{"primary": false, "id": 11190, "name": "Traditional American"}, {"primary": false, "id": 11247, "name": "Carry Out"}, {"primary": false, "id": 11333, "name": "American Express"}, {"primary": false, "id": 11349, "name": "Discover"}, {"primary": false, "id": 11361, "name": "MasterCard"}, {"primary": false, "id": 11382, "name": "Visa"}, {"primary": true, "id": 1722, "name": "Restaurants"}], "fax_number": null, "expansion": {"count": null, "uri": null}, "impression_id": "000b0000000afa4e4dbd8b4635adef51f1f89cfa43", "profile": "http://www.citysearch.com/profile/682522910/austell_ga/arby_s.html", "address": {"city": "Austell", "state": "GA", "street": "3060 Bankhead Hwy", "postal_code": "30168"}, "capProviderId": null, "distance": null, "has_offers": false, "name": "Arby's", "longitude": -84.638393, "has_menu": true, "awards": null, "user_review_count": 0}, {"business_operation_status": 1, "rating": null, "neighborhood": null, "image": null, "scorecard": null, "featured": false, "sample_categories": "Restaurants, Diners", "public_id": "cobb-diner-marietta", "id": 781263410, "votes": null, "tagline": null, "has_video": false, "website": null, "offers": null, "latitude": 33.950808, "politanName": "Atlanta, GA Metro ", "phone_number": "7705149700", "tags": [{"primary": false, "id": 1732, "name": "Diners"}, {"primary": true, "id": 1722, "name": "Restaurants"}], "fax_number": null, "expansion": {"count": null, "uri": null}, "impression_id": "000b00000070b674189549433cb3f48d2b41cd6f90", "profile": "http://www.citysearch.com/profile/781263410/marietta_ga/cobb_diner.html", "address": {"city": "Marietta", "state": "GA", "street": "749 Roswell St Ne", "postal_code": "30060"}, "capProviderId": null, "distance": null, "has_offers": false, "name": "Cobb Diner", "longitude": -84.53017, "has_menu": false, "awards": null, "user_review_count": 1}, {"business_operation_status": 1, "rating": null, "neighborhood": null, "image": null, "scorecard": null, "featured": false, "sample_categories": "Restaurants, Hamburgers, Shop Online", "public_id": "burgerfi-kennesaw-kennesaw", "id": 790773140, "votes": null, "tagline": null, "has_video": false, "website": "http://www.citysearch.com/profile/external/790773140/kennesaw_ga/burgerfi.html", "offers": null, "latitude": 34.023114, "politanName": "Atlanta, GA Metro ", "phone_number": "7706352800", "tags": [{"primary": false, "id": 11270, "name": "Hamburgers"}, {"primary": false, "id": 11375, "name": "Shop Online"}, {"primary": true, "id": 1722, "name": "Restaurants"}], "fax_number": null, "expansion": {"count": null, "uri": null}, "impression_id": "000b00000058933e4677214027ad26a5058e97372c", "profile": "http://www.citysearch.com/profile/790773140/kennesaw_ga/burgerfi.html", "address": {"city": "Kennesaw", "state": "GA", "street": "2844 S Main St NW", "postal_code": "30144"}, "capProviderId": null, "distance": null, "has_offers": false, "name": "BurgerFi", "longitude": -84.615261, "has_menu": false, "awards": null, "user_review_count": 0}, {"business_operation_status": 1, "rating": null, "neighborhood": null, "image": null, "scorecard": null, "featured": false, "sample_categories": "Restaurants, Barbecue Restaurants", "public_id": "birdies-wings-more-dallas", "id": 793298080, "votes": null, "tagline": null, "has_video": false, "website": "http://www.citysearch.com/profile/external/793298080/dallas_ga/birdie_s_wings_more.html", "offers": null, "latitude": 34.010309, "politanName": "Atlanta, GA Metro ", "phone_number": "6785747470", "tags": [{"primary": false, "id": 1724, "name": "Barbecue Restaurants"}, {"primary": true, "id": 1722, "name": "Restaurants"}], "fax_number": null, "expansion": {"count": null, "uri": null}, "impression_id": "000b00000095ad17b023aa45998b37b2220aecca08", "profile": "http://www.citysearch.com/profile/793298080/dallas_ga/birdie_s_wings_more.html", "address": {"city": "Dallas", "state": "GA", "street": "8876 Dallas Acworth Hwy", "postal_code": "30132"}, "capProviderId": null, "distance": null, "has_offers": false, "name": "Birdie's Wings & More", "longitude": -84.753348, "has_menu": false, "awards": null, "user_review_count": 0}, {"business_operation_status": 1, "rating": null, "neighborhood": null, "image": null, "scorecard": null, "featured": false, "sample_categories": "Delis And Delicatessens", "public_id": "kroger-deli-acworth-3", "id": 706509510, "votes": null, "tagline": null, "has_video": false, "website": "http://www.citysearch.com/profile/external/706509510/acworth_ga/kroger_deli.html", "offers": null, "latitude": 34.060456, "politanName": "Atlanta, GA Metro ", "phone_number": "7709758652", "tags": [{"primary": true, "id": 1727, "name": "Delis And Delicatessens"}], "fax_number": null, "expansion": {"count": null, "uri": null}, "impression_id": "000b000000ef5f70c1904c4c7a91389c5b3ea49c9a", "profile": "http://www.citysearch.com/profile/706509510/acworth_ga/kroger_deli.html", "address": {"city": "Acworth", "state": "GA", "street": "3330 Cobb Pkwy NW # 30", "postal_code": "30101"}, "capProviderId": null, "distance": null, "has_offers": false, "name": "Kroger Deli", "longitude": -84.721428, "has_menu": false, "awards": null, "user_review_count": 0}, {"business_operation_status": 1, "rating": null, "neighborhood": null, "image": null, "scorecard": null, "featured": false, "sample_categories": "Restaurants", "public_id": "international-restaurant-management-kennesaw", "id": 806008710, "votes": null, "tagline": null, "has_video": false, "website": null, "offers": null, "latitude": 33.984991, "politanName": "Atlanta, GA Metro ", "phone_number": "7702180369", "tags": [{"primary": true, "id": 1722, "name": "Restaurants"}], "fax_number": null, "expansion": {"count": null, "uri": null}, "impression_id": "000b000000c022f70a6fc24f2ead4742af33a78d8d", "profile": "http://www.citysearch.com/profile/806008710/kennesaw_ga/international_restaurant_management.html", "address": {"city": "Kennesaw", "state": "GA", "street": "3409 Paisley Trce NW", "postal_code": "30152"}, "capProviderId": null, "distance": null, "has_offers": false, "name": "International Restaurant Management", "longitude": -84.648405, "has_menu": false, "awards": null, "user_review_count": 0}, {"business_operation_status": 1, "rating": null, "neighborhood": null, "image": null, "scorecard": null, "featured": false, "sample_categories": "Restaurants", "public_id": "georgia-cuisine-bakery-dallas", "id": 806701170, "votes": null, "tagline": null, "has_video": false, "website": null, "offers": null, "latitude": 34.008729, "politanName": "Atlanta, GA Metro ", "phone_number": "7709665204", "tags": [{"primary": true, "id": 1722, "name": "Restaurants"}], "fax_number": null, "expansion": {"count": null, "uri": null}, "impression_id": "000b000000264b7ebc4dc64e119046d494f7071e77", "profile": "http://www.citysearch.com/profile/806701170/dallas_ga/georgia_cuisine_bakery.html", "address": {"city": "Dallas", "state": "GA", "street": "8492 Hiram Acworth Hwy", "postal_code": "30157"}, "capProviderId": null, "distance": null, "has_offers": false, "name": "Georgia Cuisine & Bakery", "longitude": -84.752437, "has_menu": false, "awards": null, "user_review_count": 0}, {"business_operation_status": 1, "rating": null, "neighborhood": null, "image": null, "scorecard": null, "featured": false, "sample_categories": "Restaurants, Asian, Chinese", "public_id": "hibachi-buffet-marietta", "id": 713488530, "votes": null, "tagline": null, "has_video": false, "website": "http://www.citysearch.com/profile/external/713488530/marietta_ga/hibachi_buffet.html", "offers": null, "latitude": 33.968527, "politanName": "Atlanta, GA Metro ", "phone_number": "7703218202", "tags": [{"primary": false, "id": 11235, "name": "Asian"}, {"primary": false, "id": 11252, "name": "Chinese"}, {"primary": true, "id": 1722, "name": "Restaurants"}], "fax_number": null, "expansion": {"count": null, "uri": null}, "impression_id": "000b000000b51555c2aeb44f46aac79d054cad1eca", "profile": "http://www.citysearch.com/profile/713488530/marietta_ga/hibachi_buffet.html", "address": {"city": "Marietta", "state": "GA", "street": "2145 Roswell Rd # 260", "postal_code": "30062"}, "capProviderId": null, "distance": null, "has_offers": false, "name": "Hibachi Buffet", "longitude": -84.491622, "has_menu": false, "awards": null, "user_review_count": 0}, {"business_operation_status": 1, "rating": 7.0, "neighborhood": null, "image": null, "scorecard": null, "featured": false, "sample_categories": "Restaurants, Chinese", "public_id": "mr-wok-chinese-delivery-marietta", "id": 2908288, "votes": null, "tagline": null, "has_video": false, "website": null, "offers": null, "latitude": 33.993514, "politanName": "Atlanta, GA Metro ", "phone_number": "7705141477", "tags": [{"primary": false, "id": 11252, "name": "Chinese"}, {"primary": true, "id": 1722, "name": "Restaurants"}], "fax_number": null, "expansion": {"count": null, "uri": null}, "impression_id": "000b000000a22b3c82ee764b5db9a66d295345caf7", "profile": "http://www.citysearch.com/profile/2908288/marietta_ga/mr_wok_chinese_delivery.html", "address": {"city": "Marietta", "state": "GA", "street": "1750 Bells Ferry Rd Ste B", "postal_code": "30066"}, "capProviderId": null, "distance": null, "has_offers": false, "name": "Mr Wok Chinese Delivery", "longitude": -84.549161, "has_menu": true, "awards": null, "user_review_count": 4}, {"business_operation_status": 1, "rating": null, "neighborhood": null, "image": null, "scorecard": null, "featured": false, "sample_categories": "Restaurants", "public_id": "american-cinema-group-inc-marietta", "id": 810463060, "votes": null, "tagline": null, "has_video": false, "website": null, "offers": null, "latitude": 33.952602, "politanName": "Atlanta, GA Metro ", "phone_number": "7709198182", "tags": [{"primary": true, "id": 1722, "name": "Restaurants"}], "fax_number": null, "expansion": {"count": null, "uri": null}, "impression_id": "000b00000039b01fc10a144f9f82eaa3779ee0d462", "profile": "http://www.citysearch.com/profile/810463060/marietta_ga/american_cinema_group_inc.html", "address": {"city": "Marietta", "state": "GA", "street": "4520 Blackwater Trl", "postal_code": "30066"}, "capProviderId": null, "distance": null, "has_offers": false, "name": "American Cinema Group Inc", "longitude": -84.549933, "has_menu": false, "awards": null, "user_review_count": 0}, {"business_operation_status": 1, "rating": null, "neighborhood": null, "image": null, "scorecard": null, "featured": false, "sample_categories": "Restaurants", "public_id": "new-china-express-inc-marietta", "id": 812363050, "votes": null, "tagline": null, "has_video": false, "website": null, "offers": null, "latitude": 33.890207, "politanName": "Atlanta, GA Metro ", "phone_number": "7704352211", "tags": [{"primary": true, "id": 1722, "name": "Restaurants"}], "fax_number": null, "expansion": {"count": null, "uri": null}, "impression_id": "000b000000a34ab2533cc64a4cbc489656bccf95d1", "profile": "http://www.citysearch.com/profile/812363050/marietta_ga/new_china_express_inc.html", "address": {"city": "Marietta", "state": "GA", "street": "2561 Austell Rd SW", "postal_code": "30008"}, "capProviderId": null, "distance": null, "has_offers": false, "name": "New China Express Inc", "longitude": -84.579023, "has_menu": true, "awards": null, "user_review_count": 0}, {"business_operation_status": 0, "rating": null, "neighborhood": null, "image": null, "scorecard": null, "featured": false, "sample_categories": "Ice Cream Parlors", "public_id": "clearview-ventures-kennesaw", "id": 732172070, "votes": null, "tagline": null, "has_video": false, "website": null, "offers": null, "latitude": 33.976849, "politanName": "Atlanta, GA Metro ", "phone_number": "7706178112", "tags": [{"primary": true, "id": 1730, "name": "Ice Cream Parlors"}], "fax_number": null, "expansion": {"count": null, "uri": null}, "impression_id": "000b000000da6854f873cd49f49ff22a931b343f73", "profile": "http://www.citysearch.com/profile/732172070/kennesaw_ga/clearview_ventures.html", "address": {"city": "Kennesaw", "state": "GA", "street": "985 Frog Leap Trl NW", "postal_code": "30152"}, "capProviderId": null, "distance": null, "has_offers": false, "name": "Clearview Ventures", "longitude": -84.607323, "has_menu": false, "awards": null, "user_review_count": 0}, {"business_operation_status": 1, "rating": null, "neighborhood": null, "image": null, "scorecard": null, "featured": false, "sample_categories": "Restaurants", "public_id": "farmers-basket-kennesaw", "id": 753236330, "votes": null, "tagline": null, "has_video": false, "website": null, "offers": null, "latitude": 34.019128, "politanName": "Atlanta, GA Metro ", "phone_number": "7707947442", "tags": [{"primary": true, "id": 1722, "name": "Restaurants"}], "fax_number": null, "expansion": {"count": null, "uri": null}, "impression_id": "000b0000004ab4b6bfd59a4661946429be01f9f9e8", "profile": "http://www.citysearch.com/profile/753236330/kennesaw_ga/farmers_basket.html", "address": {"city": "Kennesaw", "state": "GA", "street": "400 Ernest W Barrett Pkwy NW", "postal_code": "30144"}, "capProviderId": null, "distance": null, "has_offers": false, "name": "Farmers Basket", "longitude": -84.563608, "has_menu": false, "awards": null, "user_review_count": 0}, {"business_operation_status": 1, "rating": null, "neighborhood": null, "image": null, "scorecard": null, "featured": false, "sample_categories": "Coffee & Tea Shops, Tea Room", "public_id": "teavana-kennesaw", "id": 762806630, "votes": null, "tagline": null, "has_video": false, "website": "http://www.citysearch.com/profile/external/762806630/kennesaw_ga/teavana.html", "offers": null, "latitude": 34.019128, "politanName": "Atlanta, GA Metro ", "phone_number": "7704208676", "tags": [{"primary": false, "id": 11318, "name": "Tea Room"}, {"primary": true, "id": 1711, "name": "Coffee & Tea Shops"}], "fax_number": null, "expansion": {"count": null, "uri": null}, "impression_id": "000b0000009642e43b2dfb45b6ba20290f6ef5038e", "profile": "http://www.citysearch.com/profile/762806630/kennesaw_ga/teavana.html", "address": {"city": "Kennesaw", "state": "GA", "street": "400 Ernest W Barrett Pkwy NW", "postal_code": "30144"}, "capProviderId": null, "distance": null, "has_offers": false, "name": "Teavana", "longitude": -84.563608, "has_menu": false, "awards": null, "user_review_count": 1}, {"business_operation_status": 1, "rating": null, "neighborhood": null, "image": null, "scorecard": null, "featured": false, "sample_categories": "Ice Cream Parlors, Restaurants", "public_id": "milk-shake-douglasville", "id": 764870590, "votes": null, "tagline": null, "has_video": false, "website": null, "offers": null, "latitude": 33.771079, "politanName": "Atlanta, GA Metro ", "phone_number": "6787154327", "tags": [{"primary": false, "id": 1722, "name": "Restaurants"}, {"primary": true, "id": 1730, "name": "Ice Cream Parlors"}], "fax_number": null, "expansion": {"count": null, "uri": null}, "impression_id": "000b0000007c0ec6439a994d54ad3c1a90df723861", "profile": "http://www.citysearch.com/profile/764870590/douglasville_ga/milk_shake.html", "address": {"city": "Douglasville", "state": "GA", "street": "3849 Glenlake Dr", "postal_code": "30134"}, "capProviderId": null, "distance": null, "has_offers": false, "name": "Milk Shake", "longitude": -84.697252, "has_menu": false, "awards": null, "user_review_count": 0}, {"business_operation_status": 1, "rating": null, "neighborhood": null, "image": null, "scorecard": null, "featured": false, "sample_categories": "Restaurants, Pizza", "public_id": "pizza-plus-smyrna", "id": 764885620, "votes": null, "tagline": null, "has_video": false, "website": null, "offers": null, "latitude": 33.890233, "politanName": "Atlanta, GA Metro ", "phone_number": "7704338006", "tags": [{"primary": false, "id": 11299, "name": "Pizza"}, {"primary": true, "id": 1722, "name": "Restaurants"}], "fax_number": null, "expansion": {"count": null, "uri": null}, "impression_id": "000b000000ff2d348034c14a29b5921f5dc7f25fe5", "profile": "http://www.citysearch.com/profile/764885620/smyrna_ga/pizza_plus.html", "address": {"city": "Smyrna", "state": "GA", "street": "2539 Old Concord Rd SE", "postal_code": "30082"}, "capProviderId": null, "distance": null, "has_offers": false, "name": "Pizza Plus", "longitude": -84.540188, "has_menu": true, "awards": null, "user_review_count": 0}, {"business_operation_status": 1, "rating": null, "neighborhood": null, "image": null, "scorecard": null, "featured": false, "sample_categories": "Restaurants, Bakeries", "public_id": "cest-si-bon-pastry-rstrnt-smyrna", "id": 764894530, "votes": null, "tagline": null, "has_video": false, "website": null, "offers": null, "latitude": 33.89429, "politanName": "Atlanta, GA Metro ", "phone_number": "7703198875", "tags": [{"primary": false, "id": 1685, "name": "Bakeries"}, {"primary": true, "id": 1722, "name": "Restaurants"}], "fax_number": null, "expansion": {"count": null, "uri": null}, "impression_id": "000b00000019d0025432cc4231abc60c19ed47b411", "profile": "http://www.citysearch.com/profile/764894530/smyrna_ga/c_est_si_bon_pastry_rstrnt.html", "address": {"city": "Smyrna", "state": "GA", "street": "560 Windy Hill Rd SE", "postal_code": "30080"}, "capProviderId": null, "distance": null, "has_offers": false, "name": "C'Est Si Bon Pastry & Rstrnt", "longitude": -84.536945, "has_menu": false, "awards": null, "user_review_count": 0}, {"business_operation_status": 1, "rating": null, "neighborhood": null, "image": null, "scorecard": null, "featured": false, "sample_categories": "Restaurants, Barbecue Restaurants", "public_id": "reds-backwoods-barbecue-kennesaw", "id": 775234200, "votes": null, "tagline": null, "has_video": false, "website": null, "offers": null, "latitude": 33.999345, "politanName": "Atlanta, GA Metro ", "phone_number": "6782909055", "tags": [{"primary": false, "id": 1724, "name": "Barbecue Restaurants"}, {"primary": true, "id": 1722, "name": "Restaurants"}], "fax_number": null, "expansion": {"count": null, "uri": null}, "impression_id": "000b0000004adc4497f26c4c1ba6a1978c5aeddcd9", "profile": "http://www.citysearch.com/profile/775234200/kennesaw_ga/reds_backwoods_barbecue.html", "address": {"city": "Kennesaw", "state": "GA", "street": "1200 Ernest W Barrett Pkwy NW", "postal_code": "30144"}, "capProviderId": null, "distance": null, "has_offers": false, "name": "Reds Backwoods Barbecue", "longitude": -84.586888, "has_menu": false, "awards": null, "user_review_count": 0}, {"business_operation_status": 1, "rating": null, "neighborhood": null, "image": null, "scorecard": null, "featured": false, "sample_categories": "Restaurants", "public_id": "southern-flavor-kennesaw", "id": 777652400, "votes": null, "tagline": null, "has_video": false, "website": null, "offers": null, "latitude": 34.014009, "politanName": "Atlanta, GA Metro ", "phone_number": "7704228400", "tags": [{"primary": true, "id": 1722, "name": "Restaurants"}], "fax_number": null, "expansion": {"count": null, "uri": null}, "impression_id": "000b000000af956530775048a8b7be334af9b5e5ec", "profile": "http://www.citysearch.com/profile/777652400/kennesaw_ga/southern_flavor.html", "address": {"city": "Kennesaw", "state": "GA", "street": "400 Ernest W Barrett NW # 119", "postal_code": "30144"}, "capProviderId": null, "distance": null, "has_offers": false, "name": "Southern Flavor", "longitude": -84.561425, "has_menu": false, "awards": null, "user_review_count": 0}, {"business_operation_status": 1, "rating": null, "neighborhood": null, "image": null, "scorecard": null, "featured": false, "sample_categories": "Restaurants, Soul", "public_id": "trinas-soul-kitchen-mableton", "id": 762760900, "votes": null, "tagline": null, "has_video": false, "website": null, "offers": null, "latitude": 33.845849, "politanName": "Atlanta, GA Metro ", "phone_number": "7704853300", "tags": [{"primary": false, "id": 15140, "name": "Soul"}, {"primary": true, "id": 1722, "name": "Restaurants"}], "fax_number": null, "expansion": {"count": null, "uri": null}, "impression_id": "000b0000005d6d9607fe6d493db87cebbd5c09c237", "profile": "http://www.citysearch.com/profile/762760900/mableton_ga/trina_s_soul_kitchen.html", "address": {"city": "Mableton", "state": "GA", "street": "4426 Floyd Rd SW # 100", "postal_code": "30126"}, "capProviderId": null, "distance": null, "has_offers": false, "name": "Trina's Soul Kitchen", "longitude": -84.583979, "has_menu": false, "awards": null, "user_review_count": 0}], "histograms": [], "tag_ids": [1722], "uri": "http://api.citygridmedia.com:8080/search/places/v2/search/where?has_offers=false&type=restaurant&format=json&page=29&where=30064&rpp=50&histograms=false&publisher=10000009598&region_type=circle", "did_you_mean": "", "regions": [{"latitude": 33.938860999999996, "default_radius": 5.31, "type": "postal_code", "name": "30064", "longitude": -84.614086}], "call_id": "000b000000e3fe451806684f23b3d2ac242fe6d791", "first_hit": 1401, "total_hits": 1588, "geo_ids": [26293], "page": 29, "last_hit": 1450}}