{"results": {"rpp": 50, "locations": [{"business_operation_status": 1, "rating": null, "neighborhood": null, "image": null, "scorecard": null, "featured": false, "sample_categories": "Restaurants", "public_id": "grill-atlanta", "id": 787103840, "votes": null, "tagline": null, "has_video": false, "website": null, "offers": null, "latitude": 33.882924, "politanName": "Atlanta, GA Metro ", "phone_number": "7709163170", "tags": [{"primary": true, "id": 1722, "name": "Restaurants"}], "fax_number": null, "expansion": {"count": null, "uri": null}, "impression_id": "000b0000002ff2cc79fe8a48f7ac21de7357214f91", "profile": "http://www.citysearch.com/profile/787103840/atlanta_ga/grill.html", "address": {"city": "Atlanta", "state": "GA", "street": "2844 Cobb Pkwy Se", "postal_code": "30339"}, "capProviderId": null, "distance": null, "has_offers": false, "name": "Grill", "longitude": -84.468893, "has_menu": false, "awards": null, "user_review_count": 0}, {"business_operation_status": 1, "rating": null, "neighborhood": null, "image": null, "scorecard": null, "featured": false, "sample_categories": "Restaurants, Bars & Clubs", "public_id": "highlands-grill-sports-tvrn-kennesaw", "id": 787112570, "votes": null, "tagline": null, "has_video": false, "website": null, "offers": null, "latitude": 34.013172, "politanName": "Atlanta, GA Metro ", "phone_number": "7704261515", "tags": [{"primary": false, "id": 164, "name": "Bars & Clubs"}, {"primary": true, "id": 1722, "name": "Restaurants"}], "fax_number": null, "expansion": {"count": null, "uri": null}, "impression_id": "000b000000b628b784a7bc42eeb8ad9de31f0611be", "profile": "http://www.citysearch.com/profile/787112570/kennesaw_ga/highlands_grill_sports_tvrn.html", "address": {"city": "Kennesaw", "state": "GA", "street": "2615 George Busbee Pkwy NW # 2", "postal_code": "30144"}, "capProviderId": null, "distance": null, "has_offers": false, "name": "Highlands Grill & Sports Tvrn", "longitude": -84.567215, "has_menu": false, "awards": null, "user_review_count": 0}, {"business_operation_status": 1, "rating": null, "neighborhood": null, "image": null, "scorecard": null, "featured": false, "sample_categories": "Restaurants, Carry Out", "public_id": "jamaica-mi-krazy-restaurant-smyrna", "id": 789846400, "votes": null, "tagline": null, "has_video": false, "website": null, "offers": null, "latitude": 33.883443, "politanName": "Atlanta, GA Metro ", "phone_number": "7708743071", "tags": [{"primary": false, "id": 1722, "name": "Restaurants"}, {"primary": true, "id": 11247, "name": "Carry Out"}], "fax_number": null, "expansion": {"count": null, "uri": null}, "impression_id": "000b000000af04eea145734487b5777b2a9129377e", "profile": "http://www.citysearch.com/profile/789846400/smyrna_ga/jamaica_mi_krazy_restaurant.html", "address": {"city": "Smyrna", "state": "GA", "street": "2517 Spring Rd SE", "postal_code": "30080"}, "capProviderId": null, "distance": null, "has_offers": false, "name": "JAMAICA MI KRAZY RESTAURANT", "longitude": -84.480608, "has_menu": false, "awards": null, "user_review_count": 0}, {"business_operation_status": 1, "rating": null, "neighborhood": null, "image": null, "scorecard": null, "featured": false, "sample_categories": "Restaurants, Steakhouse", "public_id": "villa-steak-house-marietta", "id": 793373220, "votes": null, "tagline": null, "has_video": false, "website": null, "offers": null, "latitude": 33.930541, "politanName": "Atlanta, GA Metro ", "phone_number": "7706358252", "tags": [{"primary": false, "id": 11316, "name": "Steakhouse"}, {"primary": true, "id": 1722, "name": "Restaurants"}], "fax_number": null, "expansion": {"count": null, "uri": null}, "impression_id": "000b000000f8acf69077bc467f842e53953fba0c59", "profile": "http://www.citysearch.com/profile/793373220/marietta_ga/villa_steak_house.html", "address": {"city": "Marietta", "state": "GA", "street": "2658 Stoney Creek Rd Se", "postal_code": "30067"}, "capProviderId": null, "distance": null, "has_offers": false, "name": "Villa Steak House", "longitude": -84.476561, "has_menu": false, "awards": null, "user_review_count": 0}, {"business_operation_status": 1, "rating": null, "neighborhood": null, "image": null, "scorecard": null, "featured": false, "sample_categories": "Restaurants, Delis And Delicatessens, Sandwich Shops, Carry Out, MasterCard", "public_id": "subway-atlanta-78", "id": 45113612, "votes": null, "tagline": null, "has_video": false, "website": "http://www.citysearch.com/profile/external/45113612/atlanta_ga/subway.html", "offers": null, "latitude": 33.884135, "politanName": "Atlanta, GA Metro ", "phone_number": "7709840455", "tags": [{"primary": false, "id": 1727, "name": "Delis And Delicatessens"}, {"primary": false, "id": 1736, "name": "Sandwich Shops"}, {"primary": false, "id": 11247, "name": "Carry Out"}, {"primary": false, "id": 11361, "name": "MasterCard"}, {"primary": false, "id": 11382, "name": "Visa"}, {"primary": true, "id": 1722, "name": "Restaurants"}], "fax_number": null, "expansion": {"count": null, "uri": null}, "impression_id": "000b000000af37691d9f674a7692e029b2755530fe", "profile": "http://www.citysearch.com/profile/45113612/atlanta_ga/subway.html", "address": {"city": "Atlanta", "state": "GA", "street": "1 Galleria Pkwy SE 1C", "postal_code": "30339"}, "capProviderId": null, "distance": null, "has_offers": false, "name": "Subway", "longitude": -84.46371, "has_menu": true, "awards": null, "user_review_count": 0}, {"business_operation_status": 1, "rating": null, "neighborhood": null, "image": null, "scorecard": null, "featured": false, "sample_categories": "Restaurants", "public_id": "baker-brothers-installations-marietta", "id": 601298983, "votes": null, "tagline": null, "has_video": false, "website": "http://www.citysearch.com/profile/external/601298983/marietta_ga/baker_brothers_installations.html", "offers": null, "latitude": 33.919512, "politanName": "Atlanta, GA Metro ", "phone_number": "7705630281", "tags": [{"primary": true, "id": 1722, "name": "Restaurants"}], "fax_number": null, "expansion": {"count": null, "uri": null}, "impression_id": "000b0000000fa9349572564bcc9ab921d9384cda2c", "profile": "http://www.citysearch.com/profile/601298983/marietta_ga/baker_brothers_installations.html", "address": {"city": "Marietta", "state": "GA", "street": "2152 Northwest Pkwy Se # F", "postal_code": "30067"}, "capProviderId": null, "distance": null, "has_offers": false, "name": "Baker Brothers Installations", "longitude": -84.487991, "has_menu": false, "awards": null, "user_review_count": 0}, {"business_operation_status": 1, "rating": null, "neighborhood": null, "image": null, "scorecard": null, "featured": false, "sample_categories": "Restaurants, American Express, Discover, MasterCard, Visa", "public_id": "chilitos-kennesaw-2", "id": 605578100, "votes": null, "tagline": null, "has_video": false, "website": null, "offers": null, "latitude": 34.035364, "politanName": "Atlanta, GA Metro ", "phone_number": "6783546660", "tags": [{"primary": false, "id": 11333, "name": "American Express"}, {"primary": false, "id": 11349, "name": "Discover"}, {"primary": false, "id": 11361, "name": "MasterCard"}, {"primary": false, "id": 11382, "name": "Visa"}, {"primary": true, "id": 1722, "name": "Restaurants"}], "fax_number": null, "expansion": {"count": null, "uri": null}, "impression_id": "000b0000006f030ef9eea541c7b680b3c55fd94544", "profile": "http://www.citysearch.com/profile/605578100/kennesaw_ga/chilitos.html", "address": {"city": "Kennesaw", "state": "GA", "street": "745 Chastain Rd Nw # 2020", "postal_code": "30144"}, "capProviderId": null, "distance": null, "has_offers": false, "name": "Chilitos", "longitude": -84.570141, "has_menu": true, "awards": null, "user_review_count": 0}, {"business_operation_status": 1, "rating": null, "neighborhood": null, "image": null, "scorecard": null, "featured": false, "sample_categories": "Restaurants", "public_id": "fade-fine-dining-marietta", "id": 610801124, "votes": null, "tagline": null, "has_video": false, "website": null, "offers": null, "latitude": 33.868607, "politanName": "Atlanta, GA Metro ", "phone_number": "7704310505", "tags": [{"primary": true, "id": 1722, "name": "Restaurants"}], "fax_number": null, "expansion": {"count": null, "uri": null}, "impression_id": "000b0000009c6f63fdae7b41188fd817508128c3c3", "profile": "http://www.citysearch.com/profile/610801124/marietta_ga/fade_fine_dining.html", "address": {"city": "Marietta", "state": "GA", "street": "3505 Austell Rd SW", "postal_code": "30008"}, "capProviderId": null, "distance": null, "has_offers": false, "name": "Fade Fine Dining", "longitude": -84.591958, "has_menu": false, "awards": null, "user_review_count": 0}, {"business_operation_status": 1, "rating": null, "neighborhood": null, "image": null, "scorecard": null, "featured": false, "sample_categories": "Juice & Smoothie Shops", "public_id": "fit-juice-bar-llc-kennesaw", "id": 713624290, "votes": null, "tagline": null, "has_video": false, "website": null, "offers": null, "latitude": 34.058322, "politanName": "Atlanta, GA Metro ", "phone_number": "7704220412", "tags": [{"primary": true, "id": 1735, "name": "Juice & Smoothie Shops"}], "fax_number": null, "expansion": {"count": null, "uri": null}, "impression_id": "000b000000c676d68de7cb410ba41b8fc7c8ceffb7", "profile": "http://www.citysearch.com/profile/713624290/kennesaw_ga/fit_juice_bar_llc.html", "address": {"city": "Kennesaw", "state": "GA", "street": "4200 Wade Green Rd NW", "postal_code": "30144"}, "capProviderId": null, "distance": null, "has_offers": false, "name": "Fit Juice Bar LLC", "longitude": -84.590676, "has_menu": false, "awards": null, "user_review_count": 0}, {"business_operation_status": 1, "rating": null, "neighborhood": null, "image": null, "scorecard": null, "featured": false, "sample_categories": "Restaurants", "public_id": "h-y-co-marietta", "id": 732213150, "votes": null, "tagline": null, "has_video": false, "website": null, "offers": null, "latitude": 33.917272, "politanName": "Atlanta, GA Metro ", "phone_number": "7703670759", "tags": [{"primary": true, "id": 1722, "name": "Restaurants"}], "fax_number": null, "expansion": {"count": null, "uri": null}, "impression_id": "000b000000d4ff89a170f54f6283c634036c1ba164", "profile": "http://www.citysearch.com/profile/732213150/marietta_ga/h_y_co.html", "address": {"city": "Marietta", "state": "GA", "street": "1487 Bentley Ln SE", "postal_code": "30067"}, "capProviderId": null, "distance": null, "has_offers": false, "name": "H & Y Co", "longitude": -84.47374, "has_menu": false, "awards": null, "user_review_count": 0}, {"business_operation_status": 1, "rating": null, "neighborhood": null, "image": null, "scorecard": null, "featured": false, "sample_categories": "Restaurants", "public_id": "saigon-cafe-smyrna", "id": 620245484, "votes": null, "tagline": null, "has_video": false, "website": null, "offers": null, "latitude": 33.886268, "politanName": "Atlanta, GA Metro ", "phone_number": "6783059091", "tags": [{"primary": true, "id": 1722, "name": "Restaurants"}], "fax_number": null, "expansion": {"count": null, "uri": null}, "impression_id": "000b00000001d651b751944be782d20087515a749f", "profile": "http://www.citysearch.com/profile/620245484/smyrna_ga/saigon_cafe.html", "address": {"city": "Smyrna", "state": "GA", "street": "2700 Cobb Pkwy SE", "postal_code": "30080"}, "capProviderId": null, "distance": null, "has_offers": false, "name": "Saigon Cafe", "longitude": -84.471205, "has_menu": false, "awards": null, "user_review_count": 0}, {"business_operation_status": 1, "rating": null, "neighborhood": null, "image": null, "scorecard": null, "featured": false, "sample_categories": "Restaurants, Hamburgers", "public_id": "smashburger-kennesaw", "id": 739079670, "votes": null, "tagline": null, "has_video": false, "website": null, "offers": null, "latitude": 34.014321, "politanName": "Atlanta, GA Metro ", "phone_number": "7704274141", "tags": [{"primary": false, "id": 11270, "name": "Hamburgers"}, {"primary": true, "id": 1722, "name": "Restaurants"}], "fax_number": null, "expansion": {"count": null, "uri": null}, "impression_id": "000b000000817b3e4b369a4c65b5dc9c077f631899", "profile": "http://www.citysearch.com/profile/739079670/kennesaw_ga/smashburger.html", "address": {"city": "Kennesaw", "state": "GA", "street": "440 Ernest W Barrett Pkwy NW", "postal_code": "30144"}, "capProviderId": null, "distance": null, "has_offers": false, "name": "Smashburger", "longitude": -84.562111, "has_menu": false, "awards": null, "user_review_count": 0}, {"business_operation_status": 0, "rating": null, "neighborhood": null, "image": null, "scorecard": null, "featured": false, "sample_categories": "Restaurants, Bars & Pubs, Carry Out", "public_id": "tgi-fridays-marietta", "id": 764911090, "votes": null, "tagline": null, "has_video": false, "website": null, "offers": null, "latitude": 33.931553, "politanName": "Atlanta, GA Metro ", "phone_number": "7709510821", "tags": [{"primary": false, "id": 1686, "name": "Bars & Pubs"}, {"primary": false, "id": 11247, "name": "Carry Out"}, {"primary": true, "id": 1722, "name": "Restaurants"}], "fax_number": null, "expansion": {"count": null, "uri": null}, "impression_id": "000b000000cac1d39e2be84292b4df73d797d2ab2a", "profile": "http://www.citysearch.com/profile/764911090/marietta_ga/tgi_friday_s.html", "address": {"city": "Marietta", "state": "GA", "street": "1925 Powers Ferry Trce SE", "postal_code": "30067"}, "capProviderId": null, "distance": null, "has_offers": false, "name": "Tgi Friday's", "longitude": -84.4784, "has_menu": false, "awards": null, "user_review_count": 0}, {"business_operation_status": 1, "rating": null, "neighborhood": null, "image": null, "scorecard": null, "featured": false, "sample_categories": "Restaurants, Pizza, Carry Out", "public_id": "jets-pizza-marietta-2", "id": 766779210, "votes": null, "tagline": null, "has_video": false, "website": "http://www.citysearch.com/profile/external/766779210/marietta_ga/jet_s_pizza.html", "offers": null, "latitude": 33.980787, "politanName": "Atlanta, GA Metro ", "phone_number": "7705095774", "tags": [{"primary": false, "id": 1722, "name": "Restaurants"}, {"primary": false, "id": 11247, "name": "Carry Out"}, {"primary": true, "id": 11299, "name": "Pizza"}], "fax_number": null, "expansion": {"count": null, "uri": null}, "impression_id": "000b000000adfb98d7a5eb429f8a6d4b52f2fa96b8", "profile": "http://www.citysearch.com/profile/766779210/marietta_ga/jet_s_pizza.html", "address": {"city": "Marietta", "state": "GA", "street": "3101 Roswell Rd", "postal_code": "30062"}, "capProviderId": null, "distance": null, "has_offers": false, "name": "Jet's Pizza", "longitude": -84.464028, "has_menu": false, "awards": null, "user_review_count": 0}, {"business_operation_status": 1, "rating": null, "neighborhood": null, "image": null, "scorecard": null, "featured": false, "sample_categories": "Restaurants, Coffeehouses", "public_id": "rev-coffee-house-smyrna", "id": 766767230, "votes": null, "tagline": null, "has_video": false, "website": null, "offers": null, "latitude": 33.882118, "politanName": "Atlanta, GA Metro ", "phone_number": "7705734434", "tags": [{"primary": false, "id": 1726, "name": "Coffeehouses"}, {"primary": true, "id": 1722, "name": "Restaurants"}], "fax_number": null, "expansion": {"count": null, "uri": null}, "impression_id": "000b00000010321124ffc44d478dd66dd61e66d1ce", "profile": "http://www.citysearch.com/profile/766767230/smyrna_ga/rev_coffee_house.html", "address": {"city": "Smyrna", "state": "GA", "street": "1680 Spring Rd SE", "postal_code": "30080"}, "capProviderId": null, "distance": null, "has_offers": false, "name": "Rev Coffee House", "longitude": -84.504533, "has_menu": false, "awards": null, "user_review_count": 0}, {"business_operation_status": 1, "rating": null, "neighborhood": null, "image": null, "scorecard": null, "featured": false, "sample_categories": "Restaurants", "public_id": "buffalos-cafe-marietta", "id": 2870538, "votes": null, "tagline": null, "has_video": false, "website": null, "offers": null, "latitude": 33.950209, "politanName": "Atlanta, GA Metro ", "phone_number": "7705212844", "tags": [{"primary": true, "id": 1722, "name": "Restaurants"}], "fax_number": null, "expansion": {"count": null, "uri": null}, "impression_id": "000b000000f26dd7732f6a4b469c3a5de11fc5d86c", "profile": "http://www.citysearch.com/profile/2870538/marietta_ga/buffalo_s_cafe.html", "address": {"city": "Marietta", "state": "GA", "street": "707 Whitlock Ave SW Ste H13", "postal_code": "30064"}, "capProviderId": null, "distance": null, "has_offers": false, "name": "Buffalo's Cafe", "longitude": -84.573437, "has_menu": true, "awards": null, "user_review_count": 0}, {"business_operation_status": 1, "rating": null, "neighborhood": null, "image": null, "scorecard": null, "featured": false, "sample_categories": "Restaurants, Cajun & Creole, Carry Out, Food Delivery, American Express", "public_id": "folks-southern-kitchen-marietta-2", "id": 2901678, "votes": null, "tagline": null, "has_video": false, "website": "http://www.citysearch.com/profile/external/2901678/marietta_ga/folks_southern_kitchen.html", "offers": null, "latitude": 33.903775, "politanName": "Atlanta, GA Metro ", "phone_number": "7709525111", "tags": [{"primary": false, "id": 11245, "name": "Cajun & Creole"}, {"primary": false, "id": 11247, "name": "Carry Out"}, {"primary": false, "id": 11267, "name": "Food Delivery"}, {"primary": false, "id": 11333, "name": "American Express"}, {"primary": false, "id": 11349, "name": "Discover"}, {"primary": false, "id": 11361, "name": "MasterCard"}, {"primary": false, "id": 11382, "name": "Visa"}, {"primary": true, "id": 1722, "name": "Restaurants"}], "fax_number": null, "expansion": {"count": null, "uri": null}, "impression_id": "000b0000008ba4ec8ffc384021b93165cd91eb9e4d", "profile": "http://www.citysearch.com/profile/2901678/marietta_ga/folks_southern_kitchen.html", "address": {"city": "Marietta", "state": "GA", "street": "2031 Cobb Pkwy S", "postal_code": "30060"}, "capProviderId": null, "distance": null, "has_offers": false, "name": "Folks Southern Kitchen", "longitude": -84.487499, "has_menu": true, "awards": null, "user_review_count": 1}, {"business_operation_status": 1, "rating": null, "neighborhood": null, "image": null, "scorecard": null, "featured": false, "sample_categories": "Restaurants", "public_id": "amonos-restaurant-kennesaw", "id": 777767990, "votes": null, "tagline": null, "has_video": false, "website": null, "offers": null, "latitude": 34.014516, "politanName": "Atlanta, GA Metro ", "phone_number": "6783550535", "tags": [{"primary": true, "id": 1722, "name": "Restaurants"}], "fax_number": null, "expansion": {"count": null, "uri": null}, "impression_id": "000b00000085ce90cca1244bffb0156db970e23d33", "profile": "http://www.citysearch.com/profile/777767990/kennesaw_ga/amono_s_restaurant.html", "address": {"city": "Kennesaw", "state": "GA", "street": "2700 Town Center Dr NW # A", "postal_code": "30144"}, "capProviderId": null, "distance": null, "has_offers": false, "name": "Amono's Restaurant", "longitude": -84.56447, "has_menu": false, "awards": null, "user_review_count": 0}, {"business_operation_status": 1, "rating": null, "neighborhood": null, "image": null, "scorecard": null, "featured": false, "sample_categories": "Coffeehouses", "public_id": "assoc-coffee-mill-enthusics-marietta", "id": 787109920, "votes": null, "tagline": null, "has_video": false, "website": null, "offers": null, "latitude": 33.969136, "politanName": "Atlanta, GA Metro ", "phone_number": "7704276434", "tags": [{"primary": true, "id": 1726, "name": "Coffeehouses"}], "fax_number": null, "expansion": {"count": null, "uri": null}, "impression_id": "000b0000004b6774aee3d14117b7ff379b9e213104", "profile": "http://www.citysearch.com/profile/787109920/marietta_ga/assoc_coffee_mill_enthusics.html", "address": {"city": "Marietta", "state": "GA", "street": "657 Old Mountain Rd NW", "postal_code": "30064"}, "capProviderId": null, "distance": null, "has_offers": false, "name": "Assoc Coffee Mill Enthusics", "longitude": -84.593531, "has_menu": false, "awards": null, "user_review_count": 0}, {"business_operation_status": 1, "rating": null, "neighborhood": null, "image": null, "scorecard": null, "featured": false, "sample_categories": "Restaurants", "public_id": "righteous-que-marietta", "id": 790722150, "votes": null, "tagline": null, "has_video": false, "website": null, "offers": null, "latitude": 33.976739, "politanName": "Atlanta, GA Metro ", "phone_number": "7709718111", "tags": [{"primary": true, "id": 1722, "name": "Restaurants"}], "fax_number": null, "expansion": {"count": null, "uri": null}, "impression_id": "000b0000008e39aedec8154c6298cb3ad27bac3745", "profile": "http://www.citysearch.com/profile/790722150/marietta_ga/righteous_que.html", "address": {"city": "Marietta", "state": "GA", "street": "1050 E Piedmont Rd", "postal_code": "30062"}, "capProviderId": null, "distance": null, "has_offers": false, "name": "Righteous Que", "longitude": -84.479676, "has_menu": false, "awards": null, "user_review_count": 0}, {"business_operation_status": 1, "rating": null, "neighborhood": null, "image": null, "scorecard": null, "featured": false, "sample_categories": "Restaurants", "public_id": "bikini-beach-kennesaw", "id": 672684390, "votes": null, "tagline": null, "has_video": false, "website": null, "offers": null, "latitude": 33.991946, "politanName": "Atlanta, GA Metro ", "phone_number": "7704268001", "tags": [{"primary": true, "id": 1722, "name": "Restaurants"}], "fax_number": null, "expansion": {"count": null, "uri": null}, "impression_id": "000b00000077b23fd46dd54c90818a25d5c5a05be2", "profile": "http://www.citysearch.com/profile/672684390/kennesaw_ga/bikini_beach.html", "address": {"city": "Kennesaw", "state": "GA", "street": "1619 Collins Road Northwest", "postal_code": "30152"}, "capProviderId": null, "distance": null, "has_offers": false, "name": "Bikini Beach", "longitude": -84.59912, "has_menu": false, "awards": null, "user_review_count": 0}, {"business_operation_status": 0, "rating": null, "neighborhood": null, "image": null, "scorecard": null, "featured": false, "sample_categories": "Restaurants", "public_id": "daily-grind-marietta-2", "id": 672770880, "votes": null, "tagline": null, "has_video": false, "website": null, "offers": null, "latitude": 34.014064, "politanName": "Atlanta, GA Metro ", "phone_number": "7709715199", "tags": [{"primary": true, "id": 1722, "name": "Restaurants"}], "fax_number": null, "expansion": {"count": null, "uri": null}, "impression_id": "000b0000009165f6965fec44e4a3d05ead230be343", "profile": "http://www.citysearch.com/profile/672770880/marietta_ga/daily_grind.html", "address": {"city": "Marietta", "state": "GA", "street": "2595 Sandy Plains Rd", "postal_code": "30066"}, "capProviderId": null, "distance": null, "has_offers": false, "name": "Daily Grind", "longitude": -84.495766, "has_menu": true, "awards": null, "user_review_count": 0}, {"business_operation_status": 1, "rating": null, "neighborhood": null, "image": null, "scorecard": null, "featured": false, "sample_categories": "Restaurants, Chinese", "public_id": "china-inn-marietta", "id": 787127820, "votes": null, "tagline": null, "has_video": false, "website": null, "offers": null, "latitude": 33.950252, "politanName": "Atlanta, GA Metro ", "phone_number": "7705908023", "tags": [{"primary": false, "id": 11252, "name": "Chinese"}, {"primary": true, "id": 1722, "name": "Restaurants"}], "fax_number": null, "expansion": {"count": null, "uri": null}, "impression_id": "000b0000008934b4ff5f1548bcabc97aa09cbf7275", "profile": "http://www.citysearch.com/profile/787127820/marietta_ga/china_inn.html", "address": {"city": "Marietta", "state": "GA", "street": "2500 Dallas Hwy Sw # 200", "postal_code": "30064"}, "capProviderId": null, "distance": null, "has_offers": false, "name": "China Inn", "longitude": -84.638093, "has_menu": false, "awards": null, "user_review_count": 0}, {"business_operation_status": 1, "rating": null, "neighborhood": null, "image": null, "scorecard": null, "featured": false, "sample_categories": "Restaurants, Carry Out, Hamburgers", "public_id": "mc-donalds-kennesaw-5", "id": 793282720, "votes": null, "tagline": null, "has_video": false, "website": "http://www.citysearch.com/profile/external/793282720/kennesaw_ga/mc_donald_s.html", "offers": null, "latitude": 34.023434, "politanName": "Atlanta, GA Metro ", "phone_number": "7704276918", "tags": [{"primary": false, "id": 11247, "name": "Carry Out"}, {"primary": false, "id": 11270, "name": "Hamburgers"}, {"primary": true, "id": 1722, "name": "Restaurants"}], "fax_number": null, "expansion": {"count": null, "uri": null}, "impression_id": "000b0000009b3e5c1d45a0498b9dc87396c30ac781", "profile": "http://www.citysearch.com/profile/793282720/kennesaw_ga/mc_donald_s.html", "address": {"city": "Kennesaw", "state": "GA", "street": "US 41 & Hwy 293", "postal_code": "30144"}, "capProviderId": null, "distance": null, "has_offers": false, "name": "Mc Donald's", "longitude": -84.61549, "has_menu": false, "awards": null, "user_review_count": 0}, {"business_operation_status": 1, "rating": null, "neighborhood": null, "image": null, "scorecard": null, "featured": false, "sample_categories": "Restaurants", "public_id": "la-isla-dominican-cafe-mableton", "id": 796129680, "votes": null, "tagline": null, "has_video": false, "website": null, "offers": null, "latitude": 33.818318, "politanName": "Atlanta, GA Metro ", "phone_number": "6784017696", "tags": [{"primary": true, "id": 1722, "name": "Restaurants"}], "fax_number": null, "expansion": {"count": null, "uri": null}, "impression_id": "000b0000001c20026a4ed94c97b87235af5f0ca485", "profile": "http://www.citysearch.com/profile/796129680/mableton_ga/la_isla_dominican_cafe.html", "address": {"city": "Mableton", "state": "GA", "street": "679 Veterans Memorial Hwy Sw", "postal_code": "30126"}, "capProviderId": null, "distance": null, "has_offers": false, "name": "La Isla Dominican Cafe", "longitude": -84.574544, "has_menu": false, "awards": null, "user_review_count": 0}, {"business_operation_status": 1, "rating": null, "neighborhood": null, "image": null, "scorecard": null, "featured": false, "sample_categories": "Restaurants, Pizza", "public_id": "spikes-brickoven-pizzeria-marietta", "id": 807252710, "votes": null, "tagline": null, "has_video": false, "website": null, "offers": null, "latitude": 33.925486, "politanName": "Atlanta, GA Metro ", "phone_number": "7704226821", "tags": [{"primary": false, "id": 1722, "name": "Restaurants"}, {"primary": true, "id": 11299, "name": "Pizza"}], "fax_number": null, "expansion": {"count": null, "uri": null}, "impression_id": "000b00000077eb389e521d43929eba7f6d73f9928d", "profile": "http://www.citysearch.com/profile/807252710/marietta_ga/spikes_brickoven_pizzeria.html", "address": {"city": "Marietta", "state": "GA", "street": "1115 Powder Springs St", "postal_code": "30064"}, "capProviderId": null, "distance": null, "has_offers": false, "name": "Spikes Brickoven Pizzeria", "longitude": -84.572072, "has_menu": false, "awards": null, "user_review_count": 0}, {"business_operation_status": 1, "rating": null, "neighborhood": null, "image": null, "scorecard": null, "featured": false, "sample_categories": "Ice Cream Parlors", "public_id": "its-raining-cats-dogs-marietta", "id": 808564100, "votes": null, "tagline": null, "has_video": false, "website": null, "offers": null, "latitude": 33.946019, "politanName": "Atlanta, GA Metro ", "phone_number": "7705285951", "tags": [{"primary": true, "id": 1730, "name": "Ice Cream Parlors"}], "fax_number": null, "expansion": {"count": null, "uri": null}, "impression_id": "000b000000b794ecf8f47243498df4436f4fb8ce99", "profile": "http://www.citysearch.com/profile/808564100/marietta_ga/its_raining_cats_dogs.html", "address": {"city": "Marietta", "state": "GA", "street": "353 Fenbrook Way SW", "postal_code": "30064"}, "capProviderId": null, "distance": null, "has_offers": false, "name": "Its Raining Cats & Dogs", "longitude": -84.665533, "has_menu": false, "awards": null, "user_review_count": 0}, {"business_operation_status": 1, "rating": null, "neighborhood": null, "image": null, "scorecard": null, "featured": false, "sample_categories": "Restaurants", "public_id": "terry-burger-kennesaw", "id": 816406770, "votes": null, "tagline": null, "has_video": false, "website": null, "offers": null, "latitude": 33.992629, "politanName": "Atlanta, GA Metro ", "phone_number": "6782906981", "tags": [{"primary": true, "id": 1722, "name": "Restaurants"}], "fax_number": null, "expansion": {"count": null, "uri": null}, "impression_id": "000b000000cd2a4543e7724e5eb49be3665e6cc509", "profile": "http://www.citysearch.com/profile/816406770/kennesaw_ga/terry_burger.html", "address": {"city": "Kennesaw", "state": "GA", "street": "1595 Stoddard CT NW", "postal_code": "30152"}, "capProviderId": null, "distance": null, "has_offers": false, "name": "Terry Burger", "longitude": -84.660867, "has_menu": false, "awards": null, "user_review_count": 0}, {"business_operation_status": 0, "rating": null, "neighborhood": null, "image": null, "scorecard": null, "featured": false, "sample_categories": "Restaurants, Bars & Pubs", "public_id": "skylight-bar-grill-atlanta", "id": 713428170, "votes": null, "tagline": null, "has_video": false, "website": null, "offers": null, "latitude": 33.883731, "politanName": "Atlanta, GA Metro ", "phone_number": "7709539067", "tags": [{"primary": false, "id": 1686, "name": "Bars & Pubs"}, {"primary": true, "id": 1722, "name": "Restaurants"}], "fax_number": null, "expansion": {"count": null, "uri": null}, "impression_id": "000b0000002e5f06e9c62342f2a1e35fc67072299a", "profile": "http://www.citysearch.com/profile/713428170/atlanta_ga/skylight_bar_grill.html", "address": {"city": "Atlanta", "state": "GA", "street": "2815 Akers Mill Rd Se", "postal_code": "30339"}, "capProviderId": null, "distance": null, "has_offers": false, "name": "Skylight Bar & Grill", "longitude": -84.459836, "has_menu": false, "awards": null, "user_review_count": 0}, {"business_operation_status": 1, "rating": null, "neighborhood": null, "image": null, "scorecard": null, "featured": false, "sample_categories": "Restaurants, Carry Out", "public_id": "burger-king-acworth-3", "id": 713505750, "votes": null, "tagline": null, "has_video": false, "website": "http://www.citysearch.com/profile/external/713505750/acworth_ga/burger_king.html", "offers": null, "latitude": 34.014321, "politanName": "Atlanta, GA Metro ", "phone_number": "6785811803", "tags": [{"primary": false, "id": 11247, "name": "Carry Out"}, {"primary": true, "id": 1722, "name": "Restaurants"}], "fax_number": null, "expansion": {"count": null, "uri": null}, "impression_id": "000b000000dffd34a971b84667873b11732d2043c3", "profile": "http://www.citysearch.com/profile/713505750/acworth_ga/burger_king.html", "address": {"city": "Acworth", "state": "GA", "street": "164 Ernest Barrett Pkwy NW", "postal_code": "30102"}, "capProviderId": null, "distance": null, "has_offers": false, "name": "Burger King", "longitude": -84.562111, "has_menu": false, "awards": null, "user_review_count": 0}, {"business_operation_status": 1, "rating": null, "neighborhood": null, "image": null, "scorecard": null, "featured": false, "sample_categories": "Restaurants", "public_id": "imani-african-arabian-rstrnt-smyrna", "id": 713541910, "votes": null, "tagline": null, "has_video": false, "website": null, "offers": null, "latitude": 33.891129, "politanName": "Atlanta, GA Metro ", "phone_number": "6782936841", "tags": [{"primary": true, "id": 1722, "name": "Restaurants"}], "fax_number": null, "expansion": {"count": null, "uri": null}, "impression_id": "000b0000004a22e3cfa0b14409845b211280ad9103", "profile": "http://www.citysearch.com/profile/713541910/smyrna_ga/imani_african_arabian_rstrnt.html", "address": {"city": "Smyrna", "state": "GA", "street": "1651 Roswell St Se", "postal_code": "30080"}, "capProviderId": null, "distance": null, "has_offers": false, "name": "Imani African & Arabian Rstrnt", "longitude": -84.504659, "has_menu": false, "awards": null, "user_review_count": 0}, {"business_operation_status": 1, "rating": null, "neighborhood": null, "image": null, "scorecard": null, "featured": false, "sample_categories": "Restaurants", "public_id": "wings-101-smyrna", "id": 621748804, "votes": null, "tagline": null, "has_video": false, "website": null, "offers": null, "latitude": 33.894038, "politanName": "Atlanta, GA Metro ", "phone_number": "7709891520", "tags": [{"primary": true, "id": 1722, "name": "Restaurants"}], "fax_number": null, "expansion": {"count": null, "uri": null}, "impression_id": "000b00000067de3ee999184c1ca1ccf831f24f252c", "profile": "http://www.citysearch.com/profile/621748804/smyrna_ga/wings_101.html", "address": {"city": "Smyrna", "state": "GA", "street": "998 Windy Hill Rd SE", "postal_code": "30080"}, "capProviderId": null, "distance": null, "has_offers": false, "name": "Wings 101", "longitude": -84.524382, "has_menu": false, "awards": null, "user_review_count": 0}, {"business_operation_status": 1, "rating": null, "neighborhood": null, "image": null, "scorecard": null, "featured": false, "sample_categories": "Restaurants, Delis And Delicatessens", "public_id": "shortys-subs-such-kennesaw", "id": 744805970, "votes": null, "tagline": null, "has_video": false, "website": null, "offers": null, "latitude": 33.999345, "politanName": "Atlanta, GA Metro ", "phone_number": "6789492867", "tags": [{"primary": false, "id": 1727, "name": "Delis And Delicatessens"}, {"primary": true, "id": 1722, "name": "Restaurants"}], "fax_number": null, "expansion": {"count": null, "uri": null}, "impression_id": "000b0000007888dcf1f9964583bdc351167ed9e915", "profile": "http://www.citysearch.com/profile/744805970/kennesaw_ga/shorty_s_subs_such.html", "address": {"city": "Kennesaw", "state": "GA", "street": "1200 Barrett Pkwy NW Ste 14", "postal_code": "30144"}, "capProviderId": null, "distance": null, "has_offers": false, "name": "Shorty's Subs & Such", "longitude": -84.586888, "has_menu": false, "awards": null, "user_review_count": 0}, {"business_operation_status": 1, "rating": null, "neighborhood": null, "image": null, "scorecard": null, "featured": false, "sample_categories": "Restaurants", "public_id": "village-cafe-smyrna", "id": 745629910, "votes": null, "tagline": null, "has_video": false, "website": null, "offers": null, "latitude": 33.883751, "politanName": "Atlanta, GA Metro ", "phone_number": "6782935977", "tags": [{"primary": true, "id": 1722, "name": "Restaurants"}], "fax_number": null, "expansion": {"count": null, "uri": null}, "impression_id": "000b0000003447071bbaaa421997162aa0731136a4", "profile": "http://www.citysearch.com/profile/745629910/smyrna_ga/village_cafe.html", "address": {"city": "Smyrna", "state": "GA", "street": "865 Pinehill Dr SE", "postal_code": "30080"}, "capProviderId": null, "distance": null, "has_offers": false, "name": "Village Cafe", "longitude": -84.528342, "has_menu": false, "awards": null, "user_review_count": 0}, {"business_operation_status": 1, "rating": null, "neighborhood": null, "image": null, "scorecard": null, "featured": false, "sample_categories": "Restaurants, Bars & Clubs", "public_id": "hollands-grill-kennesaw", "id": 766753250, "votes": null, "tagline": null, "has_video": false, "website": null, "offers": null, "latitude": 34.014045, "politanName": "Atlanta, GA Metro ", "phone_number": "7704261515", "tags": [{"primary": false, "id": 164, "name": "Bars & Clubs"}, {"primary": true, "id": 1722, "name": "Restaurants"}], "fax_number": null, "expansion": {"count": null, "uri": null}, "impression_id": "000b000000dcae722275c34540bbfabdb6748ca769", "profile": "http://www.citysearch.com/profile/766753250/kennesaw_ga/holland_s_grill.html", "address": {"city": "Kennesaw", "state": "GA", "street": "2615 Busbee Pkwy NW # 28", "postal_code": "30144"}, "capProviderId": null, "distance": null, "has_offers": false, "name": "Holland's Grill", "longitude": -84.56696, "has_menu": true, "awards": null, "user_review_count": 0}, {"business_operation_status": 1, "rating": null, "neighborhood": null, "image": null, "scorecard": null, "featured": false, "sample_categories": "Restaurants, Bars & Clubs, Carry Out", "public_id": "hooters-of-orlando-airport-inc-atlanta", "id": 766753430, "votes": null, "tagline": null, "has_video": false, "website": null, "offers": null, "latitude": 33.908131, "politanName": "Atlanta, GA Metro ", "phone_number": "7709512040", "tags": [{"primary": false, "id": 164, "name": "Bars & Clubs"}, {"primary": false, "id": 11247, "name": "Carry Out"}, {"primary": true, "id": 1722, "name": "Restaurants"}], "fax_number": null, "expansion": {"count": null, "uri": null}, "impression_id": "000b00000038f2d2520e2b4f9da37acda8be767884", "profile": "http://www.citysearch.com/profile/766753430/atlanta_ga/hooters_of_orlando_airport_inc.html", "address": {"city": "Atlanta", "state": "GA", "street": "1815 the Exchange SE", "postal_code": "30339"}, "capProviderId": null, "distance": null, "has_offers": false, "name": "Hooters of Orlando Airport Inc", "longitude": -84.479005, "has_menu": false, "awards": null, "user_review_count": 0}, {"business_operation_status": 1, "rating": null, "neighborhood": null, "image": null, "scorecard": null, "featured": false, "sample_categories": "Restaurants", "public_id": "zaban-food-group-atlanta", "id": 772196800, "votes": null, "tagline": null, "has_video": false, "website": null, "offers": null, "latitude": 33.906775, "politanName": "Atlanta, GA Metro ", "phone_number": "7709841787", "tags": [{"primary": true, "id": 1722, "name": "Restaurants"}], "fax_number": null, "expansion": {"count": null, "uri": null}, "impression_id": "000b0000003b58551f1e5c48cbb5f63cce9e2ac576", "profile": "http://www.citysearch.com/profile/772196800/atlanta_ga/zaban_food_group.html", "address": {"city": "Atlanta", "state": "GA", "street": "1900 the Exchange SE # 360", "postal_code": "30339"}, "capProviderId": null, "distance": null, "has_offers": false, "name": "Zaban Food Group", "longitude": -84.477741, "has_menu": false, "awards": null, "user_review_count": 0}, {"business_operation_status": 1, "rating": null, "neighborhood": null, "image": null, "scorecard": null, "featured": false, "sample_categories": "Restaurants, Delis And Delicatessens, Carry Out", "public_id": "firehouse-subs-austell", "id": 773458950, "votes": null, "tagline": null, "has_video": false, "website": null, "offers": null, "latitude": 33.866955, "politanName": "Atlanta, GA Metro ", "phone_number": "7704396165", "tags": [{"primary": false, "id": 1727, "name": "Delis And Delicatessens"}, {"primary": false, "id": 11247, "name": "Carry Out"}, {"primary": true, "id": 1722, "name": "Restaurants"}], "fax_number": null, "expansion": {"count": null, "uri": null}, "impression_id": "000b000000128d94c46c0d403b8c84ece310cb25e8", "profile": "http://www.citysearch.com/profile/773458950/austell_ga/firehouse_subs.html", "address": {"city": "Austell", "state": "GA", "street": "2860 E West Connector", "postal_code": "30106"}, "capProviderId": null, "distance": null, "has_offers": false, "name": "Firehouse Subs", "longitude": -84.626974, "has_menu": true, "awards": null, "user_review_count": 0}, {"business_operation_status": 1, "rating": null, "neighborhood": null, "image": null, "scorecard": null, "featured": false, "sample_categories": "Seafood Markets, Restaurants, Seafood", "public_id": "pieer-213-seafood-marietta", "id": 772962240, "votes": null, "tagline": null, "has_video": false, "website": null, "offers": null, "latitude": 33.951025, "politanName": "Atlanta, GA Metro ", "phone_number": "6782908170", "tags": [{"primary": false, "id": 1722, "name": "Restaurants"}, {"primary": false, "id": 11228, "name": "Seafood"}, {"primary": true, "id": 1719, "name": "Seafood Markets"}], "fax_number": null, "expansion": {"count": null, "uri": null}, "impression_id": "000b00000051d634634f3e4b168a20bc0aa2ef002d", "profile": "http://www.citysearch.com/profile/772962240/marietta_ga/pieer_213_seafood.html", "address": {"city": "Marietta", "state": "GA", "street": "35 S Marietta Pkwy Sw", "postal_code": "30064"}, "capProviderId": null, "distance": null, "has_offers": false, "name": "Pieer 213 Seafood", "longitude": -84.551785, "has_menu": false, "awards": null, "user_review_count": 0}, {"business_operation_status": 1, "rating": 8.0, "neighborhood": null, "image": null, "scorecard": null, "featured": false, "sample_categories": "Restaurants, American Express, Discover, MasterCard, Visa", "public_id": "joyful-diner-marietta", "id": 2908308, "votes": null, "tagline": null, "has_video": false, "website": null, "offers": null, "latitude": 34.017069, "politanName": "Atlanta, GA Metro ", "phone_number": "7705656700", "tags": [{"primary": false, "id": 11333, "name": "American Express"}, {"primary": false, "id": 11349, "name": "Discover"}, {"primary": false, "id": 11361, "name": "MasterCard"}, {"primary": false, "id": 11382, "name": "Visa"}, {"primary": true, "id": 1722, "name": "Restaurants"}], "fax_number": null, "expansion": {"count": null, "uri": null}, "impression_id": "000b000000d8c108b7c40c45cf99fa9c56bdac4688", "profile": "http://www.citysearch.com/profile/2908308/marietta_ga/joyful_diner.html", "address": {"city": "Marietta", "state": "GA", "street": "2778 Sandy Plains Rd", "postal_code": "30066"}, "capProviderId": null, "distance": null, "has_offers": false, "name": "Joyful Diner", "longitude": -84.491613, "has_menu": false, "awards": null, "user_review_count": 1}, {"business_operation_status": 0, "rating": null, "neighborhood": null, "image": null, "scorecard": null, "featured": false, "sample_categories": "Coffeehouses, Restaurants", "public_id": "expresso-expresso-marietta", "id": 2908344, "votes": null, "tagline": null, "has_video": false, "website": null, "offers": null, "latitude": 34.018009, "politanName": "Atlanta, GA Metro ", "phone_number": "7066375366", "tags": [{"primary": false, "id": 1722, "name": "Restaurants"}, {"primary": true, "id": 1726, "name": "Coffeehouses"}], "fax_number": null, "expansion": {"count": null, "uri": null}, "impression_id": "000b00000080ffec671dc948328b846fe054474f10", "profile": "http://www.citysearch.com/profile/2908344/marietta_ga/expresso_expresso.html", "address": {"city": "Marietta", "state": "GA", "street": "1251 Morgan Chase Dr NE", "postal_code": "30066"}, "capProviderId": null, "distance": null, "has_offers": false, "name": "Expresso Expresso", "longitude": -84.515255, "has_menu": false, "awards": null, "user_review_count": 0}, {"business_operation_status": 1, "rating": null, "neighborhood": null, "image": null, "scorecard": null, "featured": false, "sample_categories": "Restaurants, American Express, MasterCard, Visa", "public_id": "buddhas-delight-marietta", "id": 2908307, "votes": null, "tagline": null, "has_video": false, "website": "http://www.citysearch.com/profile/external/2908307/marietta_ga/buddhas_delight.html", "offers": null, "latitude": 34.017093, "politanName": "Atlanta, GA Metro ", "phone_number": "7705651995", "tags": [{"primary": false, "id": 11333, "name": "American Express"}, {"primary": false, "id": 11361, "name": "MasterCard"}, {"primary": false, "id": 11382, "name": "Visa"}, {"primary": true, "id": 1722, "name": "Restaurants"}], "fax_number": null, "expansion": {"count": null, "uri": null}, "impression_id": "000b0000007fe017a220474be48bc7e9520dddc673", "profile": "http://www.citysearch.com/profile/2908307/marietta_ga/buddhas_delight.html", "address": {"city": "Marietta", "state": "GA", "street": "2731 Sandy Plains Rd", "postal_code": "30066"}, "capProviderId": null, "distance": null, "has_offers": false, "name": "Buddhas Delight", "longitude": -84.492328, "has_menu": true, "awards": null, "user_review_count": 3}, {"business_operation_status": 1, "rating": null, "neighborhood": null, "image": null, "scorecard": null, "featured": false, "sample_categories": "Restaurants, Utility Contractors", "public_id": "optelian-marietta", "id": 2910548, "votes": null, "tagline": null, "has_video": false, "website": "http://www.citysearch.com/profile/external/2910548/marietta_ga/optelian.html", "offers": null, "latitude": 33.919788, "politanName": "Atlanta, GA Metro ", "phone_number": "7706909575", "tags": [{"primary": false, "id": 1722, "name": "Restaurants"}, {"primary": true, "id": 788, "name": "Utility Contractors"}], "fax_number": null, "expansion": {"count": null, "uri": null}, "impression_id": "000b0000000521877241324fc49e4f72a9cb093830", "profile": "http://www.citysearch.com/profile/2910548/marietta_ga/optelian.html", "address": {"city": "Marietta", "state": "GA", "street": "2121 New Market Pkwy SE", "postal_code": "30067"}, "capProviderId": null, "distance": null, "has_offers": false, "name": "Optelian", "longitude": -84.49377, "has_menu": false, "awards": null, "user_review_count": 0}, {"business_operation_status": 1, "rating": null, "neighborhood": null, "image": null, "scorecard": null, "featured": false, "sample_categories": "Restaurants, Barbecue Restaurants", "public_id": "wings-grill-mableton", "id": 787135080, "votes": null, "tagline": null, "has_video": false, "website": null, "offers": null, "latitude": 33.823999, "politanName": "Atlanta, GA Metro ", "phone_number": "7706757267", "tags": [{"primary": false, "id": 1724, "name": "Barbecue Restaurants"}, {"primary": true, "id": 1722, "name": "Restaurants"}], "fax_number": null, "expansion": {"count": null, "uri": null}, "impression_id": "000b000000af01bf2731304d7aa34031c08d4c0f22", "profile": "http://www.citysearch.com/profile/787135080/mableton_ga/wings_grill.html", "address": {"city": "Mableton", "state": "GA", "street": "5345 Floyd Rd Sw", "postal_code": "30126"}, "capProviderId": null, "distance": null, "has_offers": false, "name": "Wings & Grill", "longitude": -84.574687, "has_menu": false, "awards": null, "user_review_count": 0}, {"business_operation_status": 1, "rating": null, "neighborhood": null, "image": null, "scorecard": null, "featured": false, "sample_categories": "Restaurants, Hamburgers", "public_id": "ils-wayportmc-donalds-marietta", "id": 793313560, "votes": null, "tagline": null, "has_video": false, "website": null, "offers": null, "latitude": 33.924211, "politanName": "Atlanta, GA Metro ", "phone_number": "7708509549", "tags": [{"primary": false, "id": 11270, "name": "Hamburgers"}, {"primary": true, "id": 1722, "name": "Restaurants"}], "fax_number": null, "expansion": {"count": null, "uri": null}, "impression_id": "000b000000a2d2ba8029ac4340a5b546387e6d2702", "profile": "http://www.citysearch.com/profile/793313560/marietta_ga/ils_wayport_mc_donald_s.html", "address": {"city": "Marietta", "state": "GA", "street": "2375 Delk Rd Se", "postal_code": "30067"}, "capProviderId": null, "distance": null, "has_offers": false, "name": "Ils Wayport-Mc Donald's", "longitude": -84.483793, "has_menu": false, "awards": null, "user_review_count": 0}, {"business_operation_status": 1, "rating": null, "neighborhood": null, "image": null, "scorecard": null, "featured": false, "sample_categories": "Restaurants", "public_id": "winggos-restaurant-marietta", "id": 814303450, "votes": null, "tagline": null, "has_video": false, "website": null, "offers": null, "latitude": 33.980787, "politanName": "Atlanta, GA Metro ", "phone_number": "7709778688", "tags": [{"primary": true, "id": 1722, "name": "Restaurants"}], "fax_number": null, "expansion": {"count": null, "uri": null}, "impression_id": "000b000000d30b790f94204a80aa4141a95468d4a8", "profile": "http://www.citysearch.com/profile/814303450/marietta_ga/winggos_restaurant.html", "address": {"city": "Marietta", "state": "GA", "street": "3101 Roswell Rd # M", "postal_code": "30062"}, "capProviderId": null, "distance": null, "has_offers": false, "name": "Winggos Restaurant", "longitude": -84.464028, "has_menu": false, "awards": null, "user_review_count": 0}, {"business_operation_status": 1, "rating": null, "neighborhood": null, "image": null, "scorecard": null, "featured": false, "sample_categories": "Restaurants, American Express, Discover, MasterCard, Shop Online", "public_id": "metro-kitchen-marietta", "id": 728110290, "votes": null, "tagline": null, "has_video": false, "website": "http://www.citysearch.com/profile/external/728110290/marietta_ga/metro_kitchen.html", "offers": null, "latitude": 33.926059, "politanName": "Atlanta, GA Metro ", "phone_number": "7709160102", "tags": [{"primary": false, "id": 11333, "name": "American Express"}, {"primary": false, "id": 11349, "name": "Discover"}, {"primary": false, "id": 11361, "name": "MasterCard"}, {"primary": false, "id": 11375, "name": "Shop Online"}, {"primary": false, "id": 11382, "name": "Visa"}, {"primary": true, "id": 1722, "name": "Restaurants"}], "fax_number": null, "expansion": {"count": null, "uri": null}, "impression_id": "000b000000cc35f278267e406dbf2776202183e9ad", "profile": "http://www.citysearch.com/profile/728110290/marietta_ga/metro_kitchen.html", "address": {"city": "Marietta", "state": "GA", "street": "4041 Kingston Ct Se # A", "postal_code": "30067"}, "capProviderId": null, "distance": null, "has_offers": false, "name": "Metro Kitchen", "longitude": -84.491207, "has_menu": false, "awards": null, "user_review_count": 0}, {"business_operation_status": 1, "rating": null, "neighborhood": null, "image": null, "scorecard": null, "featured": false, "sample_categories": "Restaurants, Bars & Clubs, Carry Out", "public_id": "tgi-fridays-marietta-2", "id": 819157490, "votes": null, "tagline": null, "has_video": false, "website": null, "offers": null, "latitude": 33.931556, "politanName": "Atlanta, GA Metro ", "phone_number": "7709510821", "tags": [{"primary": false, "id": 164, "name": "Bars & Clubs"}, {"primary": false, "id": 11247, "name": "Carry Out"}, {"primary": true, "id": 1722, "name": "Restaurants"}], "fax_number": null, "expansion": {"count": null, "uri": null}, "impression_id": "000b000000d35457c6a3c741e3a2af5d45ad038ded", "profile": "http://www.citysearch.com/profile/819157490/marietta_ga/tgi_friday_s.html", "address": {"city": "Marietta", "state": "GA", "street": "1945 Powers Ferry Trce SE", "postal_code": "30067"}, "capProviderId": null, "distance": null, "has_offers": false, "name": "TGI Friday's", "longitude": -84.47837, "has_menu": false, "awards": null, "user_review_count": 0}, {"business_operation_status": 1, "rating": null, "neighborhood": null, "image": null, "scorecard": null, "featured": false, "sample_categories": "Restaurants", "public_id": "va-t-i-c-atlanta", "id": 610450354, "votes": null, "tagline": null, "has_video": false, "website": null, "offers": null, "latitude": 33.908517, "politanName": "Atlanta, GA Metro ", "phone_number": "7706934742", "tags": [{"primary": true, "id": 1722, "name": "Restaurants"}], "fax_number": null, "expansion": {"count": null, "uri": null}, "impression_id": "000b000000a06ab1c3e5d34afc821e1eefe0674ffd", "profile": "http://www.citysearch.com/profile/610450354/atlanta_ga/va_t_i_c.html", "address": {"city": "Atlanta", "state": "GA", "street": "1827 Powers Ferry Rd SE Ste 3-200 # 3-200", "postal_code": "30339"}, "capProviderId": null, "distance": null, "has_offers": false, "name": "VA T I C", "longitude": -84.463637, "has_menu": false, "awards": null, "user_review_count": 0}, {"business_operation_status": 1, "rating": null, "neighborhood": null, "image": null, "scorecard": null, "featured": false, "sample_categories": "Restaurants", "public_id": "golden-glory-cafe-mableton", "id": 627145624, "votes": null, "tagline": null, "has_video": false, "website": null, "offers": null, "latitude": 33.818318, "politanName": "Atlanta, GA Metro ", "phone_number": "6783880800", "tags": [{"primary": true, "id": 1722, "name": "Restaurants"}], "fax_number": null, "expansion": {"count": null, "uri": null}, "impression_id": "000b00000090d82f4742eb439390854b74a8634a6d", "profile": "http://www.citysearch.com/profile/627145624/mableton_ga/golden_glory_cafe.html", "address": {"city": "Mableton", "state": "GA", "street": "679 Veterans Memorial Hwy SW", "postal_code": "30126"}, "capProviderId": null, "distance": null, "has_offers": false, "name": "Golden Glory Cafe", "longitude": -84.57454, "has_menu": false, "awards": null, "user_review_count": 0}], "histograms": [], "tag_ids": [1722], "uri": "http://api.citygridmedia.com:8080/search/places/v2/search/where?has_offers=false&type=restaurant&format=json&page=35&where=30060&rpp=50&histograms=false&publisher=10000009598&region_type=circle", "did_you_mean": "", "regions": [{"latitude": 33.92521, "default_radius": 3.68, "type": "postal_code", "name": "30060", "longitude": -84.546093}], "call_id": "000b0000006fe47a17471743a3bbb30773c431a28e", "first_hit": 1701, "total_hits": 2103, "geo_ids": [26291], "page": 35, "last_hit": 1750}}