{"results": {"rpp": 50, "locations": [{"business_operation_status": 1, "rating": null, "neighborhood": null, "image": null, "scorecard": null, "featured": false, "sample_categories": "Restaurants", "public_id": "puntacana-dominican-bargrill-marietta", "id": 802510780, "votes": null, "tagline": null, "has_video": false, "website": null, "offers": null, "latitude": 33.901077, "politanName": "Atlanta, GA Metro ", "phone_number": "7707954500", "tags": [{"primary": true, "id": 1722, "name": "Restaurants"}], "fax_number": null, "expansion": {"count": null, "uri": null}, "impression_id": "000b00000081178dde52134022ad0ef9144a968da2", "profile": "http://www.citysearch.com/profile/802510780/marietta_ga/puntacana_dominican_bar_grill.html", "address": {"city": "Marietta", "state": "GA", "street": "1812 Powder Springs Rd Sw", "postal_code": "30064"}, "capProviderId": null, "distance": null, "has_offers": false, "name": "Puntacana Dominican Bar-Grill", "longitude": -84.606768, "has_menu": false, "awards": null, "user_review_count": 0}, {"business_operation_status": 1, "rating": null, "neighborhood": null, "image": null, "scorecard": null, "featured": false, "sample_categories": "Restaurants, Catering, Carry Out", "public_id": "joes-crab-shack-marietta-2", "id": 807865760, "votes": null, "tagline": null, "has_video": false, "website": null, "offers": null, "latitude": 33.993933, "politanName": "Atlanta, GA Metro ", "phone_number": "7704228374", "tags": [{"primary": false, "id": 1705, "name": "Catering"}, {"primary": false, "id": 11247, "name": "Carry Out"}, {"primary": true, "id": 1722, "name": "Restaurants"}], "fax_number": null, "expansion": {"count": null, "uri": null}, "impression_id": "000b00000054f67ab66e15451ea8806f7bfb78571d", "profile": "http://www.citysearch.com/profile/807865760/marietta_ga/joe_s_crab_shack.html", "address": {"city": "Marietta", "state": "GA", "street": "225 Williams Dr", "postal_code": "30066"}, "capProviderId": null, "distance": null, "has_offers": false, "name": "Joe's Crab Shack", "longitude": -84.548113, "has_menu": false, "awards": null, "user_review_count": 0}, {"business_operation_status": 1, "rating": null, "neighborhood": null, "image": null, "scorecard": null, "featured": false, "sample_categories": "Restaurants", "public_id": "grazie-marietta", "id": 818460400, "votes": null, "tagline": null, "has_video": false, "website": null, "offers": null, "latitude": 33.953111, "politanName": "Atlanta, GA Metro ", "phone_number": "7704998585", "tags": [{"primary": true, "id": 1722, "name": "Restaurants"}], "fax_number": null, "expansion": {"count": null, "uri": null}, "impression_id": "000b000000815695d2cc284fbf9a3acc9f377a3583", "profile": "http://www.citysearch.com/profile/818460400/marietta_ga/grazie.html", "address": {"city": "Marietta", "state": "GA", "street": "1000 Whitlock Ave NW", "postal_code": "30064"}, "capProviderId": null, "distance": null, "has_offers": false, "name": "Grazie", "longitude": -84.581272, "has_menu": false, "awards": null, "user_review_count": 0}, {"business_operation_status": 1, "rating": null, "neighborhood": null, "image": null, "scorecard": null, "featured": false, "sample_categories": "Restaurants", "public_id": "chazzs-place-marietta", "id": 732185840, "votes": null, "tagline": null, "has_video": false, "website": null, "offers": null, "latitude": 33.964105, "politanName": "Atlanta, GA Metro ", "phone_number": "7706932334", "tags": [{"primary": true, "id": 1722, "name": "Restaurants"}], "fax_number": null, "expansion": {"count": null, "uri": null}, "impression_id": "000b0000005e289d97a7044793b61fe78f9a7a4aee", "profile": "http://www.citysearch.com/profile/732185840/marietta_ga/chazz_s_place.html", "address": {"city": "Marietta", "state": "GA", "street": "531 Roselane St NW", "postal_code": "30060"}, "capProviderId": null, "distance": null, "has_offers": false, "name": "Chazz's Place", "longitude": -84.557337, "has_menu": false, "awards": null, "user_review_count": 0}, {"business_operation_status": 1, "rating": null, "neighborhood": null, "image": null, "scorecard": null, "featured": false, "sample_categories": "Restaurants", "public_id": "olgas-porch-inc-marietta", "id": 732189800, "votes": null, "tagline": null, "has_video": false, "website": null, "offers": null, "latitude": 33.962903, "politanName": "Atlanta, GA Metro ", "phone_number": "6786374595", "tags": [{"primary": true, "id": 1722, "name": "Restaurants"}], "fax_number": null, "expansion": {"count": null, "uri": null}, "impression_id": "000b000000189e6a0c7d4d4ecfbaae88f6b999dc15", "profile": "http://www.citysearch.com/profile/732189800/marietta_ga/olgas_porch_inc.html", "address": {"city": "Marietta", "state": "GA", "street": "1591 Gresham Rd", "postal_code": "30062"}, "capProviderId": null, "distance": null, "has_offers": false, "name": "Olgas Porch Inc", "longitude": -84.50563, "has_menu": false, "awards": null, "user_review_count": 0}, {"business_operation_status": 1, "rating": null, "neighborhood": null, "image": null, "scorecard": null, "featured": false, "sample_categories": "Restaurants", "public_id": "ogas-cafeteria-marietta", "id": 812725490, "votes": null, "tagline": null, "has_video": false, "website": null, "offers": null, "latitude": 34.017069, "politanName": "Atlanta, GA Metro ", "phone_number": "7705656700", "tags": [{"primary": true, "id": 1722, "name": "Restaurants"}], "fax_number": null, "expansion": {"count": null, "uri": null}, "impression_id": "000b000000182d642d6db64e098574f1f1662aca9a", "profile": "http://www.citysearch.com/profile/812725490/marietta_ga/ogas_cafeteria.html", "address": {"city": "Marietta", "state": "GA", "street": "2778 Sandy Plains Rd", "postal_code": "30066"}, "capProviderId": null, "distance": null, "has_offers": false, "name": "Ogas Cafeteria", "longitude": -84.491613, "has_menu": false, "awards": null, "user_review_count": 0}, {"business_operation_status": 1, "rating": null, "neighborhood": null, "image": null, "scorecard": null, "featured": false, "sample_categories": "Restaurants, Delis And Delicatessens, Carry Out", "public_id": "firehouse-subs-marietta-2", "id": 745603500, "votes": null, "tagline": null, "has_video": false, "website": null, "offers": null, "latitude": 33.95896, "politanName": "Atlanta, GA Metro ", "phone_number": "7707925993", "tags": [{"primary": false, "id": 1727, "name": "Delis And Delicatessens"}, {"primary": false, "id": 11247, "name": "Carry Out"}, {"primary": true, "id": 1722, "name": "Restaurants"}], "fax_number": null, "expansion": {"count": null, "uri": null}, "impression_id": "000b0000000dfabb6c938444fa99c6621f9e11f28d", "profile": "http://www.citysearch.com/profile/745603500/marietta_ga/firehouse_subs.html", "address": {"city": "Marietta", "state": "GA", "street": "145 N Marietta Pkwy NE", "postal_code": "30060"}, "capProviderId": null, "distance": null, "has_offers": false, "name": "Firehouse Subs", "longitude": -84.546879, "has_menu": false, "awards": null, "user_review_count": 0}, {"business_operation_status": 1, "rating": null, "neighborhood": null, "image": null, "scorecard": null, "featured": false, "sample_categories": "Restaurants", "public_id": "anthonys-italian-kitchen-marietta", "id": 826910750, "votes": null, "tagline": null, "has_video": false, "website": null, "offers": null, "latitude": 33.952602, "politanName": "Atlanta, GA Metro ", "phone_number": "7705097757", "tags": [{"primary": true, "id": 1722, "name": "Restaurants"}], "fax_number": null, "expansion": {"count": null, "uri": null}, "impression_id": "000b000000d5cab1f889b4456bb98531a261ac7cd0", "profile": "http://www.citysearch.com/profile/826910750/marietta_ga/anthony_s_italian_kitchen.html", "address": {"city": "Marietta", "state": "GA", "street": "1323 Roswell Rd", "postal_code": "30062"}, "capProviderId": null, "distance": null, "has_offers": false, "name": "Anthony's Italian Kitchen", "longitude": -84.549933, "has_menu": true, "awards": null, "user_review_count": 0}, {"business_operation_status": 1, "rating": null, "neighborhood": null, "image": null, "scorecard": null, "featured": false, "sample_categories": "Ice Cream Parlors, Dairy Products", "public_id": "flavorich-inc-marietta", "id": 764859740, "votes": null, "tagline": null, "has_video": false, "website": "http://www.citysearch.com/profile/external/764859740/marietta_ga/flav_o_rich_inc.html", "offers": null, "latitude": 33.986137, "politanName": "Atlanta, GA Metro ", "phone_number": "6782901326", "tags": [{"primary": false, "id": 1730, "name": "Ice Cream Parlors"}, {"primary": true, "id": 12837, "name": "Dairy Products"}], "fax_number": null, "expansion": {"count": null, "uri": null}, "impression_id": "000b000000bd7a0b24be8943b9b0eeb5e1303afef9", "profile": "http://www.citysearch.com/profile/764859740/marietta_ga/flav_o_rich_inc.html", "address": {"city": "Marietta", "state": "GA", "street": "1449 Cobb Pkwy N", "postal_code": "30062"}, "capProviderId": null, "distance": null, "has_offers": false, "name": "Flav-O-Rich Inc", "longitude": -84.571376, "has_menu": false, "awards": null, "user_review_count": 0}, {"business_operation_status": 1, "rating": null, "neighborhood": null, "image": null, "scorecard": null, "featured": false, "sample_categories": "Restaurants, Chinese, American Express, Discover, MasterCard", "public_id": "hong-kong-chinese-restaurant-marietta", "id": 775206160, "votes": null, "tagline": null, "has_video": false, "website": null, "offers": null, "latitude": 33.993754, "politanName": "Atlanta, GA Metro ", "phone_number": "7704256212", "tags": [{"primary": false, "id": 11252, "name": "Chinese"}, {"primary": false, "id": 11333, "name": "American Express"}, {"primary": false, "id": 11349, "name": "Discover"}, {"primary": false, "id": 11361, "name": "MasterCard"}, {"primary": false, "id": 11382, "name": "Visa"}, {"primary": true, "id": 1722, "name": "Restaurants"}], "fax_number": null, "expansion": {"count": null, "uri": null}, "impression_id": "000b00000014263f25af58478dadebe6044d9863c3", "profile": "http://www.citysearch.com/profile/775206160/marietta_ga/hong_kong_chinese_restaurant.html", "address": {"city": "Marietta", "state": "GA", "street": "2774 Cobb Pkwy NW", "postal_code": "30060"}, "capProviderId": null, "distance": null, "has_offers": false, "name": "Hong Kong Chinese Restaurant", "longitude": -84.581248, "has_menu": false, "awards": null, "user_review_count": 0}, {"business_operation_status": 1, "rating": null, "neighborhood": null, "image": null, "scorecard": null, "featured": false, "sample_categories": "Restaurants, Pizza, Carry Out", "public_id": "pizza-hut-marietta-12", "id": 775223530, "votes": null, "tagline": null, "has_video": false, "website": null, "offers": null, "latitude": 33.952602, "politanName": "Atlanta, GA Metro ", "phone_number": "7709716932", "tags": [{"primary": false, "id": 1722, "name": "Restaurants"}, {"primary": false, "id": 11247, "name": "Carry Out"}, {"primary": true, "id": 11299, "name": "Pizza"}], "fax_number": null, "expansion": {"count": null, "uri": null}, "impression_id": "000b00000017a3fd76b4e5446588d08e86f267d806", "profile": "http://www.citysearch.com/profile/775223530/marietta_ga/pizza_hut.html", "address": {"city": "Marietta", "state": "GA", "street": "2204 Roswell Rd", "postal_code": "30062"}, "capProviderId": null, "distance": null, "has_offers": false, "name": "Pizza Hut", "longitude": -84.549933, "has_menu": false, "awards": null, "user_review_count": 0}, {"business_operation_status": 1, "rating": null, "neighborhood": null, "image": null, "scorecard": null, "featured": false, "sample_categories": "Restaurants", "public_id": "grill-on-the-square-marietta", "id": 827975120, "votes": null, "tagline": null, "has_video": false, "website": null, "offers": null, "latitude": 33.952271, "politanName": "Atlanta, GA Metro ", "phone_number": "7704265161", "tags": [{"primary": true, "id": 1722, "name": "Restaurants"}], "fax_number": null, "expansion": {"count": null, "uri": null}, "impression_id": "000b000000578d85352438496094950abe640140c6", "profile": "http://www.citysearch.com/profile/827975120/marietta_ga/grill_on_the_square.html", "address": {"city": "Marietta", "state": "GA", "street": "70 S Park Sq NE # C", "postal_code": "30060"}, "capProviderId": null, "distance": null, "has_offers": false, "name": "Grill On The Square", "longitude": -84.549833, "has_menu": false, "awards": null, "user_review_count": 0}, {"business_operation_status": 1, "rating": null, "neighborhood": null, "image": null, "scorecard": null, "featured": false, "sample_categories": "Carry Out", "public_id": "lucyann-s-co-llc-marietta", "id": 810787170, "votes": null, "tagline": null, "has_video": false, "website": null, "offers": null, "latitude": 34.011742, "politanName": "Atlanta, GA Metro ", "phone_number": "6785609088", "tags": [{"primary": true, "id": 11247, "name": "Carry Out"}], "fax_number": null, "expansion": {"count": null, "uri": null}, "impression_id": "000b000000d4229e2700e54a109bd17bc5d555c768", "profile": "http://www.citysearch.com/profile/810787170/marietta_ga/lucyann_s_co_llc.html", "address": {"city": "Marietta", "state": "GA", "street": "2550 Sandy Plains Rd # 100", "postal_code": "30066"}, "capProviderId": null, "distance": null, "has_offers": false, "name": "Lucyann S Co LLC", "longitude": -84.495056, "has_menu": false, "awards": null, "user_review_count": 0}, {"business_operation_status": 0, "rating": null, "neighborhood": null, "image": null, "scorecard": null, "featured": false, "sample_categories": "Restaurants", "public_id": "the-party-q-bbq-restaurant-marietta", "id": 672617170, "votes": null, "tagline": null, "has_video": false, "website": null, "offers": null, "latitude": 34.016708, "politanName": "Atlanta, GA Metro ", "phone_number": "7704242225", "tags": [{"primary": true, "id": 1722, "name": "Restaurants"}], "fax_number": null, "expansion": {"count": null, "uri": null}, "impression_id": "000b000000c0a8b3ac921f4899a8b56c5a9664c1c5", "profile": "http://www.citysearch.com/profile/672617170/marietta_ga/the_party_q_bbq_restaurant.html", "address": {"city": "Marietta", "state": "GA", "street": "2821 Chastain Meadows Pkwy", "postal_code": "30066"}, "capProviderId": null, "distance": null, "has_offers": false, "name": "The Party Q! BBQ Restaurant", "longitude": -84.556251, "has_menu": false, "awards": null, "user_review_count": 0}, {"business_operation_status": 1, "rating": null, "neighborhood": null, "image": null, "scorecard": null, "featured": false, "sample_categories": "Restaurants, Bars & Clubs", "public_id": "cave-tapas-bar-and-lounge-kennesaw", "id": 672692320, "votes": null, "tagline": null, "has_video": false, "website": null, "offers": null, "latitude": 33.991946, "politanName": "Atlanta, GA Metro ", "phone_number": "6783917011", "tags": [{"primary": false, "id": 164, "name": "Bars & Clubs"}, {"primary": true, "id": 1722, "name": "Restaurants"}], "fax_number": null, "expansion": {"count": null, "uri": null}, "impression_id": "000b00000042de75af4f0143a8aca404cee2ac2ae9", "profile": "http://www.citysearch.com/profile/672692320/kennesaw_ga/cave_tapas_bar_and_lounge.html", "address": {"city": "Kennesaw", "state": "GA", "street": "1619 Collins Rd NW", "postal_code": "30152"}, "capProviderId": null, "distance": null, "has_offers": false, "name": "Cave Tapas Bar and Lounge", "longitude": -84.59912, "has_menu": false, "awards": null, "user_review_count": 0}, {"business_operation_status": 1, "rating": null, "neighborhood": null, "image": null, "scorecard": null, "featured": false, "sample_categories": "Restaurants", "public_id": "r-cs-southern-cooking-marietta", "id": 754855600, "votes": null, "tagline": null, "has_video": false, "website": null, "offers": null, "latitude": 33.951248, "politanName": "Atlanta, GA Metro ", "phone_number": "7704854668", "tags": [{"primary": true, "id": 1722, "name": "Restaurants"}], "fax_number": null, "expansion": {"count": null, "uri": null}, "impression_id": "000b00000084575f33e89c453cb11554d3b486474d", "profile": "http://www.citysearch.com/profile/754855600/marietta_ga/r_c_s_southern_cooking.html", "address": {"city": "Marietta", "state": "GA", "street": "1516 Roswell Rd", "postal_code": "30062"}, "capProviderId": null, "distance": null, "has_offers": false, "name": "R C's Southern Cooking", "longitude": -84.508172, "has_menu": false, "awards": null, "user_review_count": 0}, {"business_operation_status": 1, "rating": null, "neighborhood": null, "image": null, "scorecard": null, "featured": false, "sample_categories": "Restaurants", "public_id": "la-hispaniola-marietta", "id": 672780210, "votes": null, "tagline": null, "has_video": false, "website": null, "offers": null, "latitude": 33.952062, "politanName": "Atlanta, GA Metro ", "phone_number": "7704240093", "tags": [{"primary": true, "id": 1722, "name": "Restaurants"}], "fax_number": null, "expansion": {"count": null, "uri": null}, "impression_id": "000b0000005fd8e3fc66d84635b5e0c0daceca2ea3", "profile": "http://www.citysearch.com/profile/672780210/marietta_ga/la_hispaniola.html", "address": {"city": "Marietta", "state": "GA", "street": "168 Roswell St NE", "postal_code": "30060"}, "capProviderId": null, "distance": null, "has_offers": false, "name": "La Hispaniola", "longitude": -84.548376, "has_menu": false, "awards": null, "user_review_count": 0}, {"business_operation_status": 1, "rating": null, "neighborhood": null, "image": null, "scorecard": null, "featured": false, "sample_categories": "Restaurants, Carry Out, Pizza", "public_id": "jimmy-johns-marietta", "id": 672132390, "votes": null, "tagline": null, "has_video": false, "website": null, "offers": null, "latitude": 33.970943, "politanName": "Atlanta, GA Metro ", "phone_number": "6785814550", "tags": [{"primary": false, "id": 11247, "name": "Carry Out"}, {"primary": false, "id": 11299, "name": "Pizza"}, {"primary": true, "id": 1722, "name": "Restaurants"}], "fax_number": null, "expansion": {"count": null, "uri": null}, "impression_id": "000b00000075f554b6a5784e8a95748468e5426fac", "profile": "http://www.citysearch.com/profile/672132390/marietta_ga/jimmy_john_s.html", "address": {"city": "Marietta", "state": "GA", "street": "801 Church St NE Ste A", "postal_code": "30060"}, "capProviderId": null, "distance": null, "has_offers": false, "name": "Jimmy John's", "longitude": -84.550624, "has_menu": false, "awards": null, "user_review_count": 0}, {"business_operation_status": 1, "rating": null, "neighborhood": null, "image": null, "scorecard": null, "featured": false, "sample_categories": "Barbecue Restaurants", "public_id": "wanyes-brother-bbq-marietta", "id": 777668500, "votes": null, "tagline": null, "has_video": false, "website": null, "offers": null, "latitude": 33.977691, "politanName": "Atlanta, GA Metro ", "phone_number": "6783313892", "tags": [{"primary": true, "id": 1724, "name": "Barbecue Restaurants"}], "fax_number": null, "expansion": {"count": null, "uri": null}, "impression_id": "000b0000000738b9dfae7147e2a9789c4e444f1b56", "profile": "http://www.citysearch.com/profile/777668500/marietta_ga/wanye_s_brother_bbq.html", "address": {"city": "Marietta", "state": "GA", "street": "1160 Hayes Industrial Dr", "postal_code": "30062"}, "capProviderId": null, "distance": null, "has_offers": false, "name": "Wanye's Brother BBQ", "longitude": -84.542327, "has_menu": false, "awards": null, "user_review_count": 0}, {"business_operation_status": 1, "rating": null, "neighborhood": null, "image": null, "scorecard": null, "featured": false, "sample_categories": "Restaurants", "public_id": "hoboken-cafe-marietta", "id": 777676340, "votes": null, "tagline": null, "has_video": false, "website": null, "offers": null, "latitude": 33.951914, "politanName": "Atlanta, GA Metro ", "phone_number": "6789093375", "tags": [{"primary": true, "id": 1722, "name": "Restaurants"}], "fax_number": null, "expansion": {"count": null, "uri": null}, "impression_id": "000b000000cdb88b2608e845ea9454f04e42669605", "profile": "http://www.citysearch.com/profile/777676340/marietta_ga/hoboken_cafe.html", "address": {"city": "Marietta", "state": "GA", "street": "688 Whitlock Ave NW", "postal_code": "30064"}, "capProviderId": null, "distance": null, "has_offers": false, "name": "Hoboken Cafe", "longitude": -84.57265, "has_menu": false, "awards": null, "user_review_count": 0}, {"business_operation_status": 1, "rating": null, "neighborhood": null, "image": null, "scorecard": null, "featured": false, "sample_categories": "Restaurants", "public_id": "d-c-backyard-grill-inc-marietta", "id": 798805340, "votes": null, "tagline": null, "has_video": false, "website": null, "offers": null, "latitude": 33.942612, "politanName": "Atlanta, GA Metro ", "phone_number": "7709198797", "tags": [{"primary": true, "id": 1722, "name": "Restaurants"}], "fax_number": null, "expansion": {"count": null, "uri": null}, "impression_id": "000b000000e728e072d1314ba38342e631c3ef34eb", "profile": "http://www.citysearch.com/profile/798805340/marietta_ga/d_c_backyard_grill_inc.html", "address": {"city": "Marietta", "state": "GA", "street": "547 Atlanta St Se", "postal_code": "30060"}, "capProviderId": null, "distance": null, "has_offers": false, "name": "D C Backyard Grill INC", "longitude": -84.545574, "has_menu": false, "awards": null, "user_review_count": 0}, {"business_operation_status": 1, "rating": null, "neighborhood": null, "image": null, "scorecard": null, "featured": false, "sample_categories": "Restaurants", "public_id": "las-drisas-number-2-marietta", "id": 713600220, "votes": null, "tagline": null, "has_video": false, "website": null, "offers": null, "latitude": 33.935213, "politanName": "Atlanta, GA Metro ", "phone_number": "6783542220", "tags": [{"primary": true, "id": 1722, "name": "Restaurants"}], "fax_number": null, "expansion": {"count": null, "uri": null}, "impression_id": "000b000000d70c3289cb7b43e8bc2f2b7ec0b6c3f8", "profile": "http://www.citysearch.com/profile/713600220/marietta_ga/las_drisas_number_2.html", "address": {"city": "Marietta", "state": "GA", "street": "715 Sandtown Rd Sw", "postal_code": "30008"}, "capProviderId": null, "distance": null, "has_offers": false, "name": "Las Drisas Number 2", "longitude": -84.555821, "has_menu": false, "awards": null, "user_review_count": 0}, {"business_operation_status": 1, "rating": null, "neighborhood": null, "image": null, "scorecard": null, "featured": false, "sample_categories": "Restaurants", "public_id": "great-panda-restaurant-marietta", "id": 814222940, "votes": null, "tagline": null, "has_video": false, "website": null, "offers": null, "latitude": 33.953111, "politanName": "Atlanta, GA Metro ", "phone_number": "7704282831", "tags": [{"primary": true, "id": 1722, "name": "Restaurants"}], "fax_number": null, "expansion": {"count": null, "uri": null}, "impression_id": "000b000000c53410e93a104b78b4270e9751b0c5da", "profile": "http://www.citysearch.com/profile/814222940/marietta_ga/great_panda_restaurant.html", "address": {"city": "Marietta", "state": "GA", "street": "1000 Whitlock Ave NW", "postal_code": "30064"}, "capProviderId": null, "distance": null, "has_offers": false, "name": "Great Panda Restaurant", "longitude": -84.581272, "has_menu": false, "awards": null, "user_review_count": 0}, {"business_operation_status": 1, "rating": null, "neighborhood": null, "image": null, "scorecard": null, "featured": false, "sample_categories": "Restaurants", "public_id": "planet-smoothie-marietta-8", "id": 819890580, "votes": null, "tagline": null, "has_video": false, "website": null, "offers": null, "latitude": 33.947326, "politanName": "Atlanta, GA Metro ", "phone_number": "7704272700", "tags": [{"primary": true, "id": 1722, "name": "Restaurants"}], "fax_number": null, "expansion": {"count": null, "uri": null}, "impression_id": "000b00000035991a6550414e37ba07c806f028b6c6", "profile": "http://www.citysearch.com/profile/819890580/marietta_ga/planet_smoothie.html", "address": {"city": "Marietta", "state": "GA", "street": "3451 Barrett Pkwy NW # 145", "postal_code": "30064"}, "capProviderId": null, "distance": null, "has_offers": false, "name": "Planet Smoothie", "longitude": -84.622965, "has_menu": false, "awards": null, "user_review_count": 0}, {"business_operation_status": 1, "rating": null, "neighborhood": null, "image": null, "scorecard": null, "featured": false, "sample_categories": "Restaurants", "public_id": "tom-chee-kennesaw", "id": 626960404, "votes": null, "tagline": null, "has_video": false, "website": null, "offers": null, "latitude": 34.000514, "politanName": "Atlanta, GA Metro ", "phone_number": "6784988321", "tags": [{"primary": true, "id": 1722, "name": "Restaurants"}], "fax_number": null, "expansion": {"count": null, "uri": null}, "impression_id": "000b00000006392a4d643a41a6b735cb6c2c59a76b", "profile": "http://www.citysearch.com/profile/626960404/kennesaw_ga/tom_chee.html", "address": {"city": "Kennesaw", "state": "GA", "street": "1200 Ernest W Barrett Pkwy NW 208", "postal_code": "30144"}, "capProviderId": null, "distance": null, "has_offers": false, "name": "Tom + Chee", "longitude": -84.587423, "has_menu": false, "awards": null, "user_review_count": 0}, {"business_operation_status": 1, "rating": null, "neighborhood": null, "image": null, "scorecard": null, "featured": false, "sample_categories": "Restaurants", "public_id": "playa-azul-restaurant-marietta", "id": 822491930, "votes": null, "tagline": null, "has_video": false, "website": null, "offers": null, "latitude": 33.941881, "politanName": "Atlanta, GA Metro ", "phone_number": "6785946635", "tags": [{"primary": true, "id": 1722, "name": "Restaurants"}], "fax_number": null, "expansion": {"count": null, "uri": null}, "impression_id": "000b000000c1f630a60aa740c48a5bdf9ad5c034e5", "profile": "http://www.citysearch.com/profile/822491930/marietta_ga/playa_azul_restaurant.html", "address": {"city": "Marietta", "state": "GA", "street": "401 Rose Dr # 201", "postal_code": "30060"}, "capProviderId": null, "distance": null, "has_offers": false, "name": "Playa Azul Restaurant", "longitude": -84.523857, "has_menu": false, "awards": null, "user_review_count": 0}, {"business_operation_status": 1, "rating": null, "neighborhood": null, "image": null, "scorecard": null, "featured": false, "sample_categories": "Restaurants, Carry Out, Hamburgers", "public_id": "five-guys-burgers-fries-atlanta-6", "id": 622023500, "votes": null, "tagline": null, "has_video": false, "website": "http://www.citysearch.com/profile/external/622023500/atlanta_ga/five_guys_burgers_fries.html", "offers": null, "latitude": 33.894565, "politanName": "Atlanta, GA Metro ", "phone_number": "4046296577", "tags": [{"primary": false, "id": 11247, "name": "Carry Out"}, {"primary": false, "id": 11270, "name": "Hamburgers"}, {"primary": true, "id": 1722, "name": "Restaurants"}], "fax_number": null, "expansion": {"count": null, "uri": null}, "impression_id": "000b0000004a0f77f550de4195b8f66c2a6d9b501b", "profile": "http://www.citysearch.com/profile/622023500/atlanta_ga/five_guys_burgers_fries.html", "address": {"city": "Atlanta", "state": "GA", "street": "2400 Herodian Way", "postal_code": "30331"}, "capProviderId": null, "distance": null, "has_offers": false, "name": "Five Guys Burgers & Fries", "longitude": -84.472334, "has_menu": false, "awards": null, "user_review_count": 0}, {"business_operation_status": 1, "rating": null, "neighborhood": null, "image": null, "scorecard": null, "featured": false, "sample_categories": "Restaurants", "public_id": "chicken-boss-llc-marietta", "id": 627930504, "votes": null, "tagline": null, "has_video": false, "website": null, "offers": null, "latitude": 33.933122, "politanName": "Atlanta, GA Metro ", "phone_number": "7705080980", "tags": [{"primary": true, "id": 1722, "name": "Restaurants"}], "fax_number": null, "expansion": {"count": null, "uri": null}, "impression_id": "000b0000006bea5cde23a846039a2a2e752cd1a10c", "profile": "http://www.citysearch.com/profile/627930504/marietta_ga/chicken_boss_llc.html", "address": {"city": "Marietta", "state": "GA", "street": "803 Powder Springs St", "postal_code": "30064"}, "capProviderId": null, "distance": null, "has_offers": false, "name": "Chicken Boss LLC", "longitude": -84.559881, "has_menu": false, "awards": null, "user_review_count": 0}, {"business_operation_status": 1, "rating": null, "neighborhood": null, "image": null, "scorecard": null, "featured": false, "sample_categories": "Restaurants, Delis And Delicatessens, American Express, Debit Card, Discover", "public_id": "great-wraps-kennesaw", "id": 682599740, "votes": null, "tagline": null, "has_video": false, "website": null, "offers": null, "latitude": 34.018145, "politanName": "Atlanta, GA Metro ", "phone_number": "7704287788", "tags": [{"primary": false, "id": 1727, "name": "Delis And Delicatessens"}, {"primary": false, "id": 11333, "name": "American Express"}, {"primary": false, "id": 11347, "name": "Debit Card"}, {"primary": false, "id": 11349, "name": "Discover"}, {"primary": false, "id": 11361, "name": "MasterCard"}, {"primary": false, "id": 11382, "name": "Visa"}, {"primary": true, "id": 1722, "name": "Restaurants"}], "fax_number": null, "expansion": {"count": null, "uri": null}, "impression_id": "000b000000b95c962f691648d5ad1d355e6ca38cba", "profile": "http://www.citysearch.com/profile/682599740/kennesaw_ga/great_wraps.html", "address": {"city": "Kennesaw", "state": "GA", "street": "400 Barrett Pkwy # 130", "postal_code": "30144"}, "capProviderId": null, "distance": null, "has_offers": false, "name": "Great Wraps", "longitude": -84.561896, "has_menu": false, "awards": null, "user_review_count": 2}, {"business_operation_status": 1, "rating": null, "neighborhood": null, "image": null, "scorecard": null, "featured": false, "sample_categories": "Restaurants, Italian, Pizza", "public_id": "gondolier-pizza-italian-rstrnt-kennesaw", "id": 777744770, "votes": null, "tagline": null, "has_video": false, "website": null, "offers": null, "latitude": 34.006194, "politanName": "Atlanta, GA Metro ", "phone_number": "7704191141", "tags": [{"primary": false, "id": 11279, "name": "Italian"}, {"primary": false, "id": 11299, "name": "Pizza"}, {"primary": true, "id": 1722, "name": "Restaurants"}], "fax_number": null, "expansion": {"count": null, "uri": null}, "impression_id": "000b000000ab55cc02bf744b1e9f6853d2f2445efd", "profile": "http://www.citysearch.com/profile/777744770/kennesaw_ga/gondolier_pizza_italian_rstrnt.html", "address": {"city": "Kennesaw", "state": "GA", "street": "725 Ernest W Barrett Pkwy NW", "postal_code": "30144"}, "capProviderId": null, "distance": null, "has_offers": false, "name": "Gondolier Pizza Italian Rstrnt", "longitude": -84.573858, "has_menu": true, "awards": null, "user_review_count": 3}, {"business_operation_status": 1, "rating": null, "neighborhood": null, "image": null, "scorecard": null, "featured": false, "sample_categories": "Restaurants", "public_id": "fork-u-concepts-marietta", "id": 801125670, "votes": null, "tagline": null, "has_video": false, "website": null, "offers": null, "latitude": 33.952269, "politanName": "Atlanta, GA Metro ", "phone_number": "6789036243", "tags": [{"primary": true, "id": 1722, "name": "Restaurants"}], "fax_number": null, "expansion": {"count": null, "uri": null}, "impression_id": "000b00000053b62366e55c4b619d622b83790a3288", "profile": "http://www.citysearch.com/profile/801125670/marietta_ga/fork_u_concepts.html", "address": {"city": "Marietta", "state": "GA", "street": "30 S Park Sq Ne", "postal_code": "30060"}, "capProviderId": null, "distance": null, "has_offers": false, "name": "Fork U Concepts", "longitude": -84.550109, "has_menu": false, "awards": null, "user_review_count": 0}, {"business_operation_status": 1, "rating": null, "neighborhood": null, "image": null, "scorecard": null, "featured": false, "sample_categories": "Restaurants, Carry Out, Shop Online, Chicken", "public_id": "kfc-marietta-11", "id": 801057620, "votes": null, "tagline": null, "has_video": false, "website": "http://www.citysearch.com/profile/external/801057620/marietta_ga/kfc.html", "offers": null, "latitude": 33.951359, "politanName": "Atlanta, GA Metro ", "phone_number": "7704274291", "tags": [{"primary": false, "id": 11247, "name": "Carry Out"}, {"primary": false, "id": 11375, "name": "Shop Online"}, {"primary": false, "id": 12839, "name": "Chicken"}, {"primary": true, "id": 1722, "name": "Restaurants"}], "fax_number": null, "expansion": {"count": null, "uri": null}, "impression_id": "000b00000091d409e7ad384dca8dfe8def1e5d1d71", "profile": "http://www.citysearch.com/profile/801057620/marietta_ga/kfc.html", "address": {"city": "Marietta", "state": "GA", "street": "37 Powder Springs St", "postal_code": "30064"}, "capProviderId": null, "distance": null, "has_offers": false, "name": "KFC", "longitude": -84.550223, "has_menu": true, "awards": null, "user_review_count": 0}, {"business_operation_status": 1, "rating": null, "neighborhood": null, "image": null, "scorecard": null, "featured": false, "sample_categories": "Restaurants, Barbecue Restaurants", "public_id": "wings-xpress-marietta", "id": 803550980, "votes": null, "tagline": null, "has_video": false, "website": null, "offers": null, "latitude": 33.933132, "politanName": "Atlanta, GA Metro ", "phone_number": "6784621167", "tags": [{"primary": false, "id": 1724, "name": "Barbecue Restaurants"}, {"primary": true, "id": 1722, "name": "Restaurants"}], "fax_number": null, "expansion": {"count": null, "uri": null}, "impression_id": "000b000000f9b189d41a044c9db386a4b5dd09eabb", "profile": "http://www.citysearch.com/profile/803550980/marietta_ga/wings_xpress.html", "address": {"city": "Marietta", "state": "GA", "street": "803 Powder Springs St # 2", "postal_code": "30064"}, "capProviderId": null, "distance": null, "has_offers": false, "name": "Wings Xpress", "longitude": -84.559871, "has_menu": false, "awards": null, "user_review_count": 0}, {"business_operation_status": 1, "rating": null, "neighborhood": null, "image": null, "scorecard": null, "featured": false, "sample_categories": "Restaurants", "public_id": "buffalos-southwest-cafe-kennesaw-2", "id": 808032200, "votes": null, "tagline": null, "has_video": false, "website": "http://www.citysearch.com/profile/external/808032200/kennesaw_ga/buffalo_s_southwest_cafe.html", "offers": null, "latitude": 33.99979, "politanName": "Atlanta, GA Metro ", "phone_number": "7704249464", "tags": [{"primary": true, "id": 1722, "name": "Restaurants"}], "fax_number": null, "expansion": {"count": null, "uri": null}, "impression_id": "000b000000c360e4012b7d4a679e62b5339f3c7641", "profile": "http://www.citysearch.com/profile/808032200/kennesaw_ga/buffalo_s_southwest_cafe.html", "address": {"city": "Kennesaw", "state": "GA", "street": "1200 Ernest W Barrett Pkwy NW", "postal_code": "30144"}, "capProviderId": null, "distance": null, "has_offers": false, "name": "Buffalo's Southwest Cafe", "longitude": -84.585399, "has_menu": false, "awards": null, "user_review_count": 0}, {"business_operation_status": 1, "rating": null, "neighborhood": null, "image": null, "scorecard": null, "featured": false, "sample_categories": "Restaurants", "public_id": "el-dorado-restaurant-marietta-2", "id": 821705220, "votes": null, "tagline": null, "has_video": false, "website": null, "offers": null, "latitude": 33.902517, "politanName": "Atlanta, GA Metro ", "phone_number": "7704347772", "tags": [{"primary": true, "id": 1722, "name": "Restaurants"}], "fax_number": null, "expansion": {"count": null, "uri": null}, "impression_id": "000b0000007c463e39cf054a8db219535959e82092", "profile": "http://www.citysearch.com/profile/821705220/marietta_ga/el_dorado_restaurant.html", "address": {"city": "Marietta", "state": "GA", "street": "371 Pat Mell Rd SE # 125", "postal_code": "30060"}, "capProviderId": null, "distance": null, "has_offers": false, "name": "El Dorado Restaurant", "longitude": -84.543334, "has_menu": false, "awards": null, "user_review_count": 0}, {"business_operation_status": 1, "rating": null, "neighborhood": null, "image": null, "scorecard": null, "featured": false, "sample_categories": "Restaurants, Catering, Carry Out, Chicken", "public_id": "chickfila-marietta-12", "id": 775192090, "votes": null, "tagline": null, "has_video": false, "website": "http://www.citysearch.com/profile/external/775192090/marietta_ga/chick_fil_a.html", "offers": null, "latitude": 33.952602, "politanName": "Atlanta, GA Metro ", "phone_number": "7705659960", "tags": [{"primary": false, "id": 1705, "name": "Catering"}, {"primary": false, "id": 11247, "name": "Carry Out"}, {"primary": false, "id": 12839, "name": "Chicken"}, {"primary": true, "id": 1722, "name": "Restaurants"}], "fax_number": null, "expansion": {"count": null, "uri": null}, "impression_id": "000b000000c1defab7c91f4660a14b83b452e46974", "profile": "http://www.citysearch.com/profile/775192090/marietta_ga/chick_fil_a.html", "address": {"city": "Marietta", "state": "GA", "street": "5200 Buffington Rd", "postal_code": "30062"}, "capProviderId": null, "distance": null, "has_offers": false, "name": "Chick-Fil-A", "longitude": -84.549933, "has_menu": false, "awards": null, "user_review_count": 0}, {"business_operation_status": 1, "rating": null, "neighborhood": null, "image": null, "scorecard": null, "featured": false, "sample_categories": "Restaurants", "public_id": "bubba-ds-dawgs-inc-marietta", "id": 801089200, "votes": null, "tagline": null, "has_video": false, "website": null, "offers": null, "latitude": 34.01546, "politanName": "Atlanta, GA Metro ", "phone_number": "7703553212", "tags": [{"primary": true, "id": 1722, "name": "Restaurants"}], "fax_number": null, "expansion": {"count": null, "uri": null}, "impression_id": "000b0000006e5601117257434d818e6596305db8b4", "profile": "http://www.citysearch.com/profile/801089200/marietta_ga/bubba_d_s_dawgs_inc.html", "address": {"city": "Marietta", "state": "GA", "street": "2690 Sandy Plains Rd", "postal_code": "30066"}, "capProviderId": null, "distance": null, "has_offers": false, "name": "Bubba D's Dawgs INC", "longitude": -84.493053, "has_menu": false, "awards": null, "user_review_count": 0}, {"business_operation_status": 1, "rating": null, "neighborhood": null, "image": null, "scorecard": null, "featured": false, "sample_categories": "Restaurants", "public_id": "tucker-hospitality-inc-marietta", "id": 819224460, "votes": null, "tagline": null, "has_video": false, "website": null, "offers": null, "latitude": 33.934837, "politanName": "Atlanta, GA Metro ", "phone_number": "6783318222", "tags": [{"primary": true, "id": 1722, "name": "Restaurants"}], "fax_number": null, "expansion": {"count": null, "uri": null}, "impression_id": "000b000000d0f7d582e9cd40bdbfea02a3b44c862a", "profile": "http://www.citysearch.com/profile/819224460/marietta_ga/tucker_hospitality_inc.html", "address": {"city": "Marietta", "state": "GA", "street": "707 Franklin Rd SE # 3-6", "postal_code": "30067"}, "capProviderId": null, "distance": null, "has_offers": false, "name": "Tucker Hospitality Inc", "longitude": -84.502941, "has_menu": false, "awards": null, "user_review_count": 0}, {"business_operation_status": 1, "rating": null, "neighborhood": null, "image": null, "scorecard": null, "featured": false, "sample_categories": "Catering, Restaurants, Barbecue Restaurants, Carry Out, Family Style Dining", "public_id": "as-sonnys-real-pit-barbq", "id": 793392090, "votes": null, "tagline": null, "has_video": false, "website": null, "offers": null, "latitude": null, "politanName": null, "phone_number": "7703681653", "tags": [{"primary": false, "id": 1705, "name": "Catering"}, {"primary": false, "id": 1722, "name": "Restaurants"}, {"primary": false, "id": 1724, "name": "Barbecue Restaurants"}, {"primary": false, "id": 11262, "name": "Family Style Dining"}, {"primary": true, "id": 11247, "name": "Carry Out"}], "fax_number": null, "expansion": {"count": null, "uri": null}, "impression_id": "000b0000008b83f9f9b0694a9e8e9ee64f1b4bdf8e", "profile": "http://www.citysearch.com/profile/793392090/sonny_s_real_pit_bar_b_q.html", "address": {"city": null, "state": null, "street": null, "postal_code": null}, "capProviderId": null, "distance": null, "has_offers": false, "name": "Sonny's Real Pit Bar-B-Q", "longitude": null, "has_menu": false, "awards": null, "user_review_count": 0}, {"business_operation_status": 1, "rating": null, "neighborhood": null, "image": null, "scorecard": null, "featured": false, "sample_categories": "Catering, Personal Chefs, Computer & Internet Services, Wedding Cakes, Seafood", "public_id": "as-glamacook-oad", "id": 801975680, "votes": null, "tagline": null, "has_video": false, "website": null, "offers": null, "latitude": null, "politanName": null, "phone_number": "4043451924", "tags": [{"primary": false, "id": 1705, "name": "Catering"}, {"primary": false, "id": 3534, "name": "Personal Chefs"}, {"primary": false, "id": 674, "name": "Computer & Internet Services"}, {"primary": false, "id": 11057, "name": "Wedding Cakes"}, {"primary": false, "id": 11228, "name": "Seafood"}, {"primary": true, "id": 11267, "name": "Food Delivery"}], "fax_number": null, "expansion": {"count": null, "uri": null}, "impression_id": "000b000000ac30dcc39d2748cebd3799a519d98bba", "profile": "http://www.citysearch.com/profile/801975680/_oad_ga/glamacook.html", "address": {"city": "(Oad)", "state": "GA", "street": null, "postal_code": "30032"}, "capProviderId": null, "distance": null, "has_offers": false, "name": "GlamaCook", "longitude": null, "has_menu": false, "awards": null, "user_review_count": 0}], "histograms": [], "tag_ids": [1722], "uri": "http://api.citygridmedia.com:8080/search/places/v2/search/where?has_offers=false&type=restaurant&format=json&page=11&where=30061&rpp=50&histograms=false&publisher=10000009598&region_type=circle", "did_you_mean": "", "regions": [{"latitude": 33.9525, "default_radius": 0.25, "type": "postal_code", "name": "30061", "longitude": -84.55}], "call_id": "000b000000d54ac366f4c64206b1761ee1806661f5", "first_hit": 501, "total_hits": 540, "geo_ids": [137024], "page": 11, "last_hit": 540}}