{"results": {"rpp": 50, "locations": [{"business_operation_status": 1, "rating": null, "neighborhood": null, "image": null, "scorecard": null, "featured": false, "sample_categories": "Restaurants, Chinese", "public_id": "great-wall-chinese-marietta", "id": 787108450, "votes": null, "tagline": null, "has_video": false, "website": null, "offers": null, "latitude": 33.904328, "politanName": "Atlanta, GA Metro ", "phone_number": "7709536392", "tags": [{"primary": false, "id": 11252, "name": "Chinese"}, {"primary": true, "id": 1722, "name": "Restaurants"}], "fax_number": null, "expansion": {"count": null, "uri": null}, "impression_id": "000b0000000200680f237341eca1c47f2458cdcaa7", "profile": "http://www.citysearch.com/profile/787108450/marietta_ga/great_wall_chinese.html", "address": {"city": "Marietta", "state": "GA", "street": "3000 Windy Hill Rd Se", "postal_code": "30067"}, "capProviderId": null, "distance": null, "has_offers": false, "name": "Great Wall Chinese", "longitude": -84.466526, "has_menu": true, "awards": null, "user_review_count": 0}, {"business_operation_status": 1, "rating": null, "neighborhood": null, "image": null, "scorecard": null, "featured": false, "sample_categories": "Restaurants, Utility Contractors", "public_id": "optelian-marietta", "id": 2910548, "votes": null, "tagline": null, "has_video": false, "website": "http://www.citysearch.com/profile/external/2910548/marietta_ga/optelian.html", "offers": null, "latitude": 33.919788, "politanName": "Atlanta, GA Metro ", "phone_number": "7706909575", "tags": [{"primary": false, "id": 1722, "name": "Restaurants"}, {"primary": true, "id": 788, "name": "Utility Contractors"}], "fax_number": null, "expansion": {"count": null, "uri": null}, "impression_id": "000b000000c3d770b1b30a4c79b7229ea8746c1d4a", "profile": "http://www.citysearch.com/profile/2910548/marietta_ga/optelian.html", "address": {"city": "Marietta", "state": "GA", "street": "2121 New Market Pkwy SE", "postal_code": "30067"}, "capProviderId": null, "distance": null, "has_offers": false, "name": "Optelian", "longitude": -84.49377, "has_menu": false, "awards": null, "user_review_count": 0}, {"business_operation_status": 1, "rating": null, "neighborhood": null, "image": null, "scorecard": null, "featured": false, "sample_categories": "Restaurants, Hamburgers", "public_id": "ils-wayportmc-donalds-marietta", "id": 793313560, "votes": null, "tagline": null, "has_video": false, "website": null, "offers": null, "latitude": 33.924211, "politanName": "Atlanta, GA Metro ", "phone_number": "7708509549", "tags": [{"primary": false, "id": 11270, "name": "Hamburgers"}, {"primary": true, "id": 1722, "name": "Restaurants"}], "fax_number": null, "expansion": {"count": null, "uri": null}, "impression_id": "000b0000001064be27d0914944a44df209c8b8b1b4", "profile": "http://www.citysearch.com/profile/793313560/marietta_ga/ils_wayport_mc_donald_s.html", "address": {"city": "Marietta", "state": "GA", "street": "2375 Delk Rd Se", "postal_code": "30067"}, "capProviderId": null, "distance": null, "has_offers": false, "name": "Ils Wayport-Mc Donald's", "longitude": -84.483793, "has_menu": false, "awards": null, "user_review_count": 0}, {"business_operation_status": 1, "rating": null, "neighborhood": null, "image": null, "scorecard": null, "featured": false, "sample_categories": "Restaurants, American Express, Discover, MasterCard, Shop Online", "public_id": "metro-kitchen-marietta", "id": 728110290, "votes": null, "tagline": null, "has_video": false, "website": "http://www.citysearch.com/profile/external/728110290/marietta_ga/metro_kitchen.html", "offers": null, "latitude": 33.926059, "politanName": "Atlanta, GA Metro ", "phone_number": "7709160102", "tags": [{"primary": false, "id": 11333, "name": "American Express"}, {"primary": false, "id": 11349, "name": "Discover"}, {"primary": false, "id": 11361, "name": "MasterCard"}, {"primary": false, "id": 11375, "name": "Shop Online"}, {"primary": false, "id": 11382, "name": "Visa"}, {"primary": true, "id": 1722, "name": "Restaurants"}], "fax_number": null, "expansion": {"count": null, "uri": null}, "impression_id": "000b000000890118f4c49646a8b599e2eba663b939", "profile": "http://www.citysearch.com/profile/728110290/marietta_ga/metro_kitchen.html", "address": {"city": "Marietta", "state": "GA", "street": "4041 Kingston Ct Se # A", "postal_code": "30067"}, "capProviderId": null, "distance": null, "has_offers": false, "name": "Metro Kitchen", "longitude": -84.491207, "has_menu": false, "awards": null, "user_review_count": 0}, {"business_operation_status": 1, "rating": null, "neighborhood": null, "image": null, "scorecard": null, "featured": false, "sample_categories": "Restaurants, Bars & Clubs, Carry Out", "public_id": "tgi-fridays-marietta-2", "id": 819157490, "votes": null, "tagline": null, "has_video": false, "website": null, "offers": null, "latitude": 33.931556, "politanName": "Atlanta, GA Metro ", "phone_number": "7709510821", "tags": [{"primary": false, "id": 164, "name": "Bars & Clubs"}, {"primary": false, "id": 11247, "name": "Carry Out"}, {"primary": true, "id": 1722, "name": "Restaurants"}], "fax_number": null, "expansion": {"count": null, "uri": null}, "impression_id": "000b00000002ee180d68784bdfb534e1acb5f3f558", "profile": "http://www.citysearch.com/profile/819157490/marietta_ga/tgi_friday_s.html", "address": {"city": "Marietta", "state": "GA", "street": "1945 Powers Ferry Trce SE", "postal_code": "30067"}, "capProviderId": null, "distance": null, "has_offers": false, "name": "TGI Friday's", "longitude": -84.47837, "has_menu": false, "awards": null, "user_review_count": 0}, {"business_operation_status": 1, "rating": null, "neighborhood": null, "image": null, "scorecard": null, "featured": false, "sample_categories": "Restaurants, Carry Out, Hamburgers", "public_id": "mc-donalds-marietta-20", "id": 713574940, "votes": null, "tagline": null, "has_video": false, "website": "http://www.citysearch.com/profile/external/713574940/marietta_ga/mc_donald_s.html", "offers": null, "latitude": 33.924211, "politanName": "Atlanta, GA Metro ", "phone_number": "7708509549", "tags": [{"primary": false, "id": 11247, "name": "Carry Out"}, {"primary": false, "id": 11270, "name": "Hamburgers"}, {"primary": true, "id": 1722, "name": "Restaurants"}], "fax_number": null, "expansion": {"count": null, "uri": null}, "impression_id": "000b0000009975a4ef82f74c298e5409541b72e139", "profile": "http://www.citysearch.com/profile/713574940/marietta_ga/mc_donald_s.html", "address": {"city": "Marietta", "state": "GA", "street": "2375 Delk Rd Se", "postal_code": "30067"}, "capProviderId": null, "distance": null, "has_offers": false, "name": "Mc Donald's", "longitude": -84.483793, "has_menu": false, "awards": null, "user_review_count": 0}, {"business_operation_status": 1, "rating": null, "neighborhood": null, "image": null, "scorecard": null, "featured": false, "sample_categories": "Restaurants, Pizza", "public_id": "manhattan-pizza-marietta", "id": 624064324, "votes": null, "tagline": null, "has_video": false, "website": null, "offers": null, "latitude": 33.944967, "politanName": "Atlanta, GA Metro ", "phone_number": "6789092097", "tags": [{"primary": false, "id": 11299, "name": "Pizza"}, {"primary": true, "id": 1722, "name": "Restaurants"}], "fax_number": null, "expansion": {"count": null, "uri": null}, "impression_id": "000b000000f01df9da794c4a1eacb18b3484ddb333", "profile": "http://www.citysearch.com/profile/624064324/marietta_ga/manhattan_pizza.html", "address": {"city": "Marietta", "state": "GA", "street": "279 Powers Ferry Rd SE", "postal_code": "30067"}, "capProviderId": null, "distance": null, "has_offers": false, "name": "Manhattan Pizza", "longitude": -84.497588, "has_menu": false, "awards": null, "user_review_count": 0}, {"business_operation_status": 1, "rating": null, "neighborhood": null, "image": null, "scorecard": null, "featured": false, "sample_categories": "Restaurants", "public_id": "cafe-alice-smyrna", "id": 672226100, "votes": null, "tagline": null, "has_video": false, "website": null, "offers": null, "latitude": 33.901234, "politanName": "Atlanta, GA Metro ", "phone_number": "7709550300", "tags": [{"primary": true, "id": 1722, "name": "Restaurants"}], "fax_number": null, "expansion": {"count": null, "uri": null}, "impression_id": "000b000000d481ce64f06c4111ab7271f403e18943", "profile": "http://www.citysearch.com/profile/672226100/smyrna_ga/cafe_alice.html", "address": {"city": "Smyrna", "state": "GA", "street": "2092 Cobb Pkwy", "postal_code": "30080"}, "capProviderId": null, "distance": null, "has_offers": false, "name": "Cafe Alice", "longitude": -84.488366, "has_menu": false, "awards": null, "user_review_count": 0}, {"business_operation_status": 1, "rating": null, "neighborhood": null, "image": null, "scorecard": null, "featured": false, "sample_categories": "Restaurants, Fast Food, Carry Out, American Express, MasterCard", "public_id": "popeyes-chicken-biscuits-marietta-2", "id": 45112943, "votes": null, "tagline": null, "has_video": false, "website": "http://www.citysearch.com/profile/external/45112943/marietta_ga/popeye_s_chicken_biscuits.html", "offers": null, "latitude": 33.9485, "politanName": "Atlanta, GA Metro ", "phone_number": "7704208800", "tags": [{"primary": false, "id": 11199, "name": "Fast Food"}, {"primary": false, "id": 11247, "name": "Carry Out"}, {"primary": false, "id": 11333, "name": "American Express"}, {"primary": false, "id": 11361, "name": "MasterCard"}, {"primary": false, "id": 11382, "name": "Visa"}, {"primary": false, "id": 12839, "name": "Chicken"}, {"primary": true, "id": 1722, "name": "Restaurants"}], "fax_number": null, "expansion": {"count": null, "uri": null}, "impression_id": "000b0000006d8d98f35f7747529e514ba152d8d835", "profile": "http://www.citysearch.com/profile/45112943/marietta_ga/popeye_s_chicken_biscuits.html", "address": {"city": "Marietta", "state": "GA", "street": "155 Cobb Pkwy S", "postal_code": "30060"}, "capProviderId": null, "distance": null, "has_offers": false, "name": "Popeye's Chicken & Biscuits", "longitude": -84.518323, "has_menu": true, "awards": null, "user_review_count": 0}, {"business_operation_status": 1, "rating": null, "neighborhood": null, "image": null, "scorecard": null, "featured": false, "sample_categories": "Restaurants, Carry Out", "public_id": "atlanta-bread-co-smyrna-2", "id": 805222070, "votes": null, "tagline": null, "has_video": false, "website": null, "offers": null, "latitude": 33.923686, "politanName": "Atlanta, GA Metro ", "phone_number": "6785030710", "tags": [{"primary": false, "id": 11247, "name": "Carry Out"}, {"primary": true, "id": 1722, "name": "Restaurants"}], "fax_number": null, "expansion": {"count": null, "uri": null}, "impression_id": "000b000000f7e0481812774c7c95f5f99addb0c939", "profile": "http://www.citysearch.com/profile/805222070/smyrna_ga/atlanta_bread_co.html", "address": {"city": "Smyrna", "state": "GA", "street": "2160 Kingston CT SE", "postal_code": "30080"}, "capProviderId": null, "distance": null, "has_offers": false, "name": "Atlanta Bread Co", "longitude": -84.488921, "has_menu": false, "awards": null, "user_review_count": 0}, {"business_operation_status": 1, "rating": null, "neighborhood": null, "image": null, "scorecard": null, "featured": false, "sample_categories": "Restaurants, Delis And Delicatessens, Sandwich Shops, Carry Out", "public_id": "firehouse-subs-marietta-3", "id": 764915450, "votes": null, "tagline": null, "has_video": false, "website": null, "offers": null, "latitude": 33.92306, "politanName": "Atlanta, GA Metro ", "phone_number": "7706908103", "tags": [{"primary": false, "id": 1727, "name": "Delis And Delicatessens"}, {"primary": false, "id": 1736, "name": "Sandwich Shops"}, {"primary": false, "id": 11247, "name": "Carry Out"}, {"primary": true, "id": 1722, "name": "Restaurants"}], "fax_number": null, "expansion": {"count": null, "uri": null}, "impression_id": "000b0000008f7990b949b9462ab72de13693c34ae0", "profile": "http://www.citysearch.com/profile/764915450/marietta_ga/firehouse_subs.html", "address": {"city": "Marietta", "state": "GA", "street": "2900 Delk Rd SE", "postal_code": "30067"}, "capProviderId": null, "distance": null, "has_offers": false, "name": "Firehouse Subs", "longitude": -84.467405, "has_menu": true, "awards": null, "user_review_count": 0}, {"business_operation_status": 1, "rating": 8.0, "neighborhood": null, "image": null, "scorecard": null, "featured": false, "sample_categories": "Restaurants, Traditional American, Carry Out, American Express, Discover", "public_id": "ruby-tuesday-marietta", "id": 43851545, "votes": null, "tagline": null, "has_video": false, "website": "http://www.citysearch.com/profile/external/43851545/marietta_ga/ruby_tuesday.html", "offers": null, "latitude": 33.922906, "politanName": "Atlanta, GA Metro ", "phone_number": "7709339050", "tags": [{"primary": false, "id": 11190, "name": "Traditional American"}, {"primary": false, "id": 11247, "name": "Carry Out"}, {"primary": false, "id": 11333, "name": "American Express"}, {"primary": false, "id": 11349, "name": "Discover"}, {"primary": false, "id": 11361, "name": "MasterCard"}, {"primary": false, "id": 11375, "name": "Shop Online"}, {"primary": false, "id": 11382, "name": "Visa"}, {"primary": true, "id": 1722, "name": "Restaurants"}], "fax_number": null, "expansion": {"count": null, "uri": null}, "impression_id": "000b000000499d27ed1e9f459ba33e62d60ce4266d", "profile": "http://www.citysearch.com/profile/43851545/marietta_ga/ruby_tuesday.html", "address": {"city": "Marietta", "state": "GA", "street": "2435 Delk Rd SE", "postal_code": "30067"}, "capProviderId": null, "distance": null, "has_offers": false, "name": "Ruby Tuesday", "longitude": -84.485017, "has_menu": true, "awards": null, "user_review_count": 2}, {"business_operation_status": 1, "rating": null, "neighborhood": null, "image": null, "scorecard": null, "featured": false, "sample_categories": "Restaurants", "public_id": "seven-star-marietta", "id": 837717560, "votes": null, "tagline": null, "has_video": false, "website": null, "offers": null, "latitude": 33.905115, "politanName": "Atlanta, GA Metro ", "phone_number": "7706900083", "tags": [{"primary": true, "id": 1722, "name": "Restaurants"}], "fax_number": null, "expansion": {"count": null, "uri": null}, "impression_id": "000b000000b9d159c4d88b4790b44eda90f82e416b", "profile": "http://www.citysearch.com/profile/837717560/marietta_ga/seven_star.html", "address": {"city": "Marietta", "state": "GA", "street": "3000 Windy Hill Rd SE", "postal_code": "30067"}, "capProviderId": null, "distance": null, "has_offers": false, "name": "Seven Star", "longitude": -84.465716, "has_menu": false, "awards": null, "user_review_count": 0}, {"business_operation_status": 1, "rating": null, "neighborhood": null, "image": null, "scorecard": null, "featured": false, "sample_categories": "Restaurants", "public_id": "mocha-delights-marietta", "id": 45551238, "votes": null, "tagline": null, "has_video": false, "website": null, "offers": null, "latitude": 33.902448, "politanName": "Atlanta, GA Metro ", "phone_number": "7709567612", "tags": [{"primary": true, "id": 1722, "name": "Restaurants"}], "fax_number": null, "expansion": {"count": null, "uri": null}, "impression_id": "000b00000056e4911271164358959f338b07a9a849", "profile": "http://www.citysearch.com/profile/45551238/marietta_ga/mocha_delights.html", "address": {"city": "Marietta", "state": "GA", "street": "2470 Windy Hill Rd SE Ste 148", "postal_code": "30067"}, "capProviderId": null, "distance": null, "has_offers": false, "name": "Mocha Delights", "longitude": -84.480786, "has_menu": false, "awards": null, "user_review_count": 0}, {"business_operation_status": 0, "rating": null, "neighborhood": null, "image": null, "scorecard": null, "featured": false, "sample_categories": "Restaurants, Delis And Delicatessens", "public_id": "philly-connection-marietta", "id": 2909538, "votes": null, "tagline": null, "has_video": false, "website": null, "offers": null, "latitude": 33.921284, "politanName": "Atlanta, GA Metro ", "phone_number": "7709849633", "tags": [{"primary": false, "id": 1727, "name": "Delis And Delicatessens"}, {"primary": true, "id": 1722, "name": "Restaurants"}], "fax_number": null, "expansion": {"count": null, "uri": null}, "impression_id": "000b000000e187b0fcf69f4dca955f0a0fbe7aba9b", "profile": "http://www.citysearch.com/profile/2909538/marietta_ga/philly_connection.html", "address": {"city": "Marietta", "state": "GA", "street": "1260 Powers Ferry Rd SE Ste E", "postal_code": "30067"}, "capProviderId": null, "distance": null, "has_offers": false, "name": "Philly Connection", "longitude": -84.467848, "has_menu": true, "awards": null, "user_review_count": 0}, {"business_operation_status": 0, "rating": null, "neighborhood": null, "image": null, "scorecard": null, "featured": false, "sample_categories": "Restaurants, Carry Out", "public_id": "back-yard-burgers-marietta-2", "id": 2909690, "votes": null, "tagline": null, "has_video": false, "website": "http://www.citysearch.com/profile/external/2909690/marietta_ga/back_yard_burgers.html", "offers": null, "latitude": 33.914806, "politanName": "Atlanta, GA Metro ", "phone_number": "7709161888", "tags": [{"primary": false, "id": 11247, "name": "Carry Out"}, {"primary": true, "id": 1722, "name": "Restaurants"}], "fax_number": null, "expansion": {"count": null, "uri": null}, "impression_id": "000b000000372e51f2d5524e96abd71c238e1d3863", "profile": "http://www.citysearch.com/profile/2909690/marietta_ga/back_yard_burgers.html", "address": {"city": "Marietta", "state": "GA", "street": "2340 Windy Hill Rd SE", "postal_code": "30067"}, "capProviderId": null, "distance": null, "has_offers": false, "name": "Back Yard Burgers", "longitude": -84.459043, "has_menu": true, "awards": null, "user_review_count": 0}, {"business_operation_status": 1, "rating": null, "neighborhood": null, "image": null, "scorecard": null, "featured": false, "sample_categories": "Restaurants", "public_id": "doce-sabor-marietta", "id": 775199690, "votes": null, "tagline": null, "has_video": false, "website": null, "offers": null, "latitude": 33.918554, "politanName": "Atlanta, GA Metro ", "phone_number": "7702260434", "tags": [{"primary": true, "id": 1722, "name": "Restaurants"}], "fax_number": null, "expansion": {"count": null, "uri": null}, "impression_id": "000b0000005fa1adb6f8f44366bad16eeb0b9577e0", "profile": "http://www.citysearch.com/profile/775199690/marietta_ga/doce_sabor.html", "address": {"city": "Marietta", "state": "GA", "street": "1360 Powers Ferry Rd SE # B165", "postal_code": "30067"}, "capProviderId": null, "distance": null, "has_offers": false, "name": "Doce Sabor", "longitude": -84.468587, "has_menu": false, "awards": null, "user_review_count": 0}, {"business_operation_status": 1, "rating": null, "neighborhood": null, "image": null, "scorecard": null, "featured": false, "sample_categories": "Restaurants", "public_id": "asian-grill-marietta", "id": 813218910, "votes": null, "tagline": null, "has_video": false, "website": null, "offers": null, "latitude": 33.948939, "politanName": "Atlanta, GA Metro ", "phone_number": "6785602037", "tags": [{"primary": true, "id": 1722, "name": "Restaurants"}], "fax_number": null, "expansion": {"count": null, "uri": null}, "impression_id": "000b00000026b8677391744a878e0f6245d071e8c6", "profile": "http://www.citysearch.com/profile/813218910/marietta_ga/asian_grill.html", "address": {"city": "Marietta", "state": "GA", "street": "279 Powers Ferry Rd SE # F", "postal_code": "30067"}, "capProviderId": null, "distance": null, "has_offers": false, "name": "Asian Grill", "longitude": -84.503582, "has_menu": false, "awards": null, "user_review_count": 0}, {"business_operation_status": 1, "rating": null, "neighborhood": null, "image": null, "scorecard": null, "featured": false, "sample_categories": "Restaurants", "public_id": "buen-provecho-restaurant-llc-marietta", "id": 626498024, "votes": null, "tagline": null, "has_video": false, "website": "http://www.citysearch.com/profile/external/626498024/marietta_ga/buen_provecho_restaurant_llc.html", "offers": null, "latitude": 33.902637, "politanName": "Atlanta, GA Metro ", "phone_number": "7707123188", "tags": [{"primary": true, "id": 1722, "name": "Restaurants"}], "fax_number": null, "expansion": {"count": null, "uri": null}, "impression_id": "000b000000159db3e35b384d1791e64b159587769b", "profile": "http://www.citysearch.com/profile/626498024/marietta_ga/buen_provecho_restaurant_llc.html", "address": {"city": "Marietta", "state": "GA", "street": "2468 Windy Hill Rd SE Ste 600", "postal_code": "30067"}, "capProviderId": null, "distance": null, "has_offers": false, "name": "Buen Provecho Restaurant LLC", "longitude": -84.48176, "has_menu": false, "awards": null, "user_review_count": 0}, {"business_operation_status": 1, "rating": null, "neighborhood": null, "image": null, "scorecard": null, "featured": false, "sample_categories": "Restaurants, Caribbean", "public_id": "island-vibes-llc-smyrna", "id": 751350600, "votes": null, "tagline": null, "has_video": false, "website": "http://www.citysearch.com/profile/external/751350600/smyrna_ga/island_vibes_llc.html", "offers": null, "latitude": 33.901234, "politanName": "Atlanta, GA Metro ", "phone_number": "7702721956", "tags": [{"primary": false, "id": 11195, "name": "Caribbean"}, {"primary": true, "id": 1722, "name": "Restaurants"}], "fax_number": null, "expansion": {"count": null, "uri": null}, "impression_id": "000b0000002b60218ed4f44d77a2b2a54f661a692d", "profile": "http://www.citysearch.com/profile/751350600/smyrna_ga/island_vibes_llc.html", "address": {"city": "Smyrna", "state": "GA", "street": "2092 Cobb Pkwy SE", "postal_code": "30080"}, "capProviderId": null, "distance": null, "has_offers": false, "name": "Island Vibes LLC", "longitude": -84.488366, "has_menu": false, "awards": null, "user_review_count": 1}, {"business_operation_status": 1, "rating": null, "neighborhood": null, "image": null, "scorecard": null, "featured": false, "sample_categories": "Restaurants, Indian", "public_id": "curry-curry-marietta-2", "id": 775225410, "votes": null, "tagline": null, "has_video": false, "website": null, "offers": null, "latitude": 33.965749, "politanName": "Atlanta, GA Metro ", "phone_number": "6785607809", "tags": [{"primary": false, "id": 11277, "name": "Indian"}, {"primary": true, "id": 1722, "name": "Restaurants"}], "fax_number": null, "expansion": {"count": null, "uri": null}, "impression_id": "000b00000048e77be5f07543c2b7638590753c04a0", "profile": "http://www.citysearch.com/profile/775225410/marietta_ga/curry_curry.html", "address": {"city": "Marietta", "state": "GA", "street": "4724 Lower Roswell Rd", "postal_code": "30068"}, "capProviderId": null, "distance": null, "has_offers": false, "name": "Curry Curry", "longitude": -84.413931, "has_menu": false, "awards": null, "user_review_count": 0}, {"business_operation_status": 1, "rating": null, "neighborhood": null, "image": null, "scorecard": null, "featured": false, "sample_categories": "Restaurants", "public_id": "mocha-delites-marietta-2", "id": 777723340, "votes": null, "tagline": null, "has_video": false, "website": null, "offers": null, "latitude": 33.929888, "politanName": "Atlanta, GA Metro ", "phone_number": "7709568835", "tags": [{"primary": true, "id": 1722, "name": "Restaurants"}], "fax_number": null, "expansion": {"count": null, "uri": null}, "impression_id": "000b0000004136eb19bc2a47f9ae8a0177d88f7c6a", "profile": "http://www.citysearch.com/profile/777723340/marietta_ga/mocha_delites.html", "address": {"city": "Marietta", "state": "GA", "street": "2944 Chipmunk Trl Se", "postal_code": "30067"}, "capProviderId": null, "distance": null, "has_offers": false, "name": "Mocha Delites", "longitude": -84.472516, "has_menu": false, "awards": null, "user_review_count": 0}, {"business_operation_status": 1, "rating": null, "neighborhood": null, "image": null, "scorecard": null, "featured": false, "sample_categories": "Restaurants, Carry Out", "public_id": "arbys-marietta-16", "id": 764873620, "votes": null, "tagline": null, "has_video": false, "website": null, "offers": null, "latitude": 33.917209, "politanName": "Atlanta, GA Metro ", "phone_number": "7709338090", "tags": [{"primary": false, "id": 11247, "name": "Carry Out"}, {"primary": true, "id": 1722, "name": "Restaurants"}], "fax_number": null, "expansion": {"count": null, "uri": null}, "impression_id": "000b00000006ce53e843594a5683cb40f8ebd6d49a", "profile": "http://www.citysearch.com/profile/764873620/marietta_ga/arby_s.html", "address": {"city": "Marietta", "state": "GA", "street": "1421 Terrell Mill Rd SE", "postal_code": "30067"}, "capProviderId": null, "distance": null, "has_offers": false, "name": "Arby's", "longitude": -84.468004, "has_menu": false, "awards": null, "user_review_count": 0}, {"business_operation_status": 1, "rating": null, "neighborhood": null, "image": null, "scorecard": null, "featured": false, "sample_categories": "Restaurants, Bars & Pubs, Carry Out", "public_id": "chilis-grill-bar-marietta-4", "id": 764886130, "votes": null, "tagline": null, "has_video": false, "website": null, "offers": null, "latitude": 33.939526, "politanName": "Atlanta, GA Metro ", "phone_number": "7704230897", "tags": [{"primary": false, "id": 1686, "name": "Bars & Pubs"}, {"primary": false, "id": 11247, "name": "Carry Out"}, {"primary": true, "id": 1722, "name": "Restaurants"}], "fax_number": null, "expansion": {"count": null, "uri": null}, "impression_id": "000b0000005be1550dd60d4ecaaa362a9f9b48dcb6", "profile": "http://www.citysearch.com/profile/764886130/marietta_ga/chili_s_grill_bar.html", "address": {"city": "Marietta", "state": "GA", "street": "555 Commerce Ave SE", "postal_code": "30067"}, "capProviderId": null, "distance": null, "has_offers": false, "name": "Chili's Grill & Bar", "longitude": -84.506501, "has_menu": false, "awards": null, "user_review_count": 0}, {"business_operation_status": 1, "rating": null, "neighborhood": null, "image": null, "scorecard": null, "featured": false, "sample_categories": "Restaurants, Carry Out, Pizza", "public_id": "papa-johns-pizza-marietta-16", "id": 764880810, "votes": null, "tagline": null, "has_video": false, "website": null, "offers": null, "latitude": 33.922655, "politanName": "Atlanta, GA Metro ", "phone_number": "4049848282", "tags": [{"primary": false, "id": 11247, "name": "Carry Out"}, {"primary": false, "id": 11299, "name": "Pizza"}, {"primary": true, "id": 1722, "name": "Restaurants"}], "fax_number": null, "expansion": {"count": null, "uri": null}, "impression_id": "000b000000c90c18ad10d049658f9698364acb1551", "profile": "http://www.citysearch.com/profile/764880810/marietta_ga/papa_john_s_pizza.html", "address": {"city": "Marietta", "state": "GA", "street": "2556 Delk Rd SE", "postal_code": "30067"}, "capProviderId": null, "distance": null, "has_offers": false, "name": "Papa John's Pizza", "longitude": -84.480194, "has_menu": false, "awards": null, "user_review_count": 0}, {"business_operation_status": 1, "rating": null, "neighborhood": null, "image": null, "scorecard": null, "featured": false, "sample_categories": "Restaurants", "public_id": "cafe-1600-atlanta", "id": 805525410, "votes": null, "tagline": null, "has_video": false, "website": null, "offers": null, "latitude": 33.900846, "politanName": "Atlanta, GA Metro ", "phone_number": "7709841680", "tags": [{"primary": true, "id": 1722, "name": "Restaurants"}], "fax_number": null, "expansion": {"count": null, "uri": null}, "impression_id": "000b000000e5189c07b09746fd8035f9e841672fdb", "profile": "http://www.citysearch.com/profile/805525410/atlanta_ga/cafe_1600.html", "address": {"city": "Atlanta", "state": "GA", "street": "1600 Parkwood Cir SE # 140", "postal_code": "30339"}, "capProviderId": null, "distance": null, "has_offers": false, "name": "Cafe 1600", "longitude": -84.458903, "has_menu": false, "awards": null, "user_review_count": 0}, {"business_operation_status": 1, "rating": null, "neighborhood": null, "image": null, "scorecard": null, "featured": false, "sample_categories": "Restaurants", "public_id": "pit-marietta", "id": 751310700, "votes": null, "tagline": null, "has_video": false, "website": null, "offers": null, "latitude": 33.908297, "politanName": "Atlanta, GA Metro ", "phone_number": "7706272634", "tags": [{"primary": true, "id": 1722, "name": "Restaurants"}], "fax_number": null, "expansion": {"count": null, "uri": null}, "impression_id": "000b0000003511cb64bbbc47b69cd464762a28d300", "profile": "http://www.citysearch.com/profile/751310700/marietta_ga/pit.html", "address": {"city": "Marietta", "state": "GA", "street": "1854 Terrell Mill Rd SE # 105", "postal_code": "30067"}, "capProviderId": null, "distance": null, "has_offers": false, "name": "Pit", "longitude": -84.487916, "has_menu": false, "awards": null, "user_review_count": 0}, {"business_operation_status": 1, "rating": null, "neighborhood": null, "image": null, "scorecard": null, "featured": false, "sample_categories": "Coffeehouses", "public_id": "ellianos-coffee-co-marietta", "id": 732158430, "votes": null, "tagline": null, "has_video": false, "website": null, "offers": null, "latitude": 33.920792, "politanName": "Atlanta, GA Metro ", "phone_number": "7709567770", "tags": [{"primary": true, "id": 1726, "name": "Coffeehouses"}], "fax_number": null, "expansion": {"count": null, "uri": null}, "impression_id": "000b00000075bc65fd921d4a46a92e02b616b70f3f", "profile": "http://www.citysearch.com/profile/732158430/marietta_ga/elliano_s_coffee_co.html", "address": {"city": "Marietta", "state": "GA", "street": "1270 Powers Ferry Rd SE", "postal_code": "30067"}, "capProviderId": null, "distance": null, "has_offers": false, "name": "Elliano's Coffee Co", "longitude": -84.467912, "has_menu": false, "awards": null, "user_review_count": 0}, {"business_operation_status": 1, "rating": null, "neighborhood": null, "image": null, "scorecard": null, "featured": false, "sample_categories": "Restaurants, Barbecue Restaurants", "public_id": "shanes-rib-shack-marietta-2", "id": 777741320, "votes": null, "tagline": null, "has_video": false, "website": null, "offers": null, "latitude": 33.917966, "politanName": "Atlanta, GA Metro ", "phone_number": "7709552246", "tags": [{"primary": false, "id": 1724, "name": "Barbecue Restaurants"}, {"primary": true, "id": 1722, "name": "Restaurants"}], "fax_number": null, "expansion": {"count": null, "uri": null}, "impression_id": "000b000000ab83f7b70f8946f6ad63c7a788680561", "profile": "http://www.citysearch.com/profile/777741320/marietta_ga/shane_s_rib_shack.html", "address": {"city": "Marietta", "state": "GA", "street": "1410 Terrell Mill Rd Se", "postal_code": "30067"}, "capProviderId": null, "distance": null, "has_offers": false, "name": "Shane's Rib Shack", "longitude": -84.467707, "has_menu": true, "awards": null, "user_review_count": 1}, {"business_operation_status": 1, "rating": null, "neighborhood": null, "image": null, "scorecard": null, "featured": false, "sample_categories": "Restaurants", "public_id": "metropolis-wing-station-marietta", "id": 682470740, "votes": null, "tagline": null, "has_video": false, "website": null, "offers": null, "latitude": 33.927554, "politanName": "Atlanta, GA Metro ", "phone_number": "6783545450", "tags": [{"primary": true, "id": 1722, "name": "Restaurants"}], "fax_number": null, "expansion": {"count": null, "uri": null}, "impression_id": "000b0000003e7d66bb9c9a48abb9d9e91d0a6d9efc", "profile": "http://www.citysearch.com/profile/682470740/marietta_ga/metropolis_wing_station.html", "address": {"city": "Marietta", "state": "GA", "street": "1038 Franklin Rd Se", "postal_code": "30067"}, "capProviderId": null, "distance": null, "has_offers": false, "name": "Metropolis Wing Station", "longitude": -84.493666, "has_menu": false, "awards": null, "user_review_count": 0}, {"business_operation_status": 1, "rating": null, "neighborhood": null, "image": null, "scorecard": null, "featured": false, "sample_categories": "Ice Cream Parlors", "public_id": "baskinrobbins-marietta-8", "id": 833503720, "votes": null, "tagline": null, "has_video": false, "website": null, "offers": null, "latitude": 33.949812, "politanName": "Atlanta, GA Metro ", "phone_number": "7709713251", "tags": [{"primary": true, "id": 1730, "name": "Ice Cream Parlors"}], "fax_number": null, "expansion": {"count": null, "uri": null}, "impression_id": "000b000000dc6644dd93af474b87a2dcf7c54ccd76", "profile": "http://www.citysearch.com/profile/833503720/marietta_ga/baskin_robbins.html", "address": {"city": "Marietta", "state": "GA", "street": "80 Powers Ferry Rd SE", "postal_code": "30067"}, "capProviderId": null, "distance": null, "has_offers": false, "name": "Baskin-Robbins", "longitude": -84.511129, "has_menu": true, "awards": null, "user_review_count": 0}, {"business_operation_status": 1, "rating": null, "neighborhood": null, "image": null, "scorecard": null, "featured": false, "sample_categories": "Restaurants", "public_id": "kabanas-bar-grille-marietta", "id": 628071894, "votes": null, "tagline": null, "has_video": false, "website": null, "offers": null, "latitude": 33.915701, "politanName": "Atlanta, GA Metro ", "phone_number": "7706932382", "tags": [{"primary": true, "id": 1722, "name": "Restaurants"}], "fax_number": null, "expansion": {"count": null, "uri": null}, "impression_id": "000b000000d923894af37349f3945304aaea5a6a14", "profile": "http://www.citysearch.com/profile/628071894/marietta_ga/kabanas_bar_grille.html", "address": {"city": "Marietta", "state": "GA", "street": "1475 Terrell Mill Rd SE", "postal_code": "30067"}, "capProviderId": null, "distance": null, "has_offers": false, "name": "Kabanas Bar & Grille", "longitude": -84.4689, "has_menu": false, "awards": null, "user_review_count": 0}, {"business_operation_status": 1, "rating": null, "neighborhood": null, "image": null, "scorecard": null, "featured": false, "sample_categories": "Grocery Stores, Health Food Stores, Restaurants", "public_id": "bambinos-nutritional-ctr-marietta", "id": 631964510, "votes": null, "tagline": null, "has_video": false, "website": null, "offers": null, "latitude": 33.906963, "politanName": "Atlanta, GA Metro ", "phone_number": "7709512267", "tags": [{"primary": false, "id": 1716, "name": "Health Food Stores"}, {"primary": false, "id": 1722, "name": "Restaurants"}, {"primary": true, "id": 1713, "name": "Grocery Stores"}], "fax_number": null, "expansion": {"count": null, "uri": null}, "impression_id": "000b000000537470df632743adb6318f8eef97a0ab", "profile": "http://www.citysearch.com/profile/631964510/marietta_ga/bambinos_nutritional_ctr.html", "address": {"city": "Marietta", "state": "GA", "street": "1869 Cobb Pkwy S 700", "postal_code": "30060"}, "capProviderId": null, "distance": null, "has_offers": false, "name": "Bambinos Nutritional Ctr", "longitude": -84.488987, "has_menu": false, "awards": null, "user_review_count": 0}, {"business_operation_status": 1, "rating": null, "neighborhood": null, "image": null, "scorecard": null, "featured": false, "sample_categories": "Restaurants, Carry Out", "public_id": "golden-corral-buffet-grill-marietta-2", "id": 811738440, "votes": null, "tagline": null, "has_video": false, "website": null, "offers": null, "latitude": 33.93149, "politanName": "Atlanta, GA Metro ", "phone_number": "7709551779", "tags": [{"primary": false, "id": 11247, "name": "Carry Out"}, {"primary": true, "id": 1722, "name": "Restaurants"}], "fax_number": null, "expansion": {"count": null, "uri": null}, "impression_id": "000b000000585653f97ee04c5a964f1237a59a0704", "profile": "http://www.citysearch.com/profile/811738440/marietta_ga/golden_corral_buffet_grill.html", "address": {"city": "Marietta", "state": "GA", "street": "2024 Powers Ferry Trce SE", "postal_code": "30067"}, "capProviderId": null, "distance": null, "has_offers": false, "name": "Golden Corral Buffet & Grill", "longitude": -84.478299, "has_menu": false, "awards": null, "user_review_count": 0}, {"business_operation_status": 1, "rating": null, "neighborhood": null, "image": null, "scorecard": null, "featured": false, "sample_categories": "Restaurants, Chinese", "public_id": "china-shipping-agency-atlanta", "id": 45568408, "votes": null, "tagline": null, "has_video": false, "website": null, "offers": null, "latitude": 33.902606, "politanName": "Atlanta, GA Metro ", "phone_number": "7708578338", "tags": [{"primary": false, "id": 11252, "name": "Chinese"}, {"primary": true, "id": 1722, "name": "Restaurants"}], "fax_number": null, "expansion": {"count": null, "uri": null}, "impression_id": "000b000000260c4340410d48039ac2e7a1aa6bf259", "profile": "http://www.citysearch.com/profile/45568408/atlanta_ga/china_shipping_agency.html", "address": {"city": "Atlanta", "state": "GA", "street": "2000 Powers Ferry Rd SE", "postal_code": "30339"}, "capProviderId": null, "distance": null, "has_offers": false, "name": "China Shipping Agency", "longitude": -84.457878, "has_menu": false, "awards": null, "user_review_count": 0}, {"business_operation_status": 1, "rating": null, "neighborhood": null, "image": null, "scorecard": null, "featured": false, "sample_categories": "Restaurants, Delis And Delicatessens", "public_id": "shadowood-cafe-atlanta", "id": 3030562, "votes": null, "tagline": null, "has_video": false, "website": null, "offers": null, "latitude": 33.901114, "politanName": "Atlanta, GA Metro ", "phone_number": "7709333265", "tags": [{"primary": false, "id": 1727, "name": "Delis And Delicatessens"}, {"primary": true, "id": 1722, "name": "Restaurants"}], "fax_number": null, "expansion": {"count": null, "uri": null}, "impression_id": "000b0000009e3940c772bd4918a96ac48eb0f6a8de", "profile": "http://www.citysearch.com/profile/3030562/atlanta_ga/shadowood_cafe.html", "address": {"city": "Atlanta", "state": "GA", "street": "2110 Powers Ferry Rd SE 120", "postal_code": "30339"}, "capProviderId": null, "distance": null, "has_offers": false, "name": "Shadowood Cafe", "longitude": -84.45113, "has_menu": false, "awards": null, "user_review_count": 0}, {"business_operation_status": 1, "rating": null, "neighborhood": null, "image": null, "scorecard": null, "featured": false, "sample_categories": "Restaurants, Barbecue Restaurants", "public_id": "wing-zone-marietta", "id": 37646631, "votes": null, "tagline": null, "has_video": false, "website": "http://www.citysearch.com/profile/external/37646631/marietta_ga/wing_zone.html", "offers": null, "latitude": 33.920106, "politanName": "Atlanta, GA Metro ", "phone_number": "7709889464", "tags": [{"primary": false, "id": 1724, "name": "Barbecue Restaurants"}, {"primary": true, "id": 1722, "name": "Restaurants"}], "fax_number": null, "expansion": {"count": null, "uri": null}, "impression_id": "000b000000b15bb56bf1aa4981b92cbdd228af1f1a", "profile": "http://www.citysearch.com/profile/37646631/marietta_ga/wing_zone.html", "address": {"city": "Marietta", "state": "GA", "street": "1309 Powers Ferry Rd SE", "postal_code": "30067"}, "capProviderId": null, "distance": null, "has_offers": false, "name": "Wing Zone", "longitude": -84.467252, "has_menu": true, "awards": null, "user_review_count": 0}, {"business_operation_status": 0, "rating": null, "neighborhood": null, "image": null, "scorecard": null, "featured": false, "sample_categories": "Restaurants, Delis And Delicatessens, Sandwich Shops, Carry Out", "public_id": "subway-marietta-49", "id": 764879600, "votes": null, "tagline": null, "has_video": false, "website": "http://www.citysearch.com/profile/external/764879600/marietta_ga/subway.html", "offers": null, "latitude": 33.900569, "politanName": "Atlanta, GA Metro ", "phone_number": "7708500296", "tags": [{"primary": false, "id": 1727, "name": "Delis And Delicatessens"}, {"primary": false, "id": 1736, "name": "Sandwich Shops"}, {"primary": false, "id": 11247, "name": "Carry Out"}, {"primary": true, "id": 1722, "name": "Restaurants"}], "fax_number": null, "expansion": {"count": null, "uri": null}, "impression_id": "000b000000a7c5219d294d4fddbb2d825c281e26de", "profile": "http://www.citysearch.com/profile/764879600/marietta_ga/subway.html", "address": {"city": "Marietta", "state": "GA", "street": "2145 Powers Ferry Rd SE", "postal_code": "30067"}, "capProviderId": null, "distance": null, "has_offers": false, "name": "SUBWAY", "longitude": -84.448686, "has_menu": true, "awards": null, "user_review_count": 0}, {"business_operation_status": 1, "rating": null, "neighborhood": null, "image": null, "scorecard": null, "featured": false, "sample_categories": "Restaurants, Pizza", "public_id": "stevi-bs-pizza-marietta-5", "id": 766799650, "votes": null, "tagline": null, "has_video": false, "website": "http://www.citysearch.com/profile/external/766799650/marietta_ga/stevi_b_s_pizza.html", "offers": null, "latitude": 33.925343, "politanName": "Atlanta, GA Metro ", "phone_number": "7705411450", "tags": [{"primary": false, "id": 11299, "name": "Pizza"}, {"primary": true, "id": 1722, "name": "Restaurants"}], "fax_number": null, "expansion": {"count": null, "uri": null}, "impression_id": "000b0000007f20861bcfda43efa1ce602b57ede020", "profile": "http://www.citysearch.com/profile/766799650/marietta_ga/stevi_b_s_pizza.html", "address": {"city": "Marietta", "state": "GA", "street": "1165 Northchase Pkwy SE # 220", "postal_code": "30067"}, "capProviderId": null, "distance": null, "has_offers": false, "name": "Stevi B's Pizza", "longitude": -84.480479, "has_menu": true, "awards": null, "user_review_count": 0}, {"business_operation_status": 1, "rating": null, "neighborhood": null, "image": null, "scorecard": null, "featured": false, "sample_categories": "Restaurants", "public_id": "restaurant-concepts-inc-marietta", "id": 775223410, "votes": null, "tagline": null, "has_video": false, "website": null, "offers": null, "latitude": 33.930134, "politanName": "Atlanta, GA Metro ", "phone_number": "7709525943", "tags": [{"primary": true, "id": 1722, "name": "Restaurants"}], "fax_number": null, "expansion": {"count": null, "uri": null}, "impression_id": "000b0000000121aea60792441d9c24897c4857d464", "profile": "http://www.citysearch.com/profile/775223410/marietta_ga/restaurant_concepts_inc.html", "address": {"city": "Marietta", "state": "GA", "street": "2120 Powers Ferry Dr SE", "postal_code": "30067"}, "capProviderId": null, "distance": null, "has_offers": false, "name": "Restaurant Concepts Inc", "longitude": -84.486864, "has_menu": false, "awards": null, "user_review_count": 0}, {"business_operation_status": 1, "rating": null, "neighborhood": null, "image": null, "scorecard": null, "featured": false, "sample_categories": "Food Stores, Restaurants", "public_id": "halal-meats-marietta", "id": 696523330, "votes": null, "tagline": null, "has_video": false, "website": null, "offers": null, "latitude": 33.937797, "politanName": "Atlanta, GA Metro ", "phone_number": "6782900211", "tags": [{"primary": false, "id": 1722, "name": "Restaurants"}, {"primary": true, "id": 1706, "name": "Food Stores"}], "fax_number": null, "expansion": {"count": null, "uri": null}, "impression_id": "000b00000028627e5dcd824112bc74dde3aaad353d", "profile": "http://www.citysearch.com/profile/696523330/marietta_ga/halal_meats.html", "address": {"city": "Marietta", "state": "GA", "street": "585 Franklin Rd Se", "postal_code": "30067"}, "capProviderId": null, "distance": null, "has_offers": false, "name": "Halal Meats", "longitude": -84.506993, "has_menu": false, "awards": null, "user_review_count": 0}, {"business_operation_status": 1, "rating": null, "neighborhood": null, "image": null, "scorecard": null, "featured": false, "sample_categories": "Restaurants, Bars & Clubs, Traditional American", "public_id": "padella-marietta", "id": 748352460, "votes": null, "tagline": null, "has_video": false, "website": null, "offers": null, "latitude": 33.905983, "politanName": "Atlanta, GA Metro ", "phone_number": "7709561234", "tags": [{"primary": false, "id": 164, "name": "Bars & Clubs"}, {"primary": false, "id": 11190, "name": "Traditional American"}, {"primary": true, "id": 1722, "name": "Restaurants"}], "fax_number": null, "expansion": {"count": null, "uri": null}, "impression_id": "000b000000e577038215b3407eb2b4838ac7565b6d", "profile": "http://www.citysearch.com/profile/748352460/marietta_ga/padella.html", "address": {"city": "Marietta", "state": "GA", "street": "2999 Windy Hill Rd SE", "postal_code": "30067"}, "capProviderId": null, "distance": null, "has_offers": false, "name": "Padella", "longitude": -84.466315, "has_menu": true, "awards": null, "user_review_count": 0}, {"business_operation_status": 1, "rating": null, "neighborhood": null, "image": null, "scorecard": null, "featured": false, "sample_categories": "Restaurants", "public_id": "canyon-cafe-marietta", "id": 732199900, "votes": null, "tagline": null, "has_video": false, "website": null, "offers": null, "latitude": 33.949881, "politanName": "Atlanta, GA Metro ", "phone_number": "6784693379", "tags": [{"primary": true, "id": 1722, "name": "Restaurants"}], "fax_number": null, "expansion": {"count": null, "uri": null}, "impression_id": "000b000000ae9f09923cba4673bad119c547e1fb0a", "profile": "http://www.citysearch.com/profile/732199900/marietta_ga/canyon_cafe.html", "address": {"city": "Marietta", "state": "GA", "street": "3486 Sheridan Chase SE", "postal_code": "30067"}, "capProviderId": null, "distance": null, "has_offers": false, "name": "Canyon Cafe", "longitude": -84.446848, "has_menu": false, "awards": null, "user_review_count": 0}, {"business_operation_status": 1, "rating": null, "neighborhood": null, "image": null, "scorecard": null, "featured": false, "sample_categories": "Restaurants", "public_id": "w-k-r-d-the-blaze-power-house-marietta", "id": 779694540, "votes": null, "tagline": null, "has_video": false, "website": null, "offers": null, "latitude": 33.938913, "politanName": "Atlanta, GA Metro ", "phone_number": "6784018567", "tags": [{"primary": true, "id": 1722, "name": "Restaurants"}], "fax_number": null, "expansion": {"count": null, "uri": null}, "impression_id": "000b0000009e5f9e636df64c679c1630c5c0e6641f", "profile": "http://www.citysearch.com/profile/779694540/marietta_ga/w_k_r_d_the_blaze_power_house.html", "address": {"city": "Marietta", "state": "GA", "street": "550 Franklin Rd Se", "postal_code": "30067"}, "capProviderId": null, "distance": null, "has_offers": false, "name": "W K R D The Blaze Power House", "longitude": -84.507658, "has_menu": false, "awards": null, "user_review_count": 0}, {"business_operation_status": 1, "rating": null, "neighborhood": null, "image": null, "scorecard": null, "featured": false, "sample_categories": "Restaurants, Coffee & Tea Shops, Cafes", "public_id": "parkway-cafe-marietta", "id": 621991080, "votes": null, "tagline": null, "has_video": false, "website": null, "offers": null, "latitude": 33.938367, "politanName": "Atlanta, GA Metro ", "phone_number": "7705908922", "tags": [{"primary": false, "id": 1711, "name": "Coffee & Tea Shops"}, {"primary": false, "id": 6190, "name": "Cafes"}, {"primary": true, "id": 1722, "name": "Restaurants"}], "fax_number": null, "expansion": {"count": null, "uri": null}, "impression_id": "000b000000b7cfb50ebb964c939037fe9412a00895", "profile": "http://www.citysearch.com/profile/621991080/marietta_ga/parkway_cafe.html", "address": {"city": "Marietta", "state": "GA", "street": "1850 Parkway Pl Se # 120", "postal_code": "30067"}, "capProviderId": null, "distance": null, "has_offers": false, "name": "Parkway Cafe", "longitude": -84.501954, "has_menu": false, "awards": null, "user_review_count": 0}, {"business_operation_status": 1, "rating": null, "neighborhood": null, "image": null, "scorecard": null, "featured": false, "sample_categories": "Restaurants, Traditional American, Carry Out", "public_id": "waffle-house-marietta-16", "id": 777819230, "votes": null, "tagline": null, "has_video": false, "website": "http://www.citysearch.com/profile/external/777819230/marietta_ga/waffle_house.html", "offers": null, "latitude": 33.923768, "politanName": "Atlanta, GA Metro ", "phone_number": "7709526638", "tags": [{"primary": false, "id": 11190, "name": "Traditional American"}, {"primary": false, "id": 11247, "name": "Carry Out"}, {"primary": true, "id": 1722, "name": "Restaurants"}], "fax_number": null, "expansion": {"count": null, "uri": null}, "impression_id": "000b0000003cc8ee3d625d4a9a86c91f2689023671", "profile": "http://www.citysearch.com/profile/777819230/marietta_ga/waffle_house.html", "address": {"city": "Marietta", "state": "GA", "street": "1185 Franklin Rd Se", "postal_code": "30067"}, "capProviderId": null, "distance": null, "has_offers": false, "name": "Waffle House", "longitude": -84.491678, "has_menu": true, "awards": null, "user_review_count": 0}, {"business_operation_status": 1, "rating": null, "neighborhood": null, "image": null, "scorecard": null, "featured": false, "sample_categories": "Restaurants, Delis And Delicatessens, Sandwich Shops, Carry Out", "public_id": "quiznos-marietta-7", "id": 832339260, "votes": null, "tagline": null, "has_video": false, "website": null, "offers": null, "latitude": 33.905926, "politanName": "Atlanta, GA Metro ", "phone_number": "7709800268", "tags": [{"primary": false, "id": 1727, "name": "Delis And Delicatessens"}, {"primary": false, "id": 1736, "name": "Sandwich Shops"}, {"primary": false, "id": 11247, "name": "Carry Out"}, {"primary": true, "id": 1722, "name": "Restaurants"}], "fax_number": null, "expansion": {"count": null, "uri": null}, "impression_id": "000b000000591c8a2daee842029d77e75ed3ee9132", "profile": "http://www.citysearch.com/profile/832339260/marietta_ga/quiznos.html", "address": {"city": "Marietta", "state": "GA", "street": "2000 Powers Ferry Rd SE # 1-11", "postal_code": "30067"}, "capProviderId": null, "distance": null, "has_offers": false, "name": "Quiznos", "longitude": -84.465323, "has_menu": true, "awards": null, "user_review_count": 0}, {"business_operation_status": 1, "rating": null, "neighborhood": null, "image": null, "scorecard": null, "featured": false, "sample_categories": "Restaurants, Bars & Clubs, Nightclubs", "public_id": "illusion-lounge-dance-club-marietta", "id": 775216060, "votes": null, "tagline": null, "has_video": false, "website": null, "offers": null, "latitude": 33.905926, "politanName": "Atlanta, GA Metro ", "phone_number": "7709569909", "tags": [{"primary": false, "id": 164, "name": "Bars & Clubs"}, {"primary": false, "id": 169, "name": "Nightclubs"}, {"primary": true, "id": 1722, "name": "Restaurants"}], "fax_number": null, "expansion": {"count": null, "uri": null}, "impression_id": "000b000000565722c0494f479bbef28470d1682572", "profile": "http://www.citysearch.com/profile/775216060/marietta_ga/illusion_lounge_dance_club.html", "address": {"city": "Marietta", "state": "GA", "street": "2000 Powers Ferry Rd SE", "postal_code": "30067"}, "capProviderId": null, "distance": null, "has_offers": false, "name": "Illusion Lounge & Dance Club", "longitude": -84.465323, "has_menu": false, "awards": null, "user_review_count": 0}, {"business_operation_status": 1, "rating": null, "neighborhood": null, "image": null, "scorecard": null, "featured": false, "sample_categories": "Restaurants", "public_id": "blue-olive-marietta", "id": 672107680, "votes": null, "tagline": null, "has_video": false, "website": null, "offers": null, "latitude": 33.965353, "politanName": "Atlanta, GA Metro ", "phone_number": "7705795949", "tags": [{"primary": true, "id": 1722, "name": "Restaurants"}], "fax_number": null, "expansion": {"count": null, "uri": null}, "impression_id": "000b000000b6df4ba3633c4167b76205e5bd1a3e2b", "profile": "http://www.citysearch.com/profile/672107680/marietta_ga/blue_olive.html", "address": {"city": "Marietta", "state": "GA", "street": "4665 Lower Roswell Rd", "postal_code": "30068"}, "capProviderId": null, "distance": null, "has_offers": false, "name": "Blue Olive", "longitude": -84.415616, "has_menu": false, "awards": null, "user_review_count": 1}, {"business_operation_status": 1, "rating": null, "neighborhood": null, "image": null, "scorecard": null, "featured": false, "sample_categories": "Restaurants, Pizza", "public_id": "blue-moon-pizza-marietta-3", "id": 745594000, "votes": null, "tagline": null, "has_video": false, "website": null, "offers": null, "latitude": 33.913381, "politanName": "Atlanta, GA Metro ", "phone_number": "7709842444", "tags": [{"primary": false, "id": 1722, "name": "Restaurants"}, {"primary": true, "id": 11299, "name": "Pizza"}], "fax_number": null, "expansion": {"count": null, "uri": null}, "impression_id": "000b0000008a52c9dca2f44c62b1ad65c39dc817c2", "profile": "http://www.citysearch.com/profile/745594000/marietta_ga/blue_moon_pizza.html", "address": {"city": "Marietta", "state": "GA", "street": "1307 Wynnes Ridge Cir SE", "postal_code": "30067"}, "capProviderId": null, "distance": null, "has_offers": false, "name": "Blue Moon Pizza", "longitude": -84.468451, "has_menu": false, "awards": null, "user_review_count": 0}], "histograms": [], "tag_ids": [1722], "uri": "http://api.citygridmedia.com:8080/search/places/v2/search/where?has_offers=false&type=restaurant&format=json&page=5&where=30067&rpp=50&histograms=false&publisher=10000009598&region_type=circle", "did_you_mean": "", "regions": [{"latitude": 33.930575, "default_radius": 3.78, "type": "postal_code", "name": "30067", "longitude": -84.463162}], "call_id": "000b00000017ae23afce114497961e8e80e507d620", "first_hit": 201, "total_hits": 1972, "geo_ids": [26295], "page": 5, "last_hit": 250}}