{"results": {"rpp": 50, "locations": [{"business_operation_status": 1, "rating": null, "neighborhood": null, "image": null, "scorecard": null, "featured": false, "sample_categories": "Restaurants", "public_id": "statewide-development-atlanta", "id": 808723820, "votes": null, "tagline": null, "has_video": false, "website": null, "offers": null, "latitude": 33.9093, "politanName": "Atlanta, GA Metro ", "phone_number": "6785466070", "tags": [{"primary": true, "id": 1722, "name": "Restaurants"}], "fax_number": null, "expansion": {"count": null, "uri": null}, "impression_id": "000b000000a5b60b3e6d8c43e8a46141e6ecc14b7d", "profile": "http://www.citysearch.com/profile/808723820/atlanta_ga/statewide_development.html", "address": {"city": "Atlanta", "state": "GA", "street": "1775 The Exchange SE # 190", "postal_code": "30339"}, "capProviderId": null, "distance": null, "has_offers": false, "name": "Statewide Development", "longitude": -84.480035, "has_menu": false, "awards": null, "user_review_count": 0}, {"business_operation_status": 1, "rating": 8.0, "neighborhood": null, "image": null, "scorecard": null, "featured": false, "sample_categories": "Restaurants, Pizza", "public_id": "marietta-pizza-company-kennesaw", "id": 41424081, "votes": null, "tagline": null, "has_video": false, "website": null, "offers": null, "latitude": 34.016024, "politanName": "Atlanta, GA Metro ", "phone_number": "6782856722", "tags": [{"primary": false, "id": 1722, "name": "Restaurants"}, {"primary": true, "id": 11299, "name": "Pizza"}], "fax_number": null, "expansion": {"count": null, "uri": null}, "impression_id": "000b000000e767ca8994944bb9a47376d0c1ae0015", "profile": "http://www.citysearch.com/profile/41424081/kennesaw_ga/marietta_pizza_company.html", "address": {"city": "Kennesaw", "state": "GA", "street": "2500 Cobb Place Ln NW", "postal_code": "30144"}, "capProviderId": null, "distance": null, "has_offers": false, "name": "Marietta Pizza Company", "longitude": -84.571897, "has_menu": true, "awards": null, "user_review_count": 0}, {"business_operation_status": 1, "rating": null, "neighborhood": null, "image": null, "scorecard": null, "featured": false, "sample_categories": "Restaurants, Ice Cream Parlors", "public_id": "tcby-marietta-3", "id": 814186530, "votes": null, "tagline": null, "has_video": false, "website": "http://www.citysearch.com/profile/external/814186530/marietta_ga/tcby.html", "offers": null, "latitude": 33.969806, "politanName": "Atlanta, GA Metro ", "phone_number": "7705798833", "tags": [{"primary": false, "id": 1730, "name": "Ice Cream Parlors"}, {"primary": true, "id": 1722, "name": "Restaurants"}], "fax_number": null, "expansion": {"count": null, "uri": null}, "impression_id": "000b0000003ec757f1f8e54f109172e4ff864b0703", "profile": "http://www.citysearch.com/profile/814186530/marietta_ga/tcby.html", "address": {"city": "Marietta", "state": "GA", "street": "2200 Roswell Rd", "postal_code": "30062"}, "capProviderId": null, "distance": null, "has_offers": false, "name": "TCBY", "longitude": -84.487911, "has_menu": true, "awards": null, "user_review_count": 0}, {"business_operation_status": 1, "rating": null, "neighborhood": null, "image": null, "scorecard": null, "featured": false, "sample_categories": "Restaurants", "public_id": "champs-barbq-smyrna", "id": 819797740, "votes": null, "tagline": null, "has_video": false, "website": null, "offers": null, "latitude": 33.896088, "politanName": "Atlanta, GA Metro ", "phone_number": "7704386618", "tags": [{"primary": true, "id": 1722, "name": "Restaurants"}], "fax_number": null, "expansion": {"count": null, "uri": null}, "impression_id": "000b0000008a1d4d6f59bf47e29522a6d48cb4d8fa", "profile": "http://www.citysearch.com/profile/819797740/smyrna_ga/champs_bar_b_q.html", "address": {"city": "Smyrna", "state": "GA", "street": "2300 S Cobb Dr SE", "postal_code": "30080"}, "capProviderId": null, "distance": null, "has_offers": false, "name": "Champs Bar-B-Q", "longitude": -84.539784, "has_menu": false, "awards": null, "user_review_count": 0}, {"business_operation_status": 1, "rating": null, "neighborhood": null, "image": null, "scorecard": null, "featured": false, "sample_categories": "Restaurants, Barbecue Restaurants", "public_id": "wing-zone-franchise-corp-atlanta", "id": 43874042, "votes": null, "tagline": null, "has_video": false, "website": "http://www.citysearch.com/profile/external/43874042/atlanta_ga/wing_zone_franchise_corp.html", "offers": null, "latitude": 33.887557, "politanName": "Atlanta, GA Metro ", "phone_number": "4048755045", "tags": [{"primary": false, "id": 1724, "name": "Barbecue Restaurants"}, {"primary": true, "id": 1722, "name": "Restaurants"}], "fax_number": null, "expansion": {"count": null, "uri": null}, "impression_id": "000b000000d7431062025c4ba189bfc2a9c70f998e", "profile": "http://www.citysearch.com/profile/43874042/atlanta_ga/wing_zone_franchise_corp.html", "address": {"city": "Atlanta", "state": "GA", "street": "900 Circle 75 Pkwy SE Ste 930", "postal_code": "30339"}, "capProviderId": null, "distance": null, "has_offers": false, "name": "Wing Zone Franchise Corp", "longitude": -84.467746, "has_menu": true, "awards": null, "user_review_count": 0}, {"business_operation_status": 1, "rating": null, "neighborhood": null, "image": null, "scorecard": null, "featured": false, "sample_categories": "Restaurants, Bars & Pubs", "public_id": "buffalo-wing-pub-marietta", "id": 764831570, "votes": null, "tagline": null, "has_video": false, "website": null, "offers": null, "latitude": 33.915472, "politanName": "Atlanta, GA Metro ", "phone_number": "7709333425", "tags": [{"primary": false, "id": 1686, "name": "Bars & Pubs"}, {"primary": true, "id": 1722, "name": "Restaurants"}], "fax_number": null, "expansion": {"count": null, "uri": null}, "impression_id": "000b000000e7772970013f42dab6c4924c0c5f6db9", "profile": "http://www.citysearch.com/profile/764831570/marietta_ga/buffalo_wing_pub.html", "address": {"city": "Marietta", "state": "GA", "street": "1498 Powers Ferry Rd SE", "postal_code": "30067"}, "capProviderId": null, "distance": null, "has_offers": false, "name": "Buffalo Wing Pub", "longitude": -84.46601, "has_menu": false, "awards": null, "user_review_count": 0}, {"business_operation_status": 1, "rating": null, "neighborhood": null, "image": null, "scorecard": null, "featured": false, "sample_categories": "Restaurants, Seafood, Carry Out", "public_id": "red-lobster-marietta", "id": 787098710, "votes": null, "tagline": null, "has_video": false, "website": null, "offers": null, "latitude": 33.913386, "politanName": "Atlanta, GA Metro ", "phone_number": "4703774938", "tags": [{"primary": false, "id": 11228, "name": "Seafood"}, {"primary": false, "id": 11247, "name": "Carry Out"}, {"primary": true, "id": 1722, "name": "Restaurants"}], "fax_number": null, "expansion": {"count": null, "uri": null}, "impression_id": "000b0000009fe138ef8c2e4bd38161ceaeee3983d3", "profile": "http://www.citysearch.com/profile/787098710/marietta_ga/red_lobster.html", "address": {"city": "Marietta", "state": "GA", "street": "699 Crosswinds Cir", "postal_code": "30008"}, "capProviderId": null, "distance": null, "has_offers": false, "name": "Red Lobster", "longitude": -84.575132, "has_menu": false, "awards": null, "user_review_count": 0}, {"business_operation_status": 1, "rating": null, "neighborhood": null, "image": null, "scorecard": null, "featured": false, "sample_categories": "Restaurants", "public_id": "unsukay-inc-atlanta", "id": 793286370, "votes": null, "tagline": null, "has_video": false, "website": null, "offers": null, "latitude": 33.907787, "politanName": "Atlanta, GA Metro ", "phone_number": "6784028471", "tags": [{"primary": true, "id": 1722, "name": "Restaurants"}], "fax_number": null, "expansion": {"count": null, "uri": null}, "impression_id": "000b0000003d1dd626a3794acb9e35c925c95b86d1", "profile": "http://www.citysearch.com/profile/793286370/atlanta_ga/unsukay_inc.html", "address": {"city": "Atlanta", "state": "GA", "street": "1899 Powers Ferry Rd Se", "postal_code": "30339"}, "capProviderId": null, "distance": null, "has_offers": false, "name": "Unsukay INC", "longitude": -84.463769, "has_menu": false, "awards": null, "user_review_count": 0}, {"business_operation_status": 1, "rating": null, "neighborhood": null, "image": null, "scorecard": null, "featured": false, "sample_categories": "Restaurants, Sandwich Shops, Gourmet Foods, Organic Foods, Hamburgers", "public_id": "yumm-burger-marietta", "id": 793386180, "votes": null, "tagline": null, "has_video": false, "website": "http://www.citysearch.com/profile/external/793386180/marietta_ga/yumm_burger.html", "offers": null, "latitude": 33.967001, "politanName": "Atlanta, GA Metro ", "phone_number": "7704855681", "tags": [{"primary": false, "id": 1736, "name": "Sandwich Shops"}, {"primary": false, "id": 11169, "name": "Gourmet Foods"}, {"primary": false, "id": 11173, "name": "Organic Foods"}, {"primary": false, "id": 11270, "name": "Hamburgers"}, {"primary": true, "id": 1722, "name": "Restaurants"}], "fax_number": null, "expansion": {"count": null, "uri": null}, "impression_id": "000b000000a426e9015e22462d88c8e087efba6d06", "profile": "http://www.citysearch.com/profile/793386180/marietta_ga/yumm_burger.html", "address": {"city": "Marietta", "state": "GA", "street": "3901 Mary Eliza Trce NW 120", "postal_code": "30064"}, "capProviderId": null, "distance": null, "has_offers": false, "name": "Yumm Burger", "longitude": -84.665447, "has_menu": false, "awards": null, "user_review_count": 0}, {"business_operation_status": 1, "rating": null, "neighborhood": null, "image": null, "scorecard": null, "featured": false, "sample_categories": "Restaurants", "public_id": "dineout-inc-marietta", "id": 807939100, "votes": null, "tagline": null, "has_video": false, "website": null, "offers": null, "latitude": 34.021269, "politanName": "Atlanta, GA Metro ", "phone_number": "7705656984", "tags": [{"primary": true, "id": 1722, "name": "Restaurants"}], "fax_number": null, "expansion": {"count": null, "uri": null}, "impression_id": "000b0000008c063d4d1b9d4aa69c6db94562ccc59d", "profile": "http://www.citysearch.com/profile/807939100/marietta_ga/dineout_inc.html", "address": {"city": "Marietta", "state": "GA", "street": "1705 Macby Dr", "postal_code": "30066"}, "capProviderId": null, "distance": null, "has_offers": false, "name": "Dineout Inc", "longitude": -84.502556, "has_menu": false, "awards": null, "user_review_count": 0}, {"business_operation_status": 1, "rating": null, "neighborhood": null, "image": null, "scorecard": null, "featured": false, "sample_categories": "Restaurants, Carry Out, Italian, Pizza", "public_id": "sbarro-smyrna", "id": 45082264, "votes": null, "tagline": null, "has_video": false, "website": "http://www.citysearch.com/profile/external/45082264/smyrna_ga/sbarro.html", "offers": null, "latitude": 33.874593, "politanName": "Atlanta, GA Metro ", "phone_number": "7704358311", "tags": [{"primary": false, "id": 11247, "name": "Carry Out"}, {"primary": false, "id": 11279, "name": "Italian"}, {"primary": false, "id": 11299, "name": "Pizza"}, {"primary": true, "id": 1722, "name": "Restaurants"}], "fax_number": null, "expansion": {"count": null, "uri": null}, "impression_id": "000b000000da635201b2bd4d7883c1927c0ec68e99", "profile": "http://www.citysearch.com/profile/45082264/smyrna_ga/sbarro.html", "address": {"city": "Smyrna", "state": "GA", "street": "1000 Cumberland Ct SE", "postal_code": "30080"}, "capProviderId": null, "distance": null, "has_offers": false, "name": "Sbarro", "longitude": -84.479034, "has_menu": true, "awards": null, "user_review_count": 0}, {"business_operation_status": 1, "rating": null, "neighborhood": null, "image": null, "scorecard": null, "featured": false, "sample_categories": "Restaurants", "public_id": "out-of-the-box-gifts-marietta", "id": 812371140, "votes": null, "tagline": null, "has_video": false, "website": null, "offers": null, "latitude": 33.982834, "politanName": "Atlanta, GA Metro ", "phone_number": "7702185455", "tags": [{"primary": true, "id": 1722, "name": "Restaurants"}], "fax_number": null, "expansion": {"count": null, "uri": null}, "impression_id": "000b000000bc5737f2fb55481aa3287f16a8f16ae6", "profile": "http://www.citysearch.com/profile/812371140/marietta_ga/out_of_the_box_gifts.html", "address": {"city": "Marietta", "state": "GA", "street": "1343 Canton Rd", "postal_code": "30066"}, "capProviderId": null, "distance": null, "has_offers": false, "name": "Out Of The Box Gifts", "longitude": -84.538604, "has_menu": false, "awards": null, "user_review_count": 0}, {"business_operation_status": 1, "rating": null, "neighborhood": null, "image": null, "scorecard": null, "featured": false, "sample_categories": "Restaurants", "public_id": "a-taste-of-puerto-rico-marietta-2", "id": 813840920, "votes": null, "tagline": null, "has_video": false, "website": null, "offers": null, "latitude": 34.017341, "politanName": "Atlanta, GA Metro ", "phone_number": "6787979992", "tags": [{"primary": true, "id": 1722, "name": "Restaurants"}], "fax_number": null, "expansion": {"count": null, "uri": null}, "impression_id": "000b000000a16c1c12c774463cb896779617fe885e", "profile": "http://www.citysearch.com/profile/813840920/marietta_ga/a_taste_of_puerto_rico.html", "address": {"city": "Marietta", "state": "GA", "street": "2769 Chastn Mdws Pkwy # 90", "postal_code": "30066"}, "capProviderId": null, "distance": null, "has_offers": false, "name": "A Taste Of Puerto Rico", "longitude": -84.555709, "has_menu": false, "awards": null, "user_review_count": 0}, {"business_operation_status": 1, "rating": null, "neighborhood": null, "image": null, "scorecard": null, "featured": false, "sample_categories": "Restaurants", "public_id": "wing-enterprises-inc-atlanta", "id": 816766630, "votes": null, "tagline": null, "has_video": false, "website": null, "offers": null, "latitude": 33.887519, "politanName": "Atlanta, GA Metro ", "phone_number": "4048751688", "tags": [{"primary": true, "id": 1722, "name": "Restaurants"}], "fax_number": null, "expansion": {"count": null, "uri": null}, "impression_id": "000b000000fce10aa8f6824720aa8e28f806960671", "profile": "http://www.citysearch.com/profile/816766630/atlanta_ga/wing_enterprises_inc.html", "address": {"city": "Atlanta", "state": "GA", "street": "900 Circle 75 Pkwy SE # 930", "postal_code": "30339"}, "capProviderId": null, "distance": null, "has_offers": false, "name": "Wing Enterprises Inc", "longitude": -84.467593, "has_menu": false, "awards": null, "user_review_count": 0}, {"business_operation_status": 1, "rating": 6.0, "neighborhood": null, "image": null, "scorecard": null, "featured": false, "sample_categories": "Restaurants, Bars & Pubs, Taverns, Barbecue Restaurants, MasterCard", "public_id": "wings-pub-smyrna", "id": 2922999, "votes": null, "tagline": null, "has_video": false, "website": null, "offers": null, "latitude": 33.894336, "politanName": "Atlanta, GA Metro ", "phone_number": "7704350007", "tags": [{"primary": false, "id": 1686, "name": "Bars & Pubs"}, {"primary": false, "id": 1702, "name": "Taverns"}, {"primary": false, "id": 1724, "name": "Barbecue Restaurants"}, {"primary": false, "id": 11361, "name": "MasterCard"}, {"primary": false, "id": 11382, "name": "Visa"}, {"primary": true, "id": 1722, "name": "Restaurants"}], "fax_number": null, "expansion": {"count": null, "uri": null}, "impression_id": "000b000000693ab6c6ffd940db9ed84f39b7cac529", "profile": "http://www.citysearch.com/profile/2922999/smyrna_ga/wings_pub.html", "address": {"city": "Smyrna", "state": "GA", "street": "1024 Windy Hill Rd SE", "postal_code": "30080"}, "capProviderId": null, "distance": null, "has_offers": false, "name": "Wings Pub", "longitude": -84.52318, "has_menu": false, "awards": null, "user_review_count": 0}, {"business_operation_status": 1, "rating": null, "neighborhood": null, "image": null, "scorecard": null, "featured": false, "sample_categories": "Restaurants, Pizza, Carry Out", "public_id": "little-caesars-pizza-kennesaw-2", "id": 622110480, "votes": null, "tagline": null, "has_video": false, "website": "http://www.citysearch.com/profile/external/622110480/kennesaw_ga/little_caesars_pizza.html", "offers": null, "latitude": 33.992719, "politanName": "Atlanta, GA Metro ", "phone_number": "7707944633", "tags": [{"primary": false, "id": 1722, "name": "Restaurants"}, {"primary": false, "id": 11247, "name": "Carry Out"}, {"primary": true, "id": 11299, "name": "Pizza"}], "fax_number": null, "expansion": {"count": null, "uri": null}, "impression_id": "000b000000380512bd6904446abab2fb35d74c1fd8", "profile": "http://www.citysearch.com/profile/622110480/kennesaw_ga/little_caesars_pizza.html", "address": {"city": "Kennesaw", "state": "GA", "street": "1600 Kennesaw Due West Rd Nw", "postal_code": "30152"}, "capProviderId": null, "distance": null, "has_offers": false, "name": "Little Caesars Pizza", "longitude": -84.627117, "has_menu": true, "awards": null, "user_review_count": 0}, {"business_operation_status": 1, "rating": null, "neighborhood": null, "image": null, "scorecard": null, "featured": false, "sample_categories": "Restaurants", "public_id": "extreme-cuisine-inc-marietta", "id": 820924170, "votes": null, "tagline": null, "has_video": false, "website": null, "offers": null, "latitude": 34.058557, "politanName": "Atlanta, GA Metro ", "phone_number": "7709281161", "tags": [{"primary": true, "id": 1722, "name": "Restaurants"}], "fax_number": null, "expansion": {"count": null, "uri": null}, "impression_id": "000b000000ab61e80e4e6f4f5e902236c226cbd3f8", "profile": "http://www.citysearch.com/profile/820924170/marietta_ga/extreme_cuisine_inc.html", "address": {"city": "Marietta", "state": "GA", "street": "716 Dover St", "postal_code": "30066"}, "capProviderId": null, "distance": null, "has_offers": false, "name": "Extreme Cuisine Inc", "longitude": -84.529522, "has_menu": false, "awards": null, "user_review_count": 0}, {"business_operation_status": 1, "rating": null, "neighborhood": null, "image": null, "scorecard": null, "featured": false, "sample_categories": "Restaurants", "public_id": "tacos-del-chavo-kennesaw", "id": 624205904, "votes": null, "tagline": null, "has_video": false, "website": null, "offers": null, "latitude": 34.023466, "politanName": "Atlanta, GA Metro ", "phone_number": "6788874997", "tags": [{"primary": true, "id": 1722, "name": "Restaurants"}], "fax_number": null, "expansion": {"count": null, "uri": null}, "impression_id": "000b00000077807073f1b7432d94542e70a1f8941b", "profile": "http://www.citysearch.com/profile/624205904/kennesaw_ga/tacos_del_chavo.html", "address": {"city": "Kennesaw", "state": "GA", "street": "2025 Chastain Rd", "postal_code": "30144"}, "capProviderId": null, "distance": null, "has_offers": false, "name": "Tacos Del Chavo", "longitude": -84.588896, "has_menu": false, "awards": null, "user_review_count": 0}, {"business_operation_status": 1, "rating": null, "neighborhood": null, "image": null, "scorecard": null, "featured": false, "sample_categories": "Restaurants, Pizza", "public_id": "pizza-sorrento-buffet-marietta", "id": 814485390, "votes": null, "tagline": null, "has_video": false, "website": null, "offers": null, "latitude": 34.017913, "politanName": "Atlanta, GA Metro ", "phone_number": "6783834986", "tags": [{"primary": false, "id": 1722, "name": "Restaurants"}, {"primary": true, "id": 11299, "name": "Pizza"}], "fax_number": null, "expansion": {"count": null, "uri": null}, "impression_id": "000b00000044116ac4e8c34b6a94da94d91ed8fb52", "profile": "http://www.citysearch.com/profile/814485390/marietta_ga/pizza_sorrento_buffet.html", "address": {"city": "Marietta", "state": "GA", "street": "2745 Sandy Plains Rd # 106", "postal_code": "30066"}, "capProviderId": null, "distance": null, "has_offers": false, "name": "Pizza Sorrento Buffet", "longitude": -84.492683, "has_menu": false, "awards": null, "user_review_count": 0}, {"business_operation_status": 1, "rating": null, "neighborhood": null, "image": null, "scorecard": null, "featured": false, "sample_categories": "Restaurants, Pizza", "public_id": "wolfies-pizza-kennesaw", "id": 819131230, "votes": null, "tagline": null, "has_video": false, "website": null, "offers": null, "latitude": 33.999345, "politanName": "Atlanta, GA Metro ", "phone_number": "7704261229", "tags": [{"primary": false, "id": 1722, "name": "Restaurants"}, {"primary": true, "id": 11299, "name": "Pizza"}], "fax_number": null, "expansion": {"count": null, "uri": null}, "impression_id": "000b00000034419a5165dd4a38be424c2a1f0915d6", "profile": "http://www.citysearch.com/profile/819131230/kennesaw_ga/wolfie_s_pizza.html", "address": {"city": "Kennesaw", "state": "GA", "street": "1200 Ernest W Barrett NW # 6", "postal_code": "30144"}, "capProviderId": null, "distance": null, "has_offers": false, "name": "WOLFIE'S PIZZA", "longitude": -84.586888, "has_menu": false, "awards": null, "user_review_count": 0}, {"business_operation_status": 1, "rating": null, "neighborhood": null, "image": null, "scorecard": null, "featured": false, "sample_categories": "Restaurants", "public_id": "sam-soultran-eatery-kennesaw", "id": 764849810, "votes": null, "tagline": null, "has_video": false, "website": null, "offers": null, "latitude": 34.007783, "politanName": "Atlanta, GA Metro ", "phone_number": "7704207110", "tags": [{"primary": true, "id": 1722, "name": "Restaurants"}], "fax_number": null, "expansion": {"count": null, "uri": null}, "impression_id": "000b0000002e2ed450d6a84db89ee11ddb4e80ea39", "profile": "http://www.citysearch.com/profile/764849810/kennesaw_ga/sam_soultran_eatery.html", "address": {"city": "Kennesaw", "state": "GA", "street": "2010 Cobb Pkwy NW", "postal_code": "30152"}, "capProviderId": null, "distance": null, "has_offers": false, "name": "Sam Soultran Eatery", "longitude": -84.613832, "has_menu": false, "awards": null, "user_review_count": 0}, {"business_operation_status": 1, "rating": null, "neighborhood": null, "image": null, "scorecard": null, "featured": false, "sample_categories": "Restaurants, Brazilian", "public_id": "rio-de-janeiro-brazilian-bfft-marietta", "id": 764857550, "votes": null, "tagline": null, "has_video": false, "website": null, "offers": null, "latitude": 33.921284, "politanName": "Atlanta, GA Metro ", "phone_number": "7709529556", "tags": [{"primary": false, "id": 11204, "name": "Brazilian"}, {"primary": true, "id": 1722, "name": "Restaurants"}], "fax_number": null, "expansion": {"count": null, "uri": null}, "impression_id": "000b000000c398722581744e448737c229e30ac037", "profile": "http://www.citysearch.com/profile/764857550/marietta_ga/rio_de_janeiro_brazilian_bfft.html", "address": {"city": "Marietta", "state": "GA", "street": "1260 Powers Ferry Rd SE # E", "postal_code": "30067"}, "capProviderId": null, "distance": null, "has_offers": false, "name": "Rio De Janeiro Brazilian Bfft", "longitude": -84.467848, "has_menu": false, "awards": null, "user_review_count": 0}, {"business_operation_status": 1, "rating": null, "neighborhood": null, "image": null, "scorecard": null, "featured": false, "sample_categories": "Restaurants, Coffeehouses", "public_id": "starbucks-smyrna-6", "id": 834619900, "votes": null, "tagline": null, "has_video": false, "website": null, "offers": null, "latitude": 33.887919, "politanName": "Atlanta, GA Metro ", "phone_number": "7709550322", "tags": [{"primary": false, "id": 1726, "name": "Coffeehouses"}, {"primary": true, "id": 1722, "name": "Restaurants"}], "fax_number": null, "expansion": {"count": null, "uri": null}, "impression_id": "000b000000cc987cfc43054bd3a343d7ae6af15b1a", "profile": "http://www.citysearch.com/profile/834619900/smyrna_ga/starbucks.html", "address": {"city": "Smyrna", "state": "GA", "street": "2670 Cobb Pkwy SE", "postal_code": "30080"}, "capProviderId": null, "distance": null, "has_offers": false, "name": "Starbucks", "longitude": -84.474232, "has_menu": true, "awards": null, "user_review_count": 0}, {"business_operation_status": 1, "rating": null, "neighborhood": null, "image": null, "scorecard": null, "featured": false, "sample_categories": "Restaurants", "public_id": "park-place-marietta", "id": 775200190, "votes": null, "tagline": null, "has_video": false, "website": null, "offers": null, "latitude": 33.938667, "politanName": "Atlanta, GA Metro ", "phone_number": "7708180041", "tags": [{"primary": true, "id": 1722, "name": "Restaurants"}], "fax_number": null, "expansion": {"count": null, "uri": null}, "impression_id": "000b0000003d3dd8a107a14982a681a79a28363b6d", "profile": "http://www.citysearch.com/profile/775200190/marietta_ga/park_place.html", "address": {"city": "Marietta", "state": "GA", "street": "560 N Palisades Cir SE", "postal_code": "30067"}, "capProviderId": null, "distance": null, "has_offers": false, "name": "Park Place", "longitude": -84.460642, "has_menu": false, "awards": null, "user_review_count": 0}, {"business_operation_status": 1, "rating": null, "neighborhood": null, "image": null, "scorecard": null, "featured": false, "sample_categories": "Restaurants, Bistros, Catering", "public_id": "paris-bistro-atlanta-10", "id": 775215220, "votes": null, "tagline": null, "has_video": false, "website": null, "offers": null, "latitude": 33.901847, "politanName": "Atlanta, GA Metro ", "phone_number": "6787661449", "tags": [{"primary": false, "id": 13690, "name": "Bistros"}, {"primary": false, "id": 1705, "name": "Catering"}, {"primary": true, "id": 1722, "name": "Restaurants"}], "fax_number": null, "expansion": {"count": null, "uri": null}, "impression_id": "000b000000cf095410c78d4034a16069c7c67579e5", "profile": "http://www.citysearch.com/profile/775215220/atlanta_ga/paris_bistro.html", "address": {"city": "Atlanta", "state": "GA", "street": "2018 Powers Ferry Rd SE", "postal_code": "30339"}, "capProviderId": null, "distance": null, "has_offers": false, "name": "Paris Bistro", "longitude": -84.457896, "has_menu": false, "awards": null, "user_review_count": 0}, {"business_operation_status": 1, "rating": null, "neighborhood": null, "image": null, "scorecard": null, "featured": false, "sample_categories": "Restaurants, Sandwich Shops, Hot Dogs", "public_id": "roys-royal-dogs-acworth", "id": 840479240, "votes": null, "tagline": null, "has_video": false, "website": "http://www.citysearch.com/profile/external/840479240/acworth_ga/roy_s_royal_dogs.html", "offers": null, "latitude": 34.036201, "politanName": "Atlanta, GA Metro ", "phone_number": "6783836294", "tags": [{"primary": false, "id": 1736, "name": "Sandwich Shops"}, {"primary": false, "id": 11274, "name": "Hot Dogs"}, {"primary": true, "id": 1722, "name": "Restaurants"}], "fax_number": null, "expansion": {"count": null, "uri": null}, "impression_id": "000b0000000b2ae704ef584d69915ed9c441a00f33", "profile": "http://www.citysearch.com/profile/840479240/acworth_ga/roy_s_royal_dogs.html", "address": {"city": "Acworth", "state": "GA", "street": "3330 Cobb Pkwy NW 308", "postal_code": "30101"}, "capProviderId": null, "distance": null, "has_offers": false, "name": "Roy's Royal Dogs", "longitude": -84.67689, "has_menu": false, "awards": null, "user_review_count": 0}, {"business_operation_status": 1, "rating": null, "neighborhood": null, "image": null, "scorecard": null, "featured": false, "sample_categories": "Coffeehouses", "public_id": "starbucks-marietta-15", "id": 781239340, "votes": null, "tagline": null, "has_video": false, "website": "http://www.citysearch.com/profile/external/781239340/marietta_ga/starbucks.html", "offers": null, "latitude": 33.91616, "politanName": "Atlanta, GA Metro ", "phone_number": "7708509807", "tags": [{"primary": true, "id": 1726, "name": "Coffeehouses"}], "fax_number": null, "expansion": {"count": null, "uri": null}, "impression_id": "000b000000973b518ef0174043bed98f57d75fc86f", "profile": "http://www.citysearch.com/profile/781239340/marietta_ga/starbucks.html", "address": {"city": "Marietta", "state": "GA", "street": "1453 Terrell Mill Rd Se", "postal_code": "30067"}, "capProviderId": null, "distance": null, "has_offers": false, "name": "Starbucks", "longitude": -84.467925, "has_menu": false, "awards": null, "user_review_count": 0}, {"business_operation_status": 1, "rating": null, "neighborhood": null, "image": null, "scorecard": null, "featured": false, "sample_categories": "Restaurants, Bakeries, Carry Out", "public_id": "cheesecake-factory-atlanta", "id": 793249980, "votes": null, "tagline": null, "has_video": false, "website": "http://www.citysearch.com/profile/external/793249980/atlanta_ga/cheesecake_factory.html", "offers": null, "latitude": 33.881743, "politanName": "Atlanta, GA Metro ", "phone_number": "7703195515", "tags": [{"primary": false, "id": 1685, "name": "Bakeries"}, {"primary": false, "id": 11247, "name": "Carry Out"}, {"primary": true, "id": 1722, "name": "Restaurants"}], "fax_number": null, "expansion": {"count": null, "uri": null}, "impression_id": "000b000000f0ad4e12a94449bfa86b5f5ccb6642b8", "profile": "http://www.citysearch.com/profile/793249980/atlanta_ga/cheesecake_factory.html", "address": {"city": "Atlanta", "state": "GA", "street": "1000 Cumberland Mall Se", "postal_code": "30339"}, "capProviderId": null, "distance": null, "has_offers": false, "name": "Cheesecake Factory", "longitude": -84.470084, "has_menu": true, "awards": null, "user_review_count": 0}, {"business_operation_status": 1, "rating": null, "neighborhood": null, "image": null, "scorecard": null, "featured": false, "sample_categories": "Restaurants, Hamburgers", "public_id": "juniors-cheeseburgers-marietta", "id": 793366980, "votes": null, "tagline": null, "has_video": false, "website": null, "offers": null, "latitude": 33.881461, "politanName": "Atlanta, GA Metro ", "phone_number": "6783543333", "tags": [{"primary": false, "id": 11270, "name": "Hamburgers"}, {"primary": true, "id": 1722, "name": "Restaurants"}], "fax_number": null, "expansion": {"count": null, "uri": null}, "impression_id": "000b0000006a2dca51ed2e4cadb25da58856c8210f", "profile": "http://www.citysearch.com/profile/793366980/marietta_ga/juniors_cheeseburgers.html", "address": {"city": "Marietta", "state": "GA", "street": "2325 Powder Springs Rd Sw", "postal_code": "30064"}, "capProviderId": null, "distance": null, "has_offers": false, "name": "Juniors Cheeseburgers", "longitude": -84.619677, "has_menu": false, "awards": null, "user_review_count": 0}, {"business_operation_status": 1, "rating": null, "neighborhood": null, "image": null, "scorecard": null, "featured": false, "sample_categories": "Restaurants, Delis And Delicatessens, Sandwich Shops, Carry Out, Soups", "public_id": "subway-marietta-33", "id": 43851179, "votes": null, "tagline": null, "has_video": false, "website": "http://www.citysearch.com/profile/external/43851179/marietta_ga/subway.html", "offers": null, "latitude": 34.019217, "politanName": "Atlanta, GA Metro ", "phone_number": "7705289499", "tags": [{"primary": false, "id": 1727, "name": "Delis And Delicatessens"}, {"primary": false, "id": 1736, "name": "Sandwich Shops"}, {"primary": false, "id": 11247, "name": "Carry Out"}, {"primary": false, "id": 11311, "name": "Soups"}, {"primary": false, "id": 11361, "name": "MasterCard"}, {"primary": false, "id": 11382, "name": "Visa"}, {"primary": true, "id": 1722, "name": "Restaurants"}], "fax_number": null, "expansion": {"count": null, "uri": null}, "impression_id": "000b000000c5c1a0ec62704d829f568bb82d549a01", "profile": "http://www.citysearch.com/profile/43851179/marietta_ga/subway.html", "address": {"city": "Marietta", "state": "GA", "street": "2795 Chastain Meadows Pkwy", "postal_code": "30066"}, "capProviderId": null, "distance": null, "has_offers": false, "name": "Subway", "longitude": -84.556431, "has_menu": true, "awards": null, "user_review_count": 0}, {"business_operation_status": 1, "rating": null, "neighborhood": null, "image": null, "scorecard": null, "featured": false, "sample_categories": "Restaurants, Catering, Delis And Delicatessens, Sandwich Shops, Carry Out", "public_id": "quiznos-atlanta", "id": 43875434, "votes": null, "tagline": null, "has_video": false, "website": "http://www.citysearch.com/profile/external/43875434/atlanta_ga/quiznos.html", "offers": null, "latitude": 33.879395, "politanName": "Atlanta, GA Metro ", "phone_number": "6782133101", "tags": [{"primary": false, "id": 1705, "name": "Catering"}, {"primary": false, "id": 1727, "name": "Delis And Delicatessens"}, {"primary": false, "id": 1736, "name": "Sandwich Shops"}, {"primary": false, "id": 11247, "name": "Carry Out"}, {"primary": false, "id": 11333, "name": "American Express"}, {"primary": false, "id": 11349, "name": "Discover"}, {"primary": false, "id": 11361, "name": "MasterCard"}, {"primary": false, "id": 11375, "name": "Shop Online"}, {"primary": false, "id": 11382, "name": "Visa"}, {"primary": true, "id": 1722, "name": "Restaurants"}], "fax_number": null, "expansion": {"count": null, "uri": null}, "impression_id": "000b000000814a28ff4645425d9b64572a6fc71e79", "profile": "http://www.citysearch.com/profile/43875434/atlanta_ga/quiznos.html", "address": {"city": "Atlanta", "state": "GA", "street": "3051 Akers Mill Rd SE 140", "postal_code": "30339"}, "capProviderId": null, "distance": null, "has_offers": false, "name": "Quiznos", "longitude": -84.463912, "has_menu": true, "awards": null, "user_review_count": 0}, {"business_operation_status": 1, "rating": 8.0, "neighborhood": null, "image": null, "scorecard": null, "featured": false, "sample_categories": "Ice Cream Parlors, Dessert Shops", "public_id": "bambi-ice-cream-smyrna", "id": 37647413, "votes": null, "tagline": null, "has_video": false, "website": null, "offers": null, "latitude": 33.902095, "politanName": "Atlanta, GA Metro ", "phone_number": "7703191929", "tags": [{"primary": false, "id": 1728, "name": "Dessert Shops"}, {"primary": true, "id": 1730, "name": "Ice Cream Parlors"}], "fax_number": null, "expansion": {"count": null, "uri": null}, "impression_id": "000b000000bd9628b0352d4ab581faa5ea58071b04", "profile": "http://www.citysearch.com/profile/37647413/smyrna_ga/bambi_ice_cream.html", "address": {"city": "Smyrna", "state": "GA", "street": "441 Pat Mell Rd SE", "postal_code": "30080"}, "capProviderId": null, "distance": null, "has_offers": false, "name": "Bambi Ice Cream", "longitude": -84.540382, "has_menu": false, "awards": null, "user_review_count": 1}, {"business_operation_status": 1, "rating": null, "neighborhood": null, "image": null, "scorecard": null, "featured": false, "sample_categories": "Restaurants", "public_id": "park-point-cafe-atlanta", "id": 37653137, "votes": null, "tagline": null, "has_video": false, "website": null, "offers": null, "latitude": 33.902474, "politanName": "Atlanta, GA Metro ", "phone_number": "7705416677", "tags": [{"primary": true, "id": 1722, "name": "Restaurants"}], "fax_number": null, "expansion": {"count": null, "uri": null}, "impression_id": "000b000000cd2e1ce1d869420bb6091590d63820b1", "profile": "http://www.citysearch.com/profile/37653137/atlanta_ga/park_point_cafe.html", "address": {"city": "Atlanta", "state": "GA", "street": "2018 Powers Ferry Rd SE", "postal_code": "30339"}, "capProviderId": null, "distance": null, "has_offers": false, "name": "Park Point Cafe", "longitude": -84.456329, "has_menu": false, "awards": null, "user_review_count": 0}, {"business_operation_status": 1, "rating": null, "neighborhood": null, "image": null, "scorecard": null, "featured": false, "sample_categories": "Restaurants", "public_id": "moore-moore-investments-inc-dallas", "id": 601315709, "votes": null, "tagline": null, "has_video": false, "website": null, "offers": null, "latitude": 33.935025, "politanName": "Atlanta, GA Metro ", "phone_number": "7704432856", "tags": [{"primary": true, "id": 1722, "name": "Restaurants"}], "fax_number": null, "expansion": {"count": null, "uri": null}, "impression_id": "000b000000d5700b917a6e4936889752fd9ba67794", "profile": "http://www.citysearch.com/profile/601315709/dallas_ga/moore_moore_investments_inc.html", "address": {"city": "Dallas", "state": "GA", "street": "3615 Marietta Hwy", "postal_code": "30157"}, "capProviderId": null, "distance": null, "has_offers": false, "name": "Moore & Moore Investments Inc", "longitude": -84.73087, "has_menu": false, "awards": null, "user_review_count": 0}, {"business_operation_status": 1, "rating": null, "neighborhood": null, "image": null, "scorecard": null, "featured": false, "sample_categories": "Restaurants", "public_id": "china-buffet-chinese-rstrnt-smyrna", "id": 826425600, "votes": null, "tagline": null, "has_video": false, "website": null, "offers": null, "latitude": 33.884505, "politanName": "Atlanta, GA Metro ", "phone_number": "7703338328", "tags": [{"primary": true, "id": 1722, "name": "Restaurants"}], "fax_number": null, "expansion": {"count": null, "uri": null}, "impression_id": "000b000000c639729a04c94fa7873fc0e6090d3c06", "profile": "http://www.citysearch.com/profile/826425600/smyrna_ga/china_buffet_chinese_rstrnt.html", "address": {"city": "Smyrna", "state": "GA", "street": "2800 #a Spring Road", "postal_code": "30080"}, "capProviderId": null, "distance": null, "has_offers": false, "name": "China Buffet Chinese Rstrnt", "longitude": -84.4741, "has_menu": false, "awards": null, "user_review_count": 0}, {"business_operation_status": 1, "rating": 8.0, "neighborhood": null, "image": null, "scorecard": null, "featured": false, "sample_categories": "Bakeries, Restaurants", "public_id": "sunbeam-baking-co-thrift-strs-marietta", "id": 45550819, "votes": null, "tagline": null, "has_video": false, "website": null, "offers": null, "latitude": 33.915248, "politanName": "Atlanta, GA Metro ", "phone_number": "7709735200", "tags": [{"primary": false, "id": 1722, "name": "Restaurants"}, {"primary": true, "id": 1685, "name": "Bakeries"}], "fax_number": null, "expansion": {"count": null, "uri": null}, "impression_id": "000b0000008a1f85d3c9ef439d8c801773bc3ccab2", "profile": "http://www.citysearch.com/profile/45550819/marietta_ga/sunbeam_baking_co_thrift_strs.html", "address": {"city": "Marietta", "state": "GA", "street": "1550 Powers Ferry Rd SE", "postal_code": "30067"}, "capProviderId": null, "distance": null, "has_offers": false, "name": "Sunbeam Baking Co Thrift Strs", "longitude": -84.465918, "has_menu": false, "awards": null, "user_review_count": 0}, {"business_operation_status": 1, "rating": null, "neighborhood": null, "image": null, "scorecard": null, "featured": false, "sample_categories": "Restaurants", "public_id": "scotts-eats-sweets-mableton", "id": 608948894, "votes": null, "tagline": null, "has_video": false, "website": null, "offers": null, "latitude": 33.817787, "politanName": "Atlanta, GA Metro ", "phone_number": "4045145322", "tags": [{"primary": true, "id": 1722, "name": "Restaurants"}], "fax_number": null, "expansion": {"count": null, "uri": null}, "impression_id": "000b000000bdb757e823224420973ab8f6551d1603", "profile": "http://www.citysearch.com/profile/608948894/mableton_ga/scott_s_eats_sweets.html", "address": {"city": "Mableton", "state": "GA", "street": "1150 Veterans Memorial Hwy SW", "postal_code": "30126"}, "capProviderId": null, "distance": null, "has_offers": false, "name": "Scott's Eats & Sweets", "longitude": -84.587972, "has_menu": false, "awards": null, "user_review_count": 0}, {"business_operation_status": 1, "rating": null, "neighborhood": null, "image": null, "scorecard": null, "featured": false, "sample_categories": "Restaurants, Delis And Delicatessens", "public_id": "wildwood-cafe-atlanta-2", "id": 3030534, "votes": null, "tagline": null, "has_video": false, "website": null, "offers": null, "latitude": 33.913333, "politanName": "Atlanta, GA Metro ", "phone_number": "7709532378", "tags": [{"primary": false, "id": 1727, "name": "Delis And Delicatessens"}, {"primary": true, "id": 1722, "name": "Restaurants"}], "fax_number": null, "expansion": {"count": null, "uri": null}, "impression_id": "000b000000313e1560115c4346941fdb8ae355bf40", "profile": "http://www.citysearch.com/profile/3030534/atlanta_ga/wildwood_cafe.html", "address": {"city": "Atlanta", "state": "GA", "street": "3200 Windy Hill Rd SE 150", "postal_code": "30339"}, "capProviderId": null, "distance": null, "has_offers": false, "name": "Wildwood Cafe", "longitude": -84.460852, "has_menu": false, "awards": null, "user_review_count": 0}, {"business_operation_status": 1, "rating": 8.0, "neighborhood": null, "image": null, "scorecard": null, "featured": false, "sample_categories": "Restaurants, American Express, Discover, MasterCard, Visa", "public_id": "carols-cafe-marietta", "id": 2908298, "votes": null, "tagline": null, "has_video": false, "website": null, "offers": null, "latitude": 34.013278, "politanName": "Atlanta, GA Metro ", "phone_number": "7704224641", "tags": [{"primary": false, "id": 11333, "name": "American Express"}, {"primary": false, "id": 11349, "name": "Discover"}, {"primary": false, "id": 11361, "name": "MasterCard"}, {"primary": false, "id": 11382, "name": "Visa"}, {"primary": true, "id": 1722, "name": "Restaurants"}], "fax_number": null, "expansion": {"count": null, "uri": null}, "impression_id": "000b00000005bdb7db46484a0683bc25f08cfa2bed", "profile": "http://www.citysearch.com/profile/2908298/marietta_ga/carol_s_cafe.html", "address": {"city": "Marietta", "state": "GA", "street": "2543 Bells Ferry Rd", "postal_code": "30066"}, "capProviderId": null, "distance": null, "has_offers": false, "name": "Carol's Cafe", "longitude": -84.549897, "has_menu": false, "awards": null, "user_review_count": 2}, {"business_operation_status": 1, "rating": null, "neighborhood": null, "image": null, "scorecard": null, "featured": false, "sample_categories": "Restaurants, Pizza", "public_id": "all-star-pizza-marietta", "id": 757929600, "votes": null, "tagline": null, "has_video": false, "website": null, "offers": null, "latitude": 33.922673, "politanName": "Atlanta, GA Metro ", "phone_number": "7709525254", "tags": [{"primary": false, "id": 11299, "name": "Pizza"}, {"primary": true, "id": 1722, "name": "Restaurants"}], "fax_number": null, "expansion": {"count": null, "uri": null}, "impression_id": "000b0000000bb8f9d251c34a708a9f46fc3a02c7be", "profile": "http://www.citysearch.com/profile/757929600/marietta_ga/all_star_pizza.html", "address": {"city": "Marietta", "state": "GA", "street": "2555 Delk Rd SE", "postal_code": "30067"}, "capProviderId": null, "distance": null, "has_offers": false, "name": "All Star Pizza", "longitude": -84.478383, "has_menu": false, "awards": null, "user_review_count": 0}, {"business_operation_status": 1, "rating": null, "neighborhood": null, "image": null, "scorecard": null, "featured": false, "sample_categories": "Restaurants", "public_id": "car-checkers-powder-spgs", "id": 2950697, "votes": null, "tagline": null, "has_video": false, "website": null, "offers": null, "latitude": 33.935913, "politanName": "Atlanta, GA Metro ", "phone_number": "7705148100", "tags": [{"primary": true, "id": 1722, "name": "Restaurants"}], "fax_number": null, "expansion": {"count": null, "uri": null}, "impression_id": "000b000000d64fe4413cc64f6893d67d22c663160e", "profile": "http://www.citysearch.com/profile/2950697/powder_springs_ga/car_checkers.html", "address": {"city": "Powder Springs", "state": "GA", "street": "591 Leah Dr", "postal_code": "30127"}, "capProviderId": null, "distance": null, "has_offers": false, "name": "Car Checkers", "longitude": -84.663484, "has_menu": false, "awards": null, "user_review_count": 0}, {"business_operation_status": 1, "rating": null, "neighborhood": null, "image": null, "scorecard": null, "featured": false, "sample_categories": "Water Well Drilling, Drilling & Boring Contractors, Food Delivery", "public_id": "j-wings-more-smyrna", "id": 2962298, "votes": null, "tagline": null, "has_video": false, "website": null, "offers": null, "latitude": 33.885247, "politanName": "Atlanta, GA Metro ", "phone_number": "7702269977", "tags": [{"primary": false, "id": 889, "name": "Water Well Drilling"}, {"primary": false, "id": 892, "name": "Drilling & Boring Contractors"}, {"primary": true, "id": 11267, "name": "Food Delivery"}], "fax_number": null, "expansion": {"count": null, "uri": null}, "impression_id": "000b000000ff3d2890f13d438e94cb6a2ca068c5c4", "profile": "http://www.citysearch.com/profile/2962298/smyrna_ga/j_wings_more.html", "address": {"city": "Smyrna", "state": "GA", "street": "2778 Cumberland Blvd SE Ste 574", "postal_code": "30080"}, "capProviderId": null, "distance": null, "has_offers": false, "name": "J Wings & More", "longitude": -84.47677, "has_menu": false, "awards": null, "user_review_count": 0}, {"business_operation_status": 1, "rating": null, "neighborhood": null, "image": null, "scorecard": null, "featured": false, "sample_categories": "Restaurants", "public_id": "mexican-taqueria-smyrna", "id": 623985844, "votes": null, "tagline": null, "has_video": false, "website": null, "offers": null, "latitude": 33.889788, "politanName": "Atlanta, GA Metro ", "phone_number": "7709891248", "tags": [{"primary": true, "id": 1722, "name": "Restaurants"}], "fax_number": null, "expansion": {"count": null, "uri": null}, "impression_id": "000b000000ee9b8a14aaea4efca397efe3efffbdc2", "profile": "http://www.citysearch.com/profile/623985844/smyrna_ga/mexican_taqueria.html", "address": {"city": "Smyrna", "state": "GA", "street": "2599 S Cobb Dr SE", "postal_code": "30080"}, "capProviderId": null, "distance": null, "has_offers": false, "name": "Mexican Taqueria", "longitude": -84.536114, "has_menu": false, "awards": null, "user_review_count": 0}, {"business_operation_status": 1, "rating": null, "neighborhood": null, "image": null, "scorecard": null, "featured": false, "sample_categories": "Restaurants, Cajun & Creole", "public_id": "on-the-bayou-smyrna", "id": 764832940, "votes": null, "tagline": null, "has_video": false, "website": null, "offers": null, "latitude": 33.879071, "politanName": "Atlanta, GA Metro ", "phone_number": "7704343329", "tags": [{"primary": false, "id": 11245, "name": "Cajun & Creole"}, {"primary": true, "id": 1722, "name": "Restaurants"}], "fax_number": null, "expansion": {"count": null, "uri": null}, "impression_id": "000b000000beef339c5f3945208c11b91449845873", "profile": "http://www.citysearch.com/profile/764832940/smyrna_ga/on_the_bayou.html", "address": {"city": "Smyrna", "state": "GA", "street": "3120 S Cobb Dr SE", "postal_code": "30080"}, "capProviderId": null, "distance": null, "has_offers": false, "name": "On the Bayou", "longitude": -84.532683, "has_menu": false, "awards": null, "user_review_count": 0}, {"business_operation_status": 1, "rating": null, "neighborhood": null, "image": null, "scorecard": null, "featured": false, "sample_categories": "Delis And Delicatessens, Restaurants", "public_id": "deli-dellghts-marietta", "id": 764838340, "votes": null, "tagline": null, "has_video": false, "website": null, "offers": null, "latitude": 33.952594, "politanName": "Atlanta, GA Metro ", "phone_number": "6784016001", "tags": [{"primary": false, "id": 1722, "name": "Restaurants"}, {"primary": true, "id": 1727, "name": "Delis And Delicatessens"}], "fax_number": null, "expansion": {"count": null, "uri": null}, "impression_id": "000b000000dddbdd36b2774f8cbd46fd8e69f15148", "profile": "http://www.citysearch.com/profile/764838340/marietta_ga/deli_dellghts.html", "address": {"city": "Marietta", "state": "GA", "street": "800 Whitlock Ave NW", "postal_code": "30064"}, "capProviderId": null, "distance": null, "has_offers": false, "name": "Deli Dellghts", "longitude": -84.575881, "has_menu": false, "awards": null, "user_review_count": 0}, {"business_operation_status": 1, "rating": null, "neighborhood": null, "image": null, "scorecard": null, "featured": false, "sample_categories": "Restaurants", "public_id": "twelve06-atlanta", "id": 764934730, "votes": null, "tagline": null, "has_video": false, "website": null, "offers": null, "latitude": 33.859198, "politanName": "Atlanta, GA Metro ", "phone_number": "7703191206", "tags": [{"primary": true, "id": 1722, "name": "Restaurants"}], "fax_number": null, "expansion": {"count": null, "uri": null}, "impression_id": "000b000000d5ff255e014d4551822fb0b0a33f50d8", "profile": "http://www.citysearch.com/profile/764934730/atlanta_ga/twelve06.html", "address": {"city": "Atlanta", "state": "GA", "street": "2355 Cumberland Pkwy SE", "postal_code": "30339"}, "capProviderId": null, "distance": null, "has_offers": false, "name": "Twelve06", "longitude": -84.480448, "has_menu": false, "awards": null, "user_review_count": 0}, {"business_operation_status": 1, "rating": null, "neighborhood": null, "image": null, "scorecard": null, "featured": false, "sample_categories": "Restaurants", "public_id": "yupk-llc-acworth", "id": 764935540, "votes": null, "tagline": null, "has_video": false, "website": null, "offers": null, "latitude": 34.06489, "politanName": "Atlanta, GA Metro ", "phone_number": "7706936770", "tags": [{"primary": true, "id": 1722, "name": "Restaurants"}], "fax_number": null, "expansion": {"count": null, "uri": null}, "impression_id": "000b000000c9bf7f478fac4a4f8c61628fbdd99c88", "profile": "http://www.citysearch.com/profile/764935540/acworth_ga/yupk_llc.html", "address": {"city": "Acworth", "state": "GA", "street": "2535 Hickory Grove Rd NW", "postal_code": "30101"}, "capProviderId": null, "distance": null, "has_offers": false, "name": "YUPK Llc", "longitude": -84.624038, "has_menu": false, "awards": null, "user_review_count": 0}, {"business_operation_status": 1, "rating": null, "neighborhood": null, "image": null, "scorecard": null, "featured": false, "sample_categories": "Restaurants", "public_id": "culture-lab-marietta", "id": 764843290, "votes": null, "tagline": null, "has_video": false, "website": null, "offers": null, "latitude": 33.883313, "politanName": "Atlanta, GA Metro ", "phone_number": "7705750926", "tags": [{"primary": true, "id": 1722, "name": "Restaurants"}], "fax_number": null, "expansion": {"count": null, "uri": null}, "impression_id": "000b000000a0b298a391f94388831d2abf68e6a308", "profile": "http://www.citysearch.com/profile/764843290/marietta_ga/culture_lab.html", "address": {"city": "Marietta", "state": "GA", "street": "2200 Powder Springs Rd SW", "postal_code": "30064"}, "capProviderId": null, "distance": null, "has_offers": false, "name": "Culture Lab", "longitude": -84.620092, "has_menu": false, "awards": null, "user_review_count": 0}, {"business_operation_status": 1, "rating": null, "neighborhood": null, "image": null, "scorecard": null, "featured": false, "sample_categories": "Restaurants, Carry Out, Pizza", "public_id": "papa-johns-pizza-marietta-17", "id": 764880820, "votes": null, "tagline": null, "has_video": false, "website": null, "offers": null, "latitude": 33.865697, "politanName": "Atlanta, GA Metro ", "phone_number": "4043330301", "tags": [{"primary": false, "id": 11247, "name": "Carry Out"}, {"primary": false, "id": 11299, "name": "Pizza"}, {"primary": true, "id": 1722, "name": "Restaurants"}], "fax_number": null, "expansion": {"count": null, "uri": null}, "impression_id": "000b0000004450ab5b6b824233ab4f240de72e741b", "profile": "http://www.citysearch.com/profile/764880820/marietta_ga/papa_john_s_pizza.html", "address": {"city": "Marietta", "state": "GA", "street": "3565 Austell Rd SW # 1019", "postal_code": "30008"}, "capProviderId": null, "distance": null, "has_offers": false, "name": "Papa John's Pizza", "longitude": -84.592502, "has_menu": false, "awards": null, "user_review_count": 0}, {"business_operation_status": 1, "rating": null, "neighborhood": null, "image": null, "scorecard": null, "featured": false, "sample_categories": "Juice & Smoothie Shops, Restaurants, Carry Out", "public_id": "orange-julius-smyrna", "id": 764893330, "votes": null, "tagline": null, "has_video": false, "website": null, "offers": null, "latitude": 33.882258, "politanName": "Atlanta, GA Metro ", "phone_number": "7704323809", "tags": [{"primary": false, "id": 1722, "name": "Restaurants"}, {"primary": false, "id": 11247, "name": "Carry Out"}, {"primary": true, "id": 1735, "name": "Juice & Smoothie Shops"}], "fax_number": null, "expansion": {"count": null, "uri": null}, "impression_id": "000b00000011698a4e87484a828955e4cac2000a16", "profile": "http://www.citysearch.com/profile/764893330/smyrna_ga/orange_julius.html", "address": {"city": "Smyrna", "state": "GA", "street": "1641 Spring Rd SE", "postal_code": "30080"}, "capProviderId": null, "distance": null, "has_offers": false, "name": "Orange Julius", "longitude": -84.505572, "has_menu": false, "awards": null, "user_review_count": 0}], "histograms": [], "tag_ids": [1722], "uri": "http://api.citygridmedia.com:8080/search/places/v2/search/where?has_offers=false&type=restaurant&format=json&page=27&where=30060&rpp=50&histograms=false&publisher=10000009598&region_type=circle", "did_you_mean": "", "regions": [{"latitude": 33.92521, "default_radius": 3.68, "type": "postal_code", "name": "30060", "longitude": -84.546093}], "call_id": "000b000000f3f245060bc54a8d9a94941aca019e2d", "first_hit": 1301, "total_hits": 2103, "geo_ids": [26291], "page": 27, "last_hit": 1350}}