{"results": {"rpp": 50, "locations": [{"business_operation_status": 1, "rating": null, "neighborhood": null, "image": null, "scorecard": null, "featured": false, "sample_categories": "Restaurants", "public_id": "are-you-hungry-marietta", "id": 777827260, "votes": null, "tagline": null, "has_video": false, "website": null, "offers": null, "latitude": 34.021599, "politanName": "Atlanta, GA Metro ", "phone_number": "6783520770", "tags": [{"primary": true, "id": 1722, "name": "Restaurants"}], "fax_number": null, "expansion": {"count": null, "uri": null}, "impression_id": "000b000000f043ef18c89e47c8bc8a24832d299bfd", "profile": "http://www.citysearch.com/profile/777827260/marietta_ga/are_you_hungry.html", "address": {"city": "Marietta", "state": "GA", "street": "2986 Johnson Ferry Rd", "postal_code": "30062"}, "capProviderId": null, "distance": null, "has_offers": false, "name": "Are You Hungry", "longitude": -84.426314, "has_menu": false, "awards": null, "user_review_count": 0}, {"business_operation_status": 1, "rating": null, "neighborhood": null, "image": null, "scorecard": null, "featured": false, "sample_categories": "Restaurants, Barbecue Restaurants", "public_id": "hot-wings-marietta", "id": 682287680, "votes": null, "tagline": null, "has_video": false, "website": null, "offers": null, "latitude": 33.941419, "politanName": "Atlanta, GA Metro ", "phone_number": "7702181589", "tags": [{"primary": false, "id": 1724, "name": "Barbecue Restaurants"}, {"primary": true, "id": 1722, "name": "Restaurants"}], "fax_number": null, "expansion": {"count": null, "uri": null}, "impression_id": "000b0000001e26c84a2a6a4c688ebda8dfc4142bf9", "profile": "http://www.citysearch.com/profile/682287680/marietta_ga/hot_wings.html", "address": {"city": "Marietta", "state": "GA", "street": "981 S Marietta Pkwy Se", "postal_code": "30060"}, "capProviderId": null, "distance": null, "has_offers": false, "name": "Hot Wings", "longitude": -84.522978, "has_menu": true, "awards": null, "user_review_count": 2}, {"business_operation_status": 1, "rating": null, "neighborhood": null, "image": null, "scorecard": null, "featured": false, "sample_categories": "Restaurants", "public_id": "bonz-sports-grill-smyrna", "id": 777729350, "votes": null, "tagline": null, "has_video": false, "website": null, "offers": null, "latitude": 33.873639, "politanName": "Atlanta, GA Metro ", "phone_number": "7704352669", "tags": [{"primary": true, "id": 1722, "name": "Restaurants"}], "fax_number": null, "expansion": {"count": null, "uri": null}, "impression_id": "000b00000004ce48ee87bd4cb482619c4965d95cd0", "profile": "http://www.citysearch.com/profile/777729350/smyrna_ga/bonz_sports_grill.html", "address": {"city": "Smyrna", "state": "GA", "street": "3240 S Cobb Dr Se # N", "postal_code": "30080"}, "capProviderId": null, "distance": null, "has_offers": false, "name": "Bonz Sports Grill", "longitude": -84.530478, "has_menu": false, "awards": null, "user_review_count": 1}, {"business_operation_status": 1, "rating": null, "neighborhood": null, "image": null, "scorecard": null, "featured": false, "sample_categories": "Restaurants, Cajun & Creole", "public_id": "ji-bou-te-marietta", "id": 777783530, "votes": null, "tagline": null, "has_video": false, "website": null, "offers": null, "latitude": 33.952594, "politanName": "Atlanta, GA Metro ", "phone_number": "7707940772", "tags": [{"primary": false, "id": 11245, "name": "Cajun & Creole"}, {"primary": true, "id": 1722, "name": "Restaurants"}], "fax_number": null, "expansion": {"count": null, "uri": null}, "impression_id": "000b0000008945d8c30c084ab7ac0a1f300cef6292", "profile": "http://www.citysearch.com/profile/777783530/marietta_ga/ji_bou_te.html", "address": {"city": "Marietta", "state": "GA", "street": "800 Whitlock Ave NW # 103", "postal_code": "30064"}, "capProviderId": null, "distance": null, "has_offers": false, "name": "Ji Bou Te", "longitude": -84.575881, "has_menu": false, "awards": null, "user_review_count": 0}, {"business_operation_status": 1, "rating": null, "neighborhood": null, "image": null, "scorecard": null, "featured": false, "sample_categories": "Restaurants", "public_id": "chili-dog-factory-marietta", "id": 672271920, "votes": null, "tagline": null, "has_video": false, "website": null, "offers": null, "latitude": 33.940571, "politanName": "Atlanta, GA Metro ", "phone_number": "6782131114", "tags": [{"primary": true, "id": 1722, "name": "Restaurants"}], "fax_number": null, "expansion": {"count": null, "uri": null}, "impression_id": "000b00000090b6ac9bce9e45fa988d91da10c6ec3a", "profile": "http://www.citysearch.com/profile/672271920/marietta_ga/chili_dog_factory.html", "address": {"city": "Marietta", "state": "GA", "street": "940 South Marietta Parkway", "postal_code": "30060"}, "capProviderId": null, "distance": null, "has_offers": false, "name": "Chili Dog Factory", "longitude": -84.525094, "has_menu": false, "awards": null, "user_review_count": 0}, {"business_operation_status": 1, "rating": null, "neighborhood": null, "image": null, "scorecard": null, "featured": false, "sample_categories": "Restaurants", "public_id": "mojo-grill-cuban-cuisine-smyrna", "id": 672444450, "votes": null, "tagline": null, "has_video": false, "website": null, "offers": null, "latitude": 33.879071, "politanName": "Atlanta, GA Metro ", "phone_number": null, "tags": [{"primary": true, "id": 1722, "name": "Restaurants"}], "fax_number": null, "expansion": {"count": null, "uri": null}, "impression_id": "000b0000008d3f1a87c0944cdea836e6b97c99fe43", "profile": "http://www.citysearch.com/profile/672444450/smyrna_ga/mojo_grill_cuban_cuisine.html", "address": {"city": "Smyrna", "state": "GA", "street": "3120 S Cobb Dr SE", "postal_code": "30080"}, "capProviderId": null, "distance": null, "has_offers": false, "name": "Mojo Grill Cuban Cuisine", "longitude": -84.532683, "has_menu": false, "awards": null, "user_review_count": 0}, {"business_operation_status": 1, "rating": null, "neighborhood": null, "image": null, "scorecard": null, "featured": false, "sample_categories": "Restaurants", "public_id": "niche-private-diningcatering-marietta", "id": 773444390, "votes": null, "tagline": null, "has_video": false, "website": null, "offers": null, "latitude": 34.010385, "politanName": "Atlanta, GA Metro ", "phone_number": "4049019840", "tags": [{"primary": true, "id": 1722, "name": "Restaurants"}], "fax_number": null, "expansion": {"count": null, "uri": null}, "impression_id": "000b000000f322d0345ed843e3b914ccd01da66ef7", "profile": "http://www.citysearch.com/profile/773444390/marietta_ga/niche_private_dining_catering.html", "address": {"city": "Marietta", "state": "GA", "street": "2287 Nottley Dr", "postal_code": "30066"}, "capProviderId": null, "distance": null, "has_offers": false, "name": "Niche Private Dining-Catering", "longitude": -84.557109, "has_menu": false, "awards": null, "user_review_count": 0}, {"business_operation_status": 1, "rating": 8.0, "neighborhood": null, "image": null, "scorecard": null, "featured": false, "sample_categories": "Restaurants", "public_id": "vittles-restaurant-smyrna", "id": 33561245, "votes": null, "tagline": null, "has_video": false, "website": "http://www.citysearch.com/profile/external/33561245/smyrna_ga/vittle_s_restaurant.html", "offers": null, "latitude": 33.890311, "politanName": "Atlanta, GA Metro ", "phone_number": "7704330047", "tags": [{"primary": true, "id": 1722, "name": "Restaurants"}], "fax_number": null, "expansion": {"count": null, "uri": null}, "impression_id": "000b0000001b41419bc18f4440bb131a097e829393", "profile": "http://www.citysearch.com/profile/33561245/smyrna_ga/vittle_s_restaurant.html", "address": {"city": "Smyrna", "state": "GA", "street": "2579 S Cobb Dr SE", "postal_code": "30080"}, "capProviderId": null, "distance": null, "has_offers": false, "name": "Vittle's Restaurant", "longitude": -84.536797, "has_menu": true, "awards": null, "user_review_count": 0}, {"business_operation_status": 1, "rating": null, "neighborhood": null, "image": null, "scorecard": null, "featured": false, "sample_categories": "Restaurants", "public_id": "ajr-inc-marietta-2", "id": 682658690, "votes": null, "tagline": null, "has_video": false, "website": null, "offers": null, "latitude": 33.967992, "politanName": "Atlanta, GA Metro ", "phone_number": "7705653753", "tags": [{"primary": true, "id": 1722, "name": "Restaurants"}], "fax_number": null, "expansion": {"count": null, "uri": null}, "impression_id": "000b000000c8730be156024252b6b516ab444a8008", "profile": "http://www.citysearch.com/profile/682658690/marietta_ga/ajr_inc.html", "address": {"city": "Marietta", "state": "GA", "street": "2945 Robinson Rd Ne", "postal_code": "30068"}, "capProviderId": null, "distance": null, "has_offers": false, "name": "Ajr INC", "longitude": -84.466217, "has_menu": false, "awards": null, "user_review_count": 0}, {"business_operation_status": 1, "rating": null, "neighborhood": null, "image": null, "scorecard": null, "featured": false, "sample_categories": "Restaurants", "public_id": "box-lunch-express-atlanta", "id": 33572135, "votes": null, "tagline": null, "has_video": false, "website": null, "offers": null, "latitude": 33.879395, "politanName": "Atlanta, GA Metro ", "phone_number": "7709514994", "tags": [{"primary": true, "id": 1722, "name": "Restaurants"}], "fax_number": null, "expansion": {"count": null, "uri": null}, "impression_id": "000b000000a58d5d376a144a54a6fc36941f5bab2d", "profile": "http://www.citysearch.com/profile/33572135/atlanta_ga/box_lunch_express.html", "address": {"city": "Atlanta", "state": "GA", "street": "3051 Akers Mill Rd SE", "postal_code": "30339"}, "capProviderId": null, "distance": null, "has_offers": false, "name": "Box Lunch Express", "longitude": -84.463912, "has_menu": false, "awards": null, "user_review_count": 0}, {"business_operation_status": 1, "rating": null, "neighborhood": null, "image": null, "scorecard": null, "featured": false, "sample_categories": "Restaurants, Bars & Clubs, Traditional American, Carry Out", "public_id": "chilis-grill-bar-atlanta-8", "id": 775225760, "votes": null, "tagline": null, "has_video": false, "website": null, "offers": null, "latitude": 33.878815, "politanName": "Atlanta, GA Metro ", "phone_number": "4044614122", "tags": [{"primary": false, "id": 164, "name": "Bars & Clubs"}, {"primary": false, "id": 11190, "name": "Traditional American"}, {"primary": false, "id": 11247, "name": "Carry Out"}, {"primary": true, "id": 1722, "name": "Restaurants"}], "fax_number": null, "expansion": {"count": null, "uri": null}, "impression_id": "000b00000019e226727fa14d769a6a42877abba56d", "profile": "http://www.citysearch.com/profile/775225760/atlanta_ga/chili_s_grill_bar.html", "address": {"city": "Atlanta", "state": "GA", "street": "6000 Atlanta Hartsfield Airpt", "postal_code": "30339"}, "capProviderId": null, "distance": null, "has_offers": false, "name": "Chili's Grill & Bar", "longitude": -84.464518, "has_menu": false, "awards": null, "user_review_count": 0}, {"business_operation_status": 0, "rating": null, "neighborhood": null, "image": null, "scorecard": null, "featured": false, "sample_categories": "Restaurants, Italian", "public_id": "fratelli-di-napoli-roswell", "id": 777781570, "votes": null, "tagline": null, "has_video": false, "website": "http://www.citysearch.com/profile/external/777781570/roswell_ga/fratelli_di_napoli.html", "offers": null, "latitude": 34.023676, "politanName": "Atlanta, GA Metro ", "phone_number": "7706429917", "tags": [{"primary": false, "id": 11279, "name": "Italian"}, {"primary": true, "id": 1722, "name": "Restaurants"}], "fax_number": null, "expansion": {"count": null, "uri": null}, "impression_id": "000b000000f571dc5bd8f14096922b9f983fd9ca64", "profile": "http://www.citysearch.com/profile/777781570/roswell_ga/fratelli_di_napoli.html", "address": {"city": "Roswell", "state": "GA", "street": "928 Canton St", "postal_code": "30075"}, "capProviderId": null, "distance": null, "has_offers": false, "name": "Fratelli Di Napoli", "longitude": -84.361782, "has_menu": true, "awards": null, "user_review_count": 2}, {"business_operation_status": 1, "rating": null, "neighborhood": null, "image": null, "scorecard": null, "featured": false, "sample_categories": "Restaurants", "public_id": "chans-alterations-roswell", "id": 777659440, "votes": null, "tagline": null, "has_video": false, "website": null, "offers": null, "latitude": 34.011764, "politanName": "Atlanta, GA Metro ", "phone_number": "7709987882", "tags": [{"primary": true, "id": 1722, "name": "Restaurants"}], "fax_number": null, "expansion": {"count": null, "uri": null}, "impression_id": "000b000000298b6615498b483f93ce6ee96e0f1709", "profile": "http://www.citysearch.com/profile/777659440/roswell_ga/chan_s_alterations.html", "address": {"city": "Roswell", "state": "GA", "street": "48 King St", "postal_code": "30075"}, "capProviderId": null, "distance": null, "has_offers": false, "name": "Chan's Alterations", "longitude": -84.36332, "has_menu": false, "awards": null, "user_review_count": 0}, {"business_operation_status": 1, "rating": null, "neighborhood": null, "image": null, "scorecard": null, "featured": false, "sample_categories": "Restaurants", "public_id": "dominicks-of-roswell-roswell", "id": 779688750, "votes": null, "tagline": null, "has_video": false, "website": null, "offers": null, "latitude": 34.009785, "politanName": "Atlanta, GA Metro ", "phone_number": "7705181430", "tags": [{"primary": true, "id": 1722, "name": "Restaurants"}], "fax_number": null, "expansion": {"count": null, "uri": null}, "impression_id": "000b0000008e356909d9524ae99f92f8c9cc53ed70", "profile": "http://www.citysearch.com/profile/779688750/roswell_ga/dominick_s_of_roswell.html", "address": {"city": "Roswell", "state": "GA", "street": "408 S Atlanta St", "postal_code": "30075"}, "capProviderId": null, "distance": null, "has_offers": false, "name": "Dominick's of Roswell", "longitude": -84.361532, "has_menu": false, "awards": null, "user_review_count": 0}, {"business_operation_status": 1, "rating": null, "neighborhood": null, "image": null, "scorecard": null, "featured": false, "sample_categories": "Restaurants, Mexican", "public_id": "desperados-tex-mex-rstrnt-marietta", "id": 775196520, "votes": null, "tagline": null, "has_video": false, "website": null, "offers": null, "latitude": 33.99637, "politanName": "Atlanta, GA Metro ", "phone_number": "7704202550", "tags": [{"primary": false, "id": 11208, "name": "Mexican"}, {"primary": true, "id": 1722, "name": "Restaurants"}], "fax_number": null, "expansion": {"count": null, "uri": null}, "impression_id": "000b00000010789af6602243f48f3ce9d3aaa75d34", "profile": "http://www.citysearch.com/profile/775196520/marietta_ga/desperado_s_tex_mex_rstrnt.html", "address": {"city": "Marietta", "state": "GA", "street": "700 Sandy Plains Rd", "postal_code": "30066"}, "capProviderId": null, "distance": null, "has_offers": false, "name": "Desperado's Tex Mex Rstrnt", "longitude": -84.528753, "has_menu": false, "awards": null, "user_review_count": 0}, {"business_operation_status": 0, "rating": null, "neighborhood": null, "image": null, "scorecard": null, "featured": false, "sample_categories": "Restaurants", "public_id": "big-apple-cafe-atlanta-2", "id": 777818390, "votes": null, "tagline": null, "has_video": false, "website": null, "offers": null, "latitude": 33.901896, "politanName": "Atlanta, GA Metro ", "phone_number": "7708580088", "tags": [{"primary": true, "id": 1722, "name": "Restaurants"}], "fax_number": null, "expansion": {"count": null, "uri": null}, "impression_id": "000b000000857f258f364e4068bba6a5cfa0eddcbe", "profile": "http://www.citysearch.com/profile/777818390/atlanta_ga/big_apple_cafe.html", "address": {"city": "Atlanta", "state": "GA", "street": "1000 Parkwood Cir Se # 175", "postal_code": "30339"}, "capProviderId": null, "distance": null, "has_offers": false, "name": "Big Apple Cafe", "longitude": -84.459791, "has_menu": false, "awards": null, "user_review_count": 0}, {"business_operation_status": 1, "rating": null, "neighborhood": null, "image": null, "scorecard": null, "featured": false, "sample_categories": "Delis And Delicatessens", "public_id": "kroger-deli-smyrna-4", "id": 705897390, "votes": null, "tagline": null, "has_video": false, "website": null, "offers": null, "latitude": 33.873676, "politanName": "Atlanta, GA Metro ", "phone_number": "7704338380", "tags": [{"primary": true, "id": 1727, "name": "Delis And Delicatessens"}], "fax_number": null, "expansion": {"count": null, "uri": null}, "impression_id": "000b000000799c80cee587465db343358025a8eb20", "profile": "http://www.citysearch.com/profile/705897390/smyrna_ga/kroger_deli.html", "address": {"city": "Smyrna", "state": "GA", "street": "3315 S Cobb Dr Se # 1", "postal_code": "30080"}, "capProviderId": null, "distance": null, "has_offers": false, "name": "Kroger Deli", "longitude": -84.52868, "has_menu": false, "awards": null, "user_review_count": 0}, {"business_operation_status": 1, "rating": null, "neighborhood": null, "image": null, "scorecard": null, "featured": false, "sample_categories": "Restaurants, Delis And Delicatessens, Sandwich Shops", "public_id": "jersey-mikes-subs-marietta-2", "id": 793336010, "votes": null, "tagline": null, "has_video": false, "website": null, "offers": null, "latitude": 33.984846, "politanName": "Atlanta, GA Metro ", "phone_number": "7703213998", "tags": [{"primary": false, "id": 1727, "name": "Delis And Delicatessens"}, {"primary": false, "id": 1736, "name": "Sandwich Shops"}, {"primary": true, "id": 1722, "name": "Restaurants"}], "fax_number": null, "expansion": {"count": null, "uri": null}, "impression_id": "000b000000e6eff9962fda41d4b705c8b7d8ea9bc2", "profile": "http://www.citysearch.com/profile/793336010/marietta_ga/jersey_mike_s_subs.html", "address": {"city": "Marietta", "state": "GA", "street": "4400 Roswell Rd # 148", "postal_code": "30062"}, "capProviderId": null, "distance": null, "has_offers": false, "name": "Jersey Mike's Subs", "longitude": -84.422713, "has_menu": false, "awards": null, "user_review_count": 0}, {"business_operation_status": 1, "rating": null, "neighborhood": null, "image": null, "scorecard": null, "featured": false, "sample_categories": "Restaurants, Bistros", "public_id": "paris-bistro-atlanta-12", "id": 801055910, "votes": null, "tagline": null, "has_video": false, "website": null, "offers": null, "latitude": 33.934317, "politanName": "Atlanta, GA Metro ", "phone_number": "6785276499", "tags": [{"primary": false, "id": 13690, "name": "Bistros"}, {"primary": true, "id": 1722, "name": "Restaurants"}], "fax_number": null, "expansion": {"count": null, "uri": null}, "impression_id": "000b0000006d59c686789d4867bb974a4cc5ad42fb", "profile": "http://www.citysearch.com/profile/801055910/atlanta_ga/paris_bistro.html", "address": {"city": "Atlanta", "state": "GA", "street": "1 Glenlake Pkwy", "postal_code": "30328"}, "capProviderId": null, "distance": null, "has_offers": false, "name": "Paris Bistro", "longitude": -84.359272, "has_menu": false, "awards": null, "user_review_count": 0}, {"business_operation_status": 1, "rating": null, "neighborhood": null, "image": null, "scorecard": null, "featured": false, "sample_categories": "Sandwich Shops, Restaurants, Delis And Delicatessens, Soups", "public_id": "georgia-sandwich-co-marietta", "id": 33646008, "votes": null, "tagline": null, "has_video": false, "website": "http://www.citysearch.com/profile/external/33646008/marietta_ga/georgia_sandwich_co.html", "offers": null, "latitude": 33.933969, "politanName": "Atlanta, GA Metro ", "phone_number": "7704265678", "tags": [{"primary": false, "id": 1722, "name": "Restaurants"}, {"primary": false, "id": 1727, "name": "Delis And Delicatessens"}, {"primary": false, "id": 11311, "name": "Soups"}, {"primary": true, "id": 1736, "name": "Sandwich Shops"}], "fax_number": null, "expansion": {"count": null, "uri": null}, "impression_id": "000b000000a2afbfb4f0894bfd939177182853f42f", "profile": "http://www.citysearch.com/profile/33646008/marietta_ga/georgia_sandwich_co.html", "address": {"city": "Marietta", "state": "GA", "street": "115 Davis Cir SW", "postal_code": "30008"}, "capProviderId": null, "distance": null, "has_offers": false, "name": "Georgia Sandwich Co", "longitude": -84.554133, "has_menu": false, "awards": null, "user_review_count": 0}, {"business_operation_status": 1, "rating": null, "neighborhood": null, "image": null, "scorecard": null, "featured": false, "sample_categories": "Restaurants", "public_id": "le-peep-restaurant-marietta", "id": 819290350, "votes": null, "tagline": null, "has_video": false, "website": null, "offers": null, "latitude": 33.952271, "politanName": "Atlanta, GA Metro ", "phone_number": "7704265161", "tags": [{"primary": true, "id": 1722, "name": "Restaurants"}], "fax_number": null, "expansion": {"count": null, "uri": null}, "impression_id": "000b000000de9558797d0d466287cb1a5dcb0f6430", "profile": "http://www.citysearch.com/profile/819290350/marietta_ga/le_peep_restaurant.html", "address": {"city": "Marietta", "state": "GA", "street": "70 S Park Sq NE", "postal_code": "30060"}, "capProviderId": null, "distance": null, "has_offers": false, "name": "Le Peep Restaurant", "longitude": -84.549833, "has_menu": false, "awards": null, "user_review_count": 0}, {"business_operation_status": 1, "rating": null, "neighborhood": null, "image": null, "scorecard": null, "featured": false, "sample_categories": "Restaurants", "public_id": "south-beach-bistro-sandy", "id": 816128040, "votes": null, "tagline": null, "has_video": false, "website": null, "offers": null, "latitude": 33.925302, "politanName": "Atlanta, GA Metro ", "phone_number": "7709344988", "tags": [{"primary": true, "id": 1722, "name": "Restaurants"}], "fax_number": null, "expansion": {"count": null, "uri": null}, "impression_id": "000b00000052d8d00f31684e479b0ef97009645e53", "profile": "http://www.citysearch.com/profile/816128040/sandy_springs_ga/south_beach_bistro.html", "address": {"city": "Sandy Springs", "state": "GA", "street": "5920 Roswell Rd", "postal_code": "30328"}, "capProviderId": null, "distance": null, "has_offers": false, "name": "South Beach Bistro", "longitude": -84.385744, "has_menu": false, "awards": null, "user_review_count": 0}, {"business_operation_status": 1, "rating": null, "neighborhood": null, "image": null, "scorecard": null, "featured": false, "sample_categories": "Restaurants, Chinese", "public_id": "china-bay-atlanta", "id": 33612706, "votes": null, "tagline": null, "has_video": false, "website": null, "offers": null, "latitude": 33.972025, "politanName": "Atlanta, GA Metro ", "phone_number": "7708280338", "tags": [{"primary": false, "id": 11252, "name": "Chinese"}, {"primary": true, "id": 1722, "name": "Restaurants"}], "fax_number": null, "expansion": {"count": null, "uri": null}, "impression_id": "000b000000d81d1438b572414b8d69b374077455e5", "profile": "http://www.citysearch.com/profile/33612706/atlanta_ga/china_bay.html", "address": {"city": "Atlanta", "state": "GA", "street": "7878 Roswell Rd", "postal_code": "30350"}, "capProviderId": null, "distance": null, "has_offers": false, "name": "China Bay", "longitude": -84.358529, "has_menu": true, "awards": null, "user_review_count": 0}, {"business_operation_status": 1, "rating": null, "neighborhood": null, "image": null, "scorecard": null, "featured": false, "sample_categories": "Restaurants, Japanese, American Express, Debit Card, MasterCard", "public_id": "hoki-japanese-restaurant-atlanta", "id": 754709640, "votes": null, "tagline": null, "has_video": false, "website": "http://www.citysearch.com/profile/external/754709640/atlanta_ga/hoki_japanese_restaurant.html", "offers": null, "latitude": 33.872583, "politanName": "Atlanta, GA Metro ", "phone_number": "7706900555", "tags": [{"primary": false, "id": 11202, "name": "Japanese"}, {"primary": false, "id": 11333, "name": "American Express"}, {"primary": false, "id": 11347, "name": "Debit Card"}, {"primary": false, "id": 11361, "name": "MasterCard"}, {"primary": false, "id": 11382, "name": "Visa"}, {"primary": true, "id": 1722, "name": "Restaurants"}], "fax_number": null, "expansion": {"count": null, "uri": null}, "impression_id": "000b0000003aeb6d5879cf44adbc4e976981ebb625", "profile": "http://www.citysearch.com/profile/754709640/atlanta_ga/hoki_japanese_restaurant.html", "address": {"city": "Atlanta", "state": "GA", "street": "3300 Cobb Pkwy SE 114", "postal_code": "30339"}, "capProviderId": null, "distance": null, "has_offers": false, "name": "HOKI Japanese Restaurant", "longitude": -84.457738, "has_menu": false, "awards": null, "user_review_count": 0}, {"business_operation_status": 1, "rating": null, "neighborhood": null, "image": null, "scorecard": null, "featured": false, "sample_categories": "Restaurants", "public_id": "grazie-a-bistro-marietta", "id": 823574700, "votes": null, "tagline": null, "has_video": false, "website": null, "offers": null, "latitude": 33.953111, "politanName": "Atlanta, GA Metro ", "phone_number": "7704998585", "tags": [{"primary": true, "id": 1722, "name": "Restaurants"}], "fax_number": null, "expansion": {"count": null, "uri": null}, "impression_id": "000b000000031095ae23804f9287130917c0a9fb2c", "profile": "http://www.citysearch.com/profile/823574700/marietta_ga/grazie_a_bistro.html", "address": {"city": "Marietta", "state": "GA", "street": "1000 Whitlock Ave NW # 410", "postal_code": "30064"}, "capProviderId": null, "distance": null, "has_offers": false, "name": "Grazie A Bistro", "longitude": -84.581272, "has_menu": false, "awards": null, "user_review_count": 0}, {"business_operation_status": 1, "rating": null, "neighborhood": null, "image": null, "scorecard": null, "featured": false, "sample_categories": "Restaurants", "public_id": "red-house-marietta", "id": 775207480, "votes": null, "tagline": null, "has_video": false, "website": null, "offers": null, "latitude": 33.951025, "politanName": "Atlanta, GA Metro ", "phone_number": "7704277588", "tags": [{"primary": true, "id": 1722, "name": "Restaurants"}], "fax_number": null, "expansion": {"count": null, "uri": null}, "impression_id": "000b000000429f857dd32d4bffac654faca7b8fdff", "profile": "http://www.citysearch.com/profile/775207480/marietta_ga/red_house.html", "address": {"city": "Marietta", "state": "GA", "street": "35 S Marietta Pkwy SW", "postal_code": "30064"}, "capProviderId": null, "distance": null, "has_offers": false, "name": "Red House", "longitude": -84.551785, "has_menu": false, "awards": null, "user_review_count": 0}, {"business_operation_status": 1, "rating": null, "neighborhood": null, "image": null, "scorecard": null, "featured": false, "sample_categories": "Restaurants, Barbecue Restaurants", "public_id": "travelers-bar-b-que-ctrng-marietta", "id": 777759510, "votes": null, "tagline": null, "has_video": false, "website": null, "offers": null, "latitude": 33.952909, "politanName": "Atlanta, GA Metro ", "phone_number": "7704234884", "tags": [{"primary": false, "id": 1724, "name": "Barbecue Restaurants"}, {"primary": true, "id": 1722, "name": "Restaurants"}], "fax_number": null, "expansion": {"count": null, "uri": null}, "impression_id": "000b000000474b896144f6495a83b23e20eb0f02bc", "profile": "http://www.citysearch.com/profile/777759510/marietta_ga/traveler_s_bar_b_que_ctrng.html", "address": {"city": "Marietta", "state": "GA", "street": "79 N Fairground St Ne", "postal_code": "30060"}, "capProviderId": null, "distance": null, "has_offers": false, "name": "Traveler's Bar B Que & Ctrng", "longitude": -84.53505, "has_menu": false, "awards": null, "user_review_count": 0}, {"business_operation_status": 1, "rating": null, "neighborhood": null, "image": null, "scorecard": null, "featured": false, "sample_categories": "Restaurants, Indian", "public_id": "tanvi-indian-cuisine-smyrna", "id": 780476510, "votes": null, "tagline": null, "has_video": false, "website": null, "offers": null, "latitude": 33.882766, "politanName": "Atlanta, GA Metro ", "phone_number": "7703339899", "tags": [{"primary": false, "id": 11277, "name": "Indian"}, {"primary": true, "id": 1722, "name": "Restaurants"}], "fax_number": null, "expansion": {"count": null, "uri": null}, "impression_id": "000b0000004724e81793f244418a597a17159173e8", "profile": "http://www.citysearch.com/profile/780476510/smyrna_ga/tanvi_indian_cuisine.html", "address": {"city": "Smyrna", "state": "GA", "street": "2590 Spring Road Southeast", "postal_code": "30080"}, "capProviderId": null, "distance": null, "has_offers": false, "name": "Tanvi Indian Cuisine", "longitude": -84.478149, "has_menu": false, "awards": null, "user_review_count": 0}, {"business_operation_status": 1, "rating": null, "neighborhood": null, "image": null, "scorecard": null, "featured": false, "sample_categories": "Ice Cream Parlors", "public_id": "ritas-water-ice-marietta-2", "id": 621872750, "votes": null, "tagline": null, "has_video": false, "website": "http://www.citysearch.com/profile/external/621872750/marietta_ga/rita_s_water_ice.html", "offers": null, "latitude": 33.952594, "politanName": "Atlanta, GA Metro ", "phone_number": "6784026240", "tags": [{"primary": true, "id": 1730, "name": "Ice Cream Parlors"}], "fax_number": null, "expansion": {"count": null, "uri": null}, "impression_id": "000b00000011ed175174b7456d93517a4ff402bca0", "profile": "http://www.citysearch.com/profile/621872750/marietta_ga/rita_s_water_ice.html", "address": {"city": "Marietta", "state": "GA", "street": "800 Whitlock Ave Nw", "postal_code": "30064"}, "capProviderId": null, "distance": null, "has_offers": false, "name": "Rita's Water Ice", "longitude": -84.575881, "has_menu": false, "awards": null, "user_review_count": 1}, {"business_operation_status": 1, "rating": null, "neighborhood": null, "image": null, "scorecard": null, "featured": false, "sample_categories": "Restaurants, Catering, Delis And Delicatessens, Sandwich Shops, Carry Out", "public_id": "quiznos-marietta", "id": 45989666, "votes": null, "tagline": null, "has_video": false, "website": "http://www.citysearch.com/profile/external/45989666/marietta_ga/quiznos.html", "offers": null, "latitude": 34.014064, "politanName": "Atlanta, GA Metro ", "phone_number": "7709734979", "tags": [{"primary": false, "id": 1705, "name": "Catering"}, {"primary": false, "id": 1727, "name": "Delis And Delicatessens"}, {"primary": false, "id": 1736, "name": "Sandwich Shops"}, {"primary": false, "id": 11247, "name": "Carry Out"}, {"primary": false, "id": 11375, "name": "Shop Online"}, {"primary": true, "id": 1722, "name": "Restaurants"}], "fax_number": null, "expansion": {"count": null, "uri": null}, "impression_id": "000b0000009e0d201d36d6425a85629d98e65de93a", "profile": "http://www.citysearch.com/profile/45989666/marietta_ga/quiznos.html", "address": {"city": "Marietta", "state": "GA", "street": "2595 Sandy Plains Rd Ste 4", "postal_code": "30066"}, "capProviderId": null, "distance": null, "has_offers": false, "name": "Quiznos", "longitude": -84.495766, "has_menu": true, "awards": null, "user_review_count": 0}, {"business_operation_status": 1, "rating": null, "neighborhood": null, "image": null, "scorecard": null, "featured": false, "sample_categories": "Restaurants", "public_id": "nagoya-roswell", "id": 625908764, "votes": null, "tagline": null, "has_video": false, "website": null, "offers": null, "latitude": 34.004732, "politanName": "Atlanta, GA Metro ", "phone_number": "7709988899", "tags": [{"primary": true, "id": 1722, "name": "Restaurants"}], "fax_number": null, "expansion": {"count": null, "uri": null}, "impression_id": "000b00000073a310c6ea484b77a9a1f5e4d4869f33", "profile": "http://www.citysearch.com/profile/625908764/roswell_ga/nagoya.html", "address": {"city": "Roswell", "state": "GA", "street": "910 Marietta Hwy", "postal_code": "30075"}, "capProviderId": null, "distance": null, "has_offers": false, "name": "Nagoya", "longitude": -84.389163, "has_menu": false, "awards": null, "user_review_count": 0}, {"business_operation_status": 1, "rating": null, "neighborhood": null, "image": null, "scorecard": null, "featured": false, "sample_categories": "Nutritionists, Weight Loss, Health Food", "public_id": "jenny-craig-weight-loss-ctr-atlanta", "id": 601369806, "votes": null, "tagline": null, "has_video": false, "website": "http://www.citysearch.com/profile/external/601369806/atlanta_ga/jenny_craig_weight_loss_ctr.html", "offers": null, "latitude": 33.88068, "politanName": "Atlanta, GA Metro ", "phone_number": "7706904190", "tags": [{"primary": false, "id": 1893, "name": "Nutritionists"}, {"primary": false, "id": 11200, "name": "Health Food"}, {"primary": true, "id": 1931, "name": "Weight Loss"}], "fax_number": null, "expansion": {"count": null, "uri": null}, "impression_id": "000b000000a88e034693654be6a84dd08fee215b8f", "profile": "http://www.citysearch.com/profile/601369806/atlanta_ga/jenny_craig_weight_loss_ctr.html", "address": {"city": "Atlanta", "state": "GA", "street": "2969 Cobb Pkwy", "postal_code": "30339"}, "capProviderId": null, "distance": null, "has_offers": false, "name": "Jenny Craig Weight Loss Ctr", "longitude": -84.461897, "has_menu": false, "awards": null, "user_review_count": 0}, {"business_operation_status": 1, "rating": null, "neighborhood": null, "image": null, "scorecard": null, "featured": false, "sample_categories": "Restaurants, Traditional American", "public_id": "judys-country-kitchen-ii-marietta", "id": 672819800, "votes": null, "tagline": null, "has_video": false, "website": "http://www.citysearch.com/profile/external/672819800/marietta_ga/judy_s_country_kitchen_ii.html", "offers": null, "latitude": 34.017913, "politanName": "Atlanta, GA Metro ", "phone_number": "6783888680", "tags": [{"primary": false, "id": 11190, "name": "Traditional American"}, {"primary": true, "id": 1722, "name": "Restaurants"}], "fax_number": null, "expansion": {"count": null, "uri": null}, "impression_id": "000b0000008c96047207794b189d5f9fe4a34adf74", "profile": "http://www.citysearch.com/profile/672819800/marietta_ga/judy_s_country_kitchen_ii.html", "address": {"city": "Marietta", "state": "GA", "street": "2745 Sandy Plains Road #106", "postal_code": "30066"}, "capProviderId": null, "distance": null, "has_offers": false, "name": "Judy's Country Kitchen II", "longitude": -84.492683, "has_menu": false, "awards": null, "user_review_count": 0}, {"business_operation_status": 1, "rating": null, "neighborhood": null, "image": null, "scorecard": null, "featured": false, "sample_categories": "Restaurants", "public_id": "slate-table-and-tap-opening-soon-roswell", "id": 672366460, "votes": null, "tagline": null, "has_video": false, "website": null, "offers": null, "latitude": 34.029548, "politanName": "Atlanta, GA Metro ", "phone_number": null, "tags": [{"primary": true, "id": 1722, "name": "Restaurants"}], "fax_number": null, "expansion": {"count": null, "uri": null}, "impression_id": "000b00000070d2d8199da74f5887cc051e35d69a6a", "profile": "http://www.citysearch.com/profile/672366460/roswell_ga/slate_table_and_tap_opening_soon.html", "address": {"city": "Roswell", "state": "GA", "street": "1132 Canton St", "postal_code": "30075"}, "capProviderId": null, "distance": null, "has_offers": false, "name": "Slate Table and Tap _ Opening Soon", "longitude": -84.361851, "has_menu": false, "awards": null, "user_review_count": 0}, {"business_operation_status": 1, "rating": null, "neighborhood": null, "image": null, "scorecard": null, "featured": false, "sample_categories": "Restaurants", "public_id": "vinings-club-atlanta", "id": 672416590, "votes": null, "tagline": null, "has_video": false, "website": "http://www.citysearch.com/profile/external/672416590/atlanta_ga/vinings_club.html", "offers": null, "latitude": 33.867677, "politanName": "Atlanta, GA Metro ", "phone_number": "7704331155", "tags": [{"primary": true, "id": 1722, "name": "Restaurants"}], "fax_number": null, "expansion": {"count": null, "uri": null}, "impression_id": "000b000000cdef83146d404f16bc7e3f9ea79da6da", "profile": "http://www.citysearch.com/profile/672416590/atlanta_ga/vinings_club.html", "address": {"city": "Atlanta", "state": "GA", "street": "2859 Paces Ferry Rd SE", "postal_code": "30339"}, "capProviderId": null, "distance": null, "has_offers": false, "name": "Vinings Club", "longitude": -84.468631, "has_menu": false, "awards": null, "user_review_count": 1}, {"business_operation_status": 1, "rating": null, "neighborhood": null, "image": null, "scorecard": null, "featured": false, "sample_categories": "Restaurants", "public_id": "tropicanna-billards-grill-smyrna", "id": 614750544, "votes": null, "tagline": null, "has_video": false, "website": null, "offers": null, "latitude": 33.891092, "politanName": "Atlanta, GA Metro ", "phone_number": "7704320051", "tags": [{"primary": true, "id": 1722, "name": "Restaurants"}], "fax_number": null, "expansion": {"count": null, "uri": null}, "impression_id": "000b000000960116b439994f20ab6b018bc6d948b7", "profile": "http://www.citysearch.com/profile/614750544/smyrna_ga/tropicanna_billards_grill.html", "address": {"city": "Smyrna", "state": "GA", "street": "2540 Atlanta Rd SE", "postal_code": "30080"}, "capProviderId": null, "distance": null, "has_offers": false, "name": "Tropicanna Billards & Grill", "longitude": -84.519025, "has_menu": false, "awards": null, "user_review_count": 0}, {"business_operation_status": 1, "rating": null, "neighborhood": null, "image": null, "scorecard": null, "featured": false, "sample_categories": "Restaurants", "public_id": "paces-vine-atlanta", "id": 618927874, "votes": null, "tagline": null, "has_video": false, "website": null, "offers": null, "latitude": 33.864473, "politanName": "Atlanta, GA Metro ", "phone_number": "4048720904", "tags": [{"primary": true, "id": 1722, "name": "Restaurants"}], "fax_number": null, "expansion": {"count": null, "uri": null}, "impression_id": "000b000000e3a54a2df237447ab00280d8f6ec8192", "profile": "http://www.citysearch.com/profile/618927874/atlanta_ga/paces_vine.html", "address": {"city": "Atlanta", "state": "GA", "street": "4300 Paces Ferry Rd SE 250", "postal_code": "30339"}, "capProviderId": null, "distance": null, "has_offers": false, "name": "Paces & Vine", "longitude": -84.466262, "has_menu": true, "awards": null, "user_review_count": 0}, {"business_operation_status": 0, "rating": null, "neighborhood": null, "image": null, "scorecard": null, "featured": false, "sample_categories": "Ice Cream Parlors", "public_id": "ritas-water-ice-marietta", "id": 621962960, "votes": null, "tagline": null, "has_video": false, "website": "http://www.citysearch.com/profile/external/621962960/marietta_ga/rita_s_water_ice.html", "offers": null, "latitude": 34.021599, "politanName": "Atlanta, GA Metro ", "phone_number": "7706506705", "tags": [{"primary": true, "id": 1730, "name": "Ice Cream Parlors"}], "fax_number": null, "expansion": {"count": null, "uri": null}, "impression_id": "000b0000009cf2a3e4ba484efdb1671e7b1fad36e7", "profile": "http://www.citysearch.com/profile/621962960/marietta_ga/rita_s_water_ice.html", "address": {"city": "Marietta", "state": "GA", "street": "2986 Johnson Ferry Rd # B", "postal_code": "30062"}, "capProviderId": null, "distance": null, "has_offers": false, "name": "Rita's Water Ice", "longitude": -84.426314, "has_menu": true, "awards": null, "user_review_count": 0}, {"business_operation_status": 1, "rating": null, "neighborhood": null, "image": null, "scorecard": null, "featured": false, "sample_categories": "Restaurants", "public_id": "wings-101-smyrna", "id": 622039784, "votes": null, "tagline": null, "has_video": false, "website": null, "offers": null, "latitude": 33.894038, "politanName": "Atlanta, GA Metro ", "phone_number": "7709891520", "tags": [{"primary": true, "id": 1722, "name": "Restaurants"}], "fax_number": null, "expansion": {"count": null, "uri": null}, "impression_id": "000b00000040a8439ddf9f4bc5a0f3fb21839d2de9", "profile": "http://www.citysearch.com/profile/622039784/smyrna_ga/wings_101.html", "address": {"city": "Smyrna", "state": "GA", "street": "998 Windy Hill Rd SE", "postal_code": "30080"}, "capProviderId": null, "distance": null, "has_offers": false, "name": "Wings 101", "longitude": -84.524382, "has_menu": false, "awards": null, "user_review_count": 0}, {"business_operation_status": 1, "rating": null, "neighborhood": null, "image": null, "scorecard": null, "featured": false, "sample_categories": "Restaurants", "public_id": "tin-drum-asiacafe-atlanta-2", "id": 627002064, "votes": null, "tagline": null, "has_video": false, "website": null, "offers": null, "latitude": 33.882376, "politanName": "Atlanta, GA Metro ", "phone_number": "6783880515", "tags": [{"primary": true, "id": 1722, "name": "Restaurants"}], "fax_number": null, "expansion": {"count": null, "uri": null}, "impression_id": "000b00000087077cc355a14449987a6ca05a5a834e", "profile": "http://www.citysearch.com/profile/627002064/atlanta_ga/tin_drum_asiacafe.html", "address": {"city": "Atlanta", "state": "GA", "street": "2955 Cobb Pkwy SE", "postal_code": "30339"}, "capProviderId": null, "distance": null, "has_offers": false, "name": "Tin Drum Asiacafe", "longitude": -84.459577, "has_menu": false, "awards": null, "user_review_count": 0}, {"business_operation_status": 1, "rating": null, "neighborhood": null, "image": null, "scorecard": null, "featured": false, "sample_categories": "Ice Cream Parlors, Deordorant, Soap, Glue, Air Fresheners", "public_id": "ritas-ice-smyrna", "id": 638835090, "votes": null, "tagline": null, "has_video": false, "website": "http://www.citysearch.com/profile/external/638835090/smyrna_ga/rita_s_ice.html", "offers": null, "latitude": 33.842892, "politanName": "Atlanta, GA Metro ", "phone_number": "7706273225", "tags": [{"primary": false, "id": 23400, "name": "Deordorant"}, {"primary": false, "id": 23410, "name": "Soap"}, {"primary": false, "id": 24950, "name": "Glue"}, {"primary": false, "id": 25880, "name": "Air Fresheners"}, {"primary": true, "id": 1730, "name": "Ice Cream Parlors"}], "fax_number": null, "expansion": {"count": null, "uri": null}, "impression_id": "000b0000003431af77e68e4494a4e199c58228a370", "profile": "http://www.citysearch.com/profile/638835090/smyrna_ga/rita_s_ice.html", "address": {"city": "Smyrna", "state": "GA", "street": "4500 West Village Pl Se", "postal_code": "30080"}, "capProviderId": null, "distance": null, "has_offers": false, "name": "Rita's Ice", "longitude": -84.490261, "has_menu": false, "awards": null, "user_review_count": 0}, {"business_operation_status": 0, "rating": null, "neighborhood": null, "image": null, "scorecard": null, "featured": false, "sample_categories": "Restaurants", "public_id": "roswell-wasabi-sushi-buffet-sandy-spgs", "id": 672886430, "votes": null, "tagline": null, "has_video": false, "website": null, "offers": null, "latitude": 33.91426, "politanName": "Atlanta, GA Metro ", "phone_number": "4042579188", "tags": [{"primary": true, "id": 1722, "name": "Restaurants"}], "fax_number": null, "expansion": {"count": null, "uri": null}, "impression_id": "000b000000ea943363437141d981b7ab4766fdb148", "profile": "http://www.citysearch.com/profile/672886430/sandy_springs_ga/roswell_wasabi_sushi_buffet.html", "address": {"city": "Sandy Springs", "state": "GA", "street": "5825 Roswell Rd NE", "postal_code": "30328"}, "capProviderId": null, "distance": null, "has_offers": false, "name": "Roswell Wasabi Sushi Buffet", "longitude": -84.379139, "has_menu": false, "awards": null, "user_review_count": 0}, {"business_operation_status": 1, "rating": null, "neighborhood": null, "image": null, "scorecard": null, "featured": false, "sample_categories": "Restaurants", "public_id": "mambo-italiano-atlanta", "id": 672986060, "votes": null, "tagline": null, "has_video": false, "website": null, "offers": null, "latitude": 33.921134, "politanName": "Atlanta, GA Metro ", "phone_number": "4042554444", "tags": [{"primary": true, "id": 1722, "name": "Restaurants"}], "fax_number": null, "expansion": {"count": null, "uri": null}, "impression_id": "000b000000f0e6755019454960b29f31eaefd4e454", "profile": "http://www.citysearch.com/profile/672986060/atlanta_ga/mambo_italiano.html", "address": {"city": "Atlanta", "state": "GA", "street": "227 Sandy Springs Pl NE", "postal_code": "30328"}, "capProviderId": null, "distance": null, "has_offers": false, "name": "Mambo Italiano", "longitude": -84.382587, "has_menu": true, "awards": null, "user_review_count": 1}, {"business_operation_status": 1, "rating": null, "neighborhood": null, "image": null, "scorecard": null, "featured": false, "sample_categories": "Restaurants", "public_id": "georges-grill-bbq-marietta", "id": 672294490, "votes": null, "tagline": null, "has_video": false, "website": null, "offers": null, "latitude": 33.997727, "politanName": "Atlanta, GA Metro ", "phone_number": null, "tags": [{"primary": true, "id": 1722, "name": "Restaurants"}], "fax_number": null, "expansion": {"count": null, "uri": null}, "impression_id": "000b0000006317453c7fde46da86251d4c83287b29", "profile": "http://www.citysearch.com/profile/672294490/marietta_ga/george_s_grill_bbq.html", "address": {"city": "Marietta", "state": "GA", "street": "1951 Canton Rd NE", "postal_code": "30066"}, "capProviderId": null, "distance": null, "has_offers": false, "name": "George's Grill & BBQ", "longitude": -84.525055, "has_menu": false, "awards": null, "user_review_count": 0}, {"business_operation_status": 0, "rating": null, "neighborhood": null, "image": null, "scorecard": null, "featured": false, "sample_categories": "Frozen Yogurt Shops", "public_id": "yogil-mogli-ventures-marietta", "id": 700948650, "votes": null, "tagline": null, "has_video": false, "website": null, "offers": null, "latitude": 33.979176, "politanName": "Atlanta, GA Metro ", "phone_number": "7705781801", "tags": [{"primary": true, "id": 1729, "name": "Frozen Yogurt Shops"}], "fax_number": null, "expansion": {"count": null, "uri": null}, "impression_id": "000b000000df6acb876b13489b942fbf526d20bb2b", "profile": "http://www.citysearch.com/profile/700948650/marietta_ga/yogil_mogli_ventures.html", "address": {"city": "Marietta", "state": "GA", "street": "1255 Johnson Ferry Rd", "postal_code": "30068"}, "capProviderId": null, "distance": null, "has_offers": false, "name": "Yogil Mogli Ventures", "longitude": -84.423044, "has_menu": false, "awards": null, "user_review_count": 0}, {"business_operation_status": 1, "rating": null, "neighborhood": null, "image": null, "scorecard": null, "featured": false, "sample_categories": "Ice Cream Parlors", "public_id": "tios-mexican-grill-marietta", "id": 830806670, "votes": null, "tagline": null, "has_video": false, "website": null, "offers": null, "latitude": 33.970818, "politanName": "Atlanta, GA Metro ", "phone_number": "7709779727", "tags": [{"primary": true, "id": 1730, "name": "Ice Cream Parlors"}], "fax_number": null, "expansion": {"count": null, "uri": null}, "impression_id": "000b000000c6e8fdbae0ff4228a8e74d034223e5a9", "profile": "http://www.citysearch.com/profile/830806670/marietta_ga/tios_mexican_grill.html", "address": {"city": "Marietta", "state": "GA", "street": "821 Woodmont Dr", "postal_code": "30062"}, "capProviderId": null, "distance": null, "has_offers": false, "name": "Tios Mexican Grill", "longitude": -84.49593, "has_menu": true, "awards": null, "user_review_count": 0}, {"business_operation_status": 1, "rating": null, "neighborhood": null, "image": null, "scorecard": null, "featured": false, "sample_categories": "Delis And Delicatessens, Restaurants", "public_id": "davids-gourmet-atlanta", "id": 33587605, "votes": null, "tagline": null, "has_video": false, "website": null, "offers": null, "latitude": 33.916975, "politanName": "Atlanta, GA Metro ", "phone_number": "7703919410", "tags": [{"primary": false, "id": 1727, "name": "Delis And Delicatessens"}, {"primary": true, "id": 1722, "name": "Restaurants"}], "fax_number": null, "expansion": {"count": null, "uri": null}, "impression_id": "000b0000004feae600ffcd49a1b87fd1fcc06dc744", "profile": "http://www.citysearch.com/profile/33587605/atlanta_ga/david_s_gourmet.html", "address": {"city": "Atlanta", "state": "GA", "street": "6 Concourse Pkwy NE Ste 2250", "postal_code": "30328"}, "capProviderId": null, "distance": null, "has_offers": false, "name": "David's Gourmet", "longitude": -84.356182, "has_menu": false, "awards": null, "user_review_count": 0}, {"business_operation_status": 1, "rating": null, "neighborhood": null, "image": null, "scorecard": null, "featured": false, "sample_categories": "Restaurants", "public_id": "new-castle-restaurant-atlanta", "id": 35396298, "votes": null, "tagline": null, "has_video": false, "website": null, "offers": null, "latitude": 33.916678, "politanName": "Atlanta, GA Metro ", "phone_number": "4042553388", "tags": [{"primary": true, "id": 1722, "name": "Restaurants"}], "fax_number": null, "expansion": {"count": null, "uri": null}, "impression_id": "000b00000021c86236dcdc4452b209166fb62c1ad1", "profile": "http://www.citysearch.com/profile/35396298/atlanta_ga/new_castle_restaurant.html", "address": {"city": "Atlanta", "state": "GA", "street": "5920 Roswell Road NE, Ste B111", "postal_code": "30328"}, "capProviderId": null, "distance": null, "has_offers": false, "name": "New Castle Restaurant", "longitude": -84.381718, "has_menu": false, "awards": null, "user_review_count": 0}, {"business_operation_status": 1, "rating": null, "neighborhood": null, "image": null, "scorecard": null, "featured": false, "sample_categories": "Restaurants, Delis And Delicatessens, Sandwich Shops, Carry Out", "public_id": "subway-marietta-36", "id": 655943030, "votes": null, "tagline": null, "has_video": false, "website": "http://www.citysearch.com/profile/external/655943030/marietta_ga/subway.html", "offers": null, "latitude": 33.995879, "politanName": "Atlanta, GA Metro ", "phone_number": "7703212546", "tags": [{"primary": false, "id": 1727, "name": "Delis And Delicatessens"}, {"primary": false, "id": 1736, "name": "Sandwich Shops"}, {"primary": false, "id": 11247, "name": "Carry Out"}, {"primary": true, "id": 1722, "name": "Restaurants"}], "fax_number": null, "expansion": {"count": null, "uri": null}, "impression_id": "000b000000f37098b2dc32410fbe01023663e9c7a3", "profile": "http://www.citysearch.com/profile/655943030/marietta_ga/subway.html", "address": {"city": "Marietta", "state": "GA", "street": "1860 Sandy Plains Rd # 301", "postal_code": "30066"}, "capProviderId": null, "distance": null, "has_offers": false, "name": "Subway", "longitude": -84.507715, "has_menu": false, "awards": null, "user_review_count": 0}, {"business_operation_status": 0, "rating": null, "neighborhood": null, "image": null, "scorecard": null, "featured": false, "sample_categories": "Restaurants, Banks", "public_id": "kosher-to-go-bagel-break-atlanta", "id": 45569967, "votes": null, "tagline": null, "has_video": false, "website": null, "offers": null, "latitude": 33.927046, "politanName": "Atlanta, GA Metro ", "phone_number": "4042554390", "tags": [{"primary": false, "id": 1722, "name": "Restaurants"}, {"primary": false, "id": 1622, "name": "Banks"}, {"primary": true, "id": 1723, "name": "Bagel Shops"}], "fax_number": null, "expansion": {"count": null, "uri": null}, "impression_id": "000b000000c24ae65f4ef14bf388db5269990941ec", "profile": "http://www.citysearch.com/profile/45569967/atlanta_ga/kosher_to_go_bagel_break.html", "address": {"city": "Atlanta", "state": "GA", "street": "6333 Roswell Rd NE", "postal_code": "30328"}, "capProviderId": null, "distance": null, "has_offers": false, "name": "Kosher To Go Bagel Break", "longitude": -84.37912, "has_menu": false, "awards": null, "user_review_count": 0}], "histograms": [], "tag_ids": [1722], "uri": "http://api.citygridmedia.com:8080/search/places/v2/search/where?has_offers=false&type=restaurant&format=json&page=31&where=30067&rpp=50&histograms=false&publisher=10000009598&region_type=circle", "did_you_mean": "", "regions": [{"latitude": 33.930575, "default_radius": 3.78, "type": "postal_code", "name": "30067", "longitude": -84.463162}], "call_id": "000b0000006323101dfc824856b725b1330d6b9528", "first_hit": 1501, "total_hits": 1972, "geo_ids": [26295], "page": 31, "last_hit": 1550}}