{"results": {"rpp": 50, "locations": [{"business_operation_status": 1, "rating": null, "neighborhood": null, "image": null, "scorecard": null, "featured": false, "sample_categories": "Restaurants", "public_id": "silver-lodestone-inc-marietta", "id": 2873989, "votes": null, "tagline": null, "has_video": false, "website": "http://www.citysearch.com/profile/external/2873989/marietta_ga/silver_lodestone_inc.html", "offers": null, "latitude": 33.936462, "politanName": "Atlanta, GA Metro ", "phone_number": "7705907778", "tags": [{"primary": true, "id": 1722, "name": "Restaurants"}], "fax_number": null, "expansion": {"count": null, "uri": null}, "impression_id": "000b00000047b8ca2ad594478ea7ef1e6097edcc53", "profile": "http://www.citysearch.com/profile/2873989/marietta_ga/silver_lodestone_inc.html", "address": {"city": "Marietta", "state": "GA", "street": "191 Garrison Rd SE Ste A", "postal_code": "30008"}, "capProviderId": null, "distance": null, "has_offers": false, "name": "Silver Lodestone Inc", "longitude": -84.547583, "has_menu": false, "awards": null, "user_review_count": 0}, {"business_operation_status": 1, "rating": null, "neighborhood": null, "image": null, "scorecard": null, "featured": false, "sample_categories": "Restaurants, Delis And Delicatessens, Sandwich Shops, Carry Out, American Express", "public_id": "schlotzskys-deli-kennesaw", "id": 2955979, "votes": null, "tagline": null, "has_video": false, "website": "http://www.citysearch.com/profile/external/2955979/kennesaw_ga/schlotzsky_s_deli.html", "offers": null, "latitude": 34.014321, "politanName": "Atlanta, GA Metro ", "phone_number": "7705140571", "tags": [{"primary": false, "id": 1727, "name": "Delis And Delicatessens"}, {"primary": false, "id": 1736, "name": "Sandwich Shops"}, {"primary": false, "id": 11247, "name": "Carry Out"}, {"primary": false, "id": 11333, "name": "American Express"}, {"primary": false, "id": 11349, "name": "Discover"}, {"primary": false, "id": 11361, "name": "MasterCard"}, {"primary": false, "id": 11382, "name": "Visa"}, {"primary": true, "id": 1722, "name": "Restaurants"}], "fax_number": null, "expansion": {"count": null, "uri": null}, "impression_id": "000b0000007d975c770fed457fa38da062d7bb1155", "profile": "http://www.citysearch.com/profile/2955979/kennesaw_ga/schlotzsky_s_deli.html", "address": {"city": "Kennesaw", "state": "GA", "street": "440 Ernest W Barrett Pkwy NW", "postal_code": "30144"}, "capProviderId": null, "distance": null, "has_offers": false, "name": "Schlotzsky's Deli", "longitude": -84.562111, "has_menu": true, "awards": null, "user_review_count": 0}, {"business_operation_status": 1, "rating": null, "neighborhood": null, "image": null, "scorecard": null, "featured": false, "sample_categories": "Food Stores, Restaurants", "public_id": "halal-meats-marietta", "id": 696523330, "votes": null, "tagline": null, "has_video": false, "website": null, "offers": null, "latitude": 33.937797, "politanName": "Atlanta, GA Metro ", "phone_number": "6782900211", "tags": [{"primary": false, "id": 1722, "name": "Restaurants"}, {"primary": true, "id": 1706, "name": "Food Stores"}], "fax_number": null, "expansion": {"count": null, "uri": null}, "impression_id": "000b0000000b7f26db92114ec09948fd8732e9c343", "profile": "http://www.citysearch.com/profile/696523330/marietta_ga/halal_meats.html", "address": {"city": "Marietta", "state": "GA", "street": "585 Franklin Rd Se", "postal_code": "30067"}, "capProviderId": null, "distance": null, "has_offers": false, "name": "Halal Meats", "longitude": -84.506993, "has_menu": false, "awards": null, "user_review_count": 0}, {"business_operation_status": 1, "rating": null, "neighborhood": null, "image": null, "scorecard": null, "featured": false, "sample_categories": "Restaurants", "public_id": "wings-factory-austell", "id": 673030580, "votes": null, "tagline": null, "has_video": false, "website": null, "offers": null, "latitude": 33.859727, "politanName": "Atlanta, GA Metro ", "phone_number": "6782134040", "tags": [{"primary": true, "id": 1722, "name": "Restaurants"}], "fax_number": null, "expansion": {"count": null, "uri": null}, "impression_id": "000b000000ec7df894357e4efba0a5dc46510e3114", "profile": "http://www.citysearch.com/profile/673030580/austell_ga/wings_factory.html", "address": {"city": "Austell", "state": "GA", "street": "4180 Austell Rd SW", "postal_code": "30106"}, "capProviderId": null, "distance": null, "has_offers": false, "name": "Wings Factory", "longitude": -84.59921, "has_menu": false, "awards": null, "user_review_count": 0}, {"business_operation_status": 1, "rating": null, "neighborhood": null, "image": null, "scorecard": null, "featured": false, "sample_categories": "Personal Trainers, Dancing, Yoga", "public_id": "lailahs-studio-austell", "id": 724382250, "votes": null, "tagline": null, "has_video": false, "website": null, "offers": null, "latitude": 33.833377, "politanName": "Atlanta, GA Metro ", "phone_number": "6784010866", "tags": [{"primary": false, "id": 11255, "name": "Dancing"}, {"primary": false, "id": 12606, "name": "Yoga"}, {"primary": true, "id": 3999, "name": "Personal Trainers"}], "fax_number": null, "expansion": {"count": null, "uri": null}, "impression_id": "000b000000054526e289164837995df941269f5df3", "profile": "http://www.citysearch.com/profile/724382250/austell_ga/lailah_s_studio.html", "address": {"city": "Austell", "state": "GA", "street": "4968 Austell Rd", "postal_code": "30106"}, "capProviderId": null, "distance": null, "has_offers": false, "name": "Lailah's Studio", "longitude": -84.611891, "has_menu": false, "awards": null, "user_review_count": 0}, {"business_operation_status": 0, "rating": null, "neighborhood": null, "image": null, "scorecard": null, "featured": false, "sample_categories": "Restaurants", "public_id": "baileys-family-restaurant-powder-spgs", "id": 622016560, "votes": null, "tagline": null, "has_video": false, "website": null, "offers": null, "latitude": 33.85832, "politanName": "Atlanta, GA Metro ", "phone_number": "7704390336", "tags": [{"primary": true, "id": 1722, "name": "Restaurants"}], "fax_number": null, "expansion": {"count": null, "uri": null}, "impression_id": "000b00000087f0da02c88f4a75b6fc0a48e0021c71", "profile": "http://www.citysearch.com/profile/622016560/powder_springs_ga/bailey_s_family_restaurant.html", "address": {"city": "Powder Springs", "state": "GA", "street": "4093 Marietta St", "postal_code": "30127"}, "capProviderId": null, "distance": null, "has_offers": false, "name": "Bailey's Family Restaurant", "longitude": -84.67366, "has_menu": false, "awards": null, "user_review_count": 1}, {"business_operation_status": 0, "rating": null, "neighborhood": null, "image": null, "scorecard": null, "featured": false, "sample_categories": "Bars & Pubs, Bars & Clubs, Restaurants, Pizza", "public_id": "cedarcrest-tavern-dallas", "id": 732167860, "votes": null, "tagline": null, "has_video": false, "website": "http://www.citysearch.com/profile/external/732167860/dallas_ga/cedarcrest_tavern.html", "offers": null, "latitude": 34.027382, "politanName": "Atlanta, GA Metro ", "phone_number": "6785748777", "tags": [{"primary": false, "id": 164, "name": "Bars & Clubs"}, {"primary": false, "id": 1722, "name": "Restaurants"}, {"primary": false, "id": 11299, "name": "Pizza"}, {"primary": true, "id": 1686, "name": "Bars & Pubs"}], "fax_number": null, "expansion": {"count": null, "uri": null}, "impression_id": "000b0000005804384cd1a14719a24cacb493c43496", "profile": "http://www.citysearch.com/profile/732167860/dallas_ga/cedarcrest_tavern.html", "address": {"city": "Dallas", "state": "GA", "street": "51 Seven Hills Blvd", "postal_code": "30132"}, "capProviderId": null, "distance": null, "has_offers": false, "name": "Cedarcrest Tavern", "longitude": -84.776854, "has_menu": true, "awards": null, "user_review_count": 0}, {"business_operation_status": 1, "rating": null, "neighborhood": null, "image": null, "scorecard": null, "featured": false, "sample_categories": "Restaurants", "public_id": "hans-new-mableton", "id": 748335370, "votes": null, "tagline": null, "has_video": false, "website": null, "offers": null, "latitude": 33.835173, "politanName": "Atlanta, GA Metro ", "phone_number": "7709412314", "tags": [{"primary": true, "id": 1722, "name": "Restaurants"}], "fax_number": null, "expansion": {"count": null, "uri": null}, "impression_id": "000b0000004cc437898dc14c49a96460d5f4c5a5ea", "profile": "http://www.citysearch.com/profile/748335370/mableton_ga/hans_new.html", "address": {"city": "Mableton", "state": "GA", "street": "4875 Floyd Rd SW # 108", "postal_code": "30126"}, "capProviderId": null, "distance": null, "has_offers": false, "name": "Hans New", "longitude": -84.574622, "has_menu": false, "awards": null, "user_review_count": 0}, {"business_operation_status": 1, "rating": null, "neighborhood": null, "image": null, "scorecard": null, "featured": false, "sample_categories": "Restaurants, Pizza", "public_id": "rpc-pizza-llc-kennesaw", "id": 775208600, "votes": null, "tagline": null, "has_video": false, "website": null, "offers": null, "latitude": 33.99449, "politanName": "Atlanta, GA Metro ", "phone_number": "7707957649", "tags": [{"primary": false, "id": 11299, "name": "Pizza"}, {"primary": true, "id": 1722, "name": "Restaurants"}], "fax_number": null, "expansion": {"count": null, "uri": null}, "impression_id": "000b0000005a73e83c29514f5da117fa8db19501bc", "profile": "http://www.citysearch.com/profile/775208600/kennesaw_ga/rpc_pizza_llc.html", "address": {"city": "Kennesaw", "state": "GA", "street": "1615 Ridenour Blvd NW", "postal_code": "30152"}, "capProviderId": null, "distance": null, "has_offers": false, "name": "RPC Pizza Llc", "longitude": -84.592515, "has_menu": false, "awards": null, "user_review_count": 0}, {"business_operation_status": 0, "rating": null, "neighborhood": null, "image": null, "scorecard": null, "featured": false, "sample_categories": "Restaurants, Cuban", "public_id": "mojo-grill-cuban-cuisine-mableton", "id": 777749200, "votes": null, "tagline": null, "has_video": false, "website": null, "offers": null, "latitude": 33.817341, "politanName": "Atlanta, GA Metro ", "phone_number": "7708190771", "tags": [{"primary": false, "id": 11192, "name": "Cuban"}, {"primary": true, "id": 1722, "name": "Restaurants"}], "fax_number": null, "expansion": {"count": null, "uri": null}, "impression_id": "000b000000fdb04cdeb4594c2fb1a7e4cf5b8b6d23", "profile": "http://www.citysearch.com/profile/777749200/mableton_ga/mojo_grill_cuban_cuisine.html", "address": {"city": "Mableton", "state": "GA", "street": "925 Vet Mem Hwy Sw # 168", "postal_code": "30126"}, "capProviderId": null, "distance": null, "has_offers": false, "name": "Mojo Grill Cuban Cuisine", "longitude": -84.580424, "has_menu": false, "awards": null, "user_review_count": 0}, {"business_operation_status": 1, "rating": null, "neighborhood": null, "image": null, "scorecard": null, "featured": false, "sample_categories": "Restaurants, Carry Out", "public_id": "burger-king-powder", "id": 764855980, "votes": null, "tagline": null, "has_video": false, "website": null, "offers": null, "latitude": 33.906794, "politanName": "Atlanta, GA Metro ", "phone_number": "7704391489", "tags": [{"primary": false, "id": 11247, "name": "Carry Out"}, {"primary": true, "id": 1722, "name": "Restaurants"}], "fax_number": null, "expansion": {"count": null, "uri": null}, "impression_id": "000b000000c1e9195d3e084b978ebf693aff9094be", "profile": "http://www.citysearch.com/profile/764855980/powder_springs_ga/burger_king.html", "address": {"city": "Powder Springs", "state": "GA", "street": "3640 Velma Dr", "postal_code": "30127"}, "capProviderId": null, "distance": null, "has_offers": false, "name": "Burger King", "longitude": -84.660285, "has_menu": false, "awards": null, "user_review_count": 0}, {"business_operation_status": 1, "rating": null, "neighborhood": null, "image": null, "scorecard": null, "featured": false, "sample_categories": "Restaurants", "public_id": "w-k-r-d-the-blaze-power-house-marietta", "id": 779694540, "votes": null, "tagline": null, "has_video": false, "website": null, "offers": null, "latitude": 33.938913, "politanName": "Atlanta, GA Metro ", "phone_number": "6784018567", "tags": [{"primary": true, "id": 1722, "name": "Restaurants"}], "fax_number": null, "expansion": {"count": null, "uri": null}, "impression_id": "000b0000000cfe527cb907414ba577e0cf12907506", "profile": "http://www.citysearch.com/profile/779694540/marietta_ga/w_k_r_d_the_blaze_power_house.html", "address": {"city": "Marietta", "state": "GA", "street": "550 Franklin Rd Se", "postal_code": "30067"}, "capProviderId": null, "distance": null, "has_offers": false, "name": "W K R D The Blaze Power House", "longitude": -84.507658, "has_menu": false, "awards": null, "user_review_count": 0}, {"business_operation_status": 1, "rating": null, "neighborhood": null, "image": null, "scorecard": null, "featured": false, "sample_categories": "Restaurants, Mexican, Carry Out, American Express, MasterCard", "public_id": "taco-bell-kennesaw-4", "id": 682713980, "votes": null, "tagline": null, "has_video": false, "website": "http://www.citysearch.com/profile/external/682713980/kennesaw_ga/taco_bell.html", "offers": null, "latitude": 34.018145, "politanName": "Atlanta, GA Metro ", "phone_number": "7704240007", "tags": [{"primary": false, "id": 11208, "name": "Mexican"}, {"primary": false, "id": 11247, "name": "Carry Out"}, {"primary": false, "id": 11333, "name": "American Express"}, {"primary": false, "id": 11361, "name": "MasterCard"}, {"primary": false, "id": 11382, "name": "Visa"}, {"primary": true, "id": 1722, "name": "Restaurants"}], "fax_number": null, "expansion": {"count": null, "uri": null}, "impression_id": "000b000000fd93d9cb3a8e448aa9fe9c0d4db016e1", "profile": "http://www.citysearch.com/profile/682713980/kennesaw_ga/taco_bell.html", "address": {"city": "Kennesaw", "state": "GA", "street": "400 Barrett Pkwy # 127", "postal_code": "30144"}, "capProviderId": null, "distance": null, "has_offers": false, "name": "Taco Bell", "longitude": -84.561896, "has_menu": false, "awards": null, "user_review_count": 0}, {"business_operation_status": 1, "rating": null, "neighborhood": null, "image": null, "scorecard": null, "featured": false, "sample_categories": "Restaurants", "public_id": "smokeys-bar-b-que-austell", "id": 36715095, "votes": null, "tagline": null, "has_video": false, "website": null, "offers": null, "latitude": 33.833281, "politanName": "Atlanta, GA Metro ", "phone_number": "7707452040", "tags": [{"primary": true, "id": 1722, "name": "Restaurants"}], "fax_number": null, "expansion": {"count": null, "uri": null}, "impression_id": "000b0000009f7aac66412149b7b5c47654b73c29f3", "profile": "http://www.citysearch.com/profile/36715095/austell_ga/smokey_s_bar_b_que.html", "address": {"city": "Austell", "state": "GA", "street": "4990 Austell Rd", "postal_code": "30106"}, "capProviderId": null, "distance": null, "has_offers": false, "name": "Smokey's Bar B Que", "longitude": -84.611921, "has_menu": false, "awards": null, "user_review_count": 0}, {"business_operation_status": 1, "rating": null, "neighborhood": null, "image": null, "scorecard": null, "featured": false, "sample_categories": "Restaurants", "public_id": "chuys-restaurant-kennesaw", "id": 611300334, "votes": null, "tagline": null, "has_video": false, "website": null, "offers": null, "latitude": 34.007528, "politanName": "Atlanta, GA Metro ", "phone_number": "7707921345", "tags": [{"primary": true, "id": 1722, "name": "Restaurants"}], "fax_number": null, "expansion": {"count": null, "uri": null}, "impression_id": "000b0000003ab16b1d1ef341abad6fa79ceb91ea2c", "profile": "http://www.citysearch.com/profile/611300334/kennesaw_ga/chuy_s_restaurant.html", "address": {"city": "Kennesaw", "state": "GA", "street": "585 Ernest W Barrett Pkwy NW", "postal_code": "30144"}, "capProviderId": null, "distance": null, "has_offers": false, "name": "Chuy's Restaurant", "longitude": -84.571547, "has_menu": false, "awards": null, "user_review_count": 0}, {"business_operation_status": 1, "rating": null, "neighborhood": null, "image": null, "scorecard": null, "featured": false, "sample_categories": "Restaurants, Coffee & Tea Shops, Cafes", "public_id": "parkway-cafe-marietta", "id": 621991080, "votes": null, "tagline": null, "has_video": false, "website": null, "offers": null, "latitude": 33.938367, "politanName": "Atlanta, GA Metro ", "phone_number": "7705908922", "tags": [{"primary": false, "id": 1711, "name": "Coffee & Tea Shops"}, {"primary": false, "id": 6190, "name": "Cafes"}, {"primary": true, "id": 1722, "name": "Restaurants"}], "fax_number": null, "expansion": {"count": null, "uri": null}, "impression_id": "000b000000775fa03d21414d60ba90acfd0feeb878", "profile": "http://www.citysearch.com/profile/621991080/marietta_ga/parkway_cafe.html", "address": {"city": "Marietta", "state": "GA", "street": "1850 Parkway Pl Se # 120", "postal_code": "30067"}, "capProviderId": null, "distance": null, "has_offers": false, "name": "Parkway Cafe", "longitude": -84.501954, "has_menu": false, "awards": null, "user_review_count": 0}, {"business_operation_status": 1, "rating": null, "neighborhood": null, "image": null, "scorecard": null, "featured": false, "sample_categories": "Restaurants, Mexican", "public_id": "don-pedro-mexican-restaurant-marietta", "id": 45556665, "votes": null, "tagline": null, "has_video": false, "website": null, "offers": null, "latitude": 33.944297, "politanName": "Atlanta, GA Metro ", "phone_number": "6782900202", "tags": [{"primary": false, "id": 11208, "name": "Mexican"}, {"primary": true, "id": 1722, "name": "Restaurants"}], "fax_number": null, "expansion": {"count": null, "uri": null}, "impression_id": "000b00000029ec4b9251c74836afa9682c8bb0628e", "profile": "http://www.citysearch.com/profile/45556665/marietta_ga/don_pedro_mexican_restaurant.html", "address": {"city": "Marietta", "state": "GA", "street": "344 S Fairground St SE", "postal_code": "30060"}, "capProviderId": null, "distance": null, "has_offers": false, "name": "Don Pedro Mexican Restaurant", "longitude": -84.535657, "has_menu": false, "awards": null, "user_review_count": 0}, {"business_operation_status": 1, "rating": null, "neighborhood": null, "image": null, "scorecard": null, "featured": false, "sample_categories": "Restaurants", "public_id": "banquet-hall-de-las-america-marietta", "id": 775210860, "votes": null, "tagline": null, "has_video": false, "website": null, "offers": null, "latitude": 33.951285, "politanName": "Atlanta, GA Metro ", "phone_number": "7707941080", "tags": [{"primary": true, "id": 1722, "name": "Restaurants"}], "fax_number": null, "expansion": {"count": null, "uri": null}, "impression_id": "000b000000874c49e81e4245448449ed6e803a2b52", "profile": "http://www.citysearch.com/profile/775210860/marietta_ga/banquet_hall_de_las_america.html", "address": {"city": "Marietta", "state": "GA", "street": "737 Roswell St NE", "postal_code": "30060"}, "capProviderId": null, "distance": null, "has_offers": false, "name": "Banquet Hall De Las America", "longitude": -84.530697, "has_menu": false, "awards": null, "user_review_count": 0}, {"business_operation_status": 1, "rating": null, "neighborhood": null, "image": null, "scorecard": null, "featured": false, "sample_categories": "Restaurants", "public_id": "sips-cookin-austell", "id": 775236240, "votes": null, "tagline": null, "has_video": false, "website": null, "offers": null, "latitude": 33.826174, "politanName": "Atlanta, GA Metro ", "phone_number": "7708196833", "tags": [{"primary": true, "id": 1722, "name": "Restaurants"}], "fax_number": null, "expansion": {"count": null, "uri": null}, "impression_id": "000b00000017c6fe2029534453bec54c8110b58400", "profile": "http://www.citysearch.com/profile/775236240/austell_ga/sip_s_cookin.html", "address": {"city": "Austell", "state": "GA", "street": "5742 Austell Powder Springs Rd", "postal_code": "30106"}, "capProviderId": null, "distance": null, "has_offers": false, "name": "Sip's Cookin", "longitude": -84.645454, "has_menu": false, "awards": null, "user_review_count": 0}, {"business_operation_status": 1, "rating": null, "neighborhood": null, "image": null, "scorecard": null, "featured": false, "sample_categories": "Restaurants, Pizza, Carry Out", "public_id": "johnnys-pizza-marietta", "id": 790893290, "votes": null, "tagline": null, "has_video": false, "website": null, "offers": null, "latitude": 33.968758, "politanName": "Atlanta, GA Metro ", "phone_number": "7705658665", "tags": [{"primary": false, "id": 1722, "name": "Restaurants"}, {"primary": false, "id": 11247, "name": "Carry Out"}, {"primary": true, "id": 11299, "name": "Pizza"}], "fax_number": null, "expansion": {"count": null, "uri": null}, "impression_id": "000b000000d8dba7f5eebd49098a06cd34f5f8792c", "profile": "http://www.citysearch.com/profile/790893290/marietta_ga/johnnys_pizza.html", "address": {"city": "Marietta", "state": "GA", "street": "2100 Roswell Rd # 1100", "postal_code": "30062"}, "capProviderId": null, "distance": null, "has_offers": false, "name": "Johnnys Pizza", "longitude": -84.488447, "has_menu": false, "awards": null, "user_review_count": 0}, {"business_operation_status": 1, "rating": null, "neighborhood": null, "image": null, "scorecard": null, "featured": false, "sample_categories": "Restaurants, Traditional American, Carry Out", "public_id": "waffle-house-marietta-16", "id": 777819230, "votes": null, "tagline": null, "has_video": false, "website": "http://www.citysearch.com/profile/external/777819230/marietta_ga/waffle_house.html", "offers": null, "latitude": 33.923768, "politanName": "Atlanta, GA Metro ", "phone_number": "7709526638", "tags": [{"primary": false, "id": 11190, "name": "Traditional American"}, {"primary": false, "id": 11247, "name": "Carry Out"}, {"primary": true, "id": 1722, "name": "Restaurants"}], "fax_number": null, "expansion": {"count": null, "uri": null}, "impression_id": "000b0000000a341854c7af443091551f21b3612be9", "profile": "http://www.citysearch.com/profile/777819230/marietta_ga/waffle_house.html", "address": {"city": "Marietta", "state": "GA", "street": "1185 Franklin Rd Se", "postal_code": "30067"}, "capProviderId": null, "distance": null, "has_offers": false, "name": "Waffle House", "longitude": -84.491678, "has_menu": true, "awards": null, "user_review_count": 0}, {"business_operation_status": 1, "rating": null, "neighborhood": null, "image": null, "scorecard": null, "featured": false, "sample_categories": "Restaurants", "public_id": "inter-cafe-marietta", "id": 777730670, "votes": null, "tagline": null, "has_video": false, "website": null, "offers": null, "latitude": 33.919221, "politanName": "Atlanta, GA Metro ", "phone_number": "6783541225", "tags": [{"primary": true, "id": 1722, "name": "Restaurants"}], "fax_number": null, "expansion": {"count": null, "uri": null}, "impression_id": "000b0000003fa84387a23e4f919f0e2ac85b5efb3a", "profile": "http://www.citysearch.com/profile/777730670/marietta_ga/inter_cafe.html", "address": {"city": "Marietta", "state": "GA", "street": "1368 Atlanta Rd Se", "postal_code": "30060"}, "capProviderId": null, "distance": null, "has_offers": false, "name": "Inter Cafe", "longitude": -84.542534, "has_menu": false, "awards": null, "user_review_count": 0}, {"business_operation_status": 1, "rating": null, "neighborhood": null, "image": null, "scorecard": null, "featured": false, "sample_categories": "Restaurants, Catering, Carry Out", "public_id": "joes-crab-shack-marietta-2", "id": 807865760, "votes": null, "tagline": null, "has_video": false, "website": null, "offers": null, "latitude": 33.993933, "politanName": "Atlanta, GA Metro ", "phone_number": "7704228374", "tags": [{"primary": false, "id": 1705, "name": "Catering"}, {"primary": false, "id": 11247, "name": "Carry Out"}, {"primary": true, "id": 1722, "name": "Restaurants"}], "fax_number": null, "expansion": {"count": null, "uri": null}, "impression_id": "000b000000c20374b7bebe44a2b74b7e56dffb2498", "profile": "http://www.citysearch.com/profile/807865760/marietta_ga/joe_s_crab_shack.html", "address": {"city": "Marietta", "state": "GA", "street": "225 Williams Dr", "postal_code": "30066"}, "capProviderId": null, "distance": null, "has_offers": false, "name": "Joe's Crab Shack", "longitude": -84.548113, "has_menu": false, "awards": null, "user_review_count": 0}, {"business_operation_status": 1, "rating": null, "neighborhood": null, "image": null, "scorecard": null, "featured": false, "sample_categories": "Restaurants", "public_id": "chazzs-place-marietta", "id": 732185840, "votes": null, "tagline": null, "has_video": false, "website": null, "offers": null, "latitude": 33.964105, "politanName": "Atlanta, GA Metro ", "phone_number": "7706932334", "tags": [{"primary": true, "id": 1722, "name": "Restaurants"}], "fax_number": null, "expansion": {"count": null, "uri": null}, "impression_id": "000b000000346b226e5cab4cff99007607ca400972", "profile": "http://www.citysearch.com/profile/732185840/marietta_ga/chazz_s_place.html", "address": {"city": "Marietta", "state": "GA", "street": "531 Roselane St NW", "postal_code": "30060"}, "capProviderId": null, "distance": null, "has_offers": false, "name": "Chazz's Place", "longitude": -84.557337, "has_menu": false, "awards": null, "user_review_count": 0}, {"business_operation_status": 1, "rating": null, "neighborhood": null, "image": null, "scorecard": null, "featured": false, "sample_categories": "Restaurants", "public_id": "olgas-porch-inc-marietta", "id": 732189800, "votes": null, "tagline": null, "has_video": false, "website": null, "offers": null, "latitude": 33.962903, "politanName": "Atlanta, GA Metro ", "phone_number": "6786374595", "tags": [{"primary": true, "id": 1722, "name": "Restaurants"}], "fax_number": null, "expansion": {"count": null, "uri": null}, "impression_id": "000b0000008a32c4677d2541208c576e82b2a059c0", "profile": "http://www.citysearch.com/profile/732189800/marietta_ga/olgas_porch_inc.html", "address": {"city": "Marietta", "state": "GA", "street": "1591 Gresham Rd", "postal_code": "30062"}, "capProviderId": null, "distance": null, "has_offers": false, "name": "Olgas Porch Inc", "longitude": -84.50563, "has_menu": false, "awards": null, "user_review_count": 0}, {"business_operation_status": 1, "rating": null, "neighborhood": null, "image": null, "scorecard": null, "featured": false, "sample_categories": "Restaurants", "public_id": "ogas-cafeteria-marietta", "id": 812725490, "votes": null, "tagline": null, "has_video": false, "website": null, "offers": null, "latitude": 34.017069, "politanName": "Atlanta, GA Metro ", "phone_number": "7705656700", "tags": [{"primary": true, "id": 1722, "name": "Restaurants"}], "fax_number": null, "expansion": {"count": null, "uri": null}, "impression_id": "000b0000007ada806f460b45a4adb0effc5700145c", "profile": "http://www.citysearch.com/profile/812725490/marietta_ga/ogas_cafeteria.html", "address": {"city": "Marietta", "state": "GA", "street": "2778 Sandy Plains Rd", "postal_code": "30066"}, "capProviderId": null, "distance": null, "has_offers": false, "name": "Ogas Cafeteria", "longitude": -84.491613, "has_menu": false, "awards": null, "user_review_count": 0}, {"business_operation_status": 1, "rating": null, "neighborhood": null, "image": null, "scorecard": null, "featured": false, "sample_categories": "Restaurants, Delis And Delicatessens, Carry Out", "public_id": "firehouse-subs-marietta-2", "id": 745603500, "votes": null, "tagline": null, "has_video": false, "website": null, "offers": null, "latitude": 33.95896, "politanName": "Atlanta, GA Metro ", "phone_number": "7707925993", "tags": [{"primary": false, "id": 1727, "name": "Delis And Delicatessens"}, {"primary": false, "id": 11247, "name": "Carry Out"}, {"primary": true, "id": 1722, "name": "Restaurants"}], "fax_number": null, "expansion": {"count": null, "uri": null}, "impression_id": "000b000000777589d949054d79a49662fcab4e674c", "profile": "http://www.citysearch.com/profile/745603500/marietta_ga/firehouse_subs.html", "address": {"city": "Marietta", "state": "GA", "street": "145 N Marietta Pkwy NE", "postal_code": "30060"}, "capProviderId": null, "distance": null, "has_offers": false, "name": "Firehouse Subs", "longitude": -84.546879, "has_menu": false, "awards": null, "user_review_count": 0}, {"business_operation_status": 1, "rating": null, "neighborhood": null, "image": null, "scorecard": null, "featured": false, "sample_categories": "Restaurants", "public_id": "aunt-bs-oyster-house-marietta", "id": 823170090, "votes": null, "tagline": null, "has_video": false, "website": null, "offers": null, "latitude": 34.048139, "politanName": "Atlanta, GA Metro ", "phone_number": "7709242272", "tags": [{"primary": true, "id": 1722, "name": "Restaurants"}], "fax_number": null, "expansion": {"count": null, "uri": null}, "impression_id": "000b000000968c99f41ba74f7db6b11f9be1ca46f2", "profile": "http://www.citysearch.com/profile/823170090/marietta_ga/aunt_b_s_oyster_house.html", "address": {"city": "Marietta", "state": "GA", "street": "3999 Canton Rd", "postal_code": "30066"}, "capProviderId": null, "distance": null, "has_offers": false, "name": "Aunt B's Oyster House", "longitude": -84.529087, "has_menu": false, "awards": null, "user_review_count": 0}, {"business_operation_status": 1, "rating": null, "neighborhood": null, "image": null, "scorecard": null, "featured": false, "sample_categories": "Restaurants, Bars & Clubs", "public_id": "apollo-bar-grill-austell", "id": 825446100, "votes": null, "tagline": null, "has_video": false, "website": null, "offers": null, "latitude": 33.828601, "politanName": "Atlanta, GA Metro ", "phone_number": "7707326391", "tags": [{"primary": false, "id": 164, "name": "Bars & Clubs"}, {"primary": true, "id": 1722, "name": "Restaurants"}], "fax_number": null, "expansion": {"count": null, "uri": null}, "impression_id": "000b000000efde3c5b0cc04a098154e7958c3fdff1", "profile": "http://www.citysearch.com/profile/825446100/austell_ga/apollo_bar_grill.html", "address": {"city": "Austell", "state": "GA", "street": "5141 Austell Rd", "postal_code": "30106"}, "capProviderId": null, "distance": null, "has_offers": false, "name": "Apollo Bar & Grill", "longitude": -84.613561, "has_menu": false, "awards": null, "user_review_count": 0}, {"business_operation_status": 1, "rating": null, "neighborhood": null, "image": null, "scorecard": null, "featured": false, "sample_categories": "Restaurants", "public_id": "anthonys-italian-kitchen-marietta", "id": 826910750, "votes": null, "tagline": null, "has_video": false, "website": null, "offers": null, "latitude": 33.952602, "politanName": "Atlanta, GA Metro ", "phone_number": "7705097757", "tags": [{"primary": true, "id": 1722, "name": "Restaurants"}], "fax_number": null, "expansion": {"count": null, "uri": null}, "impression_id": "000b00000033d07d5d9b9443a1961bf4e0a5613f15", "profile": "http://www.citysearch.com/profile/826910750/marietta_ga/anthony_s_italian_kitchen.html", "address": {"city": "Marietta", "state": "GA", "street": "1323 Roswell Rd", "postal_code": "30062"}, "capProviderId": null, "distance": null, "has_offers": false, "name": "Anthony's Italian Kitchen", "longitude": -84.549933, "has_menu": true, "awards": null, "user_review_count": 0}, {"business_operation_status": 1, "rating": null, "neighborhood": null, "image": null, "scorecard": null, "featured": false, "sample_categories": "Ice Cream Parlors, Dairy Products", "public_id": "flavorich-inc-marietta", "id": 764859740, "votes": null, "tagline": null, "has_video": false, "website": "http://www.citysearch.com/profile/external/764859740/marietta_ga/flav_o_rich_inc.html", "offers": null, "latitude": 33.986137, "politanName": "Atlanta, GA Metro ", "phone_number": "6782901326", "tags": [{"primary": false, "id": 1730, "name": "Ice Cream Parlors"}, {"primary": true, "id": 12837, "name": "Dairy Products"}], "fax_number": null, "expansion": {"count": null, "uri": null}, "impression_id": "000b0000008c4ff1a1f61d4be79490feeda441f22b", "profile": "http://www.citysearch.com/profile/764859740/marietta_ga/flav_o_rich_inc.html", "address": {"city": "Marietta", "state": "GA", "street": "1449 Cobb Pkwy N", "postal_code": "30062"}, "capProviderId": null, "distance": null, "has_offers": false, "name": "Flav-O-Rich Inc", "longitude": -84.571376, "has_menu": false, "awards": null, "user_review_count": 0}, {"business_operation_status": 1, "rating": null, "neighborhood": null, "image": null, "scorecard": null, "featured": false, "sample_categories": "Restaurants, Chinese, American Express, Discover, MasterCard", "public_id": "hong-kong-chinese-restaurant-marietta", "id": 775206160, "votes": null, "tagline": null, "has_video": false, "website": null, "offers": null, "latitude": 33.993754, "politanName": "Atlanta, GA Metro ", "phone_number": "7704256212", "tags": [{"primary": false, "id": 11252, "name": "Chinese"}, {"primary": false, "id": 11333, "name": "American Express"}, {"primary": false, "id": 11349, "name": "Discover"}, {"primary": false, "id": 11361, "name": "MasterCard"}, {"primary": false, "id": 11382, "name": "Visa"}, {"primary": true, "id": 1722, "name": "Restaurants"}], "fax_number": null, "expansion": {"count": null, "uri": null}, "impression_id": "000b0000009e9c32d4332d4931a0d8634245f277a9", "profile": "http://www.citysearch.com/profile/775206160/marietta_ga/hong_kong_chinese_restaurant.html", "address": {"city": "Marietta", "state": "GA", "street": "2774 Cobb Pkwy NW", "postal_code": "30060"}, "capProviderId": null, "distance": null, "has_offers": false, "name": "Hong Kong Chinese Restaurant", "longitude": -84.581248, "has_menu": false, "awards": null, "user_review_count": 0}, {"business_operation_status": 1, "rating": null, "neighborhood": null, "image": null, "scorecard": null, "featured": false, "sample_categories": "Restaurants, Pizza, Carry Out", "public_id": "pizza-hut-marietta-12", "id": 775223530, "votes": null, "tagline": null, "has_video": false, "website": null, "offers": null, "latitude": 33.952602, "politanName": "Atlanta, GA Metro ", "phone_number": "7709716932", "tags": [{"primary": false, "id": 1722, "name": "Restaurants"}, {"primary": false, "id": 11247, "name": "Carry Out"}, {"primary": true, "id": 11299, "name": "Pizza"}], "fax_number": null, "expansion": {"count": null, "uri": null}, "impression_id": "000b0000004703801b2c494006aa7d1f979c182368", "profile": "http://www.citysearch.com/profile/775223530/marietta_ga/pizza_hut.html", "address": {"city": "Marietta", "state": "GA", "street": "2204 Roswell Rd", "postal_code": "30062"}, "capProviderId": null, "distance": null, "has_offers": false, "name": "Pizza Hut", "longitude": -84.549933, "has_menu": false, "awards": null, "user_review_count": 0}, {"business_operation_status": 1, "rating": null, "neighborhood": null, "image": null, "scorecard": null, "featured": false, "sample_categories": "Restaurants", "public_id": "grill-on-the-square-marietta", "id": 827975120, "votes": null, "tagline": null, "has_video": false, "website": null, "offers": null, "latitude": 33.952271, "politanName": "Atlanta, GA Metro ", "phone_number": "7704265161", "tags": [{"primary": true, "id": 1722, "name": "Restaurants"}], "fax_number": null, "expansion": {"count": null, "uri": null}, "impression_id": "000b0000000244bf3b2eab43d288c364a783ba44e6", "profile": "http://www.citysearch.com/profile/827975120/marietta_ga/grill_on_the_square.html", "address": {"city": "Marietta", "state": "GA", "street": "70 S Park Sq NE # C", "postal_code": "30060"}, "capProviderId": null, "distance": null, "has_offers": false, "name": "Grill On The Square", "longitude": -84.549833, "has_menu": false, "awards": null, "user_review_count": 0}, {"business_operation_status": 1, "rating": null, "neighborhood": null, "image": null, "scorecard": null, "featured": false, "sample_categories": "Restaurants", "public_id": "jones-chili-lithia-spgs", "id": 36286813, "votes": null, "tagline": null, "has_video": false, "website": null, "offers": null, "latitude": 33.791296, "politanName": "Atlanta, GA Metro ", "phone_number": "7709417482", "tags": [{"primary": true, "id": 1722, "name": "Restaurants"}], "fax_number": null, "expansion": {"count": null, "uri": null}, "impression_id": "000b000000924ef906c789468da132c5dc62b8bbda", "profile": "http://www.citysearch.com/profile/36286813/lithia_springs_ga/jones_chili.html", "address": {"city": "Lithia Springs", "state": "GA", "street": "1922 Waterford Club Dr", "postal_code": "30122"}, "capProviderId": null, "distance": null, "has_offers": false, "name": "Jones Chili", "longitude": -84.614221, "has_menu": false, "awards": null, "user_review_count": 0}, {"business_operation_status": 1, "rating": null, "neighborhood": null, "image": null, "scorecard": null, "featured": false, "sample_categories": "Food Delivery", "public_id": "hungry-gorilla-incorporated-powder-spgs", "id": 36287066, "votes": null, "tagline": null, "has_video": false, "website": null, "offers": null, "latitude": 33.820457, "politanName": "Atlanta, GA Metro ", "phone_number": "7707453400", "tags": [{"primary": true, "id": 11267, "name": "Food Delivery"}], "fax_number": null, "expansion": {"count": null, "uri": null}, "impression_id": "000b0000006fdb2fa8d64146eea0e9455e042b3226", "profile": "http://www.citysearch.com/profile/36287066/powder_springs_ga/hungry_gorilla_incorporated.html", "address": {"city": "Powder Springs", "state": "GA", "street": "5450 Sweetsprings Dr SW", "postal_code": "30127"}, "capProviderId": null, "distance": null, "has_offers": false, "name": "Hungry Gorilla Incorporated", "longitude": -84.678464, "has_menu": false, "awards": null, "user_review_count": 0}, {"business_operation_status": 1, "rating": null, "neighborhood": null, "image": null, "scorecard": null, "featured": false, "sample_categories": "Restaurants", "public_id": "surak-kennesaw", "id": 37648990, "votes": null, "tagline": null, "has_video": false, "website": null, "offers": null, "latitude": 34.025304, "politanName": "Atlanta, GA Metro ", "phone_number": "6785811888", "tags": [{"primary": true, "id": 1722, "name": "Restaurants"}], "fax_number": null, "expansion": {"count": null, "uri": null}, "impression_id": "000b0000000cd119e00c6448259e40d55a60dff521", "profile": "http://www.citysearch.com/profile/37648990/kennesaw_ga/surak.html", "address": {"city": "Kennesaw", "state": "GA", "street": "2950 George Busbee Pkwy NW", "postal_code": "30144"}, "capProviderId": null, "distance": null, "has_offers": false, "name": "Surak", "longitude": -84.5671, "has_menu": false, "awards": null, "user_review_count": 0}, {"business_operation_status": 1, "rating": null, "neighborhood": null, "image": null, "scorecard": null, "featured": false, "sample_categories": "Restaurants", "public_id": "creative-cafe-marietta", "id": 807599830, "votes": null, "tagline": null, "has_video": false, "website": null, "offers": null, "latitude": 34.032195, "politanName": "Atlanta, GA Metro ", "phone_number": "6782909995", "tags": [{"primary": true, "id": 1722, "name": "Restaurants"}], "fax_number": null, "expansion": {"count": null, "uri": null}, "impression_id": "000b000000d67d3be106354d84aa17e82749f6ab7b", "profile": "http://www.citysearch.com/profile/807599830/marietta_ga/creative_cafe.html", "address": {"city": "Marietta", "state": "GA", "street": "3402 Canton Rd", "postal_code": "30066"}, "capProviderId": null, "distance": null, "has_offers": false, "name": "Creative Cafe", "longitude": -84.527689, "has_menu": false, "awards": null, "user_review_count": 0}, {"business_operation_status": 1, "rating": null, "neighborhood": null, "image": null, "scorecard": null, "featured": false, "sample_categories": "Carry Out", "public_id": "lucyann-s-co-llc-marietta", "id": 810787170, "votes": null, "tagline": null, "has_video": false, "website": null, "offers": null, "latitude": 34.011742, "politanName": "Atlanta, GA Metro ", "phone_number": "6785609088", "tags": [{"primary": true, "id": 11247, "name": "Carry Out"}], "fax_number": null, "expansion": {"count": null, "uri": null}, "impression_id": "000b0000005a62ba3962654ecdbb501b5bfe3fd766", "profile": "http://www.citysearch.com/profile/810787170/marietta_ga/lucyann_s_co_llc.html", "address": {"city": "Marietta", "state": "GA", "street": "2550 Sandy Plains Rd # 100", "postal_code": "30066"}, "capProviderId": null, "distance": null, "has_offers": false, "name": "Lucyann S Co LLC", "longitude": -84.495056, "has_menu": false, "awards": null, "user_review_count": 0}, {"business_operation_status": 1, "rating": null, "neighborhood": null, "image": null, "scorecard": null, "featured": false, "sample_categories": "Restaurants", "public_id": "ricks-italian-beefsandwich-kennesaw", "id": 819024900, "votes": null, "tagline": null, "has_video": false, "website": null, "offers": null, "latitude": 34.019119, "politanName": "Atlanta, GA Metro ", "phone_number": "7704209500", "tags": [{"primary": true, "id": 1722, "name": "Restaurants"}], "fax_number": null, "expansion": {"count": null, "uri": null}, "impression_id": "000b000000cb3c589208be4a6d93ac06e4533e9c9f", "profile": "http://www.citysearch.com/profile/819024900/kennesaw_ga/ricks_italian_beef_sandwich.html", "address": {"city": "Kennesaw", "state": "GA", "street": "2689 Summers St NW", "postal_code": "30144"}, "capProviderId": null, "distance": null, "has_offers": false, "name": "Ricks Italian Beef-Sandwich", "longitude": -84.61395, "has_menu": false, "awards": null, "user_review_count": 0}, {"business_operation_status": 1, "rating": null, "neighborhood": null, "image": null, "scorecard": null, "featured": false, "sample_categories": "Restaurants", "public_id": "filimons-smyrna", "id": 825235510, "votes": null, "tagline": null, "has_video": false, "website": null, "offers": null, "latitude": 33.887574, "politanName": "Atlanta, GA Metro ", "phone_number": "6782131556", "tags": [{"primary": true, "id": 1722, "name": "Restaurants"}], "fax_number": null, "expansion": {"count": null, "uri": null}, "impression_id": "000b0000001bcefb9b54b047348381afb7c47785cb", "profile": "http://www.citysearch.com/profile/825235510/smyrna_ga/filimon_s.html", "address": {"city": "Smyrna", "state": "GA", "street": "601 Powder Springs St SE", "postal_code": "30080"}, "capProviderId": null, "distance": null, "has_offers": false, "name": "Filimon's", "longitude": -84.535901, "has_menu": false, "awards": null, "user_review_count": 0}, {"business_operation_status": 1, "rating": null, "neighborhood": null, "image": null, "scorecard": null, "featured": false, "sample_categories": "Restaurants, Pizza, Carry Out, MasterCard, Visa", "public_id": "dominos-pizza-kennesaw-2", "id": 2903801, "votes": null, "tagline": null, "has_video": false, "website": "http://www.citysearch.com/profile/external/2903801/kennesaw_ga/domino_s_pizza.html", "offers": null, "latitude": 34.051943, "politanName": "Atlanta, GA Metro ", "phone_number": "7704225545", "tags": [{"primary": false, "id": 1722, "name": "Restaurants"}, {"primary": false, "id": 11247, "name": "Carry Out"}, {"primary": false, "id": 11361, "name": "MasterCard"}, {"primary": false, "id": 11382, "name": "Visa"}, {"primary": true, "id": 11299, "name": "Pizza"}], "fax_number": null, "expansion": {"count": null, "uri": null}, "impression_id": "000b000000098e09b68e7040ffa5ddc65c7a8c0d98", "profile": "http://www.citysearch.com/profile/2903801/kennesaw_ga/domino_s_pizza.html", "address": {"city": "Kennesaw", "state": "GA", "street": "4055 Royal Dr NW", "postal_code": "30144"}, "capProviderId": null, "distance": null, "has_offers": false, "name": "Domino's Pizza", "longitude": -84.607333, "has_menu": true, "awards": null, "user_review_count": 0}, {"business_operation_status": 0, "rating": null, "neighborhood": null, "image": null, "scorecard": null, "featured": false, "sample_categories": "Restaurants", "public_id": "the-party-q-bbq-restaurant-marietta", "id": 672617170, "votes": null, "tagline": null, "has_video": false, "website": null, "offers": null, "latitude": 34.016708, "politanName": "Atlanta, GA Metro ", "phone_number": "7704242225", "tags": [{"primary": true, "id": 1722, "name": "Restaurants"}], "fax_number": null, "expansion": {"count": null, "uri": null}, "impression_id": "000b000000f6f975de48b5443bbfb1016198035789", "profile": "http://www.citysearch.com/profile/672617170/marietta_ga/the_party_q_bbq_restaurant.html", "address": {"city": "Marietta", "state": "GA", "street": "2821 Chastain Meadows Pkwy", "postal_code": "30066"}, "capProviderId": null, "distance": null, "has_offers": false, "name": "The Party Q! BBQ Restaurant", "longitude": -84.556251, "has_menu": false, "awards": null, "user_review_count": 0}, {"business_operation_status": 1, "rating": null, "neighborhood": null, "image": null, "scorecard": null, "featured": false, "sample_categories": "Restaurants, Bars & Clubs", "public_id": "cave-tapas-bar-and-lounge-kennesaw", "id": 672692320, "votes": null, "tagline": null, "has_video": false, "website": null, "offers": null, "latitude": 33.991946, "politanName": "Atlanta, GA Metro ", "phone_number": "6783917011", "tags": [{"primary": false, "id": 164, "name": "Bars & Clubs"}, {"primary": true, "id": 1722, "name": "Restaurants"}], "fax_number": null, "expansion": {"count": null, "uri": null}, "impression_id": "000b0000008657f1c2959d4ef9a979afcd0a0805a1", "profile": "http://www.citysearch.com/profile/672692320/kennesaw_ga/cave_tapas_bar_and_lounge.html", "address": {"city": "Kennesaw", "state": "GA", "street": "1619 Collins Rd NW", "postal_code": "30152"}, "capProviderId": null, "distance": null, "has_offers": false, "name": "Cave Tapas Bar and Lounge", "longitude": -84.59912, "has_menu": false, "awards": null, "user_review_count": 0}, {"business_operation_status": 1, "rating": null, "neighborhood": null, "image": null, "scorecard": null, "featured": false, "sample_categories": "Restaurants", "public_id": "la-estrella-smyrna", "id": 696217580, "votes": null, "tagline": null, "has_video": false, "website": null, "offers": null, "latitude": 33.8947, "politanName": "Atlanta, GA Metro ", "phone_number": "6782139023", "tags": [{"primary": true, "id": 1722, "name": "Restaurants"}], "fax_number": null, "expansion": {"count": null, "uri": null}, "impression_id": "000b0000006c37387db2ce4ffc8d8434339265ac23", "profile": "http://www.citysearch.com/profile/696217580/smyrna_ga/la_estrella.html", "address": {"city": "Smyrna", "state": "GA", "street": "575 Windy Hill Rd Se", "postal_code": "30080"}, "capProviderId": null, "distance": null, "has_offers": false, "name": "La Estrella", "longitude": -84.536544, "has_menu": false, "awards": null, "user_review_count": 0}, {"business_operation_status": 1, "rating": null, "neighborhood": null, "image": null, "scorecard": null, "featured": false, "sample_categories": "Restaurants, Food Service Management", "public_id": "eurest-dining-svc-kennesaw", "id": 713450320, "votes": null, "tagline": null, "has_video": false, "website": "http://www.citysearch.com/profile/external/713450320/kennesaw_ga/eurest_dining_svc.html", "offers": null, "latitude": 34.042682, "politanName": "Atlanta, GA Metro ", "phone_number": "7704204166", "tags": [{"primary": false, "id": 11120, "name": "Food Service Management"}, {"primary": true, "id": 1722, "name": "Restaurants"}], "fax_number": null, "expansion": {"count": null, "uri": null}, "impression_id": "000b000000f3acc1ef289940d682eb0e8f1e638ede", "profile": "http://www.citysearch.com/profile/713450320/kennesaw_ga/eurest_dining_svc.html", "address": {"city": "Kennesaw", "state": "GA", "street": "210 Townpark Dr NW", "postal_code": "30144"}, "capProviderId": null, "distance": null, "has_offers": false, "name": "Eurest Dining SVC", "longitude": -84.569868, "has_menu": false, "awards": null, "user_review_count": 0}, {"business_operation_status": 1, "rating": null, "neighborhood": null, "image": null, "scorecard": null, "featured": false, "sample_categories": "Doughnut Shops, Coffeehouses", "public_id": "dunkin-doughnuts-kennesaw", "id": 713552210, "votes": null, "tagline": null, "has_video": false, "website": "http://www.citysearch.com/profile/external/713552210/kennesaw_ga/dunkin_doughnuts.html", "offers": null, "latitude": 34.032508, "politanName": "Atlanta, GA Metro ", "phone_number": "7709749717", "tags": [{"primary": false, "id": 1726, "name": "Coffeehouses"}, {"primary": true, "id": 1734, "name": "Doughnut Shops"}], "fax_number": null, "expansion": {"count": null, "uri": null}, "impression_id": "000b00000072a29582661143789ec3371d382371d8", "profile": "http://www.citysearch.com/profile/713552210/kennesaw_ga/dunkin_doughnuts.html", "address": {"city": "Kennesaw", "state": "GA", "street": "3160 Cobb Pkwy NW", "postal_code": "30152"}, "capProviderId": null, "distance": null, "has_offers": false, "name": "Dunkin Doughnuts", "longitude": -84.673299, "has_menu": false, "awards": null, "user_review_count": 0}, {"business_operation_status": 1, "rating": null, "neighborhood": null, "image": null, "scorecard": null, "featured": false, "sample_categories": "Restaurants", "public_id": "volcano-steak-sushi-acworth", "id": 625057854, "votes": null, "tagline": null, "has_video": false, "website": null, "offers": null, "latitude": 33.99646, "politanName": "Atlanta, GA Metro ", "phone_number": "7704209888", "tags": [{"primary": true, "id": 1722, "name": "Restaurants"}], "fax_number": null, "expansion": {"count": null, "uri": null}, "impression_id": "000b000000328492ab26784cd59bf7fa4508634d40", "profile": "http://www.citysearch.com/profile/625057854/acworth_ga/volcano_steak_sushi.html", "address": {"city": "Acworth", "state": "GA", "street": "1720 Mars Hill Rd NW", "postal_code": "30101"}, "capProviderId": null, "distance": null, "has_offers": false, "name": "Volcano Steak & Sushi", "longitude": -84.70439, "has_menu": false, "awards": null, "user_review_count": 0}, {"business_operation_status": 1, "rating": null, "neighborhood": null, "image": null, "scorecard": null, "featured": false, "sample_categories": "Restaurants, Grocery Stores", "public_id": "shivam-marietta", "id": 638803240, "votes": null, "tagline": null, "has_video": false, "website": null, "offers": null, "latitude": 33.998509, "politanName": "Atlanta, GA Metro ", "phone_number": "7709717448", "tags": [{"primary": false, "id": 1713, "name": "Grocery Stores"}, {"primary": true, "id": 1722, "name": "Restaurants"}], "fax_number": null, "expansion": {"count": null, "uri": null}, "impression_id": "000b0000005af62a4a7cfc420088e0e270371949ab", "profile": "http://www.citysearch.com/profile/638803240/marietta_ga/shivam.html", "address": {"city": "Marietta", "state": "GA", "street": "1338 Eastbrooke Trce", "postal_code": "30066"}, "capProviderId": null, "distance": null, "has_offers": false, "name": "Shivam", "longitude": -84.505954, "has_menu": false, "awards": null, "user_review_count": 0}, {"business_operation_status": 1, "rating": null, "neighborhood": null, "image": null, "scorecard": null, "featured": false, "sample_categories": "Restaurants, Cafes", "public_id": "reveille-cafe-acworth", "id": 751333550, "votes": null, "tagline": null, "has_video": false, "website": null, "offers": null, "latitude": 33.998289, "politanName": "Atlanta, GA Metro ", "phone_number": "7706351900", "tags": [{"primary": false, "id": 6190, "name": "Cafes"}, {"primary": true, "id": 1722, "name": "Restaurants"}], "fax_number": null, "expansion": {"count": null, "uri": null}, "impression_id": "000b000000f5023935133546688965eb2d7f5375e1", "profile": "http://www.citysearch.com/profile/751333550/acworth_ga/reveille_cafe.html", "address": {"city": "Acworth", "state": "GA", "street": "5330 Brookstone Dr NW # 210", "postal_code": "30101"}, "capProviderId": null, "distance": null, "has_offers": false, "name": "Reveille Cafe", "longitude": -84.710018, "has_menu": false, "awards": null, "user_review_count": 0}], "histograms": [], "tag_ids": [1722], "uri": "http://api.citygridmedia.com:8080/search/places/v2/search/where?has_offers=false&type=restaurant&format=json&page=31&where=30064&rpp=50&histograms=false&publisher=10000009598&region_type=circle", "did_you_mean": "", "regions": [{"latitude": 33.938860999999996, "default_radius": 5.31, "type": "postal_code", "name": "30064", "longitude": -84.614086}], "call_id": "000b000000bd442d2c02f345539c9c42b7b88d453b", "first_hit": 1501, "total_hits": 1588, "geo_ids": [26293], "page": 31, "last_hit": 1550}}