{"results": {"rpp": 50, "locations": [{"business_operation_status": 1, "rating": null, "neighborhood": null, "image": null, "scorecard": null, "featured": false, "sample_categories": "Coffeehouses", "public_id": "ashley-cooper-coffee-marietta", "id": 816560520, "votes": null, "tagline": null, "has_video": false, "website": null, "offers": null, "latitude": 33.970881, "politanName": "Atlanta, GA Metro ", "phone_number": "7704229615", "tags": [{"primary": true, "id": 1726, "name": "Coffeehouses"}], "fax_number": null, "expansion": {"count": null, "uri": null}, "impression_id": "000b000000a3f32f052166471d8eed01b894e54c29", "profile": "http://www.citysearch.com/profile/816560520/marietta_ga/ashley_cooper_coffee.html", "address": {"city": "Marietta", "state": "GA", "street": "829 Pickens Industrial Dr # 11", "postal_code": "30062"}, "capProviderId": null, "distance": null, "has_offers": false, "name": "Ashley Cooper Coffee", "longitude": -84.525365, "has_menu": false, "awards": null, "user_review_count": 0}, {"business_operation_status": 1, "rating": null, "neighborhood": null, "image": null, "scorecard": null, "featured": false, "sample_categories": "Restaurants", "public_id": "jps-oyster-bar-woodstock", "id": 817161350, "votes": null, "tagline": null, "has_video": false, "website": null, "offers": null, "latitude": 34.107712, "politanName": "Atlanta, GA Metro ", "phone_number": "7705919879", "tags": [{"primary": true, "id": 1722, "name": "Restaurants"}], "fax_number": null, "expansion": {"count": null, "uri": null}, "impression_id": "000b00000094a639ab5b2245f09ba25a30e9fc8b07", "profile": "http://www.citysearch.com/profile/817161350/woodstock_ga/jp_s_oyster_bar.html", "address": {"city": "Woodstock", "state": "GA", "street": "1105 Parkside Ln", "postal_code": "30189"}, "capProviderId": null, "distance": null, "has_offers": false, "name": "Jp's Oyster Bar", "longitude": -84.553184, "has_menu": false, "awards": null, "user_review_count": 0}, {"business_operation_status": 1, "rating": null, "neighborhood": null, "image": null, "scorecard": null, "featured": false, "sample_categories": "Restaurants, Pizza", "public_id": "amore-pizza-roswell", "id": 822108460, "votes": null, "tagline": null, "has_video": false, "website": null, "offers": null, "latitude": 34.042379, "politanName": "Atlanta, GA Metro ", "phone_number": "7705873570", "tags": [{"primary": false, "id": 1722, "name": "Restaurants"}, {"primary": true, "id": 11299, "name": "Pizza"}], "fax_number": null, "expansion": {"count": null, "uri": null}, "impression_id": "000b000000885a646aed874538a8634a2d735c48ba", "profile": "http://www.citysearch.com/profile/822108460/roswell_ga/amore_pizza.html", "address": {"city": "Roswell", "state": "GA", "street": "180 Shelli Ln", "postal_code": "30075"}, "capProviderId": null, "distance": null, "has_offers": false, "name": "Amore Pizza", "longitude": -84.361548, "has_menu": false, "awards": null, "user_review_count": 0}, {"business_operation_status": 1, "rating": null, "neighborhood": null, "image": null, "scorecard": null, "featured": false, "sample_categories": "Restaurants", "public_id": "pwp-east-roswell", "id": 823630890, "votes": null, "tagline": null, "has_video": false, "website": null, "offers": null, "latitude": 34.047996, "politanName": "Atlanta, GA Metro ", "phone_number": "7706144092", "tags": [{"primary": true, "id": 1722, "name": "Restaurants"}], "fax_number": null, "expansion": {"count": null, "uri": null}, "impression_id": "000b00000071bdcb5e26074691bef1a76539a52b4e", "profile": "http://www.citysearch.com/profile/823630890/roswell_ga/pwp_east.html", "address": {"city": "Roswell", "state": "GA", "street": "100 Pasifino Pl", "postal_code": "30075"}, "capProviderId": null, "distance": null, "has_offers": false, "name": "PWP East", "longitude": -84.387169, "has_menu": false, "awards": null, "user_review_count": 0}, {"business_operation_status": 1, "rating": null, "neighborhood": null, "image": null, "scorecard": null, "featured": false, "sample_categories": "Restaurants", "public_id": "mediterranean-buffet-acworth", "id": 824951910, "votes": null, "tagline": null, "has_video": false, "website": null, "offers": null, "latitude": 34.081615, "politanName": "Atlanta, GA Metro ", "phone_number": "7705171340", "tags": [{"primary": true, "id": 1722, "name": "Restaurants"}], "fax_number": null, "expansion": {"count": null, "uri": null}, "impression_id": "000b00000070e08eb1aad04ad7bf79c8d828287546", "profile": "http://www.citysearch.com/profile/824951910/acworth_ga/mediterranean_buffet.html", "address": {"city": "Acworth", "state": "GA", "street": "5399 Bells Ferry Rd # 100", "postal_code": "30102"}, "capProviderId": null, "distance": null, "has_offers": false, "name": "Mediterranean Buffet", "longitude": -84.575225, "has_menu": false, "awards": null, "user_review_count": 0}, {"business_operation_status": 1, "rating": null, "neighborhood": null, "image": null, "scorecard": null, "featured": false, "sample_categories": "Restaurants", "public_id": "restaurants-institutions-roswell", "id": 825668930, "votes": null, "tagline": null, "has_video": false, "website": null, "offers": null, "latitude": 34.069224, "politanName": "Atlanta, GA Metro ", "phone_number": "6784614063", "tags": [{"primary": true, "id": 1722, "name": "Restaurants"}], "fax_number": null, "expansion": {"count": null, "uri": null}, "impression_id": "000b00000069a537dc27dc46f4a136bf807705aaa5", "profile": "http://www.citysearch.com/profile/825668930/roswell_ga/restaurants_institutions.html", "address": {"city": "Roswell", "state": "GA", "street": "1985 Trotters Ridge Way", "postal_code": "30075"}, "capProviderId": null, "distance": null, "has_offers": false, "name": "Restaurants & Institutions", "longitude": -84.417897, "has_menu": false, "awards": null, "user_review_count": 0}, {"business_operation_status": 1, "rating": null, "neighborhood": null, "image": null, "scorecard": null, "featured": false, "sample_categories": "Restaurants", "public_id": "el-herradero-mexican-rstrnt-kennesaw", "id": 824483720, "votes": null, "tagline": null, "has_video": false, "website": null, "offers": null, "latitude": 34.014345, "politanName": "Atlanta, GA Metro ", "phone_number": "7704231213", "tags": [{"primary": true, "id": 1722, "name": "Restaurants"}], "fax_number": null, "expansion": {"count": null, "uri": null}, "impression_id": "000b000000e0f2ab49fb75482089482e31d84617f1", "profile": "http://www.citysearch.com/profile/824483720/kennesaw_ga/el_herradero_mexican_rstrnt.html", "address": {"city": "Kennesaw", "state": "GA", "street": "2479 Cobb Pkwy NW", "postal_code": "30152"}, "capProviderId": null, "distance": null, "has_offers": false, "name": "El Herradero Mexican Rstrnt", "longitude": -84.614253, "has_menu": false, "awards": null, "user_review_count": 0}, {"business_operation_status": 1, "rating": null, "neighborhood": null, "image": null, "scorecard": null, "featured": false, "sample_categories": "Restaurants", "public_id": "fishbowl-asian-bistro-inc-roswell", "id": 824437860, "votes": null, "tagline": null, "has_video": false, "website": null, "offers": null, "latitude": 34.047226, "politanName": "Atlanta, GA Metro ", "phone_number": "6784618765", "tags": [{"primary": true, "id": 1722, "name": "Restaurants"}], "fax_number": null, "expansion": {"count": null, "uri": null}, "impression_id": "000b000000ef2029d6f644476baa2d98e9209140d4", "profile": "http://www.citysearch.com/profile/824437860/roswell_ga/fishbowl_asian_bistro_inc.html", "address": {"city": "Roswell", "state": "GA", "street": "10930 Crabapple Rd # 5", "postal_code": "30075"}, "capProviderId": null, "distance": null, "has_offers": false, "name": "Fishbowl Asian Bistro Inc", "longitude": -84.362959, "has_menu": false, "awards": null, "user_review_count": 0}, {"business_operation_status": 1, "rating": null, "neighborhood": null, "image": null, "scorecard": null, "featured": false, "sample_categories": "Restaurants", "public_id": "ocho-rios-jamaican-cuisine-roswell", "id": 825268650, "votes": null, "tagline": null, "has_video": false, "website": null, "offers": null, "latitude": 34.031486, "politanName": "Atlanta, GA Metro ", "phone_number": "7709921551", "tags": [{"primary": true, "id": 1722, "name": "Restaurants"}], "fax_number": null, "expansion": {"count": null, "uri": null}, "impression_id": "000b00000006c6fb65308d49f4bbacd53be9dc6ec9", "profile": "http://www.citysearch.com/profile/825268650/roswell_ga/ocho_rios_jamaican_cuisine.html", "address": {"city": "Roswell", "state": "GA", "street": "1255 Grimes Bridge Rd # C", "postal_code": "30075"}, "capProviderId": null, "distance": null, "has_offers": false, "name": "Ocho Rios Jamaican Cuisine", "longitude": -84.3411, "has_menu": true, "awards": null, "user_review_count": 0}, {"business_operation_status": 1, "rating": null, "neighborhood": null, "image": null, "scorecard": null, "featured": false, "sample_categories": "Restaurants", "public_id": "deli-planet-kennesaw", "id": 828070300, "votes": null, "tagline": null, "has_video": false, "website": null, "offers": null, "latitude": 34.012738, "politanName": "Atlanta, GA Metro ", "phone_number": "6783035062", "tags": [{"primary": true, "id": 1722, "name": "Restaurants"}], "fax_number": null, "expansion": {"count": null, "uri": null}, "impression_id": "000b000000f83582df3464430db852cc89cb8d9b49", "profile": "http://www.citysearch.com/profile/828070300/kennesaw_ga/deli_planet.html", "address": {"city": "Kennesaw", "state": "GA", "street": "440 Ernest W Barrett Pkwy NW", "postal_code": "30144"}, "capProviderId": null, "distance": null, "has_offers": false, "name": "Deli Planet", "longitude": -84.5643, "has_menu": false, "awards": null, "user_review_count": 0}, {"business_operation_status": 1, "rating": null, "neighborhood": null, "image": null, "scorecard": null, "featured": false, "sample_categories": "Doughnut Shops", "public_id": "devs-donuts-marietta", "id": 826828870, "votes": null, "tagline": null, "has_video": false, "website": null, "offers": null, "latitude": 33.901077, "politanName": "Atlanta, GA Metro ", "phone_number": "7607025007", "tags": [{"primary": true, "id": 1734, "name": "Doughnut Shops"}], "fax_number": null, "expansion": {"count": null, "uri": null}, "impression_id": "000b0000009283bb096e1947dabdf135b7512a4611", "profile": "http://www.citysearch.com/profile/826828870/marietta_ga/dev_s_donuts.html", "address": {"city": "Marietta", "state": "GA", "street": "1812 Pdr Spgs Rd SW # 2115", "postal_code": "30064"}, "capProviderId": null, "distance": null, "has_offers": false, "name": "Dev's Donuts", "longitude": -84.606768, "has_menu": false, "awards": null, "user_review_count": 0}, {"business_operation_status": 1, "rating": null, "neighborhood": null, "image": null, "scorecard": null, "featured": false, "sample_categories": "Restaurants, Mexican, Carry Out", "public_id": "chipotle-mexican-grill-kennesaw", "id": 766807240, "votes": null, "tagline": null, "has_video": false, "website": "http://www.citysearch.com/profile/external/766807240/kennesaw_ga/chipotle_mexican_grill.html", "offers": null, "latitude": 34.019128, "politanName": "Atlanta, GA Metro ", "phone_number": "6782797996", "tags": [{"primary": false, "id": 11208, "name": "Mexican"}, {"primary": false, "id": 11247, "name": "Carry Out"}, {"primary": true, "id": 1722, "name": "Restaurants"}], "fax_number": null, "expansion": {"count": null, "uri": null}, "impression_id": "000b0000000b231c19a21d46c7b39c92b21877f0f0", "profile": "http://www.citysearch.com/profile/766807240/kennesaw_ga/chipotle_mexican_grill.html", "address": {"city": "Kennesaw", "state": "GA", "street": "964 Ernest W Barrett Pkwy NW", "postal_code": "30144"}, "capProviderId": null, "distance": null, "has_offers": false, "name": "Chipotle Mexican Grill", "longitude": -84.563608, "has_menu": false, "awards": null, "user_review_count": 0}, {"business_operation_status": 0, "rating": null, "neighborhood": null, "image": null, "scorecard": null, "featured": false, "sample_categories": "Restaurants, Convenience Stores", "public_id": "pantry-marietta", "id": 777697380, "votes": null, "tagline": null, "has_video": false, "website": null, "offers": null, "latitude": 33.970591, "politanName": "Atlanta, GA Metro ", "phone_number": "7704198988", "tags": [{"primary": false, "id": 1714, "name": "Convenience Stores"}, {"primary": true, "id": 1722, "name": "Restaurants"}], "fax_number": null, "expansion": {"count": null, "uri": null}, "impression_id": "000b000000207ebc90c1a84ae0ae91fefd46fdbaa7", "profile": "http://www.citysearch.com/profile/777697380/marietta_ga/pantry.html", "address": {"city": "Marietta", "state": "GA", "street": "790 Church St Ne # 210", "postal_code": "30060"}, "capProviderId": null, "distance": null, "has_offers": false, "name": "Pantry", "longitude": -84.550288, "has_menu": false, "awards": null, "user_review_count": 0}, {"business_operation_status": 1, "rating": null, "neighborhood": null, "image": null, "scorecard": null, "featured": false, "sample_categories": "Restaurants, Barbecue Restaurants, Carry Out", "public_id": "gem-city-wings-marietta", "id": 777757950, "votes": null, "tagline": null, "has_video": false, "website": null, "offers": null, "latitude": 33.95115, "politanName": "Atlanta, GA Metro ", "phone_number": "6784027331", "tags": [{"primary": false, "id": 1724, "name": "Barbecue Restaurants"}, {"primary": false, "id": 11247, "name": "Carry Out"}, {"primary": true, "id": 1722, "name": "Restaurants"}], "fax_number": null, "expansion": {"count": null, "uri": null}, "impression_id": "000b000000f26d37cede2843c68c4714431a270865", "profile": "http://www.citysearch.com/profile/777757950/marietta_ga/gem_city_wings.html", "address": {"city": "Marietta", "state": "GA", "street": "20 N Fairground St Ne", "postal_code": "30060"}, "capProviderId": null, "distance": null, "has_offers": false, "name": "Gem City Wings", "longitude": -84.535474, "has_menu": false, "awards": null, "user_review_count": 0}, {"business_operation_status": 1, "rating": null, "neighborhood": null, "image": null, "scorecard": null, "featured": false, "sample_categories": "Restaurants, Bars & Clubs", "public_id": "highlands-grill-sports-tvrn-kennesaw", "id": 787112570, "votes": null, "tagline": null, "has_video": false, "website": null, "offers": null, "latitude": 34.013172, "politanName": "Atlanta, GA Metro ", "phone_number": "7704261515", "tags": [{"primary": false, "id": 164, "name": "Bars & Clubs"}, {"primary": true, "id": 1722, "name": "Restaurants"}], "fax_number": null, "expansion": {"count": null, "uri": null}, "impression_id": "000b000000bc1aff133d524846a3b74c0e498ddca7", "profile": "http://www.citysearch.com/profile/787112570/kennesaw_ga/highlands_grill_sports_tvrn.html", "address": {"city": "Kennesaw", "state": "GA", "street": "2615 George Busbee Pkwy NW # 2", "postal_code": "30144"}, "capProviderId": null, "distance": null, "has_offers": false, "name": "Highlands Grill & Sports Tvrn", "longitude": -84.567215, "has_menu": false, "awards": null, "user_review_count": 0}, {"business_operation_status": 1, "rating": null, "neighborhood": null, "image": null, "scorecard": null, "featured": false, "sample_categories": "Restaurants, Traditional American", "public_id": "buffalos-southwest-cafe-kennesaw", "id": 787114370, "votes": null, "tagline": null, "has_video": false, "website": null, "offers": null, "latitude": 34.004386, "politanName": "Atlanta, GA Metro ", "phone_number": "7704392831", "tags": [{"primary": false, "id": 11190, "name": "Traditional American"}, {"primary": true, "id": 1722, "name": "Restaurants"}], "fax_number": null, "expansion": {"count": null, "uri": null}, "impression_id": "000b000000428282d20ac54557a9a1a3879c82871c", "profile": "http://www.citysearch.com/profile/787114370/kennesaw_ga/buffalo_s_southwest_cafe.html", "address": {"city": "Kennesaw", "state": "GA", "street": "4079 Stephanie Ct NW", "postal_code": "30152"}, "capProviderId": null, "distance": null, "has_offers": false, "name": "Buffalo's Southwest Cafe", "longitude": -84.670496, "has_menu": false, "awards": null, "user_review_count": 0}, {"business_operation_status": 1, "rating": null, "neighborhood": null, "image": null, "scorecard": null, "featured": false, "sample_categories": "Cafes", "public_id": "market-cafe-acworth", "id": 787133180, "votes": null, "tagline": null, "has_video": false, "website": null, "offers": null, "latitude": 34.08686, "politanName": "Atlanta, GA Metro ", "phone_number": "6783601802", "tags": [{"primary": true, "id": 6190, "name": "Cafes"}], "fax_number": null, "expansion": {"count": null, "uri": null}, "impression_id": "000b000000e0859fe781ed46ba9f86523e32cfea16", "profile": "http://www.citysearch.com/profile/787133180/acworth_ga/market_cafe.html", "address": {"city": "Acworth", "state": "GA", "street": "5500 Bells Ferry Rd", "postal_code": "30102"}, "capProviderId": null, "distance": null, "has_offers": false, "name": "Market Cafe", "longitude": -84.576418, "has_menu": false, "awards": null, "user_review_count": 0}, {"business_operation_status": 1, "rating": null, "neighborhood": null, "image": null, "scorecard": null, "featured": false, "sample_categories": "Restaurants, Pizza", "public_id": "marcos-pizza-roswell-2", "id": 793364130, "votes": null, "tagline": null, "has_video": false, "website": "http://www.citysearch.com/profile/external/793364130/roswell_ga/marco_s_pizza.html", "offers": null, "latitude": 34.073059, "politanName": "Atlanta, GA Metro ", "phone_number": "6785027525", "tags": [{"primary": false, "id": 1722, "name": "Restaurants"}, {"primary": true, "id": 11299, "name": "Pizza"}], "fax_number": null, "expansion": {"count": null, "uri": null}, "impression_id": "000b00000008dd06e986294ac6a28f3b8884594b95", "profile": "http://www.citysearch.com/profile/793364130/roswell_ga/marco_s_pizza.html", "address": {"city": "Roswell", "state": "GA", "street": "12030 Etris Rd", "postal_code": "30075"}, "capProviderId": null, "distance": null, "has_offers": false, "name": "Marco's Pizza", "longitude": -84.361465, "has_menu": true, "awards": null, "user_review_count": 0}, {"business_operation_status": 1, "rating": null, "neighborhood": null, "image": null, "scorecard": null, "featured": false, "sample_categories": "Restaurants, Italian", "public_id": "osteria-mattone-restaurant-roswell", "id": 798850960, "votes": null, "tagline": null, "has_video": false, "website": "http://www.citysearch.com/profile/external/798850960/roswell_ga/osteria_mattone_restaurant.html", "offers": null, "latitude": 34.028478, "politanName": "Atlanta, GA Metro ", "phone_number": "6788783378", "tags": [{"primary": false, "id": 11279, "name": "Italian"}, {"primary": true, "id": 1722, "name": "Restaurants"}], "fax_number": null, "expansion": {"count": null, "uri": null}, "impression_id": "000b0000000e106095eb7d425ca795476f5a0b0ba5", "profile": "http://www.citysearch.com/profile/798850960/roswell_ga/osteria_mattone_restaurant.html", "address": {"city": "Roswell", "state": "GA", "street": "1095 Canton St", "postal_code": "30075"}, "capProviderId": null, "distance": null, "has_offers": false, "name": "Osteria Mattone Restaurant", "longitude": -84.360902, "has_menu": true, "awards": null, "user_review_count": 0}, {"business_operation_status": 1, "rating": null, "neighborhood": null, "image": null, "scorecard": null, "featured": false, "sample_categories": "Restaurants", "public_id": "whichwich-llc-marietta", "id": 801142990, "votes": null, "tagline": null, "has_video": false, "website": "http://www.citysearch.com/profile/external/801142990/marietta_ga/whichwich_superior_sandwiches.html", "offers": null, "latitude": 33.984638, "politanName": "Atlanta, GA Metro ", "phone_number": "7703219424", "tags": [{"primary": true, "id": 1722, "name": "Restaurants"}], "fax_number": null, "expansion": {"count": null, "uri": null}, "impression_id": "000b000000c1848b4557e14d4ca8fe8279c220a167", "profile": "http://www.citysearch.com/profile/801142990/marietta_ga/whichwich_superior_sandwiches.html", "address": {"city": "Marietta", "state": "GA", "street": "1401 Johnson Ferry Rd Ste 310", "postal_code": "30062"}, "capProviderId": null, "distance": null, "has_offers": false, "name": "WhichWich Superior Sandwiches", "longitude": -84.427737, "has_menu": false, "awards": null, "user_review_count": 0}, {"business_operation_status": 1, "rating": null, "neighborhood": null, "image": null, "scorecard": null, "featured": false, "sample_categories": "Restaurants", "public_id": "taqueria-la-villa-marietta", "id": 816057700, "votes": null, "tagline": null, "has_video": false, "website": null, "offers": null, "latitude": 33.969085, "politanName": "Atlanta, GA Metro ", "phone_number": "7705908887", "tags": [{"primary": true, "id": 1722, "name": "Restaurants"}], "fax_number": null, "expansion": {"count": null, "uri": null}, "impression_id": "000b000000407c1d2c01c444da9cde3ed1356bb06c", "profile": "http://www.citysearch.com/profile/816057700/marietta_ga/taqueria_la_villa.html", "address": {"city": "Marietta", "state": "GA", "street": "745 Cobb Pkwy N", "postal_code": "30062"}, "capProviderId": null, "distance": null, "has_offers": false, "name": "Taqueria La Villa", "longitude": -84.538349, "has_menu": false, "awards": null, "user_review_count": 0}, {"business_operation_status": 1, "rating": null, "neighborhood": null, "image": null, "scorecard": null, "featured": false, "sample_categories": "Restaurants", "public_id": "1848-house-marietta", "id": 816308800, "votes": null, "tagline": null, "has_video": false, "website": null, "offers": null, "latitude": 33.934909, "politanName": "Atlanta, GA Metro ", "phone_number": "7704281848", "tags": [{"primary": true, "id": 1722, "name": "Restaurants"}], "fax_number": null, "expansion": {"count": null, "uri": null}, "impression_id": "000b000000810847aec8de4675a7bbaed3a465bf00", "profile": "http://www.citysearch.com/profile/816308800/marietta_ga/1848_house.html", "address": {"city": "Marietta", "state": "GA", "street": "780 S Cobb Dr SE", "postal_code": "30060"}, "capProviderId": null, "distance": null, "has_offers": false, "name": "1848 House", "longitude": -84.547956, "has_menu": false, "awards": null, "user_review_count": 1}, {"business_operation_status": 1, "rating": null, "neighborhood": null, "image": null, "scorecard": null, "featured": false, "sample_categories": "Restaurants, American Express, Discover, MasterCard, Visa", "public_id": "chilitos-kennesaw-2", "id": 605578100, "votes": null, "tagline": null, "has_video": false, "website": null, "offers": null, "latitude": 34.035364, "politanName": "Atlanta, GA Metro ", "phone_number": "6783546660", "tags": [{"primary": false, "id": 11333, "name": "American Express"}, {"primary": false, "id": 11349, "name": "Discover"}, {"primary": false, "id": 11361, "name": "MasterCard"}, {"primary": false, "id": 11382, "name": "Visa"}, {"primary": true, "id": 1722, "name": "Restaurants"}], "fax_number": null, "expansion": {"count": null, "uri": null}, "impression_id": "000b0000003da59e604dd74d6e915fb3c410f4a7b9", "profile": "http://www.citysearch.com/profile/605578100/kennesaw_ga/chilitos.html", "address": {"city": "Kennesaw", "state": "GA", "street": "745 Chastain Rd Nw # 2020", "postal_code": "30144"}, "capProviderId": null, "distance": null, "has_offers": false, "name": "Chilitos", "longitude": -84.570141, "has_menu": true, "awards": null, "user_review_count": 0}, {"business_operation_status": 1, "rating": null, "neighborhood": null, "image": null, "scorecard": null, "featured": false, "sample_categories": "Restaurants", "public_id": "c-gs-deli-dallas", "id": 826657680, "votes": null, "tagline": null, "has_video": false, "website": null, "offers": null, "latitude": 33.956809, "politanName": "Atlanta, GA Metro ", "phone_number": "7705053500", "tags": [{"primary": true, "id": 1722, "name": "Restaurants"}], "fax_number": null, "expansion": {"count": null, "uri": null}, "impression_id": "000b000000e336fa03a8d540cd85d672fd8197f9ca", "profile": "http://www.citysearch.com/profile/826657680/dallas_ga/c_g_s_deli.html", "address": {"city": "Dallas", "state": "GA", "street": "4201 Dallas Acworth Hwy", "postal_code": "30132"}, "capProviderId": null, "distance": null, "has_offers": false, "name": "C & G's Deli", "longitude": -84.791704, "has_menu": false, "awards": null, "user_review_count": 0}, {"business_operation_status": 0, "rating": null, "neighborhood": null, "image": null, "scorecard": null, "featured": false, "sample_categories": "Restaurants", "public_id": "big-daddy-q-woodstock", "id": 713381470, "votes": null, "tagline": null, "has_video": false, "website": null, "offers": null, "latitude": 34.117933, "politanName": "Atlanta, GA Metro ", "phone_number": "7706931099", "tags": [{"primary": true, "id": 1722, "name": "Restaurants"}], "fax_number": null, "expansion": {"count": null, "uri": null}, "impression_id": "000b0000006d05138e0caf4430858de9134dffb424", "profile": "http://www.citysearch.com/profile/713381470/woodstock_ga/big_daddy_q.html", "address": {"city": "Woodstock", "state": "GA", "street": "514 Arnold Mill Rd # C", "postal_code": "30188"}, "capProviderId": null, "distance": null, "has_offers": false, "name": "Big Daddy Q", "longitude": -84.469363, "has_menu": false, "awards": null, "user_review_count": 0}, {"business_operation_status": 1, "rating": null, "neighborhood": null, "image": null, "scorecard": null, "featured": false, "sample_categories": "Juice & Smoothie Shops", "public_id": "fit-juice-bar-llc-kennesaw", "id": 713624290, "votes": null, "tagline": null, "has_video": false, "website": null, "offers": null, "latitude": 34.058322, "politanName": "Atlanta, GA Metro ", "phone_number": "7704220412", "tags": [{"primary": true, "id": 1735, "name": "Juice & Smoothie Shops"}], "fax_number": null, "expansion": {"count": null, "uri": null}, "impression_id": "000b000000bed74850744e480db796caccaaf0bfd6", "profile": "http://www.citysearch.com/profile/713624290/kennesaw_ga/fit_juice_bar_llc.html", "address": {"city": "Kennesaw", "state": "GA", "street": "4200 Wade Green Rd NW", "postal_code": "30144"}, "capProviderId": null, "distance": null, "has_offers": false, "name": "Fit Juice Bar LLC", "longitude": -84.590676, "has_menu": false, "awards": null, "user_review_count": 0}, {"business_operation_status": 1, "rating": null, "neighborhood": null, "image": null, "scorecard": null, "featured": false, "sample_categories": "Restaurants, Bakeries", "public_id": "your-pie-roswell", "id": 713646250, "votes": null, "tagline": null, "has_video": false, "website": "http://www.citysearch.com/profile/external/713646250/roswell_ga/your_pie.html", "offers": null, "latitude": 34.060259, "politanName": "Atlanta, GA Metro ", "phone_number": "7709937944", "tags": [{"primary": false, "id": 1685, "name": "Bakeries"}, {"primary": true, "id": 1722, "name": "Restaurants"}], "fax_number": null, "expansion": {"count": null, "uri": null}, "impression_id": "000b0000003799905b85b14a54ad7051557f47c6a3", "profile": "http://www.citysearch.com/profile/713646250/roswell_ga/your_pie.html", "address": {"city": "Roswell", "state": "GA", "street": "625 W Crossville Rd # 110", "postal_code": "30075"}, "capProviderId": null, "distance": null, "has_offers": false, "name": "Your Pie", "longitude": -84.381351, "has_menu": false, "awards": null, "user_review_count": 0}, {"business_operation_status": 1, "rating": null, "neighborhood": null, "image": null, "scorecard": null, "featured": false, "sample_categories": "Restaurants", "public_id": "beyond-the-box-designs-inc-marietta", "id": 713390380, "votes": null, "tagline": null, "has_video": false, "website": "http://www.citysearch.com/profile/external/713390380/marietta_ga/beyond_the_box_designs_inc.html", "offers": null, "latitude": 33.950732, "politanName": "Atlanta, GA Metro ", "phone_number": "7704898198", "tags": [{"primary": true, "id": 1722, "name": "Restaurants"}], "fax_number": null, "expansion": {"count": null, "uri": null}, "impression_id": "000b0000004f7f4b9ed7ab4a64aad2c4626ba46671", "profile": "http://www.citysearch.com/profile/713390380/marietta_ga/beyond_the_box_designs_inc.html", "address": {"city": "Marietta", "state": "GA", "street": "515 Roswell St Ne", "postal_code": "30060"}, "capProviderId": null, "distance": null, "has_offers": false, "name": "Beyond The Box Designs INC", "longitude": -84.537203, "has_menu": false, "awards": null, "user_review_count": 0}, {"business_operation_status": 1, "rating": null, "neighborhood": null, "image": null, "scorecard": null, "featured": false, "sample_categories": "Restaurants", "public_id": "first-watch-kennesaw", "id": 617566284, "votes": null, "tagline": null, "has_video": false, "website": "http://www.citysearch.com/profile/external/617566284/kennesaw_ga/first_watch.html", "offers": null, "latitude": 34.048547, "politanName": "Atlanta, GA Metro ", "phone_number": "6784017431", "tags": [{"primary": true, "id": 1722, "name": "Restaurants"}], "fax_number": null, "expansion": {"count": null, "uri": null}, "impression_id": "000b000000c85b9dfad8554d6bb2a39367becde3fb", "profile": "http://www.citysearch.com/profile/617566284/kennesaw_ga/first_watch.html", "address": {"city": "Kennesaw", "state": "GA", "street": "3815 Cherokee St NW", "postal_code": "30144"}, "capProviderId": null, "distance": null, "has_offers": false, "name": "First Watch", "longitude": -84.598764, "has_menu": false, "awards": null, "user_review_count": 0}, {"business_operation_status": 1, "rating": null, "neighborhood": null, "image": null, "scorecard": null, "featured": false, "sample_categories": "Restaurants, Hamburgers", "public_id": "smashburger-kennesaw", "id": 739079670, "votes": null, "tagline": null, "has_video": false, "website": null, "offers": null, "latitude": 34.014321, "politanName": "Atlanta, GA Metro ", "phone_number": "7704274141", "tags": [{"primary": false, "id": 11270, "name": "Hamburgers"}, {"primary": true, "id": 1722, "name": "Restaurants"}], "fax_number": null, "expansion": {"count": null, "uri": null}, "impression_id": "000b0000008a9cb4705ace4bdc87abf409b00bc7da", "profile": "http://www.citysearch.com/profile/739079670/kennesaw_ga/smashburger.html", "address": {"city": "Kennesaw", "state": "GA", "street": "440 Ernest W Barrett Pkwy NW", "postal_code": "30144"}, "capProviderId": null, "distance": null, "has_offers": false, "name": "Smashburger", "longitude": -84.562111, "has_menu": false, "awards": null, "user_review_count": 0}, {"business_operation_status": 1, "rating": null, "neighborhood": null, "image": null, "scorecard": null, "featured": false, "sample_categories": "Catering, Restaurants", "public_id": "a-delightful-bitefull-catering-woodstock", "id": 754838980, "votes": null, "tagline": null, "has_video": false, "website": null, "offers": null, "latitude": 34.096188, "politanName": "Atlanta, GA Metro ", "phone_number": "7705917370", "tags": [{"primary": false, "id": 1722, "name": "Restaurants"}, {"primary": true, "id": 1705, "name": "Catering"}], "fax_number": null, "expansion": {"count": null, "uri": null}, "impression_id": "000b000000638124a63fc848329a36452bd91b7908", "profile": "http://www.citysearch.com/profile/754838980/woodstock_ga/a_delightful_bitefull_catering.html", "address": {"city": "Woodstock", "state": "GA", "street": "1503 Willow Bnd", "postal_code": "30188"}, "capProviderId": null, "distance": null, "has_offers": false, "name": "A Delightful Bitefull Catering", "longitude": -84.432721, "has_menu": false, "awards": null, "user_review_count": 0}, {"business_operation_status": 1, "rating": null, "neighborhood": null, "image": null, "scorecard": null, "featured": false, "sample_categories": "Restaurants, Pizza, Carry Out", "public_id": "jets-pizza-marietta-2", "id": 766779210, "votes": null, "tagline": null, "has_video": false, "website": "http://www.citysearch.com/profile/external/766779210/marietta_ga/jet_s_pizza.html", "offers": null, "latitude": 33.980787, "politanName": "Atlanta, GA Metro ", "phone_number": "7705095774", "tags": [{"primary": false, "id": 1722, "name": "Restaurants"}, {"primary": false, "id": 11247, "name": "Carry Out"}, {"primary": true, "id": 11299, "name": "Pizza"}], "fax_number": null, "expansion": {"count": null, "uri": null}, "impression_id": "000b00000082cea699258a4d10bb2f4a919fecdb48", "profile": "http://www.citysearch.com/profile/766779210/marietta_ga/jet_s_pizza.html", "address": {"city": "Marietta", "state": "GA", "street": "3101 Roswell Rd", "postal_code": "30062"}, "capProviderId": null, "distance": null, "has_offers": false, "name": "Jet's Pizza", "longitude": -84.464028, "has_menu": false, "awards": null, "user_review_count": 0}, {"business_operation_status": 1, "rating": null, "neighborhood": null, "image": null, "scorecard": null, "featured": false, "sample_categories": "Restaurants, Carry Out, Hamburgers", "public_id": "wendys-canton-19", "id": 764932320, "votes": null, "tagline": null, "has_video": false, "website": "http://www.citysearch.com/profile/external/764932320/canton_ga/wendy_s.html", "offers": null, "latitude": 34.212144, "politanName": "Atlanta, GA Metro ", "phone_number": "7703454981", "tags": [{"primary": false, "id": 11247, "name": "Carry Out"}, {"primary": false, "id": 11270, "name": "Hamburgers"}, {"primary": true, "id": 1722, "name": "Restaurants"}], "fax_number": null, "expansion": {"count": null, "uri": null}, "impression_id": "000b000000e72a3cf6c82e46dc96e1fb369dd291ac", "profile": "http://www.citysearch.com/profile/764932320/canton_ga/wendy_s.html", "address": {"city": "Canton", "state": "GA", "street": "101 River Green Ave", "postal_code": "30114"}, "capProviderId": null, "distance": null, "has_offers": false, "name": "Wendy's", "longitude": -84.527679, "has_menu": false, "awards": null, "user_review_count": 0}, {"business_operation_status": 1, "rating": null, "neighborhood": null, "image": null, "scorecard": null, "featured": false, "sample_categories": "Restaurants", "public_id": "buffalos-cafe-marietta", "id": 2870538, "votes": null, "tagline": null, "has_video": false, "website": null, "offers": null, "latitude": 33.950209, "politanName": "Atlanta, GA Metro ", "phone_number": "7705212844", "tags": [{"primary": true, "id": 1722, "name": "Restaurants"}], "fax_number": null, "expansion": {"count": null, "uri": null}, "impression_id": "000b00000055bbe43801d94266a3c4122f5ec2ee8b", "profile": "http://www.citysearch.com/profile/2870538/marietta_ga/buffalo_s_cafe.html", "address": {"city": "Marietta", "state": "GA", "street": "707 Whitlock Ave SW Ste H13", "postal_code": "30064"}, "capProviderId": null, "distance": null, "has_offers": false, "name": "Buffalo's Cafe", "longitude": -84.573437, "has_menu": true, "awards": null, "user_review_count": 0}, {"business_operation_status": 1, "rating": null, "neighborhood": null, "image": null, "scorecard": null, "featured": false, "sample_categories": "Seafood Markets, Restaurants", "public_id": "cajun-gulf-seafood-marietta", "id": 775189770, "votes": null, "tagline": null, "has_video": false, "website": null, "offers": null, "latitude": 33.970105, "politanName": "Atlanta, GA Metro ", "phone_number": "7705753222", "tags": [{"primary": false, "id": 1722, "name": "Restaurants"}, {"primary": true, "id": 1719, "name": "Seafood Markets"}], "fax_number": null, "expansion": {"count": null, "uri": null}, "impression_id": "000b000000b19f3263baf649be9e9bfdd87db66c02", "profile": "http://www.citysearch.com/profile/775189770/marietta_ga/cajun_gulf_seafood.html", "address": {"city": "Marietta", "state": "GA", "street": "745 Cobb Pkwy N", "postal_code": "30062"}, "capProviderId": null, "distance": null, "has_offers": false, "name": "Cajun Gulf Seafood", "longitude": -84.5389, "has_menu": false, "awards": null, "user_review_count": 0}, {"business_operation_status": 1, "rating": null, "neighborhood": null, "image": null, "scorecard": null, "featured": false, "sample_categories": "Restaurants", "public_id": "amonos-restaurant-kennesaw", "id": 777767990, "votes": null, "tagline": null, "has_video": false, "website": null, "offers": null, "latitude": 34.014516, "politanName": "Atlanta, GA Metro ", "phone_number": "6783550535", "tags": [{"primary": true, "id": 1722, "name": "Restaurants"}], "fax_number": null, "expansion": {"count": null, "uri": null}, "impression_id": "000b00000097b98d5509de4203afdd3f4935d030ef", "profile": "http://www.citysearch.com/profile/777767990/kennesaw_ga/amono_s_restaurant.html", "address": {"city": "Kennesaw", "state": "GA", "street": "2700 Town Center Dr NW # A", "postal_code": "30144"}, "capProviderId": null, "distance": null, "has_offers": false, "name": "Amono's Restaurant", "longitude": -84.56447, "has_menu": false, "awards": null, "user_review_count": 0}, {"business_operation_status": 1, "rating": null, "neighborhood": null, "image": null, "scorecard": null, "featured": false, "sample_categories": "Restaurants, Pizza", "public_id": "johnnys-pizza-subs-roswell", "id": 2916708, "votes": null, "tagline": null, "has_video": false, "website": null, "offers": null, "latitude": 34.046856, "politanName": "Atlanta, GA Metro ", "phone_number": "7709925292", "tags": [{"primary": false, "id": 11299, "name": "Pizza"}, {"primary": true, "id": 1722, "name": "Restaurants"}], "fax_number": null, "expansion": {"count": null, "uri": null}, "impression_id": "000b0000007e19ef7d87574c2d8a75bc17f3efb9e4", "profile": "http://www.citysearch.com/profile/2916708/roswell_ga/johnny_s_pizza_subs.html", "address": {"city": "Roswell", "state": "GA", "street": "10971 Crabapple Rd", "postal_code": "30075"}, "capProviderId": null, "distance": null, "has_offers": false, "name": "Johnny's Pizza & Subs", "longitude": -84.360541, "has_menu": true, "awards": null, "user_review_count": 0}, {"business_operation_status": 1, "rating": null, "neighborhood": null, "image": null, "scorecard": null, "featured": false, "sample_categories": "Coffeehouses", "public_id": "assoc-coffee-mill-enthusics-marietta", "id": 787109920, "votes": null, "tagline": null, "has_video": false, "website": null, "offers": null, "latitude": 33.969136, "politanName": "Atlanta, GA Metro ", "phone_number": "7704276434", "tags": [{"primary": true, "id": 1726, "name": "Coffeehouses"}], "fax_number": null, "expansion": {"count": null, "uri": null}, "impression_id": "000b000000545c88dff1a443549e21b3eb86901530", "profile": "http://www.citysearch.com/profile/787109920/marietta_ga/assoc_coffee_mill_enthusics.html", "address": {"city": "Marietta", "state": "GA", "street": "657 Old Mountain Rd NW", "postal_code": "30064"}, "capProviderId": null, "distance": null, "has_offers": false, "name": "Assoc Coffee Mill Enthusics", "longitude": -84.593531, "has_menu": false, "awards": null, "user_review_count": 0}, {"business_operation_status": 1, "rating": null, "neighborhood": null, "image": null, "scorecard": null, "featured": false, "sample_categories": "Restaurants, Luaus", "public_id": "wings-cantina-woodstock", "id": 787134670, "votes": null, "tagline": null, "has_video": false, "website": null, "offers": null, "latitude": 34.120096, "politanName": "Atlanta, GA Metro ", "phone_number": "7705174470", "tags": [{"primary": false, "id": 1722, "name": "Restaurants"}, {"primary": true, "id": 11285, "name": "Luaus"}], "fax_number": null, "expansion": {"count": null, "uri": null}, "impression_id": "000b000000e4eedb4cb40641e391f4917095ce1cdf", "profile": "http://www.citysearch.com/profile/787134670/woodstock_ga/wings_cantina.html", "address": {"city": "Woodstock", "state": "GA", "street": "316 Ironhill Trce", "postal_code": "30189"}, "capProviderId": null, "distance": null, "has_offers": false, "name": "Wings Cantina", "longitude": -84.560728, "has_menu": false, "awards": null, "user_review_count": 0}, {"business_operation_status": 1, "rating": null, "neighborhood": null, "image": null, "scorecard": null, "featured": false, "sample_categories": "Restaurants", "public_id": "righteous-que-marietta", "id": 790722150, "votes": null, "tagline": null, "has_video": false, "website": null, "offers": null, "latitude": 33.976739, "politanName": "Atlanta, GA Metro ", "phone_number": "7709718111", "tags": [{"primary": true, "id": 1722, "name": "Restaurants"}], "fax_number": null, "expansion": {"count": null, "uri": null}, "impression_id": "000b000000ce8a3aab24a847d49dda7d651e2156c7", "profile": "http://www.citysearch.com/profile/790722150/marietta_ga/righteous_que.html", "address": {"city": "Marietta", "state": "GA", "street": "1050 E Piedmont Rd", "postal_code": "30062"}, "capProviderId": null, "distance": null, "has_offers": false, "name": "Righteous Que", "longitude": -84.479676, "has_menu": false, "awards": null, "user_review_count": 0}, {"business_operation_status": 1, "rating": null, "neighborhood": null, "image": null, "scorecard": null, "featured": false, "sample_categories": "Restaurants", "public_id": "artuzzis-woodstock", "id": 672593490, "votes": null, "tagline": null, "has_video": false, "website": "http://www.citysearch.com/profile/external/672593490/woodstock_ga/artuzzi_s.html", "offers": null, "latitude": 34.086912, "politanName": "Atlanta, GA Metro ", "phone_number": "7705926522", "tags": [{"primary": true, "id": 1722, "name": "Restaurants"}], "fax_number": null, "expansion": {"count": null, "uri": null}, "impression_id": "000b000000dd20aff74c67447fa1cda7f66cd9cc5b", "profile": "http://www.citysearch.com/profile/672593490/woodstock_ga/artuzzi_s.html", "address": {"city": "Woodstock", "state": "GA", "street": "9745 Highway 92", "postal_code": "30188"}, "capProviderId": null, "distance": null, "has_offers": false, "name": "Artuzzi's", "longitude": -84.528611, "has_menu": true, "awards": null, "user_review_count": 1}, {"business_operation_status": 1, "rating": null, "neighborhood": null, "image": null, "scorecard": null, "featured": false, "sample_categories": "Restaurants", "public_id": "bikini-beach-kennesaw", "id": 672684390, "votes": null, "tagline": null, "has_video": false, "website": null, "offers": null, "latitude": 33.991946, "politanName": "Atlanta, GA Metro ", "phone_number": "7704268001", "tags": [{"primary": true, "id": 1722, "name": "Restaurants"}], "fax_number": null, "expansion": {"count": null, "uri": null}, "impression_id": "000b0000004aabc036e68e4b4bbb2e94be920fd9ed", "profile": "http://www.citysearch.com/profile/672684390/kennesaw_ga/bikini_beach.html", "address": {"city": "Kennesaw", "state": "GA", "street": "1619 Collins Road Northwest", "postal_code": "30152"}, "capProviderId": null, "distance": null, "has_offers": false, "name": "Bikini Beach", "longitude": -84.59912, "has_menu": false, "awards": null, "user_review_count": 0}, {"business_operation_status": 1, "rating": null, "neighborhood": null, "image": null, "scorecard": null, "featured": false, "sample_categories": "Restaurants", "public_id": "mustards-last-stand-woodstock", "id": 793282820, "votes": null, "tagline": null, "has_video": false, "website": null, "offers": null, "latitude": 34.117933, "politanName": "Atlanta, GA Metro ", "phone_number": "7706351604", "tags": [{"primary": true, "id": 1722, "name": "Restaurants"}], "fax_number": null, "expansion": {"count": null, "uri": null}, "impression_id": "000b00000014b0e1fa5c28420d8ee562ab22a86320", "profile": "http://www.citysearch.com/profile/793282820/woodstock_ga/mustards_last_stand.html", "address": {"city": "Woodstock", "state": "GA", "street": "514 Arnold Mill Rd", "postal_code": "30188"}, "capProviderId": null, "distance": null, "has_offers": false, "name": "Mustards Last Stand", "longitude": -84.469363, "has_menu": false, "awards": null, "user_review_count": 0}, {"business_operation_status": 1, "rating": null, "neighborhood": null, "image": null, "scorecard": null, "featured": false, "sample_categories": "Restaurants, Chinese", "public_id": "china-inn-marietta", "id": 787127820, "votes": null, "tagline": null, "has_video": false, "website": null, "offers": null, "latitude": 33.950252, "politanName": "Atlanta, GA Metro ", "phone_number": "7705908023", "tags": [{"primary": false, "id": 11252, "name": "Chinese"}, {"primary": true, "id": 1722, "name": "Restaurants"}], "fax_number": null, "expansion": {"count": null, "uri": null}, "impression_id": "000b000000b923eb63fa97445e96b307ed9e71fc9e", "profile": "http://www.citysearch.com/profile/787127820/marietta_ga/china_inn.html", "address": {"city": "Marietta", "state": "GA", "street": "2500 Dallas Hwy Sw # 200", "postal_code": "30064"}, "capProviderId": null, "distance": null, "has_offers": false, "name": "China Inn", "longitude": -84.638093, "has_menu": false, "awards": null, "user_review_count": 0}, {"business_operation_status": 0, "rating": null, "neighborhood": null, "image": null, "scorecard": null, "featured": false, "sample_categories": "Restaurants", "public_id": "planet-smoothie-marietta-4", "id": 2904683, "votes": null, "tagline": null, "has_video": false, "website": null, "offers": null, "latitude": 34.037444, "politanName": "Atlanta, GA Metro ", "phone_number": "7703210321", "tags": [{"primary": true, "id": 1722, "name": "Restaurants"}], "fax_number": null, "expansion": {"count": null, "uri": null}, "impression_id": "000b0000004555fc233e244688902a89a1e3a9c076", "profile": "http://www.citysearch.com/profile/2904683/marietta_ga/planet_smoothie.html", "address": {"city": "Marietta", "state": "GA", "street": "3065 Shallowford Rd", "postal_code": "30062"}, "capProviderId": null, "distance": null, "has_offers": false, "name": "Planet Smoothie", "longitude": -84.459357, "has_menu": true, "awards": null, "user_review_count": 0}, {"business_operation_status": 1, "rating": null, "neighborhood": null, "image": null, "scorecard": null, "featured": false, "sample_categories": "Restaurants, Carry Out, Hamburgers", "public_id": "mc-donalds-kennesaw-5", "id": 793282720, "votes": null, "tagline": null, "has_video": false, "website": "http://www.citysearch.com/profile/external/793282720/kennesaw_ga/mc_donald_s.html", "offers": null, "latitude": 34.023434, "politanName": "Atlanta, GA Metro ", "phone_number": "7704276918", "tags": [{"primary": false, "id": 11247, "name": "Carry Out"}, {"primary": false, "id": 11270, "name": "Hamburgers"}, {"primary": true, "id": 1722, "name": "Restaurants"}], "fax_number": null, "expansion": {"count": null, "uri": null}, "impression_id": "000b0000000400728bb17748379f1711f10c54406d", "profile": "http://www.citysearch.com/profile/793282720/kennesaw_ga/mc_donald_s.html", "address": {"city": "Kennesaw", "state": "GA", "street": "US 41 & Hwy 293", "postal_code": "30144"}, "capProviderId": null, "distance": null, "has_offers": false, "name": "Mc Donald's", "longitude": -84.61549, "has_menu": false, "awards": null, "user_review_count": 0}, {"business_operation_status": 1, "rating": null, "neighborhood": null, "image": null, "scorecard": null, "featured": false, "sample_categories": "Restaurants", "public_id": "cotton-gin-restaurant-hiram", "id": 812310620, "votes": null, "tagline": null, "has_video": false, "website": null, "offers": null, "latitude": 33.91311, "politanName": "Atlanta, GA Metro ", "phone_number": "7704392141", "tags": [{"primary": true, "id": 1722, "name": "Restaurants"}], "fax_number": null, "expansion": {"count": null, "uri": null}, "impression_id": "000b0000008c3a6b51621d41bdb6d0d408c7dee533", "profile": "http://www.citysearch.com/profile/812310620/hiram_ga/cotton_gin_restaurant.html", "address": {"city": "Hiram", "state": "GA", "street": "4971 Hiram Acworth Hwy", "postal_code": "30141"}, "capProviderId": null, "distance": null, "has_offers": false, "name": "Cotton Gin Restaurant", "longitude": -84.746498, "has_menu": false, "awards": null, "user_review_count": 0}, {"business_operation_status": 1, "rating": null, "neighborhood": null, "image": null, "scorecard": null, "featured": false, "sample_categories": "Restaurants, Pizza", "public_id": "spikes-brickoven-pizzeria-marietta", "id": 807252710, "votes": null, "tagline": null, "has_video": false, "website": null, "offers": null, "latitude": 33.925486, "politanName": "Atlanta, GA Metro ", "phone_number": "7704226821", "tags": [{"primary": false, "id": 1722, "name": "Restaurants"}, {"primary": true, "id": 11299, "name": "Pizza"}], "fax_number": null, "expansion": {"count": null, "uri": null}, "impression_id": "000b0000009b10992ac89341f882bf91761ca1038e", "profile": "http://www.citysearch.com/profile/807252710/marietta_ga/spikes_brickoven_pizzeria.html", "address": {"city": "Marietta", "state": "GA", "street": "1115 Powder Springs St", "postal_code": "30064"}, "capProviderId": null, "distance": null, "has_offers": false, "name": "Spikes Brickoven Pizzeria", "longitude": -84.572072, "has_menu": false, "awards": null, "user_review_count": 0}, {"business_operation_status": 1, "rating": null, "neighborhood": null, "image": null, "scorecard": null, "featured": false, "sample_categories": "Ice Cream Parlors", "public_id": "its-raining-cats-dogs-marietta", "id": 808564100, "votes": null, "tagline": null, "has_video": false, "website": null, "offers": null, "latitude": 33.946019, "politanName": "Atlanta, GA Metro ", "phone_number": "7705285951", "tags": [{"primary": true, "id": 1730, "name": "Ice Cream Parlors"}], "fax_number": null, "expansion": {"count": null, "uri": null}, "impression_id": "000b00000019303c8bc9d24db794f1a00f8d47bb10", "profile": "http://www.citysearch.com/profile/808564100/marietta_ga/its_raining_cats_dogs.html", "address": {"city": "Marietta", "state": "GA", "street": "353 Fenbrook Way SW", "postal_code": "30064"}, "capProviderId": null, "distance": null, "has_offers": false, "name": "Its Raining Cats & Dogs", "longitude": -84.665533, "has_menu": false, "awards": null, "user_review_count": 0}, {"business_operation_status": 1, "rating": null, "neighborhood": null, "image": null, "scorecard": null, "featured": false, "sample_categories": "Restaurants", "public_id": "terry-burger-kennesaw", "id": 816406770, "votes": null, "tagline": null, "has_video": false, "website": null, "offers": null, "latitude": 33.992629, "politanName": "Atlanta, GA Metro ", "phone_number": "6782906981", "tags": [{"primary": true, "id": 1722, "name": "Restaurants"}], "fax_number": null, "expansion": {"count": null, "uri": null}, "impression_id": "000b0000004044cdddc8d94999b51306aa26fc5061", "profile": "http://www.citysearch.com/profile/816406770/kennesaw_ga/terry_burger.html", "address": {"city": "Kennesaw", "state": "GA", "street": "1595 Stoddard CT NW", "postal_code": "30152"}, "capProviderId": null, "distance": null, "has_offers": false, "name": "Terry Burger", "longitude": -84.660867, "has_menu": false, "awards": null, "user_review_count": 0}], "histograms": [], "tag_ids": [1722], "uri": "http://api.citygridmedia.com:8080/search/places/v2/search/where?has_offers=false&type=restaurant&format=json&page=34&where=30066&rpp=50&histograms=false&publisher=10000009598&region_type=circle", "did_you_mean": "", "regions": [{"latitude": 34.034132, "default_radius": 5.28, "type": "postal_code", "name": "30066", "longitude": -84.508332}], "call_id": "000b00000099e4c7f1348242d780029334bb2a4157", "first_hit": 1651, "total_hits": 2075, "geo_ids": [26294], "page": 34, "last_hit": 1700}}