{"results": {"rpp": 50, "locations": [{"business_operation_status": 1, "rating": null, "neighborhood": null, "image": null, "scorecard": null, "featured": false, "sample_categories": "Ice Cream Parlors, Restaurants, Dessert Shops", "public_id": "dairylicious-treats-marietta", "id": 43855993, "votes": null, "tagline": null, "has_video": false, "website": null, "offers": null, "latitude": 33.947264, "politanName": "Atlanta, GA Metro ", "phone_number": "7702185744", "tags": [{"primary": false, "id": 1722, "name": "Restaurants"}, {"primary": false, "id": 1728, "name": "Dessert Shops"}, {"primary": true, "id": 1730, "name": "Ice Cream Parlors"}], "fax_number": null, "expansion": {"count": null, "uri": null}, "impression_id": "000b000000d57c73bea6064fb7a2aade877c4bbd78", "profile": "http://www.citysearch.com/profile/43855993/marietta_ga/dairylicious_treats.html", "address": {"city": "Marietta", "state": "GA", "street": "270 Martin Ridge Dr SW", "postal_code": "30064"}, "capProviderId": null, "distance": null, "has_offers": false, "name": "Dairylicious Treats", "longitude": -84.617328, "has_menu": false, "awards": null, "user_review_count": 0}, {"business_operation_status": 1, "rating": null, "neighborhood": null, "image": null, "scorecard": null, "featured": false, "sample_categories": "Restaurants, Cajun & Creole", "public_id": "cajun-johns-restaurant-marietta", "id": 45988795, "votes": null, "tagline": null, "has_video": false, "website": null, "offers": null, "latitude": 33.937014, "politanName": "Atlanta, GA Metro ", "phone_number": "7704998700", "tags": [{"primary": false, "id": 11245, "name": "Cajun & Creole"}, {"primary": true, "id": 1722, "name": "Restaurants"}], "fax_number": null, "expansion": {"count": null, "uri": null}, "impression_id": "000b000000fe3c99c88d194fefbe23e789695af6be", "profile": "http://www.citysearch.com/profile/45988795/marietta_ga/cajun_john_s_restaurant.html", "address": {"city": "Marietta", "state": "GA", "street": "1123 Powder Springs St", "postal_code": "30064"}, "capProviderId": null, "distance": null, "has_offers": false, "name": "Cajun John's Restaurant", "longitude": -84.554706, "has_menu": false, "awards": null, "user_review_count": 0}, {"business_operation_status": 1, "rating": null, "neighborhood": null, "image": null, "scorecard": null, "featured": false, "sample_categories": "Restaurants, Chinese", "public_id": "lucky-dragon-marietta-2", "id": 45989668, "votes": null, "tagline": null, "has_video": false, "website": null, "offers": null, "latitude": 34.032215, "politanName": "Atlanta, GA Metro ", "phone_number": "7702188889", "tags": [{"primary": false, "id": 11252, "name": "Chinese"}, {"primary": true, "id": 1722, "name": "Restaurants"}], "fax_number": null, "expansion": {"count": null, "uri": null}, "impression_id": "000b0000004d36c46ae013488eafe332f0d7801c36", "profile": "http://www.citysearch.com/profile/45989668/marietta_ga/lucky_dragon.html", "address": {"city": "Marietta", "state": "GA", "street": "3402 Canton Rd", "postal_code": "30066"}, "capProviderId": null, "distance": null, "has_offers": false, "name": "Lucky Dragon", "longitude": -84.527765, "has_menu": true, "awards": null, "user_review_count": 0}, {"business_operation_status": 1, "rating": null, "neighborhood": null, "image": null, "scorecard": null, "featured": false, "sample_categories": "Restaurants", "public_id": "china-town-gourmet-marietta", "id": 827846610, "votes": null, "tagline": null, "has_video": false, "website": null, "offers": null, "latitude": 34.032195, "politanName": "Atlanta, GA Metro ", "phone_number": "7704291387", "tags": [{"primary": true, "id": 1722, "name": "Restaurants"}], "fax_number": null, "expansion": {"count": null, "uri": null}, "impression_id": "000b000000e215ca0266da432c8e97612785381e90", "profile": "http://www.citysearch.com/profile/827846610/marietta_ga/china_town_gourmet.html", "address": {"city": "Marietta", "state": "GA", "street": "3402 Canton Rd", "postal_code": "30066"}, "capProviderId": null, "distance": null, "has_offers": false, "name": "China Town Gourmet", "longitude": -84.527689, "has_menu": false, "awards": null, "user_review_count": 0}, {"business_operation_status": 1, "rating": null, "neighborhood": null, "image": null, "scorecard": null, "featured": false, "sample_categories": "Restaurants, Delis And Delicatessens, Sandwich Shops, Carry Out", "public_id": "subway-marietta-56", "id": 609620714, "votes": null, "tagline": null, "has_video": false, "website": "http://www.citysearch.com/profile/external/609620714/marietta_ga/subway.html", "offers": null, "latitude": 33.901237, "politanName": "Atlanta, GA Metro ", "phone_number": "7706937005", "tags": [{"primary": false, "id": 1727, "name": "Delis And Delicatessens"}, {"primary": false, "id": 1736, "name": "Sandwich Shops"}, {"primary": false, "id": 11247, "name": "Carry Out"}, {"primary": true, "id": 1722, "name": "Restaurants"}], "fax_number": null, "expansion": {"count": null, "uri": null}, "impression_id": "000b0000008aeedc45dc1d4eb1bd1617ec3b037117", "profile": "http://www.citysearch.com/profile/609620714/marietta_ga/subway.html", "address": {"city": "Marietta", "state": "GA", "street": "2697 Windy Hill Rd SE", "postal_code": "30067"}, "capProviderId": null, "distance": null, "has_offers": false, "name": "Subway", "longitude": -84.476184, "has_menu": false, "awards": null, "user_review_count": 0}, {"business_operation_status": 1, "rating": null, "neighborhood": null, "image": null, "scorecard": null, "featured": false, "sample_categories": "Delis And Delicatessens", "public_id": "kroger-deli-powder-spg-2", "id": 694161420, "votes": null, "tagline": null, "has_video": false, "website": null, "offers": null, "latitude": 33.903473, "politanName": "Atlanta, GA Metro ", "phone_number": "7702225180", "tags": [{"primary": true, "id": 1727, "name": "Delis And Delicatessens"}], "fax_number": null, "expansion": {"count": null, "uri": null}, "impression_id": "000b000000ee63b790a1f746149ec063c544a0b329", "profile": "http://www.citysearch.com/profile/694161420/powder_springs_ga/kroger_deli.html", "address": {"city": "Powder Springs", "state": "GA", "street": "4150 Macland Rd", "postal_code": "30127"}, "capProviderId": null, "distance": null, "has_offers": false, "name": "Kroger Deli", "longitude": -84.67471, "has_menu": false, "awards": null, "user_review_count": 0}, {"business_operation_status": 1, "rating": null, "neighborhood": null, "image": null, "scorecard": null, "featured": false, "sample_categories": "Catering, Restaurants, Chinese", "public_id": "china-king-marietta", "id": 604719482, "votes": null, "tagline": null, "has_video": false, "website": null, "offers": null, "latitude": 33.882452, "politanName": "Atlanta, GA Metro ", "phone_number": "7704326688", "tags": [{"primary": false, "id": 1722, "name": "Restaurants"}, {"primary": false, "id": 11252, "name": "Chinese"}, {"primary": true, "id": 1705, "name": "Catering"}], "fax_number": null, "expansion": {"count": null, "uri": null}, "impression_id": "000b000000de6dd08370584f79994f08a5db6d91d4", "profile": "http://www.citysearch.com/profile/604719482/marietta_ga/china_king.html", "address": {"city": "Marietta", "state": "GA", "street": "2909 Austell Rd SW", "postal_code": "30008"}, "capProviderId": null, "distance": null, "has_offers": false, "name": "China King", "longitude": -84.58798, "has_menu": false, "awards": null, "user_review_count": 0}, {"business_operation_status": 1, "rating": null, "neighborhood": null, "image": null, "scorecard": null, "featured": false, "sample_categories": "Restaurants", "public_id": "jerk-pan-marietta", "id": 732188760, "votes": null, "tagline": null, "has_video": false, "website": null, "offers": null, "latitude": 34.032215, "politanName": "Atlanta, GA Metro ", "phone_number": "7706757069", "tags": [{"primary": true, "id": 1722, "name": "Restaurants"}], "fax_number": null, "expansion": {"count": null, "uri": null}, "impression_id": "000b0000008e3f65fc4f72445b8d25d7e32fc87fa1", "profile": "http://www.citysearch.com/profile/732188760/marietta_ga/jerk_pan.html", "address": {"city": "Marietta", "state": "GA", "street": "3402 Canton Rd", "postal_code": "30066"}, "capProviderId": null, "distance": null, "has_offers": false, "name": "Jerk Pan", "longitude": -84.527765, "has_menu": false, "awards": null, "user_review_count": 0}, {"business_operation_status": 1, "rating": null, "neighborhood": null, "image": null, "scorecard": null, "featured": false, "sample_categories": "Restaurants, Japanese", "public_id": "musashi-japanese-house-marietta", "id": 732179590, "votes": null, "tagline": null, "has_video": false, "website": null, "offers": null, "latitude": 33.908085, "politanName": "Atlanta, GA Metro ", "phone_number": "7702185691", "tags": [{"primary": false, "id": 11202, "name": "Japanese"}, {"primary": true, "id": 1722, "name": "Restaurants"}], "fax_number": null, "expansion": {"count": null, "uri": null}, "impression_id": "000b0000001f3081fad49a46708d104960bb136a7d", "profile": "http://www.citysearch.com/profile/732179590/marietta_ga/musashi_japanese_house.html", "address": {"city": "Marietta", "state": "GA", "street": "1690 Powder Springs Rd SW", "postal_code": "30064"}, "capProviderId": null, "distance": null, "has_offers": false, "name": "Musashi Japanese House", "longitude": -84.602757, "has_menu": false, "awards": null, "user_review_count": 0}, {"business_operation_status": 1, "rating": null, "neighborhood": null, "image": null, "scorecard": null, "featured": false, "sample_categories": "Restaurants", "public_id": "twisted-kitchen-marietta", "id": 745026280, "votes": null, "tagline": null, "has_video": false, "website": null, "offers": null, "latitude": 34.013539, "politanName": "Atlanta, GA Metro ", "phone_number": "4049929432", "tags": [{"primary": true, "id": 1722, "name": "Restaurants"}], "fax_number": null, "expansion": {"count": null, "uri": null}, "impression_id": "000b0000008a266d5b269645d5b4efe050f25c58d1", "profile": "http://www.citysearch.com/profile/745026280/marietta_ga/twisted_kitchen.html", "address": {"city": "Marietta", "state": "GA", "street": "125 Barrett Pkwy # 111", "postal_code": "30066"}, "capProviderId": null, "distance": null, "has_offers": false, "name": "Twisted Kitchen", "longitude": -84.552923, "has_menu": true, "awards": null, "user_review_count": 0}, {"business_operation_status": 1, "rating": null, "neighborhood": null, "image": null, "scorecard": null, "featured": false, "sample_categories": "Ice Cream Parlors, Restaurants", "public_id": "yoforia-sandy", "id": 748336750, "votes": null, "tagline": null, "has_video": false, "website": null, "offers": null, "latitude": 33.899687, "politanName": "Atlanta, GA Metro ", "phone_number": "7703529555", "tags": [{"primary": false, "id": 1722, "name": "Restaurants"}, {"primary": true, "id": 1730, "name": "Ice Cream Parlors"}], "fax_number": null, "expansion": {"count": null, "uri": null}, "impression_id": "000b000000f406cecddb6443669a2f47a1eff3d4bf", "profile": "http://www.citysearch.com/profile/748336750/sandy_springs_ga/yoforia.html", "address": {"city": "Sandy Springs", "state": "GA", "street": "1155 Mount Vernon Hwy NW", "postal_code": "30327"}, "capProviderId": null, "distance": null, "has_offers": false, "name": "Yoforia", "longitude": -84.423806, "has_menu": false, "awards": null, "user_review_count": 0}, {"business_operation_status": 1, "rating": null, "neighborhood": null, "image": null, "scorecard": null, "featured": false, "sample_categories": "Restaurants", "public_id": "smoothie-express-marietta-2", "id": 653609590, "votes": null, "tagline": null, "has_video": false, "website": null, "offers": null, "latitude": 33.88207, "politanName": "Atlanta, GA Metro ", "phone_number": "6782969342", "tags": [{"primary": true, "id": 1722, "name": "Restaurants"}], "fax_number": null, "expansion": {"count": null, "uri": null}, "impression_id": "000b0000006100af709b464eb189a77a57fa10a466", "profile": "http://www.citysearch.com/profile/653609590/marietta_ga/smoothie_express.html", "address": {"city": "Marietta", "state": "GA", "street": "1661 Milford Creek Overlook Sw", "postal_code": "30008"}, "capProviderId": null, "distance": null, "has_offers": false, "name": "Smoothie Express", "longitude": -84.59932, "has_menu": false, "awards": null, "user_review_count": 0}, {"business_operation_status": 1, "rating": null, "neighborhood": null, "image": null, "scorecard": null, "featured": false, "sample_categories": "Coffeehouses", "public_id": "starbucks-atlanta-62", "id": 775185230, "votes": null, "tagline": null, "has_video": false, "website": "http://www.citysearch.com/profile/external/775185230/atlanta_ga/starbucks.html", "offers": null, "latitude": 33.878815, "politanName": "Atlanta, GA Metro ", "phone_number": "4044614129", "tags": [{"primary": true, "id": 1726, "name": "Coffeehouses"}], "fax_number": null, "expansion": {"count": null, "uri": null}, "impression_id": "000b0000006aed0ba3266547089ac9c80f02665c90", "profile": "http://www.citysearch.com/profile/775185230/atlanta_ga/starbucks.html", "address": {"city": "Atlanta", "state": "GA", "street": "6000 N Atlanta Hartsfield Airp", "postal_code": "30339"}, "capProviderId": null, "distance": null, "has_offers": false, "name": "Starbucks", "longitude": -84.464518, "has_menu": false, "awards": null, "user_review_count": 0}, {"business_operation_status": 1, "rating": null, "neighborhood": null, "image": null, "scorecard": null, "featured": false, "sample_categories": "Restaurants, Steakhouse", "public_id": "copacabana-steakhouse-marietta", "id": 775221780, "votes": null, "tagline": null, "has_video": false, "website": null, "offers": null, "latitude": 33.923141, "politanName": "Atlanta, GA Metro ", "phone_number": "7709840057", "tags": [{"primary": false, "id": 11316, "name": "Steakhouse"}, {"primary": true, "id": 1722, "name": "Restaurants"}], "fax_number": null, "expansion": {"count": null, "uri": null}, "impression_id": "000b00000098daabe2d4414e7b8d060c0bc572323b", "profile": "http://www.citysearch.com/profile/775221780/marietta_ga/copacabana_steakhouse.html", "address": {"city": "Marietta", "state": "GA", "street": "2555 Delk Rd SE # A7", "postal_code": "30067"}, "capProviderId": null, "distance": null, "has_offers": false, "name": "Copacabana Steakhouse", "longitude": -84.478026, "has_menu": false, "awards": null, "user_review_count": 0}, {"business_operation_status": 1, "rating": null, "neighborhood": null, "image": null, "scorecard": null, "featured": false, "sample_categories": "Restaurants, Carry Out, Chicken", "public_id": "chickfila-atlanta-41", "id": 775192080, "votes": null, "tagline": null, "has_video": false, "website": "http://www.citysearch.com/profile/external/775192080/atlanta_ga/chick_fil_a.html", "offers": null, "latitude": 33.857869, "politanName": "Atlanta, GA Metro ", "phone_number": "7704281230", "tags": [{"primary": false, "id": 11247, "name": "Carry Out"}, {"primary": false, "id": 12839, "name": "Chicken"}, {"primary": true, "id": 1722, "name": "Restaurants"}], "fax_number": null, "expansion": {"count": null, "uri": null}, "impression_id": "000b0000006f7513988e3d470497b5423cb9409025", "profile": "http://www.citysearch.com/profile/775192080/atlanta_ga/chick_fil_a.html", "address": {"city": "Atlanta", "state": "GA", "street": "3951 Austell Re SW", "postal_code": "30303"}, "capProviderId": null, "distance": null, "has_offers": false, "name": "Chick-Fil-A", "longitude": -84.59993, "has_menu": false, "awards": null, "user_review_count": 0}, {"business_operation_status": 1, "rating": null, "neighborhood": null, "image": null, "scorecard": null, "featured": false, "sample_categories": "Restaurants", "public_id": "cajun-johns-marietta", "id": 672215460, "votes": null, "tagline": null, "has_video": false, "website": null, "offers": null, "latitude": 33.937014, "politanName": "Atlanta, GA Metro ", "phone_number": null, "tags": [{"primary": true, "id": 1722, "name": "Restaurants"}], "fax_number": null, "expansion": {"count": null, "uri": null}, "impression_id": "000b000000631c08327c3249dbac732cf6c5440c62", "profile": "http://www.citysearch.com/profile/672215460/marietta_ga/cajun_john_s.html", "address": {"city": "Marietta", "state": "GA", "street": "1123 Powder Springs St. SE", "postal_code": "30064"}, "capProviderId": null, "distance": null, "has_offers": false, "name": "Cajun John's", "longitude": -84.554706, "has_menu": false, "awards": null, "user_review_count": 0}, {"business_operation_status": 1, "rating": null, "neighborhood": null, "image": null, "scorecard": null, "featured": false, "sample_categories": "Restaurants, Pizza, Carry Out", "public_id": "mellow-mushroom-marietta-4", "id": 777735910, "votes": null, "tagline": null, "has_video": false, "website": "http://www.citysearch.com/profile/external/777735910/marietta_ga/mellow_mushroom.html", "offers": null, "latitude": 33.908085, "politanName": "Atlanta, GA Metro ", "phone_number": "7704255511", "tags": [{"primary": false, "id": 1722, "name": "Restaurants"}, {"primary": false, "id": 11247, "name": "Carry Out"}, {"primary": true, "id": 11299, "name": "Pizza"}], "fax_number": null, "expansion": {"count": null, "uri": null}, "impression_id": "000b0000001fd96fd608bc4dc7aeb565e02ac935c1", "profile": "http://www.citysearch.com/profile/777735910/marietta_ga/mellow_mushroom.html", "address": {"city": "Marietta", "state": "GA", "street": "1690 Powder Springs Rd Sw #214", "postal_code": "30064"}, "capProviderId": null, "distance": null, "has_offers": false, "name": "Mellow Mushroom", "longitude": -84.602757, "has_menu": true, "awards": null, "user_review_count": 0}, {"business_operation_status": 1, "rating": null, "neighborhood": null, "image": null, "scorecard": null, "featured": false, "sample_categories": "Restaurants, Barbecue Restaurants", "public_id": "wings-inc-kennesaw", "id": 777815920, "votes": null, "tagline": null, "has_video": false, "website": null, "offers": null, "latitude": 34.008395, "politanName": "Atlanta, GA Metro ", "phone_number": "6782903950", "tags": [{"primary": false, "id": 1724, "name": "Barbecue Restaurants"}, {"primary": true, "id": 1722, "name": "Restaurants"}], "fax_number": null, "expansion": {"count": null, "uri": null}, "impression_id": "000b000000643b5ea0b9f2404789db3740fa732beb", "profile": "http://www.citysearch.com/profile/777815920/kennesaw_ga/wings_inc.html", "address": {"city": "Kennesaw", "state": "GA", "street": "319 Heritage Park Trce NW", "postal_code": "30144"}, "capProviderId": null, "distance": null, "has_offers": false, "name": "Wings INC", "longitude": -84.56101, "has_menu": false, "awards": null, "user_review_count": 0}, {"business_operation_status": 1, "rating": null, "neighborhood": null, "image": null, "scorecard": null, "featured": false, "sample_categories": "Restaurants", "public_id": "manna-smyrna", "id": 777817720, "votes": null, "tagline": null, "has_video": false, "website": null, "offers": null, "latitude": 33.879067, "politanName": "Atlanta, GA Metro ", "phone_number": "7704311992", "tags": [{"primary": true, "id": 1722, "name": "Restaurants"}], "fax_number": null, "expansion": {"count": null, "uri": null}, "impression_id": "000b000000b5ab0dac3ffc46eeb5a8aaff545d11d9", "profile": "http://www.citysearch.com/profile/777817720/smyrna_ga/manna.html", "address": {"city": "Smyrna", "state": "GA", "street": "3120 S Cobb Dr Se", "postal_code": "30080"}, "capProviderId": null, "distance": null, "has_offers": false, "name": "Manna", "longitude": -84.5327, "has_menu": false, "awards": null, "user_review_count": 0}, {"business_operation_status": 1, "rating": null, "neighborhood": null, "image": null, "scorecard": null, "featured": false, "sample_categories": "Restaurants", "public_id": "bonz-sports-grill-smyrna", "id": 777729350, "votes": null, "tagline": null, "has_video": false, "website": null, "offers": null, "latitude": 33.873639, "politanName": "Atlanta, GA Metro ", "phone_number": "7704352669", "tags": [{"primary": true, "id": 1722, "name": "Restaurants"}], "fax_number": null, "expansion": {"count": null, "uri": null}, "impression_id": "000b000000eec1f38949dd4292ad8e67691c25ca96", "profile": "http://www.citysearch.com/profile/777729350/smyrna_ga/bonz_sports_grill.html", "address": {"city": "Smyrna", "state": "GA", "street": "3240 S Cobb Dr Se # N", "postal_code": "30080"}, "capProviderId": null, "distance": null, "has_offers": false, "name": "Bonz Sports Grill", "longitude": -84.530478, "has_menu": false, "awards": null, "user_review_count": 1}, {"business_operation_status": 1, "rating": null, "neighborhood": null, "image": null, "scorecard": null, "featured": false, "sample_categories": "Restaurants, Cajun & Creole", "public_id": "ji-bou-te-marietta", "id": 777783530, "votes": null, "tagline": null, "has_video": false, "website": null, "offers": null, "latitude": 33.952594, "politanName": "Atlanta, GA Metro ", "phone_number": "7707940772", "tags": [{"primary": false, "id": 11245, "name": "Cajun & Creole"}, {"primary": true, "id": 1722, "name": "Restaurants"}], "fax_number": null, "expansion": {"count": null, "uri": null}, "impression_id": "000b000000f993b4911a9741eba1db9580d17e62ee", "profile": "http://www.citysearch.com/profile/777783530/marietta_ga/ji_bou_te.html", "address": {"city": "Marietta", "state": "GA", "street": "800 Whitlock Ave NW # 103", "postal_code": "30064"}, "capProviderId": null, "distance": null, "has_offers": false, "name": "Ji Bou Te", "longitude": -84.575881, "has_menu": false, "awards": null, "user_review_count": 0}, {"business_operation_status": 1, "rating": null, "neighborhood": null, "image": null, "scorecard": null, "featured": false, "sample_categories": "Restaurants", "public_id": "slate-grill-marietta", "id": 777808910, "votes": null, "tagline": null, "has_video": false, "website": null, "offers": null, "latitude": 33.940805, "politanName": "Atlanta, GA Metro ", "phone_number": "7704269777", "tags": [{"primary": true, "id": 1722, "name": "Restaurants"}], "fax_number": null, "expansion": {"count": null, "uri": null}, "impression_id": "000b00000072f7fcb28e7c4b568daffe210e9a740e", "profile": "http://www.citysearch.com/profile/777808910/marietta_ga/slate_grill.html", "address": {"city": "Marietta", "state": "GA", "street": "3348 Farrier Walk Se", "postal_code": "30067"}, "capProviderId": null, "distance": null, "has_offers": false, "name": "Slate Grill", "longitude": -84.45506, "has_menu": false, "awards": null, "user_review_count": 0}, {"business_operation_status": 1, "rating": null, "neighborhood": null, "image": null, "scorecard": null, "featured": false, "sample_categories": "Restaurants, South American", "public_id": "el-hondureno-billares-marietta", "id": 777670670, "votes": null, "tagline": null, "has_video": false, "website": null, "offers": null, "latitude": 33.928458, "politanName": "Atlanta, GA Metro ", "phone_number": "7709532737", "tags": [{"primary": false, "id": 15490, "name": "South American"}, {"primary": true, "id": 1722, "name": "Restaurants"}], "fax_number": null, "expansion": {"count": null, "uri": null}, "impression_id": "000b00000039d2f1b0e06a487ebc55c74457f06f60", "profile": "http://www.citysearch.com/profile/777670670/marietta_ga/el_hondureno_billares.html", "address": {"city": "Marietta", "state": "GA", "street": "1033 Franklin Rd Se", "postal_code": "30067"}, "capProviderId": null, "distance": null, "has_offers": false, "name": "El Hondureno Billares", "longitude": -84.492995, "has_menu": false, "awards": null, "user_review_count": 0}, {"business_operation_status": 1, "rating": null, "neighborhood": null, "image": null, "scorecard": null, "featured": false, "sample_categories": "Restaurants, Delis And Delicatessens, Sandwich Shops, Carry Out", "public_id": "subway-marietta-54", "id": 779672970, "votes": null, "tagline": null, "has_video": false, "website": "http://www.citysearch.com/profile/external/779672970/marietta_ga/subway.html", "offers": null, "latitude": 34.027594, "politanName": "Atlanta, GA Metro ", "phone_number": "7706934723", "tags": [{"primary": false, "id": 1727, "name": "Delis And Delicatessens"}, {"primary": false, "id": 1736, "name": "Sandwich Shops"}, {"primary": false, "id": 11247, "name": "Carry Out"}, {"primary": true, "id": 1722, "name": "Restaurants"}], "fax_number": null, "expansion": {"count": null, "uri": null}, "impression_id": "000b000000c825a775ab48420abfe186cba8197497", "profile": "http://www.citysearch.com/profile/779672970/marietta_ga/subway.html", "address": {"city": "Marietta", "state": "GA", "street": "3079 Hidden Forest Ct", "postal_code": "30066"}, "capProviderId": null, "distance": null, "has_offers": false, "name": "SUBWAY", "longitude": -84.564373, "has_menu": false, "awards": null, "user_review_count": 0}, {"business_operation_status": 1, "rating": 6.0, "neighborhood": null, "image": null, "scorecard": null, "featured": false, "sample_categories": "Restaurants, American Express, Discover, MasterCard, Visa", "public_id": "jimmy-macks-food-spirits-marietta", "id": 35740195, "votes": null, "tagline": null, "has_video": false, "website": "http://www.citysearch.com/profile/external/35740195/marietta_ga/jimmy_mack_s_food_spirits.html", "offers": null, "latitude": 34.030179, "politanName": "Atlanta, GA Metro ", "phone_number": "7707949700", "tags": [{"primary": false, "id": 11333, "name": "American Express"}, {"primary": false, "id": 11349, "name": "Discover"}, {"primary": false, "id": 11361, "name": "MasterCard"}, {"primary": false, "id": 11382, "name": "Visa"}, {"primary": true, "id": 1722, "name": "Restaurants"}], "fax_number": null, "expansion": {"count": null, "uri": null}, "impression_id": "000b0000005c07ddf8b9b24cf2819d16814b19b1a8", "profile": "http://www.citysearch.com/profile/35740195/marietta_ga/jimmy_mack_s_food_spirits.html", "address": {"city": "Marietta", "state": "GA", "street": "3205 Canton Rd Ste 104-106", "postal_code": "30066"}, "capProviderId": null, "distance": null, "has_offers": false, "name": "Jimmy Mack's Food & Spirits", "longitude": -84.528473, "has_menu": true, "awards": null, "user_review_count": 1}, {"business_operation_status": 1, "rating": null, "neighborhood": null, "image": null, "scorecard": null, "featured": false, "sample_categories": "Restaurants", "public_id": "miyako-hibachi-sushi-steak-house-austell", "id": 672372180, "votes": null, "tagline": null, "has_video": false, "website": null, "offers": null, "latitude": 33.855384, "politanName": "Atlanta, GA Metro ", "phone_number": "7708056336", "tags": [{"primary": true, "id": 1722, "name": "Restaurants"}], "fax_number": null, "expansion": {"count": null, "uri": null}, "impression_id": "000b0000007f57c11f57fa485f91eb48cee8a2b9d3", "profile": "http://www.citysearch.com/profile/672372180/austell_ga/miyako_hibachi_sushi_steak_house.html", "address": {"city": "Austell", "state": "GA", "street": "1025 East-West Connector", "postal_code": "30106"}, "capProviderId": null, "distance": null, "has_offers": false, "name": "Miyako Hibachi, Sushi & Steak House", "longitude": -84.583167, "has_menu": false, "awards": null, "user_review_count": 0}, {"business_operation_status": 1, "rating": null, "neighborhood": null, "image": null, "scorecard": null, "featured": false, "sample_categories": "Restaurants", "public_id": "mojo-grill-cuban-cuisine-smyrna", "id": 672444450, "votes": null, "tagline": null, "has_video": false, "website": null, "offers": null, "latitude": 33.879071, "politanName": "Atlanta, GA Metro ", "phone_number": null, "tags": [{"primary": true, "id": 1722, "name": "Restaurants"}], "fax_number": null, "expansion": {"count": null, "uri": null}, "impression_id": "000b000000b8be212c602f4201a642b8560d5119be", "profile": "http://www.citysearch.com/profile/672444450/smyrna_ga/mojo_grill_cuban_cuisine.html", "address": {"city": "Smyrna", "state": "GA", "street": "3120 S Cobb Dr SE", "postal_code": "30080"}, "capProviderId": null, "distance": null, "has_offers": false, "name": "Mojo Grill Cuban Cuisine", "longitude": -84.532683, "has_menu": false, "awards": null, "user_review_count": 0}, {"business_operation_status": 1, "rating": null, "neighborhood": null, "image": null, "scorecard": null, "featured": false, "sample_categories": "Restaurants", "public_id": "niche-private-diningcatering-marietta", "id": 773444390, "votes": null, "tagline": null, "has_video": false, "website": null, "offers": null, "latitude": 34.010385, "politanName": "Atlanta, GA Metro ", "phone_number": "4049019840", "tags": [{"primary": true, "id": 1722, "name": "Restaurants"}], "fax_number": null, "expansion": {"count": null, "uri": null}, "impression_id": "000b0000007bd248625a3246c7bb8500129808e942", "profile": "http://www.citysearch.com/profile/773444390/marietta_ga/niche_private_dining_catering.html", "address": {"city": "Marietta", "state": "GA", "street": "2287 Nottley Dr", "postal_code": "30066"}, "capProviderId": null, "distance": null, "has_offers": false, "name": "Niche Private Dining-Catering", "longitude": -84.557109, "has_menu": false, "awards": null, "user_review_count": 0}, {"business_operation_status": 1, "rating": 8.0, "neighborhood": null, "image": null, "scorecard": null, "featured": false, "sample_categories": "Restaurants", "public_id": "vittles-restaurant-smyrna", "id": 33561245, "votes": null, "tagline": null, "has_video": false, "website": "http://www.citysearch.com/profile/external/33561245/smyrna_ga/vittle_s_restaurant.html", "offers": null, "latitude": 33.890311, "politanName": "Atlanta, GA Metro ", "phone_number": "7704330047", "tags": [{"primary": true, "id": 1722, "name": "Restaurants"}], "fax_number": null, "expansion": {"count": null, "uri": null}, "impression_id": "000b000000bc5285eb4e5d4a0ca5995ad57d6d9026", "profile": "http://www.citysearch.com/profile/33561245/smyrna_ga/vittle_s_restaurant.html", "address": {"city": "Smyrna", "state": "GA", "street": "2579 S Cobb Dr SE", "postal_code": "30080"}, "capProviderId": null, "distance": null, "has_offers": false, "name": "Vittle's Restaurant", "longitude": -84.536797, "has_menu": true, "awards": null, "user_review_count": 0}, {"business_operation_status": 1, "rating": null, "neighborhood": null, "image": null, "scorecard": null, "featured": false, "sample_categories": "Restaurants", "public_id": "ajr-inc-marietta-2", "id": 682658690, "votes": null, "tagline": null, "has_video": false, "website": null, "offers": null, "latitude": 33.967992, "politanName": "Atlanta, GA Metro ", "phone_number": "7705653753", "tags": [{"primary": true, "id": 1722, "name": "Restaurants"}], "fax_number": null, "expansion": {"count": null, "uri": null}, "impression_id": "000b000000e1c034bdc4b941b7baeadf046ebabc28", "profile": "http://www.citysearch.com/profile/682658690/marietta_ga/ajr_inc.html", "address": {"city": "Marietta", "state": "GA", "street": "2945 Robinson Rd Ne", "postal_code": "30068"}, "capProviderId": null, "distance": null, "has_offers": false, "name": "Ajr INC", "longitude": -84.466217, "has_menu": false, "awards": null, "user_review_count": 0}, {"business_operation_status": 1, "rating": null, "neighborhood": null, "image": null, "scorecard": null, "featured": false, "sample_categories": "Catering, Restaurants, Seafood", "public_id": "uncle-buds-catering-smyrna", "id": 33571244, "votes": null, "tagline": null, "has_video": false, "website": null, "offers": null, "latitude": 33.872853, "politanName": "Atlanta, GA Metro ", "phone_number": "4046425066", "tags": [{"primary": false, "id": 1722, "name": "Restaurants"}, {"primary": false, "id": 11228, "name": "Seafood"}, {"primary": true, "id": 1705, "name": "Catering"}], "fax_number": null, "expansion": {"count": null, "uri": null}, "impression_id": "000b0000003c4c669c76254344a5a45a4a907d61f9", "profile": "http://www.citysearch.com/profile/33571244/smyrna_ga/uncle_bud_s_catering.html", "address": {"city": "Smyrna", "state": "GA", "street": "725 Concord Rd SE", "postal_code": "30082"}, "capProviderId": null, "distance": null, "has_offers": false, "name": "Uncle Bud's Catering", "longitude": -84.533536, "has_menu": false, "awards": null, "user_review_count": 0}, {"business_operation_status": 1, "rating": null, "neighborhood": null, "image": null, "scorecard": null, "featured": false, "sample_categories": "Restaurants", "public_id": "box-lunch-express-atlanta", "id": 33572135, "votes": null, "tagline": null, "has_video": false, "website": null, "offers": null, "latitude": 33.879395, "politanName": "Atlanta, GA Metro ", "phone_number": "7709514994", "tags": [{"primary": true, "id": 1722, "name": "Restaurants"}], "fax_number": null, "expansion": {"count": null, "uri": null}, "impression_id": "000b000000d7ffe3b97521491db1bc7827432ac214", "profile": "http://www.citysearch.com/profile/33572135/atlanta_ga/box_lunch_express.html", "address": {"city": "Atlanta", "state": "GA", "street": "3051 Akers Mill Rd SE", "postal_code": "30339"}, "capProviderId": null, "distance": null, "has_offers": false, "name": "Box Lunch Express", "longitude": -84.463912, "has_menu": false, "awards": null, "user_review_count": 0}, {"business_operation_status": 1, "rating": null, "neighborhood": null, "image": null, "scorecard": null, "featured": false, "sample_categories": "Restaurants, Bars & Clubs, Traditional American, Carry Out", "public_id": "chilis-grill-bar-atlanta-8", "id": 775225760, "votes": null, "tagline": null, "has_video": false, "website": null, "offers": null, "latitude": 33.878815, "politanName": "Atlanta, GA Metro ", "phone_number": "4044614122", "tags": [{"primary": false, "id": 164, "name": "Bars & Clubs"}, {"primary": false, "id": 11190, "name": "Traditional American"}, {"primary": false, "id": 11247, "name": "Carry Out"}, {"primary": true, "id": 1722, "name": "Restaurants"}], "fax_number": null, "expansion": {"count": null, "uri": null}, "impression_id": "000b0000002d03a3ffcfd243e39f2389ec6c6fbe95", "profile": "http://www.citysearch.com/profile/775225760/atlanta_ga/chili_s_grill_bar.html", "address": {"city": "Atlanta", "state": "GA", "street": "6000 Atlanta Hartsfield Airpt", "postal_code": "30339"}, "capProviderId": null, "distance": null, "has_offers": false, "name": "Chili's Grill & Bar", "longitude": -84.464518, "has_menu": false, "awards": null, "user_review_count": 0}, {"business_operation_status": 1, "rating": null, "neighborhood": null, "image": null, "scorecard": null, "featured": false, "sample_categories": "Restaurants, Delis And Delicatessens, Sandwich Shops, Carry Out", "public_id": "subway-kennesaw-11", "id": 777683740, "votes": null, "tagline": null, "has_video": false, "website": "http://www.citysearch.com/profile/external/777683740/kennesaw_ga/subway.html", "offers": null, "latitude": 34.033713, "politanName": "Atlanta, GA Metro ", "phone_number": "7705440339", "tags": [{"primary": false, "id": 1727, "name": "Delis And Delicatessens"}, {"primary": false, "id": 1736, "name": "Sandwich Shops"}, {"primary": false, "id": 11247, "name": "Carry Out"}, {"primary": true, "id": 1722, "name": "Restaurants"}], "fax_number": null, "expansion": {"count": null, "uri": null}, "impression_id": "000b000000d669ba7cd29c4ebea0e11e8a9481a148", "profile": "http://www.citysearch.com/profile/777683740/kennesaw_ga/subway.html", "address": {"city": "Kennesaw", "state": "GA", "street": "3300 Frey Rd NW", "postal_code": "30144"}, "capProviderId": null, "distance": null, "has_offers": false, "name": "SUBWAY", "longitude": -84.579677, "has_menu": true, "awards": null, "user_review_count": 0}, {"business_operation_status": 1, "rating": null, "neighborhood": null, "image": null, "scorecard": null, "featured": false, "sample_categories": "Coffeehouses", "public_id": "house-of-brews-llc-kennesaw", "id": 777659260, "votes": null, "tagline": null, "has_video": false, "website": null, "offers": null, "latitude": 34.018008, "politanName": "Atlanta, GA Metro ", "phone_number": "7704274005", "tags": [{"primary": true, "id": 1726, "name": "Coffeehouses"}], "fax_number": null, "expansion": {"count": null, "uri": null}, "impression_id": "000b0000004222f068a81444cdb747f2c148e24e4c", "profile": "http://www.citysearch.com/profile/777659260/kennesaw_ga/house_of_brews_llc.html", "address": {"city": "Kennesaw", "state": "GA", "street": "2655 Cobb Pkwy NW # 2101", "postal_code": "30152"}, "capProviderId": null, "distance": null, "has_offers": false, "name": "House of Brews LLC", "longitude": -84.619527, "has_menu": false, "awards": null, "user_review_count": 0}, {"business_operation_status": 1, "rating": null, "neighborhood": null, "image": null, "scorecard": null, "featured": false, "sample_categories": "Restaurants, Bars & Clubs, Mexican", "public_id": "bogeys-kennesaw", "id": 775191750, "votes": null, "tagline": null, "has_video": false, "website": null, "offers": null, "latitude": 34.013172, "politanName": "Atlanta, GA Metro ", "phone_number": "7704261515", "tags": [{"primary": false, "id": 164, "name": "Bars & Clubs"}, {"primary": false, "id": 11208, "name": "Mexican"}, {"primary": true, "id": 1722, "name": "Restaurants"}], "fax_number": null, "expansion": {"count": null, "uri": null}, "impression_id": "000b000000b1f8af209e3f4e3ab31984ba7d4b5e96", "profile": "http://www.citysearch.com/profile/775191750/kennesaw_ga/bogey_s.html", "address": {"city": "Kennesaw", "state": "GA", "street": "2615 George Busbee Pkwy NW", "postal_code": "30144"}, "capProviderId": null, "distance": null, "has_offers": false, "name": "Bogey's", "longitude": -84.567215, "has_menu": false, "awards": null, "user_review_count": 0}, {"business_operation_status": 1, "rating": null, "neighborhood": null, "image": null, "scorecard": null, "featured": false, "sample_categories": "Restaurants, Mexican", "public_id": "desperados-tex-mex-rstrnt-marietta", "id": 775196520, "votes": null, "tagline": null, "has_video": false, "website": null, "offers": null, "latitude": 33.99637, "politanName": "Atlanta, GA Metro ", "phone_number": "7704202550", "tags": [{"primary": false, "id": 11208, "name": "Mexican"}, {"primary": true, "id": 1722, "name": "Restaurants"}], "fax_number": null, "expansion": {"count": null, "uri": null}, "impression_id": "000b0000004924f121b8f94daaafcdfd0e2786248c", "profile": "http://www.citysearch.com/profile/775196520/marietta_ga/desperado_s_tex_mex_rstrnt.html", "address": {"city": "Marietta", "state": "GA", "street": "700 Sandy Plains Rd", "postal_code": "30066"}, "capProviderId": null, "distance": null, "has_offers": false, "name": "Desperado's Tex Mex Rstrnt", "longitude": -84.528753, "has_menu": false, "awards": null, "user_review_count": 0}, {"business_operation_status": 1, "rating": null, "neighborhood": null, "image": null, "scorecard": null, "featured": false, "sample_categories": "Coffee & Tea Shops, Coffeehouses", "public_id": "classic-coffee-inc-kennesaw", "id": 775222890, "votes": null, "tagline": null, "has_video": false, "website": null, "offers": null, "latitude": 34.042632, "politanName": "Atlanta, GA Metro ", "phone_number": "7706357120", "tags": [{"primary": false, "id": 1726, "name": "Coffeehouses"}, {"primary": true, "id": 1711, "name": "Coffee & Tea Shops"}], "fax_number": null, "expansion": {"count": null, "uri": null}, "impression_id": "000b000000a8b1719a028b4fa5ba99519b7138076c", "profile": "http://www.citysearch.com/profile/775222890/kennesaw_ga/classic_coffee_inc.html", "address": {"city": "Kennesaw", "state": "GA", "street": "3805 Canton Pl NW", "postal_code": "30144"}, "capProviderId": null, "distance": null, "has_offers": false, "name": "Classic Coffee Inc", "longitude": -84.584447, "has_menu": false, "awards": null, "user_review_count": 0}, {"business_operation_status": 1, "rating": null, "neighborhood": null, "image": null, "scorecard": null, "featured": false, "sample_categories": "Restaurants, Carry Out", "public_id": "super-suppers-smyrna", "id": 777798500, "votes": null, "tagline": null, "has_video": false, "website": "http://www.citysearch.com/profile/external/777798500/smyrna_ga/super_suppers.html", "offers": null, "latitude": 33.840772, "politanName": "Atlanta, GA Metro ", "phone_number": "7708035466", "tags": [{"primary": false, "id": 11247, "name": "Carry Out"}, {"primary": true, "id": 1722, "name": "Restaurants"}], "fax_number": null, "expansion": {"count": null, "uri": null}, "impression_id": "000b000000b5440c9d8531433f868580d0c21c9dca", "profile": "http://www.citysearch.com/profile/777798500/smyrna_ga/super_suppers.html", "address": {"city": "Smyrna", "state": "GA", "street": "1385 Highlands Ridge Rd Se # A", "postal_code": "30082"}, "capProviderId": null, "distance": null, "has_offers": false, "name": "Super Suppers", "longitude": -84.519704, "has_menu": true, "awards": null, "user_review_count": 0}, {"business_operation_status": 0, "rating": null, "neighborhood": null, "image": null, "scorecard": null, "featured": false, "sample_categories": "Restaurants, Chicken", "public_id": "teriyaki-chicken-kennesaw", "id": 777806690, "votes": null, "tagline": null, "has_video": false, "website": null, "offers": null, "latitude": 34.061692, "politanName": "Atlanta, GA Metro ", "phone_number": "7704269225", "tags": [{"primary": false, "id": 12839, "name": "Chicken"}, {"primary": true, "id": 1722, "name": "Restaurants"}], "fax_number": null, "expansion": {"count": null, "uri": null}, "impression_id": "000b000000dbca069b1672443687e9385bfe72b0e6", "profile": "http://www.citysearch.com/profile/777806690/kennesaw_ga/teriyaki_chicken.html", "address": {"city": "Kennesaw", "state": "GA", "street": "4430 Wade Green Rd NW", "postal_code": "30144"}, "capProviderId": null, "distance": null, "has_offers": false, "name": "Teriyaki Chicken", "longitude": -84.591055, "has_menu": true, "awards": null, "user_review_count": 2}, {"business_operation_status": 0, "rating": null, "neighborhood": null, "image": null, "scorecard": null, "featured": false, "sample_categories": "Restaurants", "public_id": "big-apple-cafe-atlanta-2", "id": 777818390, "votes": null, "tagline": null, "has_video": false, "website": null, "offers": null, "latitude": 33.901896, "politanName": "Atlanta, GA Metro ", "phone_number": "7708580088", "tags": [{"primary": true, "id": 1722, "name": "Restaurants"}], "fax_number": null, "expansion": {"count": null, "uri": null}, "impression_id": "000b0000009c383728a78b4bf4903bf422076df707", "profile": "http://www.citysearch.com/profile/777818390/atlanta_ga/big_apple_cafe.html", "address": {"city": "Atlanta", "state": "GA", "street": "1000 Parkwood Cir Se # 175", "postal_code": "30339"}, "capProviderId": null, "distance": null, "has_offers": false, "name": "Big Apple Cafe", "longitude": -84.459791, "has_menu": false, "awards": null, "user_review_count": 0}, {"business_operation_status": 1, "rating": null, "neighborhood": null, "image": null, "scorecard": null, "featured": false, "sample_categories": "Delis And Delicatessens", "public_id": "kroger-deli-smyrna-4", "id": 705897390, "votes": null, "tagline": null, "has_video": false, "website": null, "offers": null, "latitude": 33.873676, "politanName": "Atlanta, GA Metro ", "phone_number": "7704338380", "tags": [{"primary": true, "id": 1727, "name": "Delis And Delicatessens"}], "fax_number": null, "expansion": {"count": null, "uri": null}, "impression_id": "000b0000005dfca3f069e34495870e2576c76fe141", "profile": "http://www.citysearch.com/profile/705897390/smyrna_ga/kroger_deli.html", "address": {"city": "Smyrna", "state": "GA", "street": "3315 S Cobb Dr Se # 1", "postal_code": "30080"}, "capProviderId": null, "distance": null, "has_offers": false, "name": "Kroger Deli", "longitude": -84.52868, "has_menu": false, "awards": null, "user_review_count": 0}, {"business_operation_status": 1, "rating": null, "neighborhood": null, "image": null, "scorecard": null, "featured": false, "sample_categories": "Restaurants", "public_id": "cosmopolitan-marietta", "id": 793243310, "votes": null, "tagline": null, "has_video": false, "website": null, "offers": null, "latitude": 33.92362, "politanName": "Atlanta, GA Metro ", "phone_number": "7704859213", "tags": [{"primary": true, "id": 1722, "name": "Restaurants"}], "fax_number": null, "expansion": {"count": null, "uri": null}, "impression_id": "000b0000007067be1754b0474288ca047320684507", "profile": "http://www.citysearch.com/profile/793243310/marietta_ga/cosmopolitan.html", "address": {"city": "Marietta", "state": "GA", "street": "2475 Delk Rd Se", "postal_code": "30067"}, "capProviderId": null, "distance": null, "has_offers": false, "name": "Cosmopolitan", "longitude": -84.479496, "has_menu": false, "awards": null, "user_review_count": 0}, {"business_operation_status": 1, "rating": null, "neighborhood": null, "image": null, "scorecard": null, "featured": false, "sample_categories": "Restaurants", "public_id": "j-gumbos-marietta", "id": 713632110, "votes": null, "tagline": null, "has_video": false, "website": null, "offers": null, "latitude": 33.903919, "politanName": "Atlanta, GA Metro ", "phone_number": "7706121810", "tags": [{"primary": true, "id": 1722, "name": "Restaurants"}], "fax_number": null, "expansion": {"count": null, "uri": null}, "impression_id": "000b00000042bbdc1f4baf46cf9da77617acf3c70d", "profile": "http://www.citysearch.com/profile/713632110/marietta_ga/j_gumbo_s.html", "address": {"city": "Marietta", "state": "GA", "street": "3000 Windy Hill Rd Se", "postal_code": "30067"}, "capProviderId": null, "distance": null, "has_offers": false, "name": "J Gumbo's", "longitude": -84.4706, "has_menu": true, "awards": null, "user_review_count": 0}, {"business_operation_status": 1, "rating": null, "neighborhood": null, "image": null, "scorecard": null, "featured": false, "sample_categories": "Restaurants", "public_id": "cappys-oyster-bar-kennesaw", "id": 805596570, "votes": null, "tagline": null, "has_video": false, "website": null, "offers": null, "latitude": 34.015064, "politanName": "Atlanta, GA Metro ", "phone_number": "7705909742", "tags": [{"primary": true, "id": 1722, "name": "Restaurants"}], "fax_number": null, "expansion": {"count": null, "uri": null}, "impression_id": "000b000000cebc075b3f9e401182bbdeef6d2054aa", "profile": "http://www.citysearch.com/profile/805596570/kennesaw_ga/cappy_s_oyster_bar.html", "address": {"city": "Kennesaw", "state": "GA", "street": "2500 Cobb Pkwy NW # B3", "postal_code": "30152"}, "capProviderId": null, "distance": null, "has_offers": false, "name": "Cappy's Oyster Bar", "longitude": -84.613619, "has_menu": false, "awards": null, "user_review_count": 0}, {"business_operation_status": 1, "rating": null, "neighborhood": null, "image": null, "scorecard": null, "featured": false, "sample_categories": "Restaurants, Pizza, Carry Out", "public_id": "little-caesars-pizza-marietta-13", "id": 798841470, "votes": null, "tagline": null, "has_video": false, "website": "http://www.citysearch.com/profile/external/798841470/marietta_ga/little_caesars_pizza.html", "offers": null, "latitude": 34.033796, "politanName": "Atlanta, GA Metro ", "phone_number": "7704245051", "tags": [{"primary": false, "id": 1722, "name": "Restaurants"}, {"primary": false, "id": 11247, "name": "Carry Out"}, {"primary": true, "id": 11299, "name": "Pizza"}], "fax_number": null, "expansion": {"count": null, "uri": null}, "impression_id": "000b00000044e61679ebbe42729bb37446ac3db296", "profile": "http://www.citysearch.com/profile/798841470/marietta_ga/little_caesars_pizza.html", "address": {"city": "Marietta", "state": "GA", "street": "3372 Canton Rd", "postal_code": "30066"}, "capProviderId": null, "distance": null, "has_offers": false, "name": "Little Caesars Pizza", "longitude": -84.527673, "has_menu": false, "awards": null, "user_review_count": 0}, {"business_operation_status": 1, "rating": null, "neighborhood": null, "image": null, "scorecard": null, "featured": false, "sample_categories": "Sandwich Shops, Restaurants, Delis And Delicatessens, Soups", "public_id": "georgia-sandwich-co-marietta", "id": 33646008, "votes": null, "tagline": null, "has_video": false, "website": "http://www.citysearch.com/profile/external/33646008/marietta_ga/georgia_sandwich_co.html", "offers": null, "latitude": 33.933969, "politanName": "Atlanta, GA Metro ", "phone_number": "7704265678", "tags": [{"primary": false, "id": 1722, "name": "Restaurants"}, {"primary": false, "id": 1727, "name": "Delis And Delicatessens"}, {"primary": false, "id": 11311, "name": "Soups"}, {"primary": true, "id": 1736, "name": "Sandwich Shops"}], "fax_number": null, "expansion": {"count": null, "uri": null}, "impression_id": "000b000000ac7ea599378849f580105002cf9e4b4a", "profile": "http://www.citysearch.com/profile/33646008/marietta_ga/georgia_sandwich_co.html", "address": {"city": "Marietta", "state": "GA", "street": "115 Davis Cir SW", "postal_code": "30008"}, "capProviderId": null, "distance": null, "has_offers": false, "name": "Georgia Sandwich Co", "longitude": -84.554133, "has_menu": false, "awards": null, "user_review_count": 0}, {"business_operation_status": 1, "rating": null, "neighborhood": null, "image": null, "scorecard": null, "featured": false, "sample_categories": "Restaurants", "public_id": "creative-cafe-marietta-2", "id": 820012610, "votes": null, "tagline": null, "has_video": false, "website": null, "offers": null, "latitude": 33.895694, "politanName": "Atlanta, GA Metro ", "phone_number": "6787702879", "tags": [{"primary": true, "id": 1722, "name": "Restaurants"}], "fax_number": null, "expansion": {"count": null, "uri": null}, "impression_id": "000b00000074a76497825645b198736eab75e8dd65", "profile": "http://www.citysearch.com/profile/820012610/marietta_ga/creative_cafe.html", "address": {"city": "Marietta", "state": "GA", "street": "1430 Glynn Oaks Cir SW", "postal_code": "30008"}, "capProviderId": null, "distance": null, "has_offers": false, "name": "Creative Cafe", "longitude": -84.599593, "has_menu": false, "awards": null, "user_review_count": 0}, {"business_operation_status": 1, "rating": null, "neighborhood": null, "image": null, "scorecard": null, "featured": false, "sample_categories": "Restaurants, Delis And Delicatessens, Sandwich Shops, Carry Out", "public_id": "quiznos-austell", "id": 827661580, "votes": null, "tagline": null, "has_video": false, "website": null, "offers": null, "latitude": 33.860912, "politanName": "Atlanta, GA Metro ", "phone_number": "6783840005", "tags": [{"primary": false, "id": 1727, "name": "Delis And Delicatessens"}, {"primary": false, "id": 1736, "name": "Sandwich Shops"}, {"primary": false, "id": 11247, "name": "Carry Out"}, {"primary": true, "id": 1722, "name": "Restaurants"}], "fax_number": null, "expansion": {"count": null, "uri": null}, "impression_id": "000b0000001576acef05574742b3ed37ce20ca97cb", "profile": "http://www.citysearch.com/profile/827661580/austell_ga/quiznos.html", "address": {"city": "Austell", "state": "GA", "street": "2495 E West Connector # 80", "postal_code": "30106"}, "capProviderId": null, "distance": null, "has_offers": false, "name": "Quiznos", "longitude": -84.620637, "has_menu": false, "awards": null, "user_review_count": 0}, {"business_operation_status": 1, "rating": null, "neighborhood": null, "image": null, "scorecard": null, "featured": false, "sample_categories": "Luaus", "public_id": "bergamo-kennesaw", "id": 827735830, "votes": null, "tagline": null, "has_video": false, "website": null, "offers": null, "latitude": 34.05561, "politanName": "Atlanta, GA Metro ", "phone_number": "6784458585", "tags": [{"primary": true, "id": 11285, "name": "Luaus"}], "fax_number": null, "expansion": {"count": null, "uri": null}, "impression_id": "000b000000a09e3a4ce47b4bf997b5ce87a57b9842", "profile": "http://www.citysearch.com/profile/827735830/kennesaw_ga/bergamo.html", "address": {"city": "Kennesaw", "state": "GA", "street": "4290 Bells Ferry Rd NW # 114", "postal_code": "30144"}, "capProviderId": null, "distance": null, "has_offers": false, "name": "Bergamo", "longitude": -84.554213, "has_menu": false, "awards": null, "user_review_count": 4}], "histograms": [], "tag_ids": [1722], "uri": "http://api.citygridmedia.com:8080/search/places/v2/search/where?has_offers=false&type=restaurant&format=json&page=32&where=30060&rpp=50&histograms=false&publisher=10000009598&region_type=circle", "did_you_mean": "", "regions": [{"latitude": 33.92521, "default_radius": 3.68, "type": "postal_code", "name": "30060", "longitude": -84.546093}], "call_id": "000b000000b54c852aa1ae46e39dae2b281a2c9dc1", "first_hit": 1551, "total_hits": 2103, "geo_ids": [26291], "page": 32, "last_hit": 1600}}