{"results": {"rpp": 50, "locations": [{"business_operation_status": 1, "rating": null, "neighborhood": null, "image": null, "scorecard": null, "featured": false, "sample_categories": "Water Well Drilling, Drilling & Boring Contractors, Food Delivery", "public_id": "j-wings-more-smyrna", "id": 2962298, "votes": null, "tagline": null, "has_video": false, "website": null, "offers": null, "latitude": 33.885247, "politanName": "Atlanta, GA Metro ", "phone_number": "7702269977", "tags": [{"primary": false, "id": 889, "name": "Water Well Drilling"}, {"primary": false, "id": 892, "name": "Drilling & Boring Contractors"}, {"primary": true, "id": 11267, "name": "Food Delivery"}], "fax_number": null, "expansion": {"count": null, "uri": null}, "impression_id": "000b00000038468bebd12a4af6801ebc5f02a52260", "profile": "http://www.citysearch.com/profile/2962298/smyrna_ga/j_wings_more.html", "address": {"city": "Smyrna", "state": "GA", "street": "2778 Cumberland Blvd SE Ste 574", "postal_code": "30080"}, "capProviderId": null, "distance": null, "has_offers": false, "name": "J Wings & More", "longitude": -84.47677, "has_menu": false, "awards": null, "user_review_count": 0}, {"business_operation_status": 1, "rating": null, "neighborhood": null, "image": null, "scorecard": null, "featured": false, "sample_categories": "Restaurants", "public_id": "mexican-taqueria-smyrna", "id": 623985844, "votes": null, "tagline": null, "has_video": false, "website": null, "offers": null, "latitude": 33.889788, "politanName": "Atlanta, GA Metro ", "phone_number": "7709891248", "tags": [{"primary": true, "id": 1722, "name": "Restaurants"}], "fax_number": null, "expansion": {"count": null, "uri": null}, "impression_id": "000b000000ada9ccfd36d24b918fa462ad3eebc14a", "profile": "http://www.citysearch.com/profile/623985844/smyrna_ga/mexican_taqueria.html", "address": {"city": "Smyrna", "state": "GA", "street": "2599 S Cobb Dr SE", "postal_code": "30080"}, "capProviderId": null, "distance": null, "has_offers": false, "name": "Mexican Taqueria", "longitude": -84.536114, "has_menu": false, "awards": null, "user_review_count": 0}, {"business_operation_status": 1, "rating": null, "neighborhood": null, "image": null, "scorecard": null, "featured": false, "sample_categories": "Restaurants, Cajun & Creole", "public_id": "on-the-bayou-smyrna", "id": 764832940, "votes": null, "tagline": null, "has_video": false, "website": null, "offers": null, "latitude": 33.879071, "politanName": "Atlanta, GA Metro ", "phone_number": "7704343329", "tags": [{"primary": false, "id": 11245, "name": "Cajun & Creole"}, {"primary": true, "id": 1722, "name": "Restaurants"}], "fax_number": null, "expansion": {"count": null, "uri": null}, "impression_id": "000b000000d710d3621e28472cac39a8b6fbeee87a", "profile": "http://www.citysearch.com/profile/764832940/smyrna_ga/on_the_bayou.html", "address": {"city": "Smyrna", "state": "GA", "street": "3120 S Cobb Dr SE", "postal_code": "30080"}, "capProviderId": null, "distance": null, "has_offers": false, "name": "On the Bayou", "longitude": -84.532683, "has_menu": false, "awards": null, "user_review_count": 0}, {"business_operation_status": 1, "rating": null, "neighborhood": null, "image": null, "scorecard": null, "featured": false, "sample_categories": "Delis And Delicatessens, Restaurants", "public_id": "deli-dellghts-marietta", "id": 764838340, "votes": null, "tagline": null, "has_video": false, "website": null, "offers": null, "latitude": 33.952594, "politanName": "Atlanta, GA Metro ", "phone_number": "6784016001", "tags": [{"primary": false, "id": 1722, "name": "Restaurants"}, {"primary": true, "id": 1727, "name": "Delis And Delicatessens"}], "fax_number": null, "expansion": {"count": null, "uri": null}, "impression_id": "000b0000008380219983f646ff8c45c68fb9a5475b", "profile": "http://www.citysearch.com/profile/764838340/marietta_ga/deli_dellghts.html", "address": {"city": "Marietta", "state": "GA", "street": "800 Whitlock Ave NW", "postal_code": "30064"}, "capProviderId": null, "distance": null, "has_offers": false, "name": "Deli Dellghts", "longitude": -84.575881, "has_menu": false, "awards": null, "user_review_count": 0}, {"business_operation_status": 1, "rating": null, "neighborhood": null, "image": null, "scorecard": null, "featured": false, "sample_categories": "Restaurants", "public_id": "twelve06-atlanta", "id": 764934730, "votes": null, "tagline": null, "has_video": false, "website": null, "offers": null, "latitude": 33.859198, "politanName": "Atlanta, GA Metro ", "phone_number": "7703191206", "tags": [{"primary": true, "id": 1722, "name": "Restaurants"}], "fax_number": null, "expansion": {"count": null, "uri": null}, "impression_id": "000b0000008bcce5e9f9c3414c8906658e24e13907", "profile": "http://www.citysearch.com/profile/764934730/atlanta_ga/twelve06.html", "address": {"city": "Atlanta", "state": "GA", "street": "2355 Cumberland Pkwy SE", "postal_code": "30339"}, "capProviderId": null, "distance": null, "has_offers": false, "name": "Twelve06", "longitude": -84.480448, "has_menu": false, "awards": null, "user_review_count": 0}, {"business_operation_status": 1, "rating": null, "neighborhood": null, "image": null, "scorecard": null, "featured": false, "sample_categories": "Juice & Smoothie Shops, Restaurants, Carry Out", "public_id": "orange-julius-smyrna", "id": 764893330, "votes": null, "tagline": null, "has_video": false, "website": null, "offers": null, "latitude": 33.882258, "politanName": "Atlanta, GA Metro ", "phone_number": "7704323809", "tags": [{"primary": false, "id": 1722, "name": "Restaurants"}, {"primary": false, "id": 11247, "name": "Carry Out"}, {"primary": true, "id": 1735, "name": "Juice & Smoothie Shops"}], "fax_number": null, "expansion": {"count": null, "uri": null}, "impression_id": "000b000000a966c47b0b234a958c65afcff455a8f3", "profile": "http://www.citysearch.com/profile/764893330/smyrna_ga/orange_julius.html", "address": {"city": "Smyrna", "state": "GA", "street": "1641 Spring Rd SE", "postal_code": "30080"}, "capProviderId": null, "distance": null, "has_offers": false, "name": "Orange Julius", "longitude": -84.505572, "has_menu": false, "awards": null, "user_review_count": 0}, {"business_operation_status": 1, "rating": null, "neighborhood": null, "image": null, "scorecard": null, "featured": false, "sample_categories": "Restaurants", "public_id": "vineyard-cafe-marietta", "id": 766766850, "votes": null, "tagline": null, "has_video": false, "website": null, "offers": null, "latitude": 33.950297, "politanName": "Atlanta, GA Metro ", "phone_number": "6785813771", "tags": [{"primary": true, "id": 1722, "name": "Restaurants"}], "fax_number": null, "expansion": {"count": null, "uri": null}, "impression_id": "000b0000001e5ca73ca34b4385911f7977a5927b0d", "profile": "http://www.citysearch.com/profile/766766850/marietta_ga/vineyard_cafe.html", "address": {"city": "Marietta", "state": "GA", "street": "21 Park St SE", "postal_code": "30060"}, "capProviderId": null, "distance": null, "has_offers": false, "name": "Vineyard Cafe", "longitude": -84.533173, "has_menu": true, "awards": null, "user_review_count": 0}, {"business_operation_status": 1, "rating": null, "neighborhood": null, "image": null, "scorecard": null, "featured": false, "sample_categories": "Restaurants", "public_id": "sun-dried-restaurant-marietta", "id": 790803840, "votes": null, "tagline": null, "has_video": false, "website": null, "offers": null, "latitude": 34.015118, "politanName": "Atlanta, GA Metro ", "phone_number": "6785406642", "tags": [{"primary": true, "id": 1722, "name": "Restaurants"}], "fax_number": null, "expansion": {"count": null, "uri": null}, "impression_id": "000b00000027afca9a931a4ca5927b3f61603d90f1", "profile": "http://www.citysearch.com/profile/790803840/marietta_ga/sun_dried_restaurant.html", "address": {"city": "Marietta", "state": "GA", "street": "2635 Sandy Plains Rd", "postal_code": "30066"}, "capProviderId": null, "distance": null, "has_offers": false, "name": "Sun Dried Restaurant", "longitude": -84.495187, "has_menu": true, "awards": null, "user_review_count": 0}, {"business_operation_status": 0, "rating": null, "neighborhood": null, "image": null, "scorecard": null, "featured": false, "sample_categories": "Restaurants", "public_id": "sweet-pea-cafe-deli-marietta", "id": 655825170, "votes": null, "tagline": null, "has_video": false, "website": null, "offers": null, "latitude": 33.951248, "politanName": "Atlanta, GA Metro ", "phone_number": "7709777167", "tags": [{"primary": true, "id": 1722, "name": "Restaurants"}], "fax_number": null, "expansion": {"count": null, "uri": null}, "impression_id": "000b00000085f6bed9d066441ab52ea97a756dd03e", "profile": "http://www.citysearch.com/profile/655825170/marietta_ga/sweet_pea_cafe_deli.html", "address": {"city": "Marietta", "state": "GA", "street": "1516 Roswell Rd", "postal_code": "30062"}, "capProviderId": null, "distance": null, "has_offers": false, "name": "Sweet Pea Cafe & Deli", "longitude": -84.508172, "has_menu": true, "awards": null, "user_review_count": 0}, {"business_operation_status": 1, "rating": null, "neighborhood": null, "image": null, "scorecard": null, "featured": false, "sample_categories": "Restaurants", "public_id": "clay-oven-restaurant-marietta", "id": 754822000, "votes": null, "tagline": null, "has_video": false, "website": null, "offers": null, "latitude": 33.937014, "politanName": "Atlanta, GA Metro ", "phone_number": "6785811533", "tags": [{"primary": true, "id": 1722, "name": "Restaurants"}], "fax_number": null, "expansion": {"count": null, "uri": null}, "impression_id": "000b000000de3ecaffb56c4f2c9dc164ffe4024645", "profile": "http://www.citysearch.com/profile/754822000/marietta_ga/clay_oven_restaurant.html", "address": {"city": "Marietta", "state": "GA", "street": "1115 Powder Springs St", "postal_code": "30064"}, "capProviderId": null, "distance": null, "has_offers": false, "name": "Clay Oven Restaurant", "longitude": -84.554706, "has_menu": false, "awards": null, "user_review_count": 0}, {"business_operation_status": 1, "rating": null, "neighborhood": null, "image": null, "scorecard": null, "featured": false, "sample_categories": "Restaurants", "public_id": "los-dorados-grill-marietta", "id": 810451910, "votes": null, "tagline": null, "has_video": false, "website": null, "offers": null, "latitude": 33.980787, "politanName": "Atlanta, GA Metro ", "phone_number": "7705788013", "tags": [{"primary": true, "id": 1722, "name": "Restaurants"}], "fax_number": null, "expansion": {"count": null, "uri": null}, "impression_id": "000b0000006dff82c68dbe42de89348f66417e8f15", "profile": "http://www.citysearch.com/profile/810451910/marietta_ga/los_dorados_grill.html", "address": {"city": "Marietta", "state": "GA", "street": "3101 Roswell Rd", "postal_code": "30062"}, "capProviderId": null, "distance": null, "has_offers": false, "name": "Los Dorados Grill", "longitude": -84.464028, "has_menu": false, "awards": null, "user_review_count": 0}, {"business_operation_status": 1, "rating": null, "neighborhood": null, "image": null, "scorecard": null, "featured": false, "sample_categories": "Restaurants, Carry Out", "public_id": "arbys-marietta-15", "id": 764873610, "votes": null, "tagline": null, "has_video": false, "website": null, "offers": null, "latitude": 33.967279, "politanName": "Atlanta, GA Metro ", "phone_number": "7704240784", "tags": [{"primary": false, "id": 11247, "name": "Carry Out"}, {"primary": true, "id": 1722, "name": "Restaurants"}], "fax_number": null, "expansion": {"count": null, "uri": null}, "impression_id": "000b00000070e4c8d7eb3f45efbe3342e9b8a99e42", "profile": "http://www.citysearch.com/profile/764873610/marietta_ga/arby_s.html", "address": {"city": "Marietta", "state": "GA", "street": "643 Cobb Pkwy N", "postal_code": "30062"}, "capProviderId": null, "distance": null, "has_offers": false, "name": "Arby's", "longitude": -84.535738, "has_menu": false, "awards": null, "user_review_count": 0}, {"business_operation_status": 1, "rating": null, "neighborhood": null, "image": null, "scorecard": null, "featured": false, "sample_categories": "Restaurants, Traditional American, Carry Out", "public_id": "mr-philly-marietta", "id": 764893230, "votes": null, "tagline": null, "has_video": false, "website": null, "offers": null, "latitude": 33.953033, "politanName": "Atlanta, GA Metro ", "phone_number": "7705750615", "tags": [{"primary": false, "id": 11190, "name": "Traditional American"}, {"primary": false, "id": 11247, "name": "Carry Out"}, {"primary": true, "id": 1722, "name": "Restaurants"}], "fax_number": null, "expansion": {"count": null, "uri": null}, "impression_id": "000b0000009dd1c2ceee5a466c97ca53cc27a4a332", "profile": "http://www.citysearch.com/profile/764893230/marietta_ga/mr_philly.html", "address": {"city": "Marietta", "state": "GA", "street": "1000 Whitlock Ave NW # 110", "postal_code": "30064"}, "capProviderId": null, "distance": null, "has_offers": false, "name": "Mr Philly", "longitude": -84.581202, "has_menu": false, "awards": null, "user_review_count": 0}, {"business_operation_status": 1, "rating": null, "neighborhood": null, "image": null, "scorecard": null, "featured": false, "sample_categories": "Restaurants, Carry Out, Chicken", "public_id": "popeyes-chicken-biscuits-marietta-3", "id": 764903940, "votes": null, "tagline": null, "has_video": false, "website": null, "offers": null, "latitude": 33.922747, "politanName": "Atlanta, GA Metro ", "phone_number": "7707947031", "tags": [{"primary": false, "id": 11247, "name": "Carry Out"}, {"primary": false, "id": 12839, "name": "Chicken"}, {"primary": true, "id": 1722, "name": "Restaurants"}], "fax_number": null, "expansion": {"count": null, "uri": null}, "impression_id": "000b0000004eecafaa736a49ceb5e0ba6443764370", "profile": "http://www.citysearch.com/profile/764903940/marietta_ga/popeye_s_chicken_biscuits.html", "address": {"city": "Marietta", "state": "GA", "street": "1444 Livingston Dr SW", "postal_code": "30064"}, "capProviderId": null, "distance": null, "has_offers": false, "name": "Popeye's Chicken & Biscuits", "longitude": -84.596038, "has_menu": false, "awards": null, "user_review_count": 0}, {"business_operation_status": 0, "rating": null, "neighborhood": null, "image": null, "scorecard": null, "featured": false, "sample_categories": "Restaurants, Delis And Delicatessens, Sandwich Shops, Carry Out", "public_id": "blimpie-subs-salads-atlanta-43", "id": 764834820, "votes": null, "tagline": null, "has_video": false, "website": null, "offers": null, "latitude": 33.878815, "politanName": "Atlanta, GA Metro ", "phone_number": "7709842707", "tags": [{"primary": false, "id": 1727, "name": "Delis And Delicatessens"}, {"primary": false, "id": 1736, "name": "Sandwich Shops"}, {"primary": false, "id": 11247, "name": "Carry Out"}, {"primary": true, "id": 1722, "name": "Restaurants"}], "fax_number": null, "expansion": {"count": null, "uri": null}, "impression_id": "000b000000698f3eb08a31472e817212b0640f61a3", "profile": "http://www.citysearch.com/profile/764834820/atlanta_ga/blimpie_subs_salads.html", "address": {"city": "Atlanta", "state": "GA", "street": "180 Interst N Cir SE # 500", "postal_code": "30339"}, "capProviderId": null, "distance": null, "has_offers": false, "name": "Blimpie Subs & Salads", "longitude": -84.464518, "has_menu": false, "awards": null, "user_review_count": 0}, {"business_operation_status": 1, "rating": null, "neighborhood": null, "image": null, "scorecard": null, "featured": false, "sample_categories": "Restaurants, Bars & Clubs, Bars & Pubs", "public_id": "el-norte-bar-grill-sandy", "id": 764844720, "votes": null, "tagline": null, "has_video": false, "website": null, "offers": null, "latitude": 33.921047, "politanName": "Atlanta, GA Metro ", "phone_number": "4043038781", "tags": [{"primary": false, "id": 164, "name": "Bars & Clubs"}, {"primary": false, "id": 1686, "name": "Bars & Pubs"}, {"primary": true, "id": 1722, "name": "Restaurants"}], "fax_number": null, "expansion": {"count": null, "uri": null}, "impression_id": "000b000000d80638f7d13941bbb3c9f929d1356dc2", "profile": "http://www.citysearch.com/profile/764844720/sandy_springs_ga/el_norte_bar_grill.html", "address": {"city": "Sandy Springs", "state": "GA", "street": "6075 Roswell Rd NE", "postal_code": "30328"}, "capProviderId": null, "distance": null, "has_offers": false, "name": "El Norte Bar & Grill", "longitude": -84.378988, "has_menu": false, "awards": null, "user_review_count": 0}, {"business_operation_status": 0, "rating": null, "neighborhood": null, "image": null, "scorecard": null, "featured": false, "sample_categories": "Restaurants, Carry Out", "public_id": "ocharleys-marietta-2", "id": 764861370, "votes": null, "tagline": null, "has_video": false, "website": null, "offers": null, "latitude": 34.009709, "politanName": "Atlanta, GA Metro ", "phone_number": "7705098868", "tags": [{"primary": false, "id": 11247, "name": "Carry Out"}, {"primary": true, "id": 1722, "name": "Restaurants"}], "fax_number": null, "expansion": {"count": null, "uri": null}, "impression_id": "000b0000003888fd2e861944948b15105006929d8e", "profile": "http://www.citysearch.com/profile/764861370/marietta_ga/o_charley_s.html", "address": {"city": "Marietta", "state": "GA", "street": "2440 Sandy Plains Rd", "postal_code": "30066"}, "capProviderId": null, "distance": null, "has_offers": false, "name": "O'Charley's", "longitude": -84.496627, "has_menu": false, "awards": null, "user_review_count": 0}, {"business_operation_status": 1, "rating": null, "neighborhood": null, "image": null, "scorecard": null, "featured": false, "sample_categories": "Juice & Smoothie Shops, Restaurants, Shop Online", "public_id": "ardens-garden-atlanta-4", "id": 764868300, "votes": null, "tagline": null, "has_video": false, "website": "http://www.citysearch.com/profile/external/764868300/atlanta_ga/arden_s_garden.html", "offers": null, "latitude": 33.923737, "politanName": "Atlanta, GA Metro ", "phone_number": "4048450404", "tags": [{"primary": false, "id": 1722, "name": "Restaurants"}, {"primary": false, "id": 11375, "name": "Shop Online"}, {"primary": true, "id": 1735, "name": "Juice & Smoothie Shops"}], "fax_number": null, "expansion": {"count": null, "uri": null}, "impression_id": "000b0000007e54017140644d9ab54caad275d0b2c7", "profile": "http://www.citysearch.com/profile/764868300/atlanta_ga/arden_s_garden.html", "address": {"city": "Atlanta", "state": "GA", "street": "175 Mount Vernon Hwy NW", "postal_code": "30328"}, "capProviderId": null, "distance": null, "has_offers": false, "name": "Arden's Garden", "longitude": -84.381326, "has_menu": false, "awards": null, "user_review_count": 0}, {"business_operation_status": 1, "rating": null, "neighborhood": null, "image": null, "scorecard": null, "featured": false, "sample_categories": "Restaurants", "public_id": "beale-street-pub-marietta", "id": 811604540, "votes": null, "tagline": null, "has_video": false, "website": null, "offers": null, "latitude": 33.938176, "politanName": "Atlanta, GA Metro ", "phone_number": "7704266307", "tags": [{"primary": true, "id": 1722, "name": "Restaurants"}], "fax_number": null, "expansion": {"count": null, "uri": null}, "impression_id": "000b000000f9de997c2a2d4501b8dabdf6a9db6864", "profile": "http://www.citysearch.com/profile/811604540/marietta_ga/beale_street_pub.html", "address": {"city": "Marietta", "state": "GA", "street": "11 Garrison Rd SE", "postal_code": "30008"}, "capProviderId": null, "distance": null, "has_offers": false, "name": "Beale Street Pub", "longitude": -84.553301, "has_menu": false, "awards": null, "user_review_count": 0}, {"business_operation_status": 1, "rating": null, "neighborhood": null, "image": null, "scorecard": null, "featured": false, "sample_categories": "Restaurants", "public_id": "taqueria-marietta", "id": 812914130, "votes": null, "tagline": null, "has_video": false, "website": null, "offers": null, "latitude": 33.942474, "politanName": "Atlanta, GA Metro ", "phone_number": "7704289797", "tags": [{"primary": true, "id": 1722, "name": "Restaurants"}], "fax_number": null, "expansion": {"count": null, "uri": null}, "impression_id": "000b00000072ff76ac106c464a9749aebb96440985", "profile": "http://www.citysearch.com/profile/812914130/marietta_ga/taqueria.html", "address": {"city": "Marietta", "state": "GA", "street": "641 S Marietta Pkwy SE", "postal_code": "30060"}, "capProviderId": null, "distance": null, "has_offers": false, "name": "Taqueria", "longitude": -84.518447, "has_menu": false, "awards": null, "user_review_count": 0}, {"business_operation_status": 1, "rating": null, "neighborhood": null, "image": null, "scorecard": null, "featured": false, "sample_categories": "Restaurants", "public_id": "gato-bizco-cafe-inc-smyrna", "id": 813337660, "votes": null, "tagline": null, "has_video": false, "website": null, "offers": null, "latitude": 33.882251, "politanName": "Atlanta, GA Metro ", "phone_number": "7703333300", "tags": [{"primary": true, "id": 1722, "name": "Restaurants"}], "fax_number": null, "expansion": {"count": null, "uri": null}, "impression_id": "000b0000004c4758f4354148158fbc04121028018f", "profile": "http://www.citysearch.com/profile/813337660/smyrna_ga/gato_bizco_cafe_inc.html", "address": {"city": "Smyrna", "state": "GA", "street": "801 Country Park Dr SE", "postal_code": "30080"}, "capProviderId": null, "distance": null, "has_offers": false, "name": "Gato Bizco Cafe Inc", "longitude": -84.489138, "has_menu": false, "awards": null, "user_review_count": 0}, {"business_operation_status": 1, "rating": null, "neighborhood": null, "image": null, "scorecard": null, "featured": false, "sample_categories": "Restaurants", "public_id": "cbass-kitchen-atlanta", "id": 772976910, "votes": null, "tagline": null, "has_video": false, "website": null, "offers": null, "latitude": 33.923066, "politanName": "Atlanta, GA Metro ", "phone_number": "4047058880", "tags": [{"primary": true, "id": 1722, "name": "Restaurants"}], "fax_number": null, "expansion": {"count": null, "uri": null}, "impression_id": "000b000000688ab42373e1402a912514e92c9719c6", "profile": "http://www.citysearch.com/profile/772976910/atlanta_ga/cbass_kitchen.html", "address": {"city": "Atlanta", "state": "GA", "street": "6152 Roswell Road Northeast", "postal_code": "30328"}, "capProviderId": null, "distance": null, "has_offers": false, "name": "CBass Kitchen", "longitude": -84.379456, "has_menu": false, "awards": null, "user_review_count": 0}, {"business_operation_status": 1, "rating": null, "neighborhood": null, "image": null, "scorecard": null, "featured": false, "sample_categories": "Restaurants", "public_id": "tabooii-sandy", "id": 781224530, "votes": null, "tagline": null, "has_video": false, "website": null, "offers": null, "latitude": 33.920525, "politanName": "Atlanta, GA Metro ", "phone_number": "4042555507", "tags": [{"primary": true, "id": 1722, "name": "Restaurants"}], "fax_number": null, "expansion": {"count": null, "uri": null}, "impression_id": "000b000000a27b181111a24e748d5348f8fded56c1", "profile": "http://www.citysearch.com/profile/781224530/sandy_springs_ga/tabooii.html", "address": {"city": "Sandy Springs", "state": "GA", "street": "6075 Roswell Rd", "postal_code": "30328"}, "capProviderId": null, "distance": null, "has_offers": false, "name": "Tabooii", "longitude": -84.379, "has_menu": false, "awards": null, "user_review_count": 0}, {"business_operation_status": 1, "rating": null, "neighborhood": null, "image": null, "scorecard": null, "featured": false, "sample_categories": "Restaurants", "public_id": "central-park-capital-llc-atlanta", "id": 822429970, "votes": null, "tagline": null, "has_video": false, "website": null, "offers": null, "latitude": 33.927336, "politanName": "Atlanta, GA Metro ", "phone_number": "7703520459", "tags": [{"primary": true, "id": 1722, "name": "Restaurants"}], "fax_number": null, "expansion": {"count": null, "uri": null}, "impression_id": "000b00000096c2da88da784d3bb71a276583db9cda", "profile": "http://www.citysearch.com/profile/822429970/atlanta_ga/central_park_capital_llc.html", "address": {"city": "Atlanta", "state": "GA", "street": "7000 Central Pkwy # 200", "postal_code": "30328"}, "capProviderId": null, "distance": null, "has_offers": false, "name": "Central Park Capital LLC", "longitude": -84.348755, "has_menu": false, "awards": null, "user_review_count": 0}, {"business_operation_status": 1, "rating": null, "neighborhood": null, "image": null, "scorecard": null, "featured": false, "sample_categories": "Restaurants, Carry Out", "public_id": "johnny-rockets-marietta-2", "id": 828721630, "votes": null, "tagline": null, "has_video": false, "website": "http://www.citysearch.com/profile/external/828721630/marietta_ga/johnny_rockets.html", "offers": null, "latitude": 33.98752, "politanName": "Atlanta, GA Metro ", "phone_number": "7705090377", "tags": [{"primary": false, "id": 11247, "name": "Carry Out"}, {"primary": true, "id": 1722, "name": "Restaurants"}], "fax_number": null, "expansion": {"count": null, "uri": null}, "impression_id": "000b000000c65f03f64fec4663b83c39c4f8adfdc9", "profile": "http://www.citysearch.com/profile/828721630/marietta_ga/johnny_rockets.html", "address": {"city": "Marietta", "state": "GA", "street": "4475 Roswell Rd # 1700", "postal_code": "30062"}, "capProviderId": null, "distance": null, "has_offers": false, "name": "Johnny Rockets", "longitude": -84.42189, "has_menu": true, "awards": null, "user_review_count": 1}, {"business_operation_status": 1, "rating": null, "neighborhood": null, "image": null, "scorecard": null, "featured": false, "sample_categories": "Restaurants, Carry Out, Chicken", "public_id": "zaxbys-marietta-7", "id": 790860350, "votes": null, "tagline": null, "has_video": false, "website": "http://www.citysearch.com/profile/external/790860350/marietta_ga/zaxby_s.html", "offers": null, "latitude": 33.97374, "politanName": "Atlanta, GA Metro ", "phone_number": "6787339300", "tags": [{"primary": false, "id": 11247, "name": "Carry Out"}, {"primary": false, "id": 12839, "name": "Chicken"}, {"primary": true, "id": 1722, "name": "Restaurants"}], "fax_number": null, "expansion": {"count": null, "uri": null}, "impression_id": "000b00000077187ec2ec2746bb81ace4b25b7d4f54", "profile": "http://www.citysearch.com/profile/790860350/marietta_ga/zaxby_s.html", "address": {"city": "Marietta", "state": "GA", "street": "1347 Church Street Ext Ne", "postal_code": "30060"}, "capProviderId": null, "distance": null, "has_offers": false, "name": "Zaxby's", "longitude": -84.552385, "has_menu": true, "awards": null, "user_review_count": 0}, {"business_operation_status": 1, "rating": null, "neighborhood": null, "image": null, "scorecard": null, "featured": false, "sample_categories": "Restaurants, Barbecue Restaurants", "public_id": "boyds-bar-be-que-smyrna", "id": 793283860, "votes": null, "tagline": null, "has_video": false, "website": null, "offers": null, "latitude": 33.890044, "politanName": "Atlanta, GA Metro ", "phone_number": "6783099726", "tags": [{"primary": false, "id": 1724, "name": "Barbecue Restaurants"}, {"primary": true, "id": 1722, "name": "Restaurants"}], "fax_number": null, "expansion": {"count": null, "uri": null}, "impression_id": "000b0000006ab61e409192457fb75cdeead4368c9c", "profile": "http://www.citysearch.com/profile/793283860/smyrna_ga/boyd_s_bar_be_que.html", "address": {"city": "Smyrna", "state": "GA", "street": "2599 S Cobb Dr Se", "postal_code": "30080"}, "capProviderId": null, "distance": null, "has_offers": false, "name": "Boyd's Bar Be Que", "longitude": -84.536832, "has_menu": false, "awards": null, "user_review_count": 0}, {"business_operation_status": 1, "rating": null, "neighborhood": null, "image": null, "scorecard": null, "featured": false, "sample_categories": "Coffeehouses, Coffee & Tea Shops", "public_id": "starbucks-smyrna-5", "id": 713648460, "votes": null, "tagline": null, "has_video": false, "website": "http://www.citysearch.com/profile/external/713648460/smyrna_ga/starbucks.html", "offers": null, "latitude": 33.889232, "politanName": "Atlanta, GA Metro ", "phone_number": "7709550337", "tags": [{"primary": false, "id": 1711, "name": "Coffee & Tea Shops"}, {"primary": true, "id": 1726, "name": "Coffeehouses"}], "fax_number": null, "expansion": {"count": null, "uri": null}, "impression_id": "000b000000742521dc6240426285584a4677682ebd", "profile": "http://www.citysearch.com/profile/713648460/smyrna_ga/starbucks.html", "address": {"city": "Smyrna", "state": "GA", "street": "2600 Cobb Pkwy Se", "postal_code": "30080"}, "capProviderId": null, "distance": null, "has_offers": false, "name": "Starbucks", "longitude": -84.474858, "has_menu": false, "awards": null, "user_review_count": 0}, {"business_operation_status": 1, "rating": null, "neighborhood": null, "image": null, "scorecard": null, "featured": false, "sample_categories": "Restaurants", "public_id": "hooters-of-winston-salem-inc-atlanta", "id": 766753440, "votes": null, "tagline": null, "has_video": false, "website": null, "offers": null, "latitude": 33.908131, "politanName": "Atlanta, GA Metro ", "phone_number": "7709512040", "tags": [{"primary": true, "id": 1722, "name": "Restaurants"}], "fax_number": null, "expansion": {"count": null, "uri": null}, "impression_id": "000b000000e076c397eab249ecb43c52d4016c2c01", "profile": "http://www.citysearch.com/profile/766753440/atlanta_ga/hooters_of_winston_salem_inc.html", "address": {"city": "Atlanta", "state": "GA", "street": "1815 the Exchange SE", "postal_code": "30339"}, "capProviderId": null, "distance": null, "has_offers": false, "name": "Hooters of Winston Salem Inc", "longitude": -84.479005, "has_menu": false, "awards": null, "user_review_count": 0}, {"business_operation_status": 1, "rating": null, "neighborhood": null, "image": null, "scorecard": null, "featured": false, "sample_categories": "Restaurants, Bars & Clubs, Bars & Pubs", "public_id": "boomers-bar-grill-smyrna", "id": 764862000, "votes": null, "tagline": null, "has_video": false, "website": null, "offers": null, "latitude": 33.899075, "politanName": "Atlanta, GA Metro ", "phone_number": "7709569555", "tags": [{"primary": false, "id": 164, "name": "Bars & Clubs"}, {"primary": false, "id": 1686, "name": "Bars & Pubs"}, {"primary": true, "id": 1722, "name": "Restaurants"}], "fax_number": null, "expansion": {"count": null, "uri": null}, "impression_id": "000b000000809380b8b6aa4a6fb4a26c1eb417eb88", "profile": "http://www.citysearch.com/profile/764862000/smyrna_ga/boomer_s_bar_grill.html", "address": {"city": "Smyrna", "state": "GA", "street": "2105 S Cobb Dr SE", "postal_code": "30080"}, "capProviderId": null, "distance": null, "has_offers": false, "name": "Boomer's Bar & Grill", "longitude": -84.54028, "has_menu": false, "awards": null, "user_review_count": 0}, {"business_operation_status": 1, "rating": null, "neighborhood": null, "image": null, "scorecard": null, "featured": false, "sample_categories": "Restaurants", "public_id": "j-b-restaurant-roswell", "id": 777689390, "votes": null, "tagline": null, "has_video": false, "website": null, "offers": null, "latitude": 34.025741, "politanName": "Atlanta, GA Metro ", "phone_number": "7706431090", "tags": [{"primary": true, "id": 1722, "name": "Restaurants"}], "fax_number": null, "expansion": {"count": null, "uri": null}, "impression_id": "000b000000c9199eac15264e1db52655ae3bd3eafa", "profile": "http://www.citysearch.com/profile/777689390/roswell_ga/j_b_restaurant.html", "address": {"city": "Roswell", "state": "GA", "street": "66 Norcross St", "postal_code": "30075"}, "capProviderId": null, "distance": null, "has_offers": false, "name": "J B Restaurant", "longitude": -84.359094, "has_menu": false, "awards": null, "user_review_count": 0}, {"business_operation_status": 1, "rating": null, "neighborhood": null, "image": null, "scorecard": null, "featured": false, "sample_categories": "Restaurants, Bakeries", "public_id": "party-chic-roswell", "id": 777696680, "votes": null, "tagline": null, "has_video": false, "website": null, "offers": null, "latitude": 34.024664, "politanName": "Atlanta, GA Metro ", "phone_number": "7706430020", "tags": [{"primary": false, "id": 1685, "name": "Bakeries"}, {"primary": true, "id": 1722, "name": "Restaurants"}], "fax_number": null, "expansion": {"count": null, "uri": null}, "impression_id": "000b000000a066a033592f40c088843cb8bce2179a", "profile": "http://www.citysearch.com/profile/777696680/roswell_ga/party_chic.html", "address": {"city": "Roswell", "state": "GA", "street": "953 Canton St", "postal_code": "30075"}, "capProviderId": null, "distance": null, "has_offers": false, "name": "Party Chic", "longitude": -84.361416, "has_menu": false, "awards": null, "user_review_count": 0}, {"business_operation_status": 1, "rating": null, "neighborhood": null, "image": null, "scorecard": null, "featured": false, "sample_categories": "Restaurants, Carry Out, Hamburgers", "public_id": "mc-donalds-marietta-22", "id": 787109350, "votes": null, "tagline": null, "has_video": false, "website": "http://www.citysearch.com/profile/external/787109350/marietta_ga/mc_donald_s.html", "offers": null, "latitude": 33.978366, "politanName": "Atlanta, GA Metro ", "phone_number": "7705653753", "tags": [{"primary": false, "id": 11247, "name": "Carry Out"}, {"primary": false, "id": 11270, "name": "Hamburgers"}, {"primary": true, "id": 1722, "name": "Restaurants"}], "fax_number": null, "expansion": {"count": null, "uri": null}, "impression_id": "000b0000007dee5acac8b94dc5bb11d4fe46e82612", "profile": "http://www.citysearch.com/profile/787109350/marietta_ga/mc_donald_s.html", "address": {"city": "Marietta", "state": "GA", "street": "1225 Johnson Ferry Rd # 240", "postal_code": "30068"}, "capProviderId": null, "distance": null, "has_offers": false, "name": "Mc Donald's", "longitude": -84.421438, "has_menu": false, "awards": null, "user_review_count": 0}, {"business_operation_status": 0, "rating": null, "neighborhood": null, "image": null, "scorecard": null, "featured": false, "sample_categories": "Restaurants, Delis And Delicatessens", "public_id": "cajuns-cookin-po-boys-marietta", "id": 787117810, "votes": null, "tagline": null, "has_video": false, "website": null, "offers": null, "latitude": 33.991982, "politanName": "Atlanta, GA Metro ", "phone_number": "6783326262", "tags": [{"primary": false, "id": 1727, "name": "Delis And Delicatessens"}, {"primary": true, "id": 1722, "name": "Restaurants"}], "fax_number": null, "expansion": {"count": null, "uri": null}, "impression_id": "000b00000084093c9b71e24f0b8e91f317c701cd7b", "profile": "http://www.citysearch.com/profile/787117810/marietta_ga/cajun_s_cookin_po_boys.html", "address": {"city": "Marietta", "state": "GA", "street": "1199 Sandra Dr", "postal_code": "30062"}, "capProviderId": null, "distance": null, "has_offers": false, "name": "Cajun's Cookin' Po Boys", "longitude": -84.516441, "has_menu": false, "awards": null, "user_review_count": 0}, {"business_operation_status": 1, "rating": 6.0, "neighborhood": null, "image": null, "scorecard": null, "featured": false, "sample_categories": "Restaurants, Chinese, American Express, Discover, MasterCard", "public_id": "house-of-ming-marietta", "id": 2904716, "votes": null, "tagline": null, "has_video": false, "website": null, "offers": null, "latitude": 33.980787, "politanName": "Atlanta, GA Metro ", "phone_number": "7709777538", "tags": [{"primary": false, "id": 11252, "name": "Chinese"}, {"primary": false, "id": 11333, "name": "American Express"}, {"primary": false, "id": 11349, "name": "Discover"}, {"primary": false, "id": 11361, "name": "MasterCard"}, {"primary": false, "id": 11382, "name": "Visa"}, {"primary": true, "id": 1722, "name": "Restaurants"}], "fax_number": null, "expansion": {"count": null, "uri": null}, "impression_id": "000b0000000ef2105a079a479a8f3a9545acf89e34", "profile": "http://www.citysearch.com/profile/2904716/marietta_ga/house_of_ming.html", "address": {"city": "Marietta", "state": "GA", "street": "3101 Roswell Rd Ste F2", "postal_code": "30062"}, "capProviderId": null, "distance": null, "has_offers": false, "name": "House Of Ming", "longitude": -84.464028, "has_menu": false, "awards": null, "user_review_count": 1}, {"business_operation_status": 1, "rating": null, "neighborhood": null, "image": null, "scorecard": null, "featured": false, "sample_categories": "Restaurants, Pizza", "public_id": "buckhead-pizza-atlanta", "id": 775198370, "votes": null, "tagline": null, "has_video": false, "website": "http://www.citysearch.com/profile/external/775198370/atlanta_ga/buckhead_pizza.html", "offers": null, "latitude": 33.88416, "politanName": "Atlanta, GA Metro ", "phone_number": "7704050722", "tags": [{"primary": false, "id": 11299, "name": "Pizza"}, {"primary": true, "id": 1722, "name": "Restaurants"}], "fax_number": null, "expansion": {"count": null, "uri": null}, "impression_id": "000b000000d3e09054ebfc4a14b84d32a5a0636474", "profile": "http://www.citysearch.com/profile/775198370/atlanta_ga/buckhead_pizza.html", "address": {"city": "Atlanta", "state": "GA", "street": "1 Galleria Pkwy SE", "postal_code": "30339"}, "capProviderId": null, "distance": null, "has_offers": false, "name": "Buckhead Pizza", "longitude": -84.463727, "has_menu": true, "awards": null, "user_review_count": 1}, {"business_operation_status": 1, "rating": null, "neighborhood": null, "image": null, "scorecard": null, "featured": false, "sample_categories": "Restaurants", "public_id": "mamas-soulfood-kitchen-smyrna", "id": 777797920, "votes": null, "tagline": null, "has_video": false, "website": null, "offers": null, "latitude": 33.891089, "politanName": "Atlanta, GA Metro ", "phone_number": "7704357779", "tags": [{"primary": true, "id": 1722, "name": "Restaurants"}], "fax_number": null, "expansion": {"count": null, "uri": null}, "impression_id": "000b000000d18d6bfdf9084b25a4f814f64c6e2535", "profile": "http://www.citysearch.com/profile/777797920/smyrna_ga/mama_s_soulfood_kitchen.html", "address": {"city": "Smyrna", "state": "GA", "street": "1651 Roswell St Se", "postal_code": "30080"}, "capProviderId": null, "distance": null, "has_offers": false, "name": "Mama's Soulfood Kitchen", "longitude": -84.504679, "has_menu": false, "awards": null, "user_review_count": 1}, {"business_operation_status": 1, "rating": null, "neighborhood": null, "image": null, "scorecard": null, "featured": false, "sample_categories": "Restaurants, Steakhouse", "public_id": "cliff-atlanta", "id": 787132740, "votes": null, "tagline": null, "has_video": false, "website": null, "offers": null, "latitude": 33.889051, "politanName": "Atlanta, GA Metro ", "phone_number": "7709801900", "tags": [{"primary": false, "id": 11316, "name": "Steakhouse"}, {"primary": true, "id": 1722, "name": "Restaurants"}], "fax_number": null, "expansion": {"count": null, "uri": null}, "impression_id": "000b00000055706874ba4c40ec97e529bf00656b07", "profile": "http://www.citysearch.com/profile/787132740/atlanta_ga/cliff.html", "address": {"city": "Atlanta", "state": "GA", "street": "2780 Windy Ridge Pkwy Se", "postal_code": "30339"}, "capProviderId": null, "distance": null, "has_offers": false, "name": "Cliff", "longitude": -84.472806, "has_menu": false, "awards": null, "user_review_count": 0}, {"business_operation_status": 1, "rating": null, "neighborhood": null, "image": null, "scorecard": null, "featured": false, "sample_categories": "Restaurants, Carry Out", "public_id": "churchs-chicken-marietta-5", "id": 809894000, "votes": null, "tagline": null, "has_video": false, "website": null, "offers": null, "latitude": 33.951817, "politanName": "Atlanta, GA Metro ", "phone_number": "7704228166", "tags": [{"primary": false, "id": 11247, "name": "Carry Out"}, {"primary": true, "id": 1722, "name": "Restaurants"}], "fax_number": null, "expansion": {"count": null, "uri": null}, "impression_id": "000b00000023b1c83a49164649b55c0f6f3ec21711", "profile": "http://www.citysearch.com/profile/809894000/marietta_ga/church_s_chicken.html", "address": {"city": "Marietta", "state": "GA", "street": "23 S Marietta Pkwy SW", "postal_code": "30064"}, "capProviderId": null, "distance": null, "has_offers": false, "name": "Church's Chicken", "longitude": -84.551523, "has_menu": false, "awards": null, "user_review_count": 0}, {"business_operation_status": 1, "rating": null, "neighborhood": null, "image": null, "scorecard": null, "featured": false, "sample_categories": "Restaurants", "public_id": "cedars-sandy", "id": 812104130, "votes": null, "tagline": null, "has_video": false, "website": null, "offers": null, "latitude": 33.916614, "politanName": "Atlanta, GA Metro ", "phone_number": "4042572220", "tags": [{"primary": true, "id": 1722, "name": "Restaurants"}], "fax_number": null, "expansion": {"count": null, "uri": null}, "impression_id": "000b0000003532ac17fa5c485dabc34f07492b1980", "profile": "http://www.citysearch.com/profile/812104130/sandy_springs_ga/cedars.html", "address": {"city": "Sandy Springs", "state": "GA", "street": "5920 Roswell Rd # B108", "postal_code": "30328"}, "capProviderId": null, "distance": null, "has_offers": false, "name": "Cedars", "longitude": -84.381323, "has_menu": false, "awards": null, "user_review_count": 0}, {"business_operation_status": 1, "rating": null, "neighborhood": null, "image": null, "scorecard": null, "featured": false, "sample_categories": "Restaurants", "public_id": "p-l-p-restaurant-marietta", "id": 796108680, "votes": null, "tagline": null, "has_video": false, "website": null, "offers": null, "latitude": 33.952602, "politanName": "Atlanta, GA Metro ", "phone_number": "7704990139", "tags": [{"primary": true, "id": 1722, "name": "Restaurants"}], "fax_number": null, "expansion": {"count": null, "uri": null}, "impression_id": "000b000000be2c0e0701f942b6a081120c31936bde", "profile": "http://www.citysearch.com/profile/796108680/marietta_ga/p_l_p_restaurant.html", "address": {"city": "Marietta", "state": "GA", "street": "3960 Mary Eliza Trce NW", "postal_code": "30064"}, "capProviderId": null, "distance": null, "has_offers": false, "name": "P L P Restaurant", "longitude": -84.549933, "has_menu": false, "awards": null, "user_review_count": 0}, {"business_operation_status": 1, "rating": null, "neighborhood": null, "image": null, "scorecard": null, "featured": false, "sample_categories": "Restaurants", "public_id": "embers-seafood-grille-atlanta", "id": 822383440, "votes": null, "tagline": null, "has_video": false, "website": null, "offers": null, "latitude": 33.923109, "politanName": "Atlanta, GA Metro ", "phone_number": "7702560977", "tags": [{"primary": true, "id": 1722, "name": "Restaurants"}], "fax_number": null, "expansion": {"count": null, "uri": null}, "impression_id": "000b000000b37d037528c94d8fbfb3a9a1b6a8a62d", "profile": "http://www.citysearch.com/profile/822383440/atlanta_ga/embers_seafood_grille.html", "address": {"city": "Atlanta", "state": "GA", "street": "234 Hilderbrand Dr", "postal_code": "30328"}, "capProviderId": null, "distance": null, "has_offers": false, "name": "Embers Seafood Grille", "longitude": -84.379808, "has_menu": false, "awards": null, "user_review_count": 0}, {"business_operation_status": 1, "rating": 8.0, "neighborhood": null, "image": null, "scorecard": null, "featured": false, "sample_categories": "Restaurants, Mexican", "public_id": "el-dorado-restaurant-marietta", "id": 2901664, "votes": null, "tagline": null, "has_video": false, "website": null, "offers": null, "latitude": 33.902097, "politanName": "Atlanta, GA Metro ", "phone_number": "7704347772", "tags": [{"primary": false, "id": 1722, "name": "Restaurants"}, {"primary": true, "id": 11208, "name": "Mexican"}], "fax_number": null, "expansion": {"count": null, "uri": null}, "impression_id": "000b000000ab904ca09c5f4a16beae70cf220341ab", "profile": "http://www.citysearch.com/profile/2901664/marietta_ga/el_dorado_restaurant.html", "address": {"city": "Marietta", "state": "GA", "street": "325 Pat Mell Rd SE", "postal_code": "30060"}, "capProviderId": null, "distance": null, "has_offers": false, "name": "El Dorado Restaurant", "longitude": -84.546463, "has_menu": true, "awards": null, "user_review_count": 0}, {"business_operation_status": 1, "rating": null, "neighborhood": null, "image": null, "scorecard": null, "featured": false, "sample_categories": "Restaurants", "public_id": "tropical-smoothie-cafe-smyrna", "id": 807164030, "votes": null, "tagline": null, "has_video": false, "website": null, "offers": null, "latitude": 33.884019, "politanName": "Atlanta, GA Metro ", "phone_number": "7704369980", "tags": [{"primary": true, "id": 1722, "name": "Restaurants"}], "fax_number": null, "expansion": {"count": null, "uri": null}, "impression_id": "000b000000981f5867cbfe4233a510532a59434cfa", "profile": "http://www.citysearch.com/profile/807164030/smyrna_ga/tropical_smoothie_cafe.html", "address": {"city": "Smyrna", "state": "GA", "street": "1265 W Spring St SE", "postal_code": "30080"}, "capProviderId": null, "distance": null, "has_offers": false, "name": "Tropical Smoothie Cafe", "longitude": -84.515924, "has_menu": false, "awards": null, "user_review_count": 0}, {"business_operation_status": 1, "rating": null, "neighborhood": null, "image": null, "scorecard": null, "featured": false, "sample_categories": "Restaurants", "public_id": "planet-smoothie-marietta-6", "id": 808830020, "votes": null, "tagline": null, "has_video": false, "website": null, "offers": null, "latitude": 33.952602, "politanName": "Atlanta, GA Metro ", "phone_number": "7704272700", "tags": [{"primary": true, "id": 1722, "name": "Restaurants"}], "fax_number": null, "expansion": {"count": null, "uri": null}, "impression_id": "000b0000003091752afd0b40ce84c65f127db43846", "profile": "http://www.citysearch.com/profile/808830020/marietta_ga/planet_smoothie.html", "address": {"city": "Marietta", "state": "GA", "street": "23451 Ernest Barrett Pkwy", "postal_code": "30064"}, "capProviderId": null, "distance": null, "has_offers": false, "name": "Planet Smoothie", "longitude": -84.549933, "has_menu": false, "awards": null, "user_review_count": 0}, {"business_operation_status": 1, "rating": null, "neighborhood": null, "image": null, "scorecard": null, "featured": false, "sample_categories": "Restaurants, Bars & Clubs, Delis And Delicatessens", "public_id": "locos-deli-pub-atlanta-3", "id": 813417210, "votes": null, "tagline": null, "has_video": false, "website": null, "offers": null, "latitude": 33.930624, "politanName": "Atlanta, GA Metro ", "phone_number": "7709139333", "tags": [{"primary": false, "id": 164, "name": "Bars & Clubs"}, {"primary": false, "id": 1727, "name": "Delis And Delicatessens"}, {"primary": true, "id": 1722, "name": "Restaurants"}], "fax_number": null, "expansion": {"count": null, "uri": null}, "impression_id": "000b000000038dbb752ef646dd9c66aebfaffb1535", "profile": "http://www.citysearch.com/profile/813417210/atlanta_ga/locos_deli_pub.html", "address": {"city": "Atlanta", "state": "GA", "street": "6420 Colewood CT", "postal_code": "30328"}, "capProviderId": null, "distance": null, "has_offers": false, "name": "Locos Deli & Pub", "longitude": -84.399907, "has_menu": false, "awards": null, "user_review_count": 0}, {"business_operation_status": 0, "rating": null, "neighborhood": null, "image": null, "scorecard": null, "featured": false, "sample_categories": "Restaurants", "public_id": "roadhouse-grill-atlanta-2", "id": 3019393, "votes": null, "tagline": null, "has_video": false, "website": null, "offers": null, "latitude": 33.921027, "politanName": "Atlanta, GA Metro ", "phone_number": "4048433850", "tags": [{"primary": true, "id": 1722, "name": "Restaurants"}], "fax_number": null, "expansion": {"count": null, "uri": null}, "impression_id": "000b0000004ca5f7a90db440a18e6bf8730afa87a4", "profile": "http://www.citysearch.com/profile/3019393/atlanta_ga/roadhouse_grill.html", "address": {"city": "Atlanta", "state": "GA", "street": "205 Sandy Springs Place NE", "postal_code": "30328"}, "capProviderId": null, "distance": null, "has_offers": false, "name": "Roadhouse Grill", "longitude": -84.380519, "has_menu": true, "awards": null, "user_review_count": 0}, {"business_operation_status": 1, "rating": null, "neighborhood": null, "image": null, "scorecard": null, "featured": false, "sample_categories": "Restaurants, Pizza, Carry Out", "public_id": "little-caesars-pizza-marietta-12", "id": 772192550, "votes": null, "tagline": null, "has_video": false, "website": "http://www.citysearch.com/profile/external/772192550/marietta_ga/little_caesars_pizza.html", "offers": null, "latitude": 34.021599, "politanName": "Atlanta, GA Metro ", "phone_number": "7706454678", "tags": [{"primary": false, "id": 1722, "name": "Restaurants"}, {"primary": false, "id": 11247, "name": "Carry Out"}, {"primary": true, "id": 11299, "name": "Pizza"}], "fax_number": null, "expansion": {"count": null, "uri": null}, "impression_id": "000b00000046c193186bd54d10b492d6e4e568a9d0", "profile": "http://www.citysearch.com/profile/772192550/marietta_ga/little_caesars_pizza.html", "address": {"city": "Marietta", "state": "GA", "street": "2986 Johnson Ferry Rd", "postal_code": "30062"}, "capProviderId": null, "distance": null, "has_offers": false, "name": "Little Caesars Pizza", "longitude": -84.426314, "has_menu": false, "awards": null, "user_review_count": 0}, {"business_operation_status": 1, "rating": null, "neighborhood": null, "image": null, "scorecard": null, "featured": false, "sample_categories": "Restaurants", "public_id": "marietta-marietta-2", "id": 838727430, "votes": null, "tagline": null, "has_video": false, "website": null, "offers": null, "latitude": 33.924583, "politanName": "Atlanta, GA Metro ", "phone_number": "7705907388", "tags": [{"primary": true, "id": 1722, "name": "Restaurants"}], "fax_number": null, "expansion": {"count": null, "uri": null}, "impression_id": "000b0000009a5a031080514e378d01ec97af395a2b", "profile": "http://www.citysearch.com/profile/838727430/marietta_ga/marietta.html", "address": {"city": "Marietta", "state": "GA", "street": "1180 Powder Springs St", "postal_code": "30064"}, "capProviderId": null, "distance": null, "has_offers": false, "name": "Marietta", "longitude": -84.575231, "has_menu": false, "awards": null, "user_review_count": 0}, {"business_operation_status": 1, "rating": null, "neighborhood": null, "image": null, "scorecard": null, "featured": false, "sample_categories": "Restaurants, Caribbean", "public_id": "theos-caribbean-grill-marietta", "id": 777756870, "votes": null, "tagline": null, "has_video": false, "website": null, "offers": null, "latitude": 34.020818, "politanName": "Atlanta, GA Metro ", "phone_number": "6785810107", "tags": [{"primary": false, "id": 11195, "name": "Caribbean"}, {"primary": true, "id": 1722, "name": "Restaurants"}], "fax_number": null, "expansion": {"count": null, "uri": null}, "impression_id": "000b000000b1fb270d27f84ed18aed9ee716f1e898", "profile": "http://www.citysearch.com/profile/777756870/marietta_ga/theo_s_caribbean_grill.html", "address": {"city": "Marietta", "state": "GA", "street": "2821 Chastain Meadows Pkwy 230", "postal_code": "30066"}, "capProviderId": null, "distance": null, "has_offers": false, "name": "Theo's Caribbean Grill", "longitude": -84.55554, "has_menu": false, "awards": null, "user_review_count": 0}], "histograms": [], "tag_ids": [1722], "uri": "http://api.citygridmedia.com:8080/search/places/v2/search/where?has_offers=false&type=restaurant&format=json&page=27&where=30067&rpp=50&histograms=false&publisher=10000009598&region_type=circle", "did_you_mean": "", "regions": [{"latitude": 33.930575, "default_radius": 3.78, "type": "postal_code", "name": "30067", "longitude": -84.463162}], "call_id": "000b000000c8fcf58a77704f328e39185326896602", "first_hit": 1301, "total_hits": 1972, "geo_ids": [26295], "page": 27, "last_hit": 1350}}