{"results": {"rpp": 50, "locations": [{"business_operation_status": 1, "rating": null, "neighborhood": null, "image": null, "scorecard": null, "featured": false, "sample_categories": "Restaurants, Pizza", "public_id": "pizza-world-roswell", "id": 777753360, "votes": null, "tagline": null, "has_video": false, "website": null, "offers": null, "latitude": 34.046856, "politanName": "Atlanta, GA Metro ", "phone_number": "7709925292", "tags": [{"primary": false, "id": 11299, "name": "Pizza"}, {"primary": true, "id": 1722, "name": "Restaurants"}], "fax_number": null, "expansion": {"count": null, "uri": null}, "impression_id": "000b000000da19cb473b9448389f28d2cf1350b721", "profile": "http://www.citysearch.com/profile/777753360/roswell_ga/pizza_world.html", "address": {"city": "Roswell", "state": "GA", "street": "10971 Crabapple Rd # 1500", "postal_code": "30075"}, "capProviderId": null, "distance": null, "has_offers": false, "name": "Pizza World", "longitude": -84.360541, "has_menu": false, "awards": null, "user_review_count": 0}, {"business_operation_status": 1, "rating": null, "neighborhood": null, "image": null, "scorecard": null, "featured": false, "sample_categories": "Ice Cream Parlors, Restaurants, Carry Out", "public_id": "dairy-queen-acworth", "id": 777764430, "votes": null, "tagline": null, "has_video": false, "website": "http://www.citysearch.com/profile/external/777764430/acworth_ga/dairy_queen.html", "offers": null, "latitude": 34.088969, "politanName": "Atlanta, GA Metro ", "phone_number": "7709245218", "tags": [{"primary": false, "id": 1722, "name": "Restaurants"}, {"primary": false, "id": 11247, "name": "Carry Out"}, {"primary": true, "id": 1730, "name": "Ice Cream Parlors"}], "fax_number": null, "expansion": {"count": null, "uri": null}, "impression_id": "000b0000008cea76a136fe4582a0e4ff0281ee6aab", "profile": "http://www.citysearch.com/profile/777764430/acworth_ga/dairy_queen.html", "address": {"city": "Acworth", "state": "GA", "street": "5721 Bells Ferry Rd", "postal_code": "30102"}, "capProviderId": null, "distance": null, "has_offers": false, "name": "Dairy Queen", "longitude": -84.57805, "has_menu": true, "awards": null, "user_review_count": 0}, {"business_operation_status": 1, "rating": null, "neighborhood": null, "image": null, "scorecard": null, "featured": false, "sample_categories": "Restaurants, Chinese", "public_id": "china-garden-canton", "id": 36286292, "votes": null, "tagline": null, "has_video": false, "website": "http://www.citysearch.com/profile/external/36286292/canton_ga/china_garden.html", "offers": null, "latitude": 34.176274, "politanName": "Atlanta, GA Metro ", "phone_number": "7703451178", "tags": [{"primary": false, "id": 11252, "name": "Chinese"}, {"primary": true, "id": 1722, "name": "Restaurants"}], "fax_number": null, "expansion": {"count": null, "uri": null}, "impression_id": "000b00000045e1733f222a452e95edec51ad08ff0b", "profile": "http://www.citysearch.com/profile/36286292/canton_ga/china_garden.html", "address": {"city": "Canton", "state": "GA", "street": "6199 Hickory Flat Hwy", "postal_code": "30115"}, "capProviderId": null, "distance": null, "has_offers": false, "name": "China Garden", "longitude": -84.419399, "has_menu": true, "awards": null, "user_review_count": 3}, {"business_operation_status": 0, "rating": null, "neighborhood": null, "image": null, "scorecard": null, "featured": false, "sample_categories": "Restaurants, Chinese", "public_id": "imperial-dynasty-woodstock", "id": 37649683, "votes": null, "tagline": null, "has_video": false, "website": null, "offers": null, "latitude": 34.085899, "politanName": "Atlanta, GA Metro ", "phone_number": "7709288158", "tags": [{"primary": false, "id": 11252, "name": "Chinese"}, {"primary": true, "id": 1722, "name": "Restaurants"}], "fax_number": null, "expansion": {"count": null, "uri": null}, "impression_id": "000b0000005f92f2d27fe64255b95ade1f5ab8dea6", "profile": "http://www.citysearch.com/profile/37649683/woodstock_ga/imperial_dynasty.html", "address": {"city": "Woodstock", "state": "GA", "street": "8025 Hwy 92", "postal_code": "30189"}, "capProviderId": null, "distance": null, "has_offers": false, "name": "Imperial Dynasty", "longitude": -84.549803, "has_menu": false, "awards": null, "user_review_count": 0}, {"business_operation_status": 1, "rating": null, "neighborhood": null, "image": null, "scorecard": null, "featured": false, "sample_categories": "Restaurants, Pizza", "public_id": "whata-bouta-pizza-kennesaw", "id": 803557230, "votes": null, "tagline": null, "has_video": false, "website": null, "offers": null, "latitude": 34.047379, "politanName": "Atlanta, GA Metro ", "phone_number": "6784025168", "tags": [{"primary": false, "id": 1722, "name": "Restaurants"}, {"primary": true, "id": 11299, "name": "Pizza"}], "fax_number": null, "expansion": {"count": null, "uri": null}, "impression_id": "000b0000009562575590874b16a7ea88a41e37080e", "profile": "http://www.citysearch.com/profile/803557230/kennesaw_ga/whata_bouta_pizza.html", "address": {"city": "Kennesaw", "state": "GA", "street": "4240 Jiles Rd NW", "postal_code": "30144"}, "capProviderId": null, "distance": null, "has_offers": false, "name": "Whata Bouta Pizza", "longitude": -84.601698, "has_menu": false, "awards": null, "user_review_count": 0}, {"business_operation_status": 1, "rating": null, "neighborhood": null, "image": null, "scorecard": null, "featured": false, "sample_categories": "Restaurants", "public_id": "ricks-italian-beefsandwich-kennesaw", "id": 819024900, "votes": null, "tagline": null, "has_video": false, "website": null, "offers": null, "latitude": 34.019119, "politanName": "Atlanta, GA Metro ", "phone_number": "7704209500", "tags": [{"primary": true, "id": 1722, "name": "Restaurants"}], "fax_number": null, "expansion": {"count": null, "uri": null}, "impression_id": "000b00000051b0735dbe46480b9f73019c7f82214d", "profile": "http://www.citysearch.com/profile/819024900/kennesaw_ga/ricks_italian_beef_sandwich.html", "address": {"city": "Kennesaw", "state": "GA", "street": "2689 Summers St NW", "postal_code": "30144"}, "capProviderId": null, "distance": null, "has_offers": false, "name": "Ricks Italian Beef-Sandwich", "longitude": -84.61395, "has_menu": false, "awards": null, "user_review_count": 0}, {"business_operation_status": 1, "rating": null, "neighborhood": null, "image": null, "scorecard": null, "featured": false, "sample_categories": "Restaurants", "public_id": "dinner-afare-marietta-2", "id": 819840300, "votes": null, "tagline": null, "has_video": false, "website": "http://www.citysearch.com/profile/external/819840300/marietta_ga/dinner_a_fare.html", "offers": null, "latitude": 33.98752, "politanName": "Atlanta, GA Metro ", "phone_number": "7705656551", "tags": [{"primary": true, "id": 1722, "name": "Restaurants"}], "fax_number": null, "expansion": {"count": null, "uri": null}, "impression_id": "000b00000098eb5880f2634866a74026f79bed3212", "profile": "http://www.citysearch.com/profile/819840300/marietta_ga/dinner_a_fare.html", "address": {"city": "Marietta", "state": "GA", "street": "4475 Roswell Rd # 1420", "postal_code": "30062"}, "capProviderId": null, "distance": null, "has_offers": false, "name": "Dinner A'fare", "longitude": -84.42189, "has_menu": true, "awards": null, "user_review_count": 0}, {"business_operation_status": 1, "rating": null, "neighborhood": null, "image": null, "scorecard": null, "featured": false, "sample_categories": "Restaurants, Carry Out", "public_id": "waffle-house-roswell-4", "id": 819242340, "votes": null, "tagline": null, "has_video": false, "website": null, "offers": null, "latitude": 34.067541, "politanName": "Atlanta, GA Metro ", "phone_number": "7705923984", "tags": [{"primary": false, "id": 11247, "name": "Carry Out"}, {"primary": true, "id": 1722, "name": "Restaurants"}], "fax_number": null, "expansion": {"count": null, "uri": null}, "impression_id": "000b000000d5b8348d62774eb8925e0d25c68c6c2c", "profile": "http://www.citysearch.com/profile/819242340/roswell_ga/waffle_house.html", "address": {"city": "Roswell", "state": "GA", "street": "4875 Alabama Rd NE", "postal_code": "30075"}, "capProviderId": null, "distance": null, "has_offers": false, "name": "Waffle House", "longitude": -84.425685, "has_menu": false, "awards": null, "user_review_count": 0}, {"business_operation_status": 1, "rating": null, "neighborhood": null, "image": null, "scorecard": null, "featured": false, "sample_categories": "Restaurants", "public_id": "jims-catfish-marietta", "id": 824115460, "votes": null, "tagline": null, "has_video": false, "website": null, "offers": null, "latitude": 34.015715, "politanName": "Atlanta, GA Metro ", "phone_number": "7709989459", "tags": [{"primary": true, "id": 1722, "name": "Restaurants"}], "fax_number": null, "expansion": {"count": null, "uri": null}, "impression_id": "000b0000005086781c7f5e48c8b0fb727fc13edf6d", "profile": "http://www.citysearch.com/profile/824115460/marietta_ga/jims_catfish.html", "address": {"city": "Marietta", "state": "GA", "street": "2725 Alpine Trl", "postal_code": "30062"}, "capProviderId": null, "distance": null, "has_offers": false, "name": "Jims Catfish", "longitude": -84.424967, "has_menu": false, "awards": null, "user_review_count": 0}, {"business_operation_status": 1, "rating": null, "neighborhood": null, "image": null, "scorecard": null, "featured": false, "sample_categories": "Restaurants", "public_id": "filimons-smyrna", "id": 825235510, "votes": null, "tagline": null, "has_video": false, "website": null, "offers": null, "latitude": 33.887574, "politanName": "Atlanta, GA Metro ", "phone_number": "6782131556", "tags": [{"primary": true, "id": 1722, "name": "Restaurants"}], "fax_number": null, "expansion": {"count": null, "uri": null}, "impression_id": "000b0000004c2c8defa9954f80bec8ad90779984f7", "profile": "http://www.citysearch.com/profile/825235510/smyrna_ga/filimon_s.html", "address": {"city": "Smyrna", "state": "GA", "street": "601 Powder Springs St SE", "postal_code": "30080"}, "capProviderId": null, "distance": null, "has_offers": false, "name": "Filimon's", "longitude": -84.535901, "has_menu": false, "awards": null, "user_review_count": 0}, {"business_operation_status": 1, "rating": null, "neighborhood": null, "image": null, "scorecard": null, "featured": false, "sample_categories": "Restaurants, Pizza, Carry Out, MasterCard, Visa", "public_id": "dominos-pizza-kennesaw-2", "id": 2903801, "votes": null, "tagline": null, "has_video": false, "website": "http://www.citysearch.com/profile/external/2903801/kennesaw_ga/domino_s_pizza.html", "offers": null, "latitude": 34.051943, "politanName": "Atlanta, GA Metro ", "phone_number": "7704225545", "tags": [{"primary": false, "id": 1722, "name": "Restaurants"}, {"primary": false, "id": 11247, "name": "Carry Out"}, {"primary": false, "id": 11361, "name": "MasterCard"}, {"primary": false, "id": 11382, "name": "Visa"}, {"primary": true, "id": 11299, "name": "Pizza"}], "fax_number": null, "expansion": {"count": null, "uri": null}, "impression_id": "000b000000fc2c80417d22432e8be5d48a08daaafb", "profile": "http://www.citysearch.com/profile/2903801/kennesaw_ga/domino_s_pizza.html", "address": {"city": "Kennesaw", "state": "GA", "street": "4055 Royal Dr NW", "postal_code": "30144"}, "capProviderId": null, "distance": null, "has_offers": false, "name": "Domino's Pizza", "longitude": -84.607333, "has_menu": true, "awards": null, "user_review_count": 0}, {"business_operation_status": 1, "rating": null, "neighborhood": null, "image": null, "scorecard": null, "featured": false, "sample_categories": "Restaurants, Bars & Clubs", "public_id": "cave-tapas-bar-and-lounge-kennesaw", "id": 672692320, "votes": null, "tagline": null, "has_video": false, "website": null, "offers": null, "latitude": 33.991946, "politanName": "Atlanta, GA Metro ", "phone_number": "6783917011", "tags": [{"primary": false, "id": 164, "name": "Bars & Clubs"}, {"primary": true, "id": 1722, "name": "Restaurants"}], "fax_number": null, "expansion": {"count": null, "uri": null}, "impression_id": "000b0000009573ffbd6da2404d9f861eda357dba9c", "profile": "http://www.citysearch.com/profile/672692320/kennesaw_ga/cave_tapas_bar_and_lounge.html", "address": {"city": "Kennesaw", "state": "GA", "street": "1619 Collins Rd NW", "postal_code": "30152"}, "capProviderId": null, "distance": null, "has_offers": false, "name": "Cave Tapas Bar and Lounge", "longitude": -84.59912, "has_menu": false, "awards": null, "user_review_count": 0}, {"business_operation_status": 1, "rating": null, "neighborhood": null, "image": null, "scorecard": null, "featured": false, "sample_categories": "Restaurants", "public_id": "red-burrito-woodstock", "id": 672374270, "votes": null, "tagline": null, "has_video": false, "website": null, "offers": null, "latitude": 34.108838, "politanName": "Atlanta, GA Metro ", "phone_number": "7709282064", "tags": [{"primary": true, "id": 1722, "name": "Restaurants"}], "fax_number": null, "expansion": {"count": null, "uri": null}, "impression_id": "000b000000a61d499242fb41e89d35b96738c35347", "profile": "http://www.citysearch.com/profile/672374270/woodstock_ga/red_burrito.html", "address": {"city": "Woodstock", "state": "GA", "street": "2075 Towne Lake Pkwy", "postal_code": "30189"}, "capProviderId": null, "distance": null, "has_offers": false, "name": "Red Burrito", "longitude": -84.55267, "has_menu": false, "awards": null, "user_review_count": 0}, {"business_operation_status": 1, "rating": null, "neighborhood": null, "image": null, "scorecard": null, "featured": false, "sample_categories": "Restaurants", "public_id": "frankles-marietta", "id": 610973754, "votes": null, "tagline": null, "has_video": false, "website": null, "offers": null, "latitude": 33.978873, "politanName": "Atlanta, GA Metro ", "phone_number": "6783246100", "tags": [{"primary": true, "id": 1722, "name": "Restaurants"}], "fax_number": null, "expansion": {"count": null, "uri": null}, "impression_id": "000b0000003747cb7a29234b098f8f9dd1d874ce8e", "profile": "http://www.citysearch.com/profile/610973754/marietta_ga/frankle_s.html", "address": {"city": "Marietta", "state": "GA", "street": "3125 Roswell Rd", "postal_code": "30062"}, "capProviderId": null, "distance": null, "has_offers": false, "name": "Frankle's", "longitude": -84.462166, "has_menu": false, "awards": null, "user_review_count": 0}, {"business_operation_status": 1, "rating": null, "neighborhood": null, "image": null, "scorecard": null, "featured": false, "sample_categories": "Restaurants, Food Service Management", "public_id": "eurest-dining-svc-kennesaw", "id": 713450320, "votes": null, "tagline": null, "has_video": false, "website": "http://www.citysearch.com/profile/external/713450320/kennesaw_ga/eurest_dining_svc.html", "offers": null, "latitude": 34.042682, "politanName": "Atlanta, GA Metro ", "phone_number": "7704204166", "tags": [{"primary": false, "id": 11120, "name": "Food Service Management"}, {"primary": true, "id": 1722, "name": "Restaurants"}], "fax_number": null, "expansion": {"count": null, "uri": null}, "impression_id": "000b00000083c9eeb31e2d45c48fc08c1759e1ca03", "profile": "http://www.citysearch.com/profile/713450320/kennesaw_ga/eurest_dining_svc.html", "address": {"city": "Kennesaw", "state": "GA", "street": "210 Townpark Dr NW", "postal_code": "30144"}, "capProviderId": null, "distance": null, "has_offers": false, "name": "Eurest Dining SVC", "longitude": -84.569868, "has_menu": false, "awards": null, "user_review_count": 0}, {"business_operation_status": 1, "rating": null, "neighborhood": null, "image": null, "scorecard": null, "featured": false, "sample_categories": "Restaurants, Pizza", "public_id": "fire-stone-wood-fire-pizza-woodstock", "id": 713605310, "votes": null, "tagline": null, "has_video": false, "website": "http://www.citysearch.com/profile/external/713605310/woodstock_ga/fire_stone_wood_fire_pizza.html", "offers": null, "latitude": 34.09921, "politanName": "Atlanta, GA Metro ", "phone_number": "7709266241", "tags": [{"primary": false, "id": 1722, "name": "Restaurants"}, {"primary": true, "id": 11299, "name": "Pizza"}], "fax_number": null, "expansion": {"count": null, "uri": null}, "impression_id": "000b00000094bb17573b3a4b10af5b743e3de5f5f3", "profile": "http://www.citysearch.com/profile/713605310/woodstock_ga/fire_stone_wood_fire_pizza.html", "address": {"city": "Woodstock", "state": "GA", "street": "120 Chambers St", "postal_code": "30188"}, "capProviderId": null, "distance": null, "has_offers": false, "name": "Fire Stone Wood Fire Pizza", "longitude": -84.519366, "has_menu": false, "awards": null, "user_review_count": 0}, {"business_operation_status": 1, "rating": null, "neighborhood": null, "image": null, "scorecard": null, "featured": false, "sample_categories": "Restaurants, Bars & Clubs, Carry Out", "public_id": "applebees-woodstock", "id": 622371544, "votes": null, "tagline": null, "has_video": false, "website": "http://www.citysearch.com/profile/external/622371544/woodstock_ga/applebee_s.html", "offers": null, "latitude": 34.120924, "politanName": "Atlanta, GA Metro ", "phone_number": "6786263677", "tags": [{"primary": false, "id": 164, "name": "Bars & Clubs"}, {"primary": false, "id": 11247, "name": "Carry Out"}, {"primary": true, "id": 1722, "name": "Restaurants"}], "fax_number": null, "expansion": {"count": null, "uri": null}, "impression_id": "000b0000008fb9f24e7bae4b49af51fe0131c81e7d", "profile": "http://www.citysearch.com/profile/622371544/woodstock_ga/applebee_s.html", "address": {"city": "Woodstock", "state": "GA", "street": "901 Ridgewalk Pkwy", "postal_code": "30188"}, "capProviderId": null, "distance": null, "has_offers": false, "name": "Applebee's", "longitude": -84.521823, "has_menu": false, "awards": null, "user_review_count": 0}, {"business_operation_status": 1, "rating": null, "neighborhood": null, "image": null, "scorecard": null, "featured": false, "sample_categories": "Restaurants", "public_id": "phish-phood-cafe-roswell", "id": 732189880, "votes": null, "tagline": null, "has_video": false, "website": "http://www.citysearch.com/profile/external/732189880/roswell_ga/phish_phood_cafe.html", "offers": null, "latitude": 34.058016, "politanName": "Atlanta, GA Metro ", "phone_number": "7705874474", "tags": [{"primary": true, "id": 1722, "name": "Restaurants"}], "fax_number": null, "expansion": {"count": null, "uri": null}, "impression_id": "000b00000054197271639144b3be1cb35ee290c303", "profile": "http://www.citysearch.com/profile/732189880/roswell_ga/phish_phood_cafe.html", "address": {"city": "Roswell", "state": "GA", "street": "11255 Woodstock Rd", "postal_code": "30075"}, "capProviderId": null, "distance": null, "has_offers": false, "name": "Phish Phood Cafe", "longitude": -84.382952, "has_menu": false, "awards": null, "user_review_count": 0}, {"business_operation_status": 1, "rating": null, "neighborhood": null, "image": null, "scorecard": null, "featured": false, "sample_categories": "Restaurants, Indian", "public_id": "curry-cravings-roswell", "id": 745604830, "votes": null, "tagline": null, "has_video": false, "website": null, "offers": null, "latitude": 34.0745, "politanName": "Atlanta, GA Metro ", "phone_number": "4048611282", "tags": [{"primary": false, "id": 11277, "name": "Indian"}, {"primary": true, "id": 1722, "name": "Restaurants"}], "fax_number": null, "expansion": {"count": null, "uri": null}, "impression_id": "000b0000000a2a4f58a3b74a419f95d2aeebc5a099", "profile": "http://www.citysearch.com/profile/745604830/roswell_ga/curry_cravings.html", "address": {"city": "Roswell", "state": "GA", "street": "1215 Birchwood Ln", "postal_code": "30076"}, "capProviderId": null, "distance": null, "has_offers": false, "name": "Curry Cravings", "longitude": -84.35581, "has_menu": false, "awards": null, "user_review_count": 0}, {"business_operation_status": 1, "rating": null, "neighborhood": null, "image": null, "scorecard": null, "featured": false, "sample_categories": "Restaurants", "public_id": "global-taco-woodstock", "id": 754721890, "votes": null, "tagline": null, "has_video": false, "website": null, "offers": null, "latitude": 34.112098, "politanName": "Atlanta, GA Metro ", "phone_number": "4049639771", "tags": [{"primary": true, "id": 1722, "name": "Restaurants"}], "fax_number": null, "expansion": {"count": null, "uri": null}, "impression_id": "000b0000006015eb474af34788a1474686abdc85a5", "profile": "http://www.citysearch.com/profile/754721890/woodstock_ga/global_taco.html", "address": {"city": "Woodstock", "state": "GA", "street": "6425 Bells Ferry Rd", "postal_code": "30189"}, "capProviderId": null, "distance": null, "has_offers": false, "name": "Global Taco", "longitude": -84.582389, "has_menu": false, "awards": null, "user_review_count": 0}, {"business_operation_status": 1, "rating": null, "neighborhood": null, "image": null, "scorecard": null, "featured": false, "sample_categories": "Restaurants", "public_id": "r-cs-southern-cooking-marietta", "id": 754855600, "votes": null, "tagline": null, "has_video": false, "website": null, "offers": null, "latitude": 33.951248, "politanName": "Atlanta, GA Metro ", "phone_number": "7704854668", "tags": [{"primary": true, "id": 1722, "name": "Restaurants"}], "fax_number": null, "expansion": {"count": null, "uri": null}, "impression_id": "000b00000073588df9278247f68c0a125504e82f51", "profile": "http://www.citysearch.com/profile/754855600/marietta_ga/r_c_s_southern_cooking.html", "address": {"city": "Marietta", "state": "GA", "street": "1516 Roswell Rd", "postal_code": "30062"}, "capProviderId": null, "distance": null, "has_offers": false, "name": "R C's Southern Cooking", "longitude": -84.508172, "has_menu": false, "awards": null, "user_review_count": 0}, {"business_operation_status": 0, "rating": null, "neighborhood": null, "image": null, "scorecard": null, "featured": false, "sample_categories": "Restaurants", "public_id": "froots-kennesaw", "id": 672730530, "votes": null, "tagline": null, "has_video": false, "website": null, "offers": null, "latitude": 34.035364, "politanName": "Atlanta, GA Metro ", "phone_number": "7704998200", "tags": [{"primary": true, "id": 1722, "name": "Restaurants"}], "fax_number": null, "expansion": {"count": null, "uri": null}, "impression_id": "000b000000f9dc99f5ae6640eebc263413baa6c8bb", "profile": "http://www.citysearch.com/profile/672730530/kennesaw_ga/froots.html", "address": {"city": "Kennesaw", "state": "GA", "street": "745 Chastain Road NW", "postal_code": "30144"}, "capProviderId": null, "distance": null, "has_offers": false, "name": "Froots", "longitude": -84.570141, "has_menu": false, "awards": null, "user_review_count": 3}, {"business_operation_status": 1, "rating": null, "neighborhood": null, "image": null, "scorecard": null, "featured": false, "sample_categories": "Restaurants", "public_id": "la-hispaniola-marietta", "id": 672780210, "votes": null, "tagline": null, "has_video": false, "website": null, "offers": null, "latitude": 33.952062, "politanName": "Atlanta, GA Metro ", "phone_number": "7704240093", "tags": [{"primary": true, "id": 1722, "name": "Restaurants"}], "fax_number": null, "expansion": {"count": null, "uri": null}, "impression_id": "000b000000d58aea1890194509b85f2324f7f6b24d", "profile": "http://www.citysearch.com/profile/672780210/marietta_ga/la_hispaniola.html", "address": {"city": "Marietta", "state": "GA", "street": "168 Roswell St NE", "postal_code": "30060"}, "capProviderId": null, "distance": null, "has_offers": false, "name": "La Hispaniola", "longitude": -84.548376, "has_menu": false, "awards": null, "user_review_count": 0}, {"business_operation_status": 1, "rating": null, "neighborhood": null, "image": null, "scorecard": null, "featured": false, "sample_categories": "Restaurants, Carry Out, Pizza", "public_id": "jimmy-johns-marietta", "id": 672132390, "votes": null, "tagline": null, "has_video": false, "website": null, "offers": null, "latitude": 33.970943, "politanName": "Atlanta, GA Metro ", "phone_number": "6785814550", "tags": [{"primary": false, "id": 11247, "name": "Carry Out"}, {"primary": false, "id": 11299, "name": "Pizza"}, {"primary": true, "id": 1722, "name": "Restaurants"}], "fax_number": null, "expansion": {"count": null, "uri": null}, "impression_id": "000b000000bfc6fd36e71c465fb46071c0fa3e4e68", "profile": "http://www.citysearch.com/profile/672132390/marietta_ga/jimmy_john_s.html", "address": {"city": "Marietta", "state": "GA", "street": "801 Church St NE Ste A", "postal_code": "30060"}, "capProviderId": null, "distance": null, "has_offers": false, "name": "Jimmy John's", "longitude": -84.550624, "has_menu": false, "awards": null, "user_review_count": 0}, {"business_operation_status": 1, "rating": null, "neighborhood": null, "image": null, "scorecard": null, "featured": false, "sample_categories": "Barbecue Restaurants", "public_id": "wanyes-brother-bbq-marietta", "id": 777668500, "votes": null, "tagline": null, "has_video": false, "website": null, "offers": null, "latitude": 33.977691, "politanName": "Atlanta, GA Metro ", "phone_number": "6783313892", "tags": [{"primary": true, "id": 1724, "name": "Barbecue Restaurants"}], "fax_number": null, "expansion": {"count": null, "uri": null}, "impression_id": "000b00000082149d60231a48a381d14f86707c5e9b", "profile": "http://www.citysearch.com/profile/777668500/marietta_ga/wanye_s_brother_bbq.html", "address": {"city": "Marietta", "state": "GA", "street": "1160 Hayes Industrial Dr", "postal_code": "30062"}, "capProviderId": null, "distance": null, "has_offers": false, "name": "Wanye's Brother BBQ", "longitude": -84.542327, "has_menu": false, "awards": null, "user_review_count": 0}, {"business_operation_status": 1, "rating": null, "neighborhood": null, "image": null, "scorecard": null, "featured": false, "sample_categories": "Restaurants", "public_id": "noca-roswell", "id": 777669130, "votes": null, "tagline": null, "has_video": false, "website": "http://www.citysearch.com/profile/external/777669130/roswell_ga/noca.html", "offers": null, "latitude": 34.030534, "politanName": "Atlanta, GA Metro ", "phone_number": "7709928866", "tags": [{"primary": true, "id": 1722, "name": "Restaurants"}], "fax_number": null, "expansion": {"count": null, "uri": null}, "impression_id": "000b000000979fdd7821b94e59a56139de3ad14f04", "profile": "http://www.citysearch.com/profile/777669130/roswell_ga/noca.html", "address": {"city": "Roswell", "state": "GA", "street": "1170 Canton St", "postal_code": "30075"}, "capProviderId": null, "distance": null, "has_offers": false, "name": "Noca", "longitude": -84.361529, "has_menu": false, "awards": null, "user_review_count": 0}, {"business_operation_status": 1, "rating": null, "neighborhood": null, "image": null, "scorecard": null, "featured": false, "sample_categories": "Restaurants", "public_id": "hoboken-cafe-marietta", "id": 777676340, "votes": null, "tagline": null, "has_video": false, "website": null, "offers": null, "latitude": 33.951914, "politanName": "Atlanta, GA Metro ", "phone_number": "6789093375", "tags": [{"primary": true, "id": 1722, "name": "Restaurants"}], "fax_number": null, "expansion": {"count": null, "uri": null}, "impression_id": "000b000000d55340b77c08435b996c57bfc9d22564", "profile": "http://www.citysearch.com/profile/777676340/marietta_ga/hoboken_cafe.html", "address": {"city": "Marietta", "state": "GA", "street": "688 Whitlock Ave NW", "postal_code": "30064"}, "capProviderId": null, "distance": null, "has_offers": false, "name": "Hoboken Cafe", "longitude": -84.57265, "has_menu": false, "awards": null, "user_review_count": 0}, {"business_operation_status": 1, "rating": null, "neighborhood": null, "image": null, "scorecard": null, "featured": false, "sample_categories": "Restaurants, Pizza", "public_id": "village-slice-pizza-roswell", "id": 777726470, "votes": null, "tagline": null, "has_video": false, "website": null, "offers": null, "latitude": 34.073047, "politanName": "Atlanta, GA Metro ", "phone_number": "6784618272", "tags": [{"primary": false, "id": 11299, "name": "Pizza"}, {"primary": true, "id": 1722, "name": "Restaurants"}], "fax_number": null, "expansion": {"count": null, "uri": null}, "impression_id": "000b0000004991d591fb1149abaf68bbb81d349269", "profile": "http://www.citysearch.com/profile/777726470/roswell_ga/village_slice_pizza.html", "address": {"city": "Roswell", "state": "GA", "street": "12020 Etris Rd # B140", "postal_code": "30075"}, "capProviderId": null, "distance": null, "has_offers": false, "name": "Village Slice Pizza", "longitude": -84.361591, "has_menu": false, "awards": null, "user_review_count": 1}, {"business_operation_status": 1, "rating": null, "neighborhood": null, "image": null, "scorecard": null, "featured": false, "sample_categories": "Seafood Markets, Restaurants", "public_id": "reel-seafood-woodstock", "id": 796122900, "votes": null, "tagline": null, "has_video": false, "website": null, "offers": null, "latitude": 34.099977, "politanName": "Atlanta, GA Metro ", "phone_number": "7706273006", "tags": [{"primary": false, "id": 1722, "name": "Restaurants"}, {"primary": true, "id": 1719, "name": "Seafood Markets"}], "fax_number": null, "expansion": {"count": null, "uri": null}, "impression_id": "000b0000005029802b7f85435685f8206ff016547b", "profile": "http://www.citysearch.com/profile/796122900/woodstock_ga/reel_seafood.html", "address": {"city": "Woodstock", "state": "GA", "street": "8670 Main St", "postal_code": "30188"}, "capProviderId": null, "distance": null, "has_offers": false, "name": "Reel Seafood", "longitude": -84.520282, "has_menu": false, "awards": null, "user_review_count": 0}, {"business_operation_status": 1, "rating": null, "neighborhood": null, "image": null, "scorecard": null, "featured": false, "sample_categories": "Restaurants", "public_id": "buffalos-cafe-woodstock", "id": 35718208, "votes": null, "tagline": null, "has_video": false, "website": null, "offers": null, "latitude": 34.087003, "politanName": "Atlanta, GA Metro ", "phone_number": "7705919464", "tags": [{"primary": true, "id": 1722, "name": "Restaurants"}], "fax_number": null, "expansion": {"count": null, "uri": null}, "impression_id": "000b000000e9a826010ea64dd79dc40ef5d4a09eff", "profile": "http://www.citysearch.com/profile/35718208/woodstock_ga/buffalo_s_cafe.html", "address": {"city": "Woodstock", "state": "GA", "street": "9425 Highway 92", "postal_code": "30188"}, "capProviderId": null, "distance": null, "has_offers": false, "name": "Buffalo's Cafe", "longitude": -84.532577, "has_menu": true, "awards": null, "user_review_count": 0}, {"business_operation_status": 1, "rating": null, "neighborhood": null, "image": null, "scorecard": null, "featured": false, "sample_categories": "Restaurants", "public_id": "d-c-backyard-grill-inc-marietta", "id": 798805340, "votes": null, "tagline": null, "has_video": false, "website": null, "offers": null, "latitude": 33.942612, "politanName": "Atlanta, GA Metro ", "phone_number": "7709198797", "tags": [{"primary": true, "id": 1722, "name": "Restaurants"}], "fax_number": null, "expansion": {"count": null, "uri": null}, "impression_id": "000b0000002fd0185c194f4d0ca88a07e72ab57279", "profile": "http://www.citysearch.com/profile/798805340/marietta_ga/d_c_backyard_grill_inc.html", "address": {"city": "Marietta", "state": "GA", "street": "547 Atlanta St Se", "postal_code": "30060"}, "capProviderId": null, "distance": null, "has_offers": false, "name": "D C Backyard Grill INC", "longitude": -84.545574, "has_menu": false, "awards": null, "user_review_count": 0}, {"business_operation_status": 1, "rating": null, "neighborhood": null, "image": null, "scorecard": null, "featured": false, "sample_categories": "Restaurants, Asian", "public_id": "james-sushi-llc-woodstock", "id": 787110700, "votes": null, "tagline": null, "has_video": false, "website": null, "offers": null, "latitude": 34.101068, "politanName": "Atlanta, GA Metro ", "phone_number": "7705926312", "tags": [{"primary": false, "id": 11235, "name": "Asian"}, {"primary": true, "id": 1722, "name": "Restaurants"}], "fax_number": null, "expansion": {"count": null, "uri": null}, "impression_id": "000b0000005870da892b5d4cf797eda6f0b108ae15", "profile": "http://www.citysearch.com/profile/787110700/woodstock_ga/james_sushi_llc.html", "address": {"city": "Woodstock", "state": "GA", "street": "411 Yarrow Way", "postal_code": "30188"}, "capProviderId": null, "distance": null, "has_offers": false, "name": "James Sushi LLC", "longitude": -84.462879, "has_menu": false, "awards": null, "user_review_count": 0}, {"business_operation_status": 1, "rating": null, "neighborhood": null, "image": null, "scorecard": null, "featured": false, "sample_categories": "Restaurants", "public_id": "las-drisas-number-2-marietta", "id": 713600220, "votes": null, "tagline": null, "has_video": false, "website": null, "offers": null, "latitude": 33.935213, "politanName": "Atlanta, GA Metro ", "phone_number": "6783542220", "tags": [{"primary": true, "id": 1722, "name": "Restaurants"}], "fax_number": null, "expansion": {"count": null, "uri": null}, "impression_id": "000b000000154448f4d91644cfbbf65ef7c8cf2920", "profile": "http://www.citysearch.com/profile/713600220/marietta_ga/las_drisas_number_2.html", "address": {"city": "Marietta", "state": "GA", "street": "715 Sandtown Rd Sw", "postal_code": "30008"}, "capProviderId": null, "distance": null, "has_offers": false, "name": "Las Drisas Number 2", "longitude": -84.555821, "has_menu": false, "awards": null, "user_review_count": 0}, {"business_operation_status": 1, "rating": null, "neighborhood": null, "image": null, "scorecard": null, "featured": false, "sample_categories": "Restaurants, Pizza", "public_id": "chicago-dough-pizza-factory-kennesaw", "id": 812159770, "votes": null, "tagline": null, "has_video": false, "website": null, "offers": null, "latitude": 34.048653, "politanName": "Atlanta, GA Metro ", "phone_number": "6787971888", "tags": [{"primary": false, "id": 1722, "name": "Restaurants"}, {"primary": true, "id": 11299, "name": "Pizza"}], "fax_number": null, "expansion": {"count": null, "uri": null}, "impression_id": "000b0000001f5b4270f6cb42529b8ee634ed90358d", "profile": "http://www.citysearch.com/profile/812159770/kennesaw_ga/chicago_dough_pizza_factory.html", "address": {"city": "Kennesaw", "state": "GA", "street": "3875 Cherokee St NW", "postal_code": "30144"}, "capProviderId": null, "distance": null, "has_offers": false, "name": "Chicago Dough Pizza Factory", "longitude": -84.598621, "has_menu": false, "awards": null, "user_review_count": 0}, {"business_operation_status": 1, "rating": null, "neighborhood": null, "image": null, "scorecard": null, "featured": false, "sample_categories": "Restaurants", "public_id": "great-panda-restaurant-marietta", "id": 814222940, "votes": null, "tagline": null, "has_video": false, "website": null, "offers": null, "latitude": 33.953111, "politanName": "Atlanta, GA Metro ", "phone_number": "7704282831", "tags": [{"primary": true, "id": 1722, "name": "Restaurants"}], "fax_number": null, "expansion": {"count": null, "uri": null}, "impression_id": "000b00000010a42ae0e5bb4f929a244364afe1428c", "profile": "http://www.citysearch.com/profile/814222940/marietta_ga/great_panda_restaurant.html", "address": {"city": "Marietta", "state": "GA", "street": "1000 Whitlock Ave NW", "postal_code": "30064"}, "capProviderId": null, "distance": null, "has_offers": false, "name": "Great Panda Restaurant", "longitude": -84.581272, "has_menu": false, "awards": null, "user_review_count": 0}, {"business_operation_status": 1, "rating": 8.0, "neighborhood": null, "image": null, "scorecard": null, "featured": false, "sample_categories": "Restaurants, Advertising, Ice Cream Parlors, $", "public_id": "ben-jerrys-marietta", "id": 45009019, "votes": null, "tagline": null, "has_video": false, "website": null, "offers": null, "latitude": 33.944038, "politanName": "Atlanta, GA Metro ", "phone_number": "7704248851", "tags": [{"primary": false, "id": 1722, "name": "Restaurants"}, {"primary": false, "id": 3372, "name": "Advertising"}, {"primary": false, "id": 11231, "name": "$"}, {"primary": true, "id": 1730, "name": "Ice Cream Parlors"}], "fax_number": null, "expansion": {"count": null, "uri": null}, "impression_id": "000b000000f7ce515f37c24493961af4acb7849ff6", "profile": "http://www.citysearch.com/profile/45009019/marietta_ga/ben_jerry_s.html", "address": {"city": "Marietta", "state": "GA", "street": "330 Franklin Rd SE", "postal_code": "30067"}, "capProviderId": null, "distance": null, "has_offers": false, "name": "Ben & Jerry's", "longitude": -84.512153, "has_menu": true, "awards": null, "user_review_count": 0}, {"business_operation_status": 1, "rating": null, "neighborhood": null, "image": null, "scorecard": null, "featured": false, "sample_categories": "Restaurants", "public_id": "p-js-kennesaw", "id": 815756710, "votes": null, "tagline": null, "has_video": false, "website": null, "offers": null, "latitude": 34.035079, "politanName": "Atlanta, GA Metro ", "phone_number": "7704235939", "tags": [{"primary": true, "id": 1722, "name": "Restaurants"}], "fax_number": null, "expansion": {"count": null, "uri": null}, "impression_id": "000b00000049105a4cc72f4b28a92452b4eafff077", "profile": "http://www.citysearch.com/profile/815756710/kennesaw_ga/p_j_s.html", "address": {"city": "Kennesaw", "state": "GA", "street": "3400 Busbee Dr NW", "postal_code": "30144"}, "capProviderId": null, "distance": null, "has_offers": false, "name": "P J's", "longitude": -84.574368, "has_menu": false, "awards": null, "user_review_count": 0}, {"business_operation_status": 1, "rating": null, "neighborhood": null, "image": null, "scorecard": null, "featured": false, "sample_categories": "Restaurants, Pizza", "public_id": "rock-solid-security-solutions-kennesaw", "id": 45560530, "votes": null, "tagline": null, "has_video": false, "website": null, "offers": null, "latitude": 34.024398, "politanName": "Atlanta, GA Metro ", "phone_number": "7706932354", "tags": [{"primary": false, "id": 1722, "name": "Restaurants"}, {"primary": true, "id": 11299, "name": "Pizza"}], "fax_number": null, "expansion": {"count": null, "uri": null}, "impression_id": "000b000000c72a7ba4c7d448c694c9bf6a13c13680", "profile": "http://www.citysearch.com/profile/45560530/kennesaw_ga/rock_solid_security_solutions.html", "address": {"city": "Kennesaw", "state": "GA", "street": "2914 Cherokee St NW", "postal_code": "30144"}, "capProviderId": null, "distance": null, "has_offers": false, "name": "Rock Solid Security Solutions", "longitude": -84.611629, "has_menu": false, "awards": null, "user_review_count": 0}, {"business_operation_status": 1, "rating": 6.0, "neighborhood": null, "image": null, "scorecard": null, "featured": false, "sample_categories": "Dessert Shops, Restaurants", "public_id": "dollys-frozen-custard-kennesaw", "id": 45561007, "votes": null, "tagline": null, "has_video": false, "website": null, "offers": null, "latitude": 34.017774, "politanName": "Atlanta, GA Metro ", "phone_number": "7709198858", "tags": [{"primary": false, "id": 1722, "name": "Restaurants"}, {"primary": true, "id": 1728, "name": "Dessert Shops"}], "fax_number": null, "expansion": {"count": null, "uri": null}, "impression_id": "000b000000a1ecd794f7804ec5be5f83110c4a3223", "profile": "http://www.citysearch.com/profile/45561007/kennesaw_ga/dolly_s_frozen_custard.html", "address": {"city": "Kennesaw", "state": "GA", "street": "2680 Cobb Pkwy NW Ste D", "postal_code": "30152"}, "capProviderId": null, "distance": null, "has_offers": false, "name": "Dolly's Frozen Custard", "longitude": -84.617896, "has_menu": false, "awards": null, "user_review_count": 0}, {"business_operation_status": 1, "rating": null, "neighborhood": null, "image": null, "scorecard": null, "featured": false, "sample_categories": "Restaurants", "public_id": "planet-smoothie-marietta-8", "id": 819890580, "votes": null, "tagline": null, "has_video": false, "website": null, "offers": null, "latitude": 33.947326, "politanName": "Atlanta, GA Metro ", "phone_number": "7704272700", "tags": [{"primary": true, "id": 1722, "name": "Restaurants"}], "fax_number": null, "expansion": {"count": null, "uri": null}, "impression_id": "000b0000005d1be248e7234454ba899341659d00bd", "profile": "http://www.citysearch.com/profile/819890580/marietta_ga/planet_smoothie.html", "address": {"city": "Marietta", "state": "GA", "street": "3451 Barrett Pkwy NW # 145", "postal_code": "30064"}, "capProviderId": null, "distance": null, "has_offers": false, "name": "Planet Smoothie", "longitude": -84.622965, "has_menu": false, "awards": null, "user_review_count": 0}, {"business_operation_status": 1, "rating": null, "neighborhood": null, "image": null, "scorecard": null, "featured": false, "sample_categories": "Restaurants", "public_id": "tom-chee-kennesaw", "id": 626960404, "votes": null, "tagline": null, "has_video": false, "website": null, "offers": null, "latitude": 34.000514, "politanName": "Atlanta, GA Metro ", "phone_number": "6784988321", "tags": [{"primary": true, "id": 1722, "name": "Restaurants"}], "fax_number": null, "expansion": {"count": null, "uri": null}, "impression_id": "000b000000dffbb89e861a4134830bf95c860c87de", "profile": "http://www.citysearch.com/profile/626960404/kennesaw_ga/tom_chee.html", "address": {"city": "Kennesaw", "state": "GA", "street": "1200 Ernest W Barrett Pkwy NW 208", "postal_code": "30144"}, "capProviderId": null, "distance": null, "has_offers": false, "name": "Tom + Chee", "longitude": -84.587423, "has_menu": false, "awards": null, "user_review_count": 0}, {"business_operation_status": 1, "rating": null, "neighborhood": null, "image": null, "scorecard": null, "featured": false, "sample_categories": "Restaurants", "public_id": "playa-azul-restaurant-marietta", "id": 822491930, "votes": null, "tagline": null, "has_video": false, "website": null, "offers": null, "latitude": 33.941881, "politanName": "Atlanta, GA Metro ", "phone_number": "6785946635", "tags": [{"primary": true, "id": 1722, "name": "Restaurants"}], "fax_number": null, "expansion": {"count": null, "uri": null}, "impression_id": "000b000000587f3d7d99f3437fa95a9e786c99e117", "profile": "http://www.citysearch.com/profile/822491930/marietta_ga/playa_azul_restaurant.html", "address": {"city": "Marietta", "state": "GA", "street": "401 Rose Dr # 201", "postal_code": "30060"}, "capProviderId": null, "distance": null, "has_offers": false, "name": "Playa Azul Restaurant", "longitude": -84.523857, "has_menu": false, "awards": null, "user_review_count": 0}, {"business_operation_status": 1, "rating": null, "neighborhood": null, "image": null, "scorecard": null, "featured": false, "sample_categories": "Grocery Stores, Restaurants", "public_id": "hoover-foods-kennesaw", "id": 655893410, "votes": null, "tagline": null, "has_video": false, "website": null, "offers": null, "latitude": 34.050688, "politanName": "Atlanta, GA Metro ", "phone_number": "6785810388", "tags": [{"primary": false, "id": 1722, "name": "Restaurants"}, {"primary": true, "id": 1713, "name": "Grocery Stores"}], "fax_number": null, "expansion": {"count": null, "uri": null}, "impression_id": "000b0000007e2458fd5c6646cb88c04bda5643fd3a", "profile": "http://www.citysearch.com/profile/655893410/kennesaw_ga/hoover_foods.html", "address": {"city": "Kennesaw", "state": "GA", "street": "4065 Cherokee St Nw", "postal_code": "30144"}, "capProviderId": null, "distance": null, "has_offers": false, "name": "Hoover Foods", "longitude": -84.596657, "has_menu": false, "awards": null, "user_review_count": 0}, {"business_operation_status": 1, "rating": null, "neighborhood": null, "image": null, "scorecard": null, "featured": false, "sample_categories": "Restaurants, American Express, Discover, MasterCard, Visa", "public_id": "place-woodstock", "id": 682420870, "votes": null, "tagline": null, "has_video": false, "website": "http://www.citysearch.com/profile/external/682420870/woodstock_ga/place.html", "offers": null, "latitude": 34.107927, "politanName": "Atlanta, GA Metro ", "phone_number": "7709288901", "tags": [{"primary": false, "id": 11333, "name": "American Express"}, {"primary": false, "id": 11349, "name": "Discover"}, {"primary": false, "id": 11361, "name": "MasterCard"}, {"primary": false, "id": 11382, "name": "Visa"}, {"primary": true, "id": 1722, "name": "Restaurants"}], "fax_number": null, "expansion": {"count": null, "uri": null}, "impression_id": "000b0000007721306a3fa043039c25caf1f2b9f688", "profile": "http://www.citysearch.com/profile/682420870/woodstock_ga/place.html", "address": {"city": "Woodstock", "state": "GA", "street": "1105 Parkside Ln # 1102", "postal_code": "30189"}, "capProviderId": null, "distance": null, "has_offers": false, "name": "Place", "longitude": -84.553485, "has_menu": false, "awards": null, "user_review_count": 0}, {"business_operation_status": 1, "rating": null, "neighborhood": null, "image": null, "scorecard": null, "featured": false, "sample_categories": "Restaurants", "public_id": "saporitos-kennesaw", "id": 682453180, "votes": null, "tagline": null, "has_video": false, "website": null, "offers": null, "latitude": 33.999345, "politanName": "Atlanta, GA Metro ", "phone_number": "7704251970", "tags": [{"primary": true, "id": 1722, "name": "Restaurants"}], "fax_number": null, "expansion": {"count": null, "uri": null}, "impression_id": "000b000000c6b06712ddca407a915b10802e0da0fb", "profile": "http://www.citysearch.com/profile/682453180/kennesaw_ga/saporito_s.html", "address": {"city": "Kennesaw", "state": "GA", "street": "1200 Ernest W Barrett Pkwy NW", "postal_code": "30144"}, "capProviderId": null, "distance": null, "has_offers": false, "name": "Saporito's", "longitude": -84.586888, "has_menu": false, "awards": null, "user_review_count": 0}, {"business_operation_status": 1, "rating": null, "neighborhood": null, "image": null, "scorecard": null, "featured": false, "sample_categories": "Grocery Stores, Bakeries, Delis And Delicatessens, Pharmacies, Florists", "public_id": "kroger-deli-woodstock", "id": 627650910, "votes": null, "tagline": null, "has_video": false, "website": "http://www.citysearch.com/profile/external/627650910/woodstock_ga/kroger_deli.html", "offers": null, "latitude": 34.113403, "politanName": "Atlanta, GA Metro ", "phone_number": "7705172080", "tags": [{"primary": false, "id": 1685, "name": "Bakeries"}, {"primary": false, "id": 1727, "name": "Delis And Delicatessens"}, {"primary": false, "id": 1930, "name": "Pharmacies"}, {"primary": false, "id": 3921, "name": "Florists"}, {"primary": false, "id": 3924, "name": "Department Stores"}, {"primary": false, "id": 11333, "name": "American Express"}, {"primary": false, "id": 11349, "name": "Discover"}, {"primary": false, "id": 11361, "name": "MasterCard"}, {"primary": false, "id": 11382, "name": "Visa"}, {"primary": true, "id": 1713, "name": "Grocery Stores"}], "fax_number": null, "expansion": {"count": null, "uri": null}, "impression_id": "000b0000007b2f79c3825948b58b4a39016c129eb0", "profile": "http://www.citysearch.com/profile/627650910/woodstock_ga/kroger_deli.html", "address": {"city": "Woodstock", "state": "GA", "street": "2295 Towne Lake Pkwy # 132", "postal_code": "30189"}, "capProviderId": null, "distance": null, "has_offers": false, "name": "Kroger Deli", "longitude": -84.553614, "has_menu": false, "awards": null, "user_review_count": 0}, {"business_operation_status": 1, "rating": null, "neighborhood": null, "image": null, "scorecard": null, "featured": false, "sample_categories": "Restaurants", "public_id": "chicken-boss-llc-marietta", "id": 627930504, "votes": null, "tagline": null, "has_video": false, "website": null, "offers": null, "latitude": 33.933122, "politanName": "Atlanta, GA Metro ", "phone_number": "7705080980", "tags": [{"primary": true, "id": 1722, "name": "Restaurants"}], "fax_number": null, "expansion": {"count": null, "uri": null}, "impression_id": "000b000000c638695aae75435ab5dc05e496761212", "profile": "http://www.citysearch.com/profile/627930504/marietta_ga/chicken_boss_llc.html", "address": {"city": "Marietta", "state": "GA", "street": "803 Powder Springs St", "postal_code": "30064"}, "capProviderId": null, "distance": null, "has_offers": false, "name": "Chicken Boss LLC", "longitude": -84.559881, "has_menu": false, "awards": null, "user_review_count": 0}, {"business_operation_status": 1, "rating": null, "neighborhood": null, "image": null, "scorecard": null, "featured": false, "sample_categories": "Restaurants", "public_id": "big-cheese-enterprises-llc-woodstock", "id": 632893300, "votes": null, "tagline": null, "has_video": false, "website": null, "offers": null, "latitude": 34.11949, "politanName": "Atlanta, GA Metro ", "phone_number": "7705920747", "tags": [{"primary": true, "id": 1722, "name": "Restaurants"}], "fax_number": null, "expansion": {"count": null, "uri": null}, "impression_id": "000b000000d2240260706f45318369c60e074d8119", "profile": "http://www.citysearch.com/profile/632893300/woodstock_ga/big_cheese_enterprises_llc.html", "address": {"city": "Woodstock", "state": "GA", "street": "4080 Dream Catcher Dr", "postal_code": "30189"}, "capProviderId": null, "distance": null, "has_offers": false, "name": "Big Cheese Enterprises Llc", "longitude": -84.536575, "has_menu": false, "awards": null, "user_review_count": 0}, {"business_operation_status": 1, "rating": null, "neighborhood": null, "image": null, "scorecard": null, "featured": false, "sample_categories": "Coffeehouses, Restaurants", "public_id": "starbucks-woodstock-4", "id": 632968000, "votes": null, "tagline": null, "has_video": false, "website": "http://www.citysearch.com/profile/external/632968000/woodstock_ga/starbucks.html", "offers": null, "latitude": 34.086614, "politanName": "Atlanta, GA Metro ", "phone_number": "7705920655", "tags": [{"primary": false, "id": 1722, "name": "Restaurants"}, {"primary": true, "id": 1726, "name": "Coffeehouses"}], "fax_number": null, "expansion": {"count": null, "uri": null}, "impression_id": "000b00000003858f89fec34bc79a0081bf253730cc", "profile": "http://www.citysearch.com/profile/632968000/woodstock_ga/starbucks.html", "address": {"city": "Woodstock", "state": "GA", "street": "12400 Highway 92", "postal_code": "30188"}, "capProviderId": null, "distance": null, "has_offers": false, "name": "Starbucks", "longitude": -84.478896, "has_menu": true, "awards": null, "user_review_count": 0}, {"business_operation_status": 1, "rating": null, "neighborhood": null, "image": null, "scorecard": null, "featured": false, "sample_categories": "Restaurants, Asian", "public_id": "ajima-asian-roswell", "id": 653613710, "votes": null, "tagline": null, "has_video": false, "website": null, "offers": null, "latitude": 34.073102, "politanName": "Atlanta, GA Metro ", "phone_number": "7706451688", "tags": [{"primary": false, "id": 11235, "name": "Asian"}, {"primary": true, "id": 1722, "name": "Restaurants"}], "fax_number": null, "expansion": {"count": null, "uri": null}, "impression_id": "000b0000009ab7ed88dcab41c6afa4c0afec66ac9a", "profile": "http://www.citysearch.com/profile/653613710/roswell_ga/ajima_asian.html", "address": {"city": "Roswell", "state": "GA", "street": "12040 Etris Rd", "postal_code": "30075"}, "capProviderId": null, "distance": null, "has_offers": false, "name": "Ajima Asian", "longitude": -84.362597, "has_menu": false, "awards": null, "user_review_count": 0}], "histograms": [], "tag_ids": [1722], "uri": "http://api.citygridmedia.com:8080/search/places/v2/search/where?has_offers=false&type=restaurant&format=json&page=41&where=30066&rpp=50&histograms=false&publisher=10000009598&region_type=circle", "did_you_mean": "", "regions": [{"latitude": 34.034132, "default_radius": 5.28, "type": "postal_code", "name": "30066", "longitude": -84.508332}], "call_id": "000b0000006305b39aa13e49938b3f9638cc333e7a", "first_hit": 2001, "total_hits": 2075, "geo_ids": [26294], "page": 41, "last_hit": 2050}}