{"results": {"rpp": 50, "locations": [{"business_operation_status": 1, "rating": null, "neighborhood": null, "image": null, "scorecard": null, "featured": false, "sample_categories": "Restaurants, Carry Out, Hamburgers", "public_id": "mc-donalds-canton-18", "id": 622245630, "votes": null, "tagline": null, "has_video": false, "website": "http://www.citysearch.com/profile/external/622245630/canton_ga/mc_donald_s.html", "offers": null, "latitude": 34.173495, "politanName": "Atlanta, GA Metro ", "phone_number": "7707044885", "tags": [{"primary": false, "id": 11247, "name": "Carry Out"}, {"primary": false, "id": 11270, "name": "Hamburgers"}, {"primary": true, "id": 1722, "name": "Restaurants"}], "fax_number": null, "expansion": {"count": null, "uri": null}, "impression_id": "000b0000006c59ed4de6ac41f6a7015663c4b47856", "profile": "http://www.citysearch.com/profile/622245630/canton_ga/mc_donald_s.html", "address": {"city": "Canton", "state": "GA", "street": "3335 Sixes Rd", "postal_code": "30114"}, "capProviderId": null, "distance": null, "has_offers": false, "name": "Mc Donald's", "longitude": -84.54906, "has_menu": true, "awards": null, "user_review_count": 0}, {"business_operation_status": 1, "rating": null, "neighborhood": null, "image": null, "scorecard": null, "featured": false, "sample_categories": "Restaurants, Delis And Delicatessens, Sandwich Shops, Carry Out", "public_id": "subway-kennesaw-12", "id": 627566914, "votes": null, "tagline": null, "has_video": false, "website": "http://www.citysearch.com/profile/external/627566914/kennesaw_ga/subway.html", "offers": null, "latitude": 34.014011, "politanName": "Atlanta, GA Metro ", "phone_number": null, "tags": [{"primary": false, "id": 1727, "name": "Delis And Delicatessens"}, {"primary": false, "id": 1736, "name": "Sandwich Shops"}, {"primary": false, "id": 11247, "name": "Carry Out"}, {"primary": true, "id": 1722, "name": "Restaurants"}], "fax_number": null, "expansion": {"count": null, "uri": null}, "impression_id": "000b000000adf4528d8de7416dbf254975fb651424", "profile": "http://www.citysearch.com/profile/627566914/kennesaw_ga/subway.html", "address": {"city": "Kennesaw", "state": "GA", "street": "575 Ernest W Barrett Pkwy NW", "postal_code": "30144"}, "capProviderId": null, "distance": null, "has_offers": false, "name": "Subway", "longitude": -84.559013, "has_menu": false, "awards": null, "user_review_count": 0}, {"business_operation_status": 1, "rating": null, "neighborhood": null, "image": null, "scorecard": null, "featured": false, "sample_categories": "Delis And Delicatessens, Restaurants", "public_id": "delectable-samplings-marietta", "id": 45988505, "votes": null, "tagline": null, "has_video": false, "website": "http://www.citysearch.com/profile/external/45988505/marietta_ga/delectable_samplings.html", "offers": null, "latitude": 34.020169, "politanName": "Atlanta, GA Metro ", "phone_number": "7709985113", "tags": [{"primary": false, "id": 1722, "name": "Restaurants"}, {"primary": true, "id": 1727, "name": "Delis And Delicatessens"}], "fax_number": null, "expansion": {"count": null, "uri": null}, "impression_id": "000b0000001834009f78054ee38af72987282aed5b", "profile": "http://www.citysearch.com/profile/45988505/marietta_ga/delectable_samplings.html", "address": {"city": "Marietta", "state": "GA", "street": "4572 Snowchase Way", "postal_code": "30062"}, "capProviderId": null, "distance": null, "has_offers": false, "name": "Delectable Samplings", "longitude": -84.420349, "has_menu": false, "awards": null, "user_review_count": 0}, {"business_operation_status": 1, "rating": null, "neighborhood": null, "image": null, "scorecard": null, "featured": false, "sample_categories": "Restaurants, Barbecue Restaurants", "public_id": "wings-burger-haven-marietta", "id": 653579150, "votes": null, "tagline": null, "has_video": false, "website": null, "offers": null, "latitude": 33.988155, "politanName": "Atlanta, GA Metro ", "phone_number": "6784679223", "tags": [{"primary": false, "id": 1724, "name": "Barbecue Restaurants"}, {"primary": true, "id": 1722, "name": "Restaurants"}], "fax_number": null, "expansion": {"count": null, "uri": null}, "impression_id": "000b00000031ba54769d46410b9f9ccd3754a8b728", "profile": "http://www.citysearch.com/profile/653579150/marietta_ga/wings_burger_haven.html", "address": {"city": "Marietta", "state": "GA", "street": "1410 Glenover Cir", "postal_code": "30062"}, "capProviderId": null, "distance": null, "has_offers": false, "name": "Wings & Burger Haven", "longitude": -84.511569, "has_menu": false, "awards": null, "user_review_count": 0}, {"business_operation_status": 1, "rating": null, "neighborhood": null, "image": null, "scorecard": null, "featured": false, "sample_categories": "Restaurants, Greek", "public_id": "milos-restaurant-greek-tavern-marietta", "id": 793388790, "votes": null, "tagline": null, "has_video": false, "website": null, "offers": null, "latitude": 33.953276, "politanName": "Atlanta, GA Metro ", "phone_number": "6789033148", "tags": [{"primary": false, "id": 11268, "name": "Greek"}, {"primary": true, "id": 1722, "name": "Restaurants"}], "fax_number": null, "expansion": {"count": null, "uri": null}, "impression_id": "000b0000001d938c7d17d149f48daad198b808d2f8", "profile": "http://www.citysearch.com/profile/793388790/marietta_ga/milos_restaurant_greek_tavern.html", "address": {"city": "Marietta", "state": "GA", "street": "26 Mill St Ne", "postal_code": "30060"}, "capProviderId": null, "distance": null, "has_offers": false, "name": "Milos Restaurant Greek Tavern", "longitude": -84.551885, "has_menu": false, "awards": null, "user_review_count": 0}, {"business_operation_status": 1, "rating": null, "neighborhood": null, "image": null, "scorecard": null, "featured": false, "sample_categories": "Restaurants", "public_id": "its-greek-to-us-marietta", "id": 804307170, "votes": null, "tagline": null, "has_video": false, "website": null, "offers": null, "latitude": 33.974019, "politanName": "Atlanta, GA Metro ", "phone_number": "7705753077", "tags": [{"primary": true, "id": 1722, "name": "Restaurants"}], "fax_number": null, "expansion": {"count": null, "uri": null}, "impression_id": "000b000000c1e7bc8a108f4b919f78accc9d93af36", "profile": "http://www.citysearch.com/profile/804307170/marietta_ga/it_s_greek_to_us.html", "address": {"city": "Marietta", "state": "GA", "street": "1355 Church Street Ext Ne", "postal_code": "30060"}, "capProviderId": null, "distance": null, "has_offers": false, "name": "It's Greek To US", "longitude": -84.552835, "has_menu": true, "awards": null, "user_review_count": 0}, {"business_operation_status": 1, "rating": 6.0, "neighborhood": null, "image": null, "scorecard": null, "featured": false, "sample_categories": "Restaurants, Family-Friendly Dining", "public_id": "our-place-restaurant-marietta", "id": 43842559, "votes": null, "tagline": null, "has_video": false, "website": null, "offers": null, "latitude": 33.941343, "politanName": "Atlanta, GA Metro ", "phone_number": "7704223796", "tags": [{"primary": false, "id": 1722, "name": "Restaurants"}, {"primary": true, "id": 11263, "name": "Family-Friendly Dining"}], "fax_number": null, "expansion": {"count": null, "uri": null}, "impression_id": "000b000000a061a4d7d06848368ca6e78ac5991b64", "profile": "http://www.citysearch.com/profile/43842559/marietta_ga/our_place_restaurant.html", "address": {"city": "Marietta", "state": "GA", "street": "940 S Marietta Pkwy SE", "postal_code": "30060"}, "capProviderId": null, "distance": null, "has_offers": false, "name": "Our Place Restaurant", "longitude": -84.523114, "has_menu": false, "awards": null, "user_review_count": 2}, {"business_operation_status": 1, "rating": null, "neighborhood": null, "image": null, "scorecard": null, "featured": false, "sample_categories": "Restaurants", "public_id": "cantons-donuts-marietta", "id": 805665440, "votes": null, "tagline": null, "has_video": false, "website": null, "offers": null, "latitude": 33.951218, "politanName": "Atlanta, GA Metro ", "phone_number": "7705792399", "tags": [{"primary": true, "id": 1722, "name": "Restaurants"}], "fax_number": null, "expansion": {"count": null, "uri": null}, "impression_id": "000b000000ab57f0b47b664303b3b77b2fa2cf4830", "profile": "http://www.citysearch.com/profile/805665440/marietta_ga/canton_s_donuts.html", "address": {"city": "Marietta", "state": "GA", "street": "1516 Roswell Rd", "postal_code": "30062"}, "capProviderId": null, "distance": null, "has_offers": false, "name": "Canton's Donuts", "longitude": -84.508253, "has_menu": false, "awards": null, "user_review_count": 0}, {"business_operation_status": 1, "rating": null, "neighborhood": null, "image": null, "scorecard": null, "featured": false, "sample_categories": "Restaurants, Fast Food, Carry Out, Hamburgers, American Express", "public_id": "mc-donalds-canton-13", "id": 45558463, "votes": null, "tagline": null, "has_video": false, "website": "http://www.citysearch.com/profile/external/45558463/canton_ga/mc_donald_s.html", "offers": null, "latitude": 34.175804, "politanName": "Atlanta, GA Metro ", "phone_number": "7707203133", "tags": [{"primary": false, "id": 11199, "name": "Fast Food"}, {"primary": false, "id": 11247, "name": "Carry Out"}, {"primary": false, "id": 11270, "name": "Hamburgers"}, {"primary": false, "id": 11333, "name": "American Express"}, {"primary": false, "id": 11361, "name": "MasterCard"}, {"primary": false, "id": 11382, "name": "Visa"}, {"primary": true, "id": 1722, "name": "Restaurants"}], "fax_number": null, "expansion": {"count": null, "uri": null}, "impression_id": "000b00000072cce1f815514b07bcd1ab9bdf950221", "profile": "http://www.citysearch.com/profile/45558463/canton_ga/mc_donald_s.html", "address": {"city": "Canton", "state": "GA", "street": "6126 Hickory Flat Hwy", "postal_code": "30115"}, "capProviderId": null, "distance": null, "has_offers": false, "name": "Mc Donald's", "longitude": -84.418476, "has_menu": true, "awards": null, "user_review_count": 0}, {"business_operation_status": 1, "rating": null, "neighborhood": null, "image": null, "scorecard": null, "featured": false, "sample_categories": "Restaurants, Grocery Stores, Mexican", "public_id": "carniceria-i-taqueria-la-vllt-kennesaw", "id": 45993198, "votes": null, "tagline": null, "has_video": false, "website": null, "offers": null, "latitude": 34.020168, "politanName": "Atlanta, GA Metro ", "phone_number": "6782132841", "tags": [{"primary": false, "id": 1713, "name": "Grocery Stores"}, {"primary": false, "id": 11208, "name": "Mexican"}, {"primary": true, "id": 1722, "name": "Restaurants"}], "fax_number": null, "expansion": {"count": null, "uri": null}, "impression_id": "000b000000f57e9e659fba4bc0922af2807d7ce9bc", "profile": "http://www.citysearch.com/profile/45993198/kennesaw_ga/carniceria_i_taqueria_la_vllt.html", "address": {"city": "Kennesaw", "state": "GA", "street": "2730 Summers St NW", "postal_code": "30144"}, "capProviderId": null, "distance": null, "has_offers": false, "name": "Carniceria I Taqueria La Vllt", "longitude": -84.614116, "has_menu": false, "awards": null, "user_review_count": 0}, {"business_operation_status": 1, "rating": null, "neighborhood": null, "image": null, "scorecard": null, "featured": false, "sample_categories": "Restaurants", "public_id": "pacha-mama-acworth", "id": 828909620, "votes": null, "tagline": null, "has_video": false, "website": null, "offers": null, "latitude": 34.088213, "politanName": "Atlanta, GA Metro ", "phone_number": "7709287977", "tags": [{"primary": true, "id": 1722, "name": "Restaurants"}], "fax_number": null, "expansion": {"count": null, "uri": null}, "impression_id": "000b000000f51efd57364e4d968d84b31d8f6547db", "profile": "http://www.citysearch.com/profile/828909620/acworth_ga/pacha_mama.html", "address": {"city": "Acworth", "state": "GA", "street": "6598 Highway 92", "postal_code": "30102"}, "capProviderId": null, "distance": null, "has_offers": false, "name": "Pacha Mama", "longitude": -84.57896, "has_menu": false, "awards": null, "user_review_count": 0}, {"business_operation_status": 0, "rating": null, "neighborhood": null, "image": null, "scorecard": null, "featured": false, "sample_categories": "Restaurants, Food & Dining, Mexican, American Express, Diners Club", "public_id": "pico-autentico-roswell-2", "id": 604668552, "votes": null, "tagline": null, "has_video": false, "website": "http://www.citysearch.com/profile/external/604668552/roswell_ga/pico_autentico.html", "offers": null, "latitude": 34.014641, "politanName": "Atlanta, GA Metro ", "phone_number": "7706507877", "tags": [{"primary": false, "id": 1684, "name": "Food & Dining"}, {"primary": false, "id": 11208, "name": "Mexican"}, {"primary": false, "id": 11333, "name": "American Express"}, {"primary": false, "id": 11348, "name": "Diners Club"}, {"primary": false, "id": 11349, "name": "Discover"}, {"primary": false, "id": 11361, "name": "MasterCard"}, {"primary": false, "id": 11382, "name": "Visa"}, {"primary": true, "id": 1722, "name": "Restaurants"}], "fax_number": null, "expansion": {"count": null, "uri": null}, "impression_id": "000b000000827e42219eca4edf86423aedb39fe7ea", "profile": "http://www.citysearch.com/profile/604668552/roswell_ga/pico_autentico.html", "address": {"city": "Roswell", "state": "GA", "street": "590 Mimosa Blvd", "postal_code": "30075"}, "capProviderId": null, "distance": null, "has_offers": false, "name": "Pico Autentico", "longitude": -84.363971, "has_menu": true, "awards": null, "user_review_count": 0}, {"business_operation_status": 1, "rating": null, "neighborhood": null, "image": null, "scorecard": null, "featured": false, "sample_categories": "Restaurants", "public_id": "jen-pal-smyrna", "id": 611103124, "votes": null, "tagline": null, "has_video": false, "website": null, "offers": null, "latitude": 33.884162, "politanName": "Atlanta, GA Metro ", "phone_number": "7704319620", "tags": [{"primary": true, "id": 1722, "name": "Restaurants"}], "fax_number": null, "expansion": {"count": null, "uri": null}, "impression_id": "000b0000007e0bff237452433f9dc9a6beee933951", "profile": "http://www.citysearch.com/profile/611103124/smyrna_ga/jen_pal.html", "address": {"city": "Smyrna", "state": "GA", "street": "1260 W Spring St SE # D", "postal_code": "30080"}, "capProviderId": null, "distance": null, "has_offers": false, "name": "Jen Pal", "longitude": -84.515885, "has_menu": false, "awards": null, "user_review_count": 0}, {"business_operation_status": 1, "rating": null, "neighborhood": null, "image": null, "scorecard": null, "featured": false, "sample_categories": "Restaurants", "public_id": "wings-101-smyrna", "id": 621900654, "votes": null, "tagline": null, "has_video": false, "website": null, "offers": null, "latitude": 33.894038, "politanName": "Atlanta, GA Metro ", "phone_number": "7709891520", "tags": [{"primary": true, "id": 1722, "name": "Restaurants"}], "fax_number": null, "expansion": {"count": null, "uri": null}, "impression_id": "000b0000000f1ab201fa164ea8bc238090f4f470ff", "profile": "http://www.citysearch.com/profile/621900654/smyrna_ga/wings_101.html", "address": {"city": "Smyrna", "state": "GA", "street": "998 Windy Hill Rd SE", "postal_code": "30080"}, "capProviderId": null, "distance": null, "has_offers": false, "name": "Wings 101", "longitude": -84.524382, "has_menu": false, "awards": null, "user_review_count": 0}, {"business_operation_status": 1, "rating": null, "neighborhood": null, "image": null, "scorecard": null, "featured": false, "sample_categories": "Restaurants, Fast Food, Carry Out, MasterCard, Visa", "public_id": "bojangles-famous-chicken-marietta", "id": 43849344, "votes": null, "tagline": null, "has_video": false, "website": "http://www.citysearch.com/profile/external/43849344/marietta_ga/bojangles_famous_chicken.html", "offers": null, "latitude": 33.935998, "politanName": "Atlanta, GA Metro ", "phone_number": "7704226222", "tags": [{"primary": false, "id": 11199, "name": "Fast Food"}, {"primary": false, "id": 11247, "name": "Carry Out"}, {"primary": false, "id": 11361, "name": "MasterCard"}, {"primary": false, "id": 11382, "name": "Visa"}, {"primary": false, "id": 12839, "name": "Chicken"}, {"primary": true, "id": 1722, "name": "Restaurants"}], "fax_number": null, "expansion": {"count": null, "uri": null}, "impression_id": "000b000000137c742eef9743ed953e760f51ccf2a6", "profile": "http://www.citysearch.com/profile/43849344/marietta_ga/bojangles_famous_chicken.html", "address": {"city": "Marietta", "state": "GA", "street": "681 Cobb Pkwy N", "postal_code": "30062"}, "capProviderId": null, "distance": null, "has_offers": false, "name": "Bojangles' Famous Chicken", "longitude": -84.511888, "has_menu": false, "awards": null, "user_review_count": 0}, {"business_operation_status": 1, "rating": null, "neighborhood": null, "image": null, "scorecard": null, "featured": false, "sample_categories": "Restaurants, Hamburgers", "public_id": "cheeseburger-bobbys-intl-llc-kennesaw", "id": 622247370, "votes": null, "tagline": null, "has_video": false, "website": null, "offers": null, "latitude": 34.003763, "politanName": "Atlanta, GA Metro ", "phone_number": "7702189962", "tags": [{"primary": false, "id": 11270, "name": "Hamburgers"}, {"primary": true, "id": 1722, "name": "Restaurants"}], "fax_number": null, "expansion": {"count": null, "uri": null}, "impression_id": "000b0000008cfe18995c644114948253a8a50b00fb", "profile": "http://www.citysearch.com/profile/622247370/kennesaw_ga/cheeseburger_bobby_s_intl_llc.html", "address": {"city": "Kennesaw", "state": "GA", "street": "1690 Roberts Blvd Nw # 121", "postal_code": "30144"}, "capProviderId": null, "distance": null, "has_offers": false, "name": "Cheeseburger Bobby's Intl Llc", "longitude": -84.596245, "has_menu": false, "awards": null, "user_review_count": 0}, {"business_operation_status": 1, "rating": null, "neighborhood": null, "image": null, "scorecard": null, "featured": false, "sample_categories": "Restaurants, Coffee & Tea Shops, Coffeehouses, Shop Online", "public_id": "land-of-a-thousand-coffee-shop-roswell", "id": 621982410, "votes": null, "tagline": null, "has_video": false, "website": "http://www.citysearch.com/profile/external/621982410/roswell_ga/land_of_a_thousand_coffee_shop.html", "offers": null, "latitude": 34.009926, "politanName": "Atlanta, GA Metro ", "phone_number": "7706491384", "tags": [{"primary": false, "id": 1711, "name": "Coffee & Tea Shops"}, {"primary": false, "id": 1726, "name": "Coffeehouses"}, {"primary": false, "id": 11375, "name": "Shop Online"}, {"primary": true, "id": 1722, "name": "Restaurants"}], "fax_number": null, "expansion": {"count": null, "uri": null}, "impression_id": "000b00000026b205a652144c19ba1ecb28108cf1d4", "profile": "http://www.citysearch.com/profile/621982410/roswell_ga/land_of_a_thousand_coffee_shop.html", "address": {"city": "Roswell", "state": "GA", "street": "3110 Overland Dr", "postal_code": "30075"}, "capProviderId": null, "distance": null, "has_offers": false, "name": "Land Of A Thousand Coffee Shop", "longitude": -84.35807, "has_menu": false, "awards": null, "user_review_count": 1}, {"business_operation_status": 1, "rating": 8.0, "neighborhood": null, "image": null, "scorecard": null, "featured": false, "sample_categories": "Translators & Interpreters, Bakeries, Restaurants", "public_id": "progreso-latino-marietta", "id": 44772942, "votes": null, "tagline": null, "has_video": false, "website": null, "offers": null, "latitude": 33.936757, "politanName": "Atlanta, GA Metro ", "phone_number": "7707941110", "tags": [{"primary": false, "id": 3744, "name": "Translators & Interpreters"}, {"primary": false, "id": 1685, "name": "Bakeries"}, {"primary": false, "id": 1722, "name": "Restaurants"}], "fax_number": null, "expansion": {"count": null, "uri": null}, "impression_id": "000b000000d605192bed8148c7abaac1288f8b4490", "profile": "http://www.citysearch.com/profile/44772942/marietta_ga/progreso_latino.html", "address": {"city": "Marietta", "state": "GA", "street": "680 Powder Springs St", "postal_code": "30064"}, "capProviderId": null, "distance": null, "has_offers": false, "name": "Progreso Latino", "longitude": -84.557357, "has_menu": false, "awards": null, "user_review_count": 0}, {"business_operation_status": 1, "rating": null, "neighborhood": null, "image": null, "scorecard": null, "featured": false, "sample_categories": "Doughnut Shops, Restaurants", "public_id": "ioans-donuts-holdings-marietta", "id": 45992648, "votes": null, "tagline": null, "has_video": false, "website": null, "offers": null, "latitude": 33.985611, "politanName": "Atlanta, GA Metro ", "phone_number": "6786241035", "tags": [{"primary": false, "id": 1722, "name": "Restaurants"}, {"primary": true, "id": 1734, "name": "Doughnut Shops"}], "fax_number": null, "expansion": {"count": null, "uri": null}, "impression_id": "000b000000063ad66ae06c44fdad7e7943179c6fd6", "profile": "http://www.citysearch.com/profile/45992648/marietta_ga/ioans_donuts_holdings.html", "address": {"city": "Marietta", "state": "GA", "street": "1509 Johnson Ferry Rd", "postal_code": "30062"}, "capProviderId": null, "distance": null, "has_offers": false, "name": "Ioans Donuts Holdings", "longitude": -84.427286, "has_menu": false, "awards": null, "user_review_count": 0}, {"business_operation_status": 1, "rating": 6.0, "neighborhood": null, "image": null, "scorecard": null, "featured": false, "sample_categories": "Restaurants, Dessert Shops, Traditional American, Group Dining, Outdoor Dining", "public_id": "the-union-restaurant-milton", "id": 47278379, "votes": null, "tagline": null, "has_video": false, "website": "http://www.citysearch.com/profile/external/47278379/milton_ga/the_union_restaurant.html", "offers": null, "latitude": 34.119843, "politanName": "Atlanta, GA Metro ", "phone_number": "7705697767", "tags": [{"primary": false, "id": 1728, "name": "Dessert Shops"}, {"primary": false, "id": 11190, "name": "Traditional American"}, {"primary": false, "id": 11269, "name": "Group Dining"}, {"primary": false, "id": 11296, "name": "Outdoor Dining"}, {"primary": false, "id": 11333, "name": "American Express"}, {"primary": false, "id": 11361, "name": "MasterCard"}, {"primary": true, "id": 1722, "name": "Restaurants"}], "fax_number": null, "expansion": {"count": null, "uri": null}, "impression_id": "000b0000003f69f655f730457386c2ca903f25b52a", "profile": "http://www.citysearch.com/profile/47278379/milton_ga/the_union_restaurant.html", "address": {"city": "Milton", "state": "GA", "street": "14275 Providence Rd", "postal_code": "30004"}, "capProviderId": null, "distance": null, "has_offers": false, "name": "The Union Restaurant", "longitude": -84.33148, "has_menu": false, "awards": null, "user_review_count": 3}, {"business_operation_status": 1, "rating": null, "neighborhood": null, "image": null, "scorecard": null, "featured": false, "sample_categories": "Restaurants, Cafes", "public_id": "giga-bites-cafe-marietta", "id": 631962750, "votes": null, "tagline": null, "has_video": false, "website": null, "offers": null, "latitude": 33.991608, "politanName": "Atlanta, GA Metro ", "phone_number": "4045186735", "tags": [{"primary": false, "id": 6190, "name": "Cafes"}, {"primary": true, "id": 1722, "name": "Restaurants"}], "fax_number": null, "expansion": {"count": null, "uri": null}, "impression_id": "000b000000f9df9e5278664b638db90e4536ed411e", "profile": "http://www.citysearch.com/profile/631962750/marietta_ga/giga_bites_cafe.html", "address": {"city": "Marietta", "state": "GA", "street": "2791 Craig Ct", "postal_code": "30062"}, "capProviderId": null, "distance": null, "has_offers": false, "name": "Giga Bites Cafe", "longitude": -84.47001, "has_menu": false, "awards": null, "user_review_count": 0}, {"business_operation_status": 1, "rating": null, "neighborhood": null, "image": null, "scorecard": null, "featured": false, "sample_categories": "Restaurants, Bakeries, Caribbean, MasterCard, Visa", "public_id": "golden-krust-bakery-grill-kennesaw", "id": 601313676, "votes": null, "tagline": null, "has_video": false, "website": "http://www.citysearch.com/profile/external/601313676/kennesaw_ga/golden_krust_bakery_grill.html", "offers": null, "latitude": 34.010363, "politanName": "Atlanta, GA Metro ", "phone_number": "6789212493", "tags": [{"primary": false, "id": 1685, "name": "Bakeries"}, {"primary": false, "id": 11195, "name": "Caribbean"}, {"primary": false, "id": 11361, "name": "MasterCard"}, {"primary": false, "id": 11382, "name": "Visa"}, {"primary": true, "id": 1722, "name": "Restaurants"}], "fax_number": null, "expansion": {"count": null, "uri": null}, "impression_id": "000b000000f06664b2a548440fa5e2c42d8dbd9a06", "profile": "http://www.citysearch.com/profile/601313676/kennesaw_ga/golden_krust_bakery_grill.html", "address": {"city": "Kennesaw", "state": "GA", "street": "501 Roberts Ct Nw", "postal_code": "30144"}, "capProviderId": null, "distance": null, "has_offers": false, "name": "Golden Krust Bakery & Grill", "longitude": -84.56331, "has_menu": false, "awards": null, "user_review_count": 0}, {"business_operation_status": 0, "rating": null, "neighborhood": null, "image": null, "scorecard": null, "featured": false, "sample_categories": "Restaurants", "public_id": "carolina-creek-fish-chips-roswell", "id": 673019090, "votes": null, "tagline": null, "has_video": false, "website": null, "offers": null, "latitude": 34.03458, "politanName": "Atlanta, GA Metro ", "phone_number": "7705180401", "tags": [{"primary": true, "id": 1722, "name": "Restaurants"}], "fax_number": null, "expansion": {"count": null, "uri": null}, "impression_id": "000b000000fd66553d4a2841efbdcb9731ed3830f0", "profile": "http://www.citysearch.com/profile/673019090/roswell_ga/carolina_creek_fish_chips.html", "address": {"city": "Roswell", "state": "GA", "street": "10479 Alpharetta Hwy", "postal_code": "30075"}, "capProviderId": null, "distance": null, "has_offers": false, "name": "Carolina Creek Fish & Chips", "longitude": -84.346622, "has_menu": false, "awards": null, "user_review_count": 1}, {"business_operation_status": 1, "rating": null, "neighborhood": null, "image": null, "scorecard": null, "featured": false, "sample_categories": "Restaurants", "public_id": "wing-it-cafe-marietta", "id": 610478634, "votes": null, "tagline": null, "has_video": false, "website": null, "offers": null, "latitude": 33.883197, "politanName": "Atlanta, GA Metro ", "phone_number": "7702189100", "tags": [{"primary": true, "id": 1722, "name": "Restaurants"}], "fax_number": null, "expansion": {"count": null, "uri": null}, "impression_id": "000b00000069b57fc523fe4297af4f3e3693472dbd", "profile": "http://www.citysearch.com/profile/610478634/marietta_ga/wing_it_cafe.html", "address": {"city": "Marietta", "state": "GA", "street": "2200 Powder Springs Rd SW", "postal_code": "30064"}, "capProviderId": null, "distance": null, "has_offers": false, "name": "Wing It Cafe", "longitude": -84.61985, "has_menu": false, "awards": null, "user_review_count": 0}, {"business_operation_status": 1, "rating": null, "neighborhood": null, "image": null, "scorecard": null, "featured": false, "sample_categories": "Restaurants", "public_id": "el-fuereno-mexican-restaurant-acworth", "id": 808617860, "votes": null, "tagline": null, "has_video": false, "website": null, "offers": null, "latitude": 34.088334, "politanName": "Atlanta, GA Metro ", "phone_number": "7705162271", "tags": [{"primary": true, "id": 1722, "name": "Restaurants"}], "fax_number": null, "expansion": {"count": null, "uri": null}, "impression_id": "000b00000023ae6e6846234e7f8eaddc3a5663f9e0", "profile": "http://www.citysearch.com/profile/808617860/acworth_ga/el_fuereno_mexican_restaurant.html", "address": {"city": "Acworth", "state": "GA", "street": "6548 Highway 92 # 150", "postal_code": "30102"}, "capProviderId": null, "distance": null, "has_offers": false, "name": "El Fuereno Mexican Restaurant", "longitude": -84.579739, "has_menu": false, "awards": null, "user_review_count": 0}, {"business_operation_status": 1, "rating": null, "neighborhood": null, "image": null, "scorecard": null, "featured": false, "sample_categories": "Restaurants", "public_id": "ferreras-bistro-roswell", "id": 811707830, "votes": null, "tagline": null, "has_video": false, "website": null, "offers": null, "latitude": 34.015743, "politanName": "Atlanta, GA Metro ", "phone_number": "7706405345", "tags": [{"primary": true, "id": 1722, "name": "Restaurants"}], "fax_number": null, "expansion": {"count": null, "uri": null}, "impression_id": "000b0000002c0cc0b93952463d9589b149a24501b2", "profile": "http://www.citysearch.com/profile/811707830/roswell_ga/ferrera_s_bistro.html", "address": {"city": "Roswell", "state": "GA", "street": "635 Atlanta St", "postal_code": "30075"}, "capProviderId": null, "distance": null, "has_offers": false, "name": "Ferrera's Bistro", "longitude": -84.362618, "has_menu": false, "awards": null, "user_review_count": 0}, {"business_operation_status": 1, "rating": null, "neighborhood": null, "image": null, "scorecard": null, "featured": false, "sample_categories": "Restaurants, Pizza", "public_id": "hole-pizza-acworth", "id": 37648116, "votes": null, "tagline": null, "has_video": false, "website": null, "offers": null, "latitude": 34.096498, "politanName": "Atlanta, GA Metro ", "phone_number": "7703838743", "tags": [{"primary": false, "id": 11299, "name": "Pizza"}, {"primary": true, "id": 1722, "name": "Restaurants"}], "fax_number": null, "expansion": {"count": null, "uri": null}, "impression_id": "000b000000f839a84bfbb943b692bbb95262bec98d", "profile": "http://www.citysearch.com/profile/37648116/acworth_ga/hole_pizza.html", "address": {"city": "Acworth", "state": "GA", "street": "5900 Bells Ferry Rd", "postal_code": "30102"}, "capProviderId": null, "distance": null, "has_offers": false, "name": "Hole Pizza", "longitude": -84.581946, "has_menu": false, "awards": null, "user_review_count": 0}, {"business_operation_status": 1, "rating": null, "neighborhood": null, "image": null, "scorecard": null, "featured": false, "sample_categories": "Restaurants", "public_id": "blue-pig-restaurant-woodstock", "id": 813898230, "votes": null, "tagline": null, "has_video": false, "website": null, "offers": null, "latitude": 34.080769, "politanName": "Atlanta, GA Metro ", "phone_number": "7705172583", "tags": [{"primary": true, "id": 1722, "name": "Restaurants"}], "fax_number": null, "expansion": {"count": null, "uri": null}, "impression_id": "000b000000d0eff17e5c424e13a001e44d5056d47d", "profile": "http://www.citysearch.com/profile/813898230/woodstock_ga/blue_pig_restaurant.html", "address": {"city": "Woodstock", "state": "GA", "street": "9970 Main St", "postal_code": "30188"}, "capProviderId": null, "distance": null, "has_offers": false, "name": "Blue Pig Restaurant", "longitude": -84.520285, "has_menu": false, "awards": null, "user_review_count": 0}, {"business_operation_status": 1, "rating": null, "neighborhood": null, "image": null, "scorecard": null, "featured": false, "sample_categories": "Restaurants, Pizza", "public_id": "pizza-zone-inc-marietta", "id": 820298830, "votes": null, "tagline": null, "has_video": false, "website": null, "offers": null, "latitude": 33.904063, "politanName": "Atlanta, GA Metro ", "phone_number": "7704329364", "tags": [{"primary": false, "id": 1722, "name": "Restaurants"}, {"primary": true, "id": 11299, "name": "Pizza"}], "fax_number": null, "expansion": {"count": null, "uri": null}, "impression_id": "000b000000ffa5632a55ff4a239fa6212fdbf4e014", "profile": "http://www.citysearch.com/profile/820298830/marietta_ga/pizza_zone_inc.html", "address": {"city": "Marietta", "state": "GA", "street": "2022 S Cobb Dr SE", "postal_code": "30060"}, "capProviderId": null, "distance": null, "has_offers": false, "name": "Pizza Zone Inc", "longitude": -84.542723, "has_menu": false, "awards": null, "user_review_count": 0}, {"business_operation_status": 1, "rating": null, "neighborhood": null, "image": null, "scorecard": null, "featured": false, "sample_categories": "Restaurants", "public_id": "slate-grill-marietta-2", "id": 820825960, "votes": null, "tagline": null, "has_video": false, "website": null, "offers": null, "latitude": 33.953111, "politanName": "Atlanta, GA Metro ", "phone_number": "7704269777", "tags": [{"primary": true, "id": 1722, "name": "Restaurants"}], "fax_number": null, "expansion": {"count": null, "uri": null}, "impression_id": "000b0000007f1ff1e25b364ffb974e2ec620243a03", "profile": "http://www.citysearch.com/profile/820825960/marietta_ga/slate_grill.html", "address": {"city": "Marietta", "state": "GA", "street": "1000 Whitlock Ave NW # 410", "postal_code": "30064"}, "capProviderId": null, "distance": null, "has_offers": false, "name": "Slate Grill", "longitude": -84.581272, "has_menu": true, "awards": null, "user_review_count": 0}, {"business_operation_status": 1, "rating": null, "neighborhood": null, "image": null, "scorecard": null, "featured": false, "sample_categories": "Restaurants", "public_id": "canton-street-resaurant-roswell", "id": 821779590, "votes": null, "tagline": null, "has_video": false, "website": null, "offers": null, "latitude": 34.023676, "politanName": "Atlanta, GA Metro ", "phone_number": "7706419244", "tags": [{"primary": true, "id": 1722, "name": "Restaurants"}], "fax_number": null, "expansion": {"count": null, "uri": null}, "impression_id": "000b000000be0d4f992fc74261ad5ddd4bbfa90ac9", "profile": "http://www.citysearch.com/profile/821779590/roswell_ga/canton_street_resaurant.html", "address": {"city": "Roswell", "state": "GA", "street": "928 Canton St", "postal_code": "30075"}, "capProviderId": null, "distance": null, "has_offers": false, "name": "Canton Street Resaurant", "longitude": -84.361782, "has_menu": false, "awards": null, "user_review_count": 0}, {"business_operation_status": 1, "rating": null, "neighborhood": null, "image": null, "scorecard": null, "featured": false, "sample_categories": "Restaurants", "public_id": "winston-cs-sports-bar-grill-kennesaw", "id": 823830200, "votes": null, "tagline": null, "has_video": false, "website": null, "offers": null, "latitude": 34.048688, "politanName": "Atlanta, GA Metro ", "phone_number": "7705905225", "tags": [{"primary": true, "id": 1722, "name": "Restaurants"}], "fax_number": null, "expansion": {"count": null, "uri": null}, "impression_id": "000b00000017bdd0fb7be9435aac325ee15658be13", "profile": "http://www.citysearch.com/profile/823830200/kennesaw_ga/winston_c_s_sports_bar_grill.html", "address": {"city": "Kennesaw", "state": "GA", "street": "3895 Cherokee St NW", "postal_code": "30144"}, "capProviderId": null, "distance": null, "has_offers": false, "name": "Winston C's Sports Bar & Grill", "longitude": -84.598574, "has_menu": false, "awards": null, "user_review_count": 2}, {"business_operation_status": 1, "rating": null, "neighborhood": null, "image": null, "scorecard": null, "featured": false, "sample_categories": "Restaurants, Carry Out", "public_id": "wendys-woodstock-8", "id": 825950410, "votes": null, "tagline": null, "has_video": false, "website": "http://www.citysearch.com/profile/external/825950410/woodstock_ga/wendys.html", "offers": null, "latitude": 34.085185, "politanName": "Atlanta, GA Metro ", "phone_number": "7709286336", "tags": [{"primary": false, "id": 11247, "name": "Carry Out"}, {"primary": true, "id": 1722, "name": "Restaurants"}], "fax_number": null, "expansion": {"count": null, "uri": null}, "impression_id": "000b000000861409e949ff49dc9e642a866914ca27", "profile": "http://www.citysearch.com/profile/825950410/woodstock_ga/wendys.html", "address": {"city": "Woodstock", "state": "GA", "street": "6751 Highway 92", "postal_code": "30189"}, "capProviderId": null, "distance": null, "has_offers": false, "name": "Wendys", "longitude": -84.554494, "has_menu": true, "awards": null, "user_review_count": 0}, {"business_operation_status": 1, "rating": null, "neighborhood": null, "image": null, "scorecard": null, "featured": false, "sample_categories": "Restaurants", "public_id": "santinos-acworth", "id": 828239830, "votes": null, "tagline": null, "has_video": false, "website": null, "offers": null, "latitude": 34.096498, "politanName": "Atlanta, GA Metro ", "phone_number": "7709268000", "tags": [{"primary": true, "id": 1722, "name": "Restaurants"}], "fax_number": null, "expansion": {"count": null, "uri": null}, "impression_id": "000b000000dd3336ee0522487e8ca1a238dfd06adf", "profile": "http://www.citysearch.com/profile/828239830/acworth_ga/santino_s.html", "address": {"city": "Acworth", "state": "GA", "street": "5900 Bells Ferry Rd", "postal_code": "30102"}, "capProviderId": null, "distance": null, "has_offers": false, "name": "Santino's", "longitude": -84.581946, "has_menu": false, "awards": null, "user_review_count": 0}, {"business_operation_status": 1, "rating": null, "neighborhood": null, "image": null, "scorecard": null, "featured": false, "sample_categories": "Restaurants", "public_id": "larrys-country-kitchen-marietta", "id": 827346130, "votes": null, "tagline": null, "has_video": false, "website": null, "offers": null, "latitude": 33.943185, "politanName": "Atlanta, GA Metro ", "phone_number": "7704269522", "tags": [{"primary": true, "id": 1722, "name": "Restaurants"}], "fax_number": null, "expansion": {"count": null, "uri": null}, "impression_id": "000b00000047339a52b46b4633b6ba68c5eb0a6164", "profile": "http://www.citysearch.com/profile/827346130/marietta_ga/larry_s_country_kitchen.html", "address": {"city": "Marietta", "state": "GA", "street": "625 S Marietta Pkwy SE", "postal_code": "30060"}, "capProviderId": null, "distance": null, "has_offers": false, "name": "Larry's Country Kitchen", "longitude": -84.533806, "has_menu": false, "awards": null, "user_review_count": 0}, {"business_operation_status": 1, "rating": null, "neighborhood": null, "image": null, "scorecard": null, "featured": false, "sample_categories": "Restaurants", "public_id": "negril-caribbean-grille-kennesaw", "id": 828728610, "votes": null, "tagline": null, "has_video": false, "website": null, "offers": null, "latitude": 34.057627, "politanName": "Atlanta, GA Metro ", "phone_number": "7704232816", "tags": [{"primary": true, "id": 1722, "name": "Restaurants"}], "fax_number": null, "expansion": {"count": null, "uri": null}, "impression_id": "000b0000006c4bb95f4f6945a4a51aa2f926625de5", "profile": "http://www.citysearch.com/profile/828728610/kennesaw_ga/negril_caribbean_grille.html", "address": {"city": "Kennesaw", "state": "GA", "street": "4200 Wade Green Rd NW", "postal_code": "30144"}, "capProviderId": null, "distance": null, "has_offers": false, "name": "Negril Caribbean Grille", "longitude": -84.590928, "has_menu": true, "awards": null, "user_review_count": 0}, {"business_operation_status": 0, "rating": null, "neighborhood": null, "image": null, "scorecard": null, "featured": false, "sample_categories": "Restaurants", "public_id": "gradys-american-grill-kennesaw", "id": 831505820, "votes": null, "tagline": null, "has_video": false, "website": null, "offers": null, "latitude": 34.012667, "politanName": "Atlanta, GA Metro ", "phone_number": "7709190090", "tags": [{"primary": true, "id": 1722, "name": "Restaurants"}], "fax_number": null, "expansion": {"count": null, "uri": null}, "impression_id": "000b000000b5d2eeee9afe4f71bbfd301d7dfc9b4f", "profile": "http://www.citysearch.com/profile/831505820/kennesaw_ga/grady_s_american_grill.html", "address": {"city": "Kennesaw", "state": "GA", "street": "2475 George Busbee Pkwy NW", "postal_code": "30144"}, "capProviderId": null, "distance": null, "has_offers": false, "name": "Grady's American Grill", "longitude": -84.565651, "has_menu": false, "awards": null, "user_review_count": 0}, {"business_operation_status": 1, "rating": null, "neighborhood": null, "image": null, "scorecard": null, "featured": false, "sample_categories": "Restaurants", "public_id": "grand-champion-bbq-marietta", "id": 836972670, "votes": null, "tagline": null, "has_video": false, "website": null, "offers": null, "latitude": 33.952602, "politanName": "Atlanta, GA Metro ", "phone_number": "7709934227", "tags": [{"primary": true, "id": 1722, "name": "Restaurants"}], "fax_number": null, "expansion": {"count": null, "uri": null}, "impression_id": "000b000000fb04049e7d2d4a15bf1abe4fc4841e9f", "profile": "http://www.citysearch.com/profile/836972670/marietta_ga/grand_champion_bbq.html", "address": {"city": "Marietta", "state": "GA", "street": "[empty]", "postal_code": "30062"}, "capProviderId": null, "distance": null, "has_offers": false, "name": "Grand Champion BBQ", "longitude": -84.549933, "has_menu": false, "awards": null, "user_review_count": 0}, {"business_operation_status": 1, "rating": null, "neighborhood": null, "image": null, "scorecard": null, "featured": false, "sample_categories": "Restaurants", "public_id": "corner-taqueria-smyrna", "id": 837793660, "votes": null, "tagline": null, "has_video": false, "website": "http://www.citysearch.com/profile/external/837793660/smyrna_ga/corner_taqueria.html", "offers": null, "latitude": 33.883705, "politanName": "Atlanta, GA Metro ", "phone_number": "6788420050", "tags": [{"primary": true, "id": 1722, "name": "Restaurants"}], "fax_number": null, "expansion": {"count": null, "uri": null}, "impression_id": "000b00000042206eba66bd4c5296be59fc361aca89", "profile": "http://www.citysearch.com/profile/837793660/smyrna_ga/corner_taqueria.html", "address": {"city": "Smyrna", "state": "GA", "street": "2860 Atlanta Rd SE", "postal_code": "30080"}, "capProviderId": null, "distance": null, "has_offers": false, "name": "Corner Taqueria", "longitude": -84.514807, "has_menu": false, "awards": null, "user_review_count": 0}, {"business_operation_status": 1, "rating": null, "neighborhood": null, "image": null, "scorecard": null, "featured": false, "sample_categories": "Restaurants, Mexican, Carry Out", "public_id": "taco-bell-kennesaw-6", "id": 757949530, "votes": null, "tagline": null, "has_video": false, "website": "http://www.citysearch.com/profile/external/757949530/kennesaw_ga/taco_bell.html", "offers": null, "latitude": 34.031419, "politanName": "Atlanta, GA Metro ", "phone_number": "6787979946", "tags": [{"primary": false, "id": 11208, "name": "Mexican"}, {"primary": false, "id": 11247, "name": "Carry Out"}, {"primary": true, "id": 1722, "name": "Restaurants"}], "fax_number": null, "expansion": {"count": null, "uri": null}, "impression_id": "000b00000091c4d7a561b946f9a1d1ed00c550bae0", "profile": "http://www.citysearch.com/profile/757949530/kennesaw_ga/taco_bell.html", "address": {"city": "Kennesaw", "state": "GA", "street": "3240 Barrett Lakes Blvd NW", "postal_code": "30144"}, "capProviderId": null, "distance": null, "has_offers": false, "name": "Taco Bell", "longitude": -84.578157, "has_menu": false, "awards": null, "user_review_count": 0}, {"business_operation_status": 1, "rating": null, "neighborhood": null, "image": null, "scorecard": null, "featured": false, "sample_categories": "Restaurants, Bistros", "public_id": "vuu-asian-bistro-roswell", "id": 762812490, "votes": null, "tagline": null, "has_video": false, "website": "http://www.citysearch.com/profile/external/762812490/roswell_ga/vuu_asian_bistro.html", "offers": null, "latitude": 34.060343, "politanName": "Atlanta, GA Metro ", "phone_number": "7706500286", "tags": [{"primary": false, "id": 13690, "name": "Bistros"}, {"primary": true, "id": 1722, "name": "Restaurants"}], "fax_number": null, "expansion": {"count": null, "uri": null}, "impression_id": "000b000000e87114b74fbd409582871a1311710f87", "profile": "http://www.citysearch.com/profile/762812490/roswell_ga/vuu_asian_bistro.html", "address": {"city": "Roswell", "state": "GA", "street": "880 Woodstock Rd", "postal_code": "30075"}, "capProviderId": null, "distance": null, "has_offers": false, "name": "Vuu Asian Bistro", "longitude": -84.387817, "has_menu": true, "awards": null, "user_review_count": 0}, {"business_operation_status": 1, "rating": null, "neighborhood": null, "image": null, "scorecard": null, "featured": false, "sample_categories": "Restaurants, French", "public_id": "crepe-cafe-marietta", "id": 773420440, "votes": null, "tagline": null, "has_video": false, "website": null, "offers": null, "latitude": 33.985873, "politanName": "Atlanta, GA Metro ", "phone_number": "7709710077", "tags": [{"primary": false, "id": 11219, "name": "French"}, {"primary": true, "id": 1722, "name": "Restaurants"}], "fax_number": null, "expansion": {"count": null, "uri": null}, "impression_id": "000b000000ebc211361ee44039bfc5a7280526828a", "profile": "http://www.citysearch.com/profile/773420440/marietta_ga/crepe_cafe.html", "address": {"city": "Marietta", "state": "GA", "street": "4375 Roswell Rd", "postal_code": "30062"}, "capProviderId": null, "distance": null, "has_offers": false, "name": "Crepe Cafe", "longitude": -84.423233, "has_menu": false, "awards": null, "user_review_count": 0}, {"business_operation_status": 0, "rating": null, "neighborhood": null, "image": null, "scorecard": null, "featured": false, "sample_categories": "Restaurants, Pizza", "public_id": "godfathers-pizza-canton", "id": 40068310, "votes": null, "tagline": null, "has_video": false, "website": "http://www.citysearch.com/profile/external/40068310/canton_ga/godfather_s_pizza.html", "offers": null, "latitude": 34.17755, "politanName": "Atlanta, GA Metro ", "phone_number": "6784933636", "tags": [{"primary": false, "id": 1722, "name": "Restaurants"}, {"primary": true, "id": 11299, "name": "Pizza"}], "fax_number": null, "expansion": {"count": null, "uri": null}, "impression_id": "000b000000873c9957a837455695ace2fca058cbc1", "profile": "http://www.citysearch.com/profile/40068310/canton_ga/godfather_s_pizza.html", "address": {"city": "Canton", "state": "GA", "street": "3775 Sixes Rd", "postal_code": "30114"}, "capProviderId": null, "distance": null, "has_offers": false, "name": "Godfather's Pizza", "longitude": -84.550972, "has_menu": true, "awards": null, "user_review_count": 0}, {"business_operation_status": 0, "rating": null, "neighborhood": null, "image": null, "scorecard": null, "featured": false, "sample_categories": "Restaurants", "public_id": "aspen-west-cobb-marietta", "id": 41283282, "votes": null, "tagline": null, "has_video": false, "website": "http://www.citysearch.com/profile/external/41283282/marietta_ga/aspens.html", "offers": null, "latitude": 33.952164, "politanName": "Atlanta, GA Metro ", "phone_number": "7704191744", "tags": [{"primary": true, "id": 1722, "name": "Restaurants"}], "fax_number": null, "expansion": {"count": null, "uri": null}, "impression_id": "000b000000981007182e764acdb3926a0613545a79", "profile": "http://www.citysearch.com/profile/41283282/marietta_ga/aspens.html", "address": {"city": "Marietta", "state": "GA", "street": "3625 Dallas Hwy SW Ste 715", "postal_code": "30064"}, "capProviderId": null, "distance": null, "has_offers": false, "name": "Aspens", "longitude": -84.657799, "has_menu": false, "awards": null, "user_review_count": 1}, {"business_operation_status": 1, "rating": null, "neighborhood": null, "image": null, "scorecard": null, "featured": false, "sample_categories": "Restaurants", "public_id": "abblebub-roswell", "id": 37304361, "votes": null, "tagline": null, "has_video": false, "website": null, "offers": null, "latitude": 34.034454, "politanName": "Atlanta, GA Metro ", "phone_number": "7709929995", "tags": [{"primary": true, "id": 1722, "name": "Restaurants"}], "fax_number": null, "expansion": {"count": null, "uri": null}, "impression_id": "000b000000fbbe845d871440d7b41c62a21e3d7510", "profile": "http://www.citysearch.com/profile/37304361/roswell_ga/abblebub.html", "address": {"city": "Roswell", "state": "GA", "street": "10360 Alpharetta St", "postal_code": "30075"}, "capProviderId": null, "distance": null, "has_offers": false, "name": "Abblebub", "longitude": -84.347833, "has_menu": false, "awards": null, "user_review_count": 0}, {"business_operation_status": 1, "rating": null, "neighborhood": null, "image": null, "scorecard": null, "featured": false, "sample_categories": "Restaurants, Bars & Clubs", "public_id": "tio-bar-grill-smyrna", "id": 802510740, "votes": null, "tagline": null, "has_video": false, "website": null, "offers": null, "latitude": 33.886772, "politanName": "Atlanta, GA Metro ", "phone_number": "7709891065", "tags": [{"primary": false, "id": 164, "name": "Bars & Clubs"}, {"primary": true, "id": 1722, "name": "Restaurants"}], "fax_number": null, "expansion": {"count": null, "uri": null}, "impression_id": "000b00000035342995a8074014b19d77c0b6afe34b", "profile": "http://www.citysearch.com/profile/802510740/smyrna_ga/tio_bar_grill.html", "address": {"city": "Smyrna", "state": "GA", "street": "2731 S Cobb Dr Se", "postal_code": "30080"}, "capProviderId": null, "distance": null, "has_offers": false, "name": "Tio Bar & Grill", "longitude": -84.534827, "has_menu": false, "awards": null, "user_review_count": 0}, {"business_operation_status": 1, "rating": null, "neighborhood": null, "image": null, "scorecard": null, "featured": false, "sample_categories": "Restaurants, Pizza, Carry Out", "public_id": "dominos-pizza-acworth-3", "id": 806463440, "votes": null, "tagline": null, "has_video": false, "website": null, "offers": null, "latitude": 34.051802, "politanName": "Atlanta, GA Metro ", "phone_number": "4049753030", "tags": [{"primary": false, "id": 1722, "name": "Restaurants"}, {"primary": false, "id": 11247, "name": "Carry Out"}, {"primary": true, "id": 11299, "name": "Pizza"}], "fax_number": null, "expansion": {"count": null, "uri": null}, "impression_id": "000b0000009bb816f2294c40799afa44c9478f8e22", "profile": "http://www.citysearch.com/profile/806463440/acworth_ga/domino_s_pizza.html", "address": {"city": "Acworth", "state": "GA", "street": "3985 Baker Rd Ste 20", "postal_code": "30101"}, "capProviderId": null, "distance": null, "has_offers": false, "name": "Domino's Pizza", "longitude": -84.615362, "has_menu": false, "awards": null, "user_review_count": 0}, {"business_operation_status": 1, "rating": 8.0, "neighborhood": null, "image": null, "scorecard": null, "featured": false, "sample_categories": "Restaurants, Traditional American, Steakhouse, American Express, Discover", "public_id": "beefobradys-marietta", "id": 45008875, "votes": null, "tagline": null, "has_video": false, "website": "http://www.citysearch.com/profile/external/45008875/marietta_ga/beef_o_brady_s.html", "offers": null, "latitude": 33.953523, "politanName": "Atlanta, GA Metro ", "phone_number": "7704243001", "tags": [{"primary": false, "id": 11190, "name": "Traditional American"}, {"primary": false, "id": 11316, "name": "Steakhouse"}, {"primary": false, "id": 11333, "name": "American Express"}, {"primary": false, "id": 11349, "name": "Discover"}, {"primary": false, "id": 11361, "name": "MasterCard"}, {"primary": false, "id": 11382, "name": "Visa"}, {"primary": true, "id": 1722, "name": "Restaurants"}], "fax_number": null, "expansion": {"count": null, "uri": null}, "impression_id": "000b000000a143739bc1264e868c2e6cd6bea498c4", "profile": "http://www.citysearch.com/profile/45008875/marietta_ga/beef_o_brady_s.html", "address": {"city": "Marietta", "state": "GA", "street": "3718 Dallas Hwy SW 6", "postal_code": "30064"}, "capProviderId": null, "distance": null, "has_offers": false, "name": "Beef'o'brady's", "longitude": -84.661012, "has_menu": true, "awards": null, "user_review_count": 3}, {"business_operation_status": 1, "rating": null, "neighborhood": null, "image": null, "scorecard": null, "featured": false, "sample_categories": "Ice Cream Parlors", "public_id": "consistency-enterprises-marietta", "id": 807599050, "votes": null, "tagline": null, "has_video": false, "website": null, "offers": null, "latitude": 34.003582, "politanName": "Atlanta, GA Metro ", "phone_number": "4045567996", "tags": [{"primary": true, "id": 1730, "name": "Ice Cream Parlors"}], "fax_number": null, "expansion": {"count": null, "uri": null}, "impression_id": "000b000000e7b18e66188e47a2a0dfe6eff0c04408", "profile": "http://www.citysearch.com/profile/807599050/marietta_ga/consistency_enterprises.html", "address": {"city": "Marietta", "state": "GA", "street": "2123 Plymouth Ln", "postal_code": "30062"}, "capProviderId": null, "distance": null, "has_offers": false, "name": "Consistency Enterprises", "longitude": -84.489848, "has_menu": false, "awards": null, "user_review_count": 0}, {"business_operation_status": 1, "rating": null, "neighborhood": null, "image": null, "scorecard": null, "featured": false, "sample_categories": "Restaurants, American Express, Discover, MasterCard, Visa", "public_id": "la-toluquena-acworth", "id": 45993339, "votes": null, "tagline": null, "has_video": false, "website": null, "offers": null, "latitude": 34.08778, "politanName": "Atlanta, GA Metro ", "phone_number": "6784455383", "tags": [{"primary": false, "id": 11333, "name": "American Express"}, {"primary": false, "id": 11349, "name": "Discover"}, {"primary": false, "id": 11361, "name": "MasterCard"}, {"primary": false, "id": 11382, "name": "Visa"}, {"primary": true, "id": 1722, "name": "Restaurants"}], "fax_number": null, "expansion": {"count": null, "uri": null}, "impression_id": "000b0000008ec3f13b883b4a98abf5eccb95d292f8", "profile": "http://www.citysearch.com/profile/45993339/acworth_ga/la_toluquena.html", "address": {"city": "Acworth", "state": "GA", "street": "5683 Bells Ferry Rd", "postal_code": "30102"}, "capProviderId": null, "distance": null, "has_offers": false, "name": "La Toluquena", "longitude": -84.577084, "has_menu": false, "awards": null, "user_review_count": 0}], "histograms": [], "tag_ids": [1722], "uri": "http://api.citygridmedia.com:8080/search/places/v2/search/where?has_offers=false&type=restaurant&format=json&page=39&where=30066&rpp=50&histograms=false&publisher=10000009598&region_type=circle", "did_you_mean": "", "regions": [{"latitude": 34.034132, "default_radius": 5.28, "type": "postal_code", "name": "30066", "longitude": -84.508332}], "call_id": "000b000000d3b1cbee07db494a9de7ebbb2b5ac7d2", "first_hit": 1901, "total_hits": 2075, "geo_ids": [26294], "page": 39, "last_hit": 1950}}