{"results": {"rpp": 50, "locations": [{"business_operation_status": 1, "rating": null, "neighborhood": null, "image": null, "scorecard": null, "featured": false, "sample_categories": "Restaurants, Carry Out", "public_id": "charleys-grilled-subs-kennesaw", "id": 822392670, "votes": null, "tagline": null, "has_video": false, "website": null, "offers": null, "latitude": 34.017369, "politanName": "Atlanta, GA Metro ", "phone_number": "7702188285", "tags": [{"primary": false, "id": 11247, "name": "Carry Out"}, {"primary": true, "id": 1722, "name": "Restaurants"}], "fax_number": null, "expansion": {"count": null, "uri": null}, "impression_id": "000b0000005e116f0d6f614e6fa9ab6c406de61fcf", "profile": "http://www.citysearch.com/profile/822392670/kennesaw_ga/charley_s_grilled_subs.html", "address": {"city": "Kennesaw", "state": "GA", "street": "400 Ernest W Barrett Pkwy NW", "postal_code": "30144"}, "capProviderId": null, "distance": null, "has_offers": false, "name": "Charley's Grilled Subs", "longitude": -84.564255, "has_menu": true, "awards": null, "user_review_count": 0}, {"business_operation_status": 1, "rating": null, "neighborhood": null, "image": null, "scorecard": null, "featured": false, "sample_categories": "Restaurants, Pizza", "public_id": "mac-daddys-first-ten-pizza-kennesaw", "id": 823959380, "votes": null, "tagline": null, "has_video": false, "website": null, "offers": null, "latitude": 34.046915, "politanName": "Atlanta, GA Metro ", "phone_number": "6782246724", "tags": [{"primary": false, "id": 11299, "name": "Pizza"}, {"primary": true, "id": 1722, "name": "Restaurants"}], "fax_number": null, "expansion": {"count": null, "uri": null}, "impression_id": "000b000000b01766350b9b4da98033a80556af0827", "profile": "http://www.citysearch.com/profile/823959380/kennesaw_ga/mac_daddys_first_ten_pizza.html", "address": {"city": "Kennesaw", "state": "GA", "street": "3930 George Busbee Pkwy NW", "postal_code": "30144"}, "capProviderId": null, "distance": null, "has_offers": false, "name": "Mac Daddys First & Ten Pizza", "longitude": -84.581594, "has_menu": false, "awards": null, "user_review_count": 0}, {"business_operation_status": 1, "rating": null, "neighborhood": null, "image": null, "scorecard": null, "featured": false, "sample_categories": "Ice Cream Parlors, Restaurants, Carry Out", "public_id": "dairy-queen-smyrna-4", "id": 777697890, "votes": null, "tagline": null, "has_video": false, "website": "http://www.citysearch.com/profile/external/777697890/smyrna_ga/dairy_queen.html", "offers": null, "latitude": 33.882258, "politanName": "Atlanta, GA Metro ", "phone_number": "7704323809", "tags": [{"primary": false, "id": 1722, "name": "Restaurants"}, {"primary": false, "id": 11247, "name": "Carry Out"}, {"primary": true, "id": 1730, "name": "Ice Cream Parlors"}], "fax_number": null, "expansion": {"count": null, "uri": null}, "impression_id": "000b0000001c252e5109c84e4fb3a06ec6b6bb0228", "profile": "http://www.citysearch.com/profile/777697890/smyrna_ga/dairy_queen.html", "address": {"city": "Smyrna", "state": "GA", "street": "1641 Spring Rd Se", "postal_code": "30080"}, "capProviderId": null, "distance": null, "has_offers": false, "name": "Dairy Queen", "longitude": -84.505572, "has_menu": true, "awards": null, "user_review_count": 0}, {"business_operation_status": 1, "rating": null, "neighborhood": null, "image": null, "scorecard": null, "featured": false, "sample_categories": "Restaurants", "public_id": "atlanta-halftime-cafe-marietta", "id": 838782380, "votes": null, "tagline": null, "has_video": false, "website": null, "offers": null, "latitude": 33.900651, "politanName": "Atlanta, GA Metro ", "phone_number": "7708500868", "tags": [{"primary": true, "id": 1722, "name": "Restaurants"}], "fax_number": null, "expansion": {"count": null, "uri": null}, "impression_id": "000b000000269511b663d445b39e50607703ec6c6d", "profile": "http://www.citysearch.com/profile/838782380/marietta_ga/atlanta_halftime_cafe.html", "address": {"city": "Marietta", "state": "GA", "street": "2580 Windy Hill Rd SE", "postal_code": "30067"}, "capProviderId": null, "distance": null, "has_offers": false, "name": "Atlanta Halftime Cafe", "longitude": -84.477783, "has_menu": false, "awards": null, "user_review_count": 0}, {"business_operation_status": 1, "rating": null, "neighborhood": null, "image": null, "scorecard": null, "featured": false, "sample_categories": "Grocery Stores, Health Food Stores, Herbal Medicine, Weight Loss, Herbs", "public_id": "herb-shop-the-smyrna", "id": 604614262, "votes": null, "tagline": null, "has_video": false, "website": null, "offers": null, "latitude": 33.873647, "politanName": "Atlanta, GA Metro ", "phone_number": "7704358567", "tags": [{"primary": false, "id": 1713, "name": "Grocery Stores"}, {"primary": false, "id": 1716, "name": "Health Food Stores"}, {"primary": false, "id": 1800, "name": "Herbal Medicine"}, {"primary": false, "id": 11170, "name": "Herbs"}, {"primary": false, "id": 11200, "name": "Health Food"}, {"primary": true, "id": 1931, "name": "Weight Loss"}], "fax_number": null, "expansion": {"count": null, "uri": null}, "impression_id": "000b000000d24ff5520bbf49e1b65adc866e0300c2", "profile": "http://www.citysearch.com/profile/604614262/smyrna_ga/herb_shop_the.html", "address": {"city": "Smyrna", "state": "GA", "street": "3240 S Cobb Dr Se Ste D", "postal_code": "30080"}, "capProviderId": null, "distance": null, "has_offers": false, "name": "Herb Shop The", "longitude": -84.530458, "has_menu": false, "awards": null, "user_review_count": 2}, {"business_operation_status": 1, "rating": null, "neighborhood": null, "image": null, "scorecard": null, "featured": false, "sample_categories": "Ice Cream Parlors, Shop Online", "public_id": "cold-stone-creamery-marietta-3", "id": 793255740, "votes": null, "tagline": null, "has_video": false, "website": "http://www.citysearch.com/profile/external/793255740/marietta_ga/cold_stone_creamery.html", "offers": null, "latitude": 33.988744, "politanName": "Atlanta, GA Metro ", "phone_number": "4045836303", "tags": [{"primary": false, "id": 11375, "name": "Shop Online"}, {"primary": true, "id": 1730, "name": "Ice Cream Parlors"}], "fax_number": null, "expansion": {"count": null, "uri": null}, "impression_id": "000b0000008bebf9cccd904296988ca22d7370fe79", "profile": "http://www.citysearch.com/profile/793255740/marietta_ga/cold_stone_creamery.html", "address": {"city": "Marietta", "state": "GA", "street": "1573 Asheforde Dr", "postal_code": "30068"}, "capProviderId": null, "distance": null, "has_offers": false, "name": "Cold Stone Creamery", "longitude": -84.386785, "has_menu": true, "awards": null, "user_review_count": 0}, {"business_operation_status": 1, "rating": null, "neighborhood": null, "image": null, "scorecard": null, "featured": false, "sample_categories": "Restaurants", "public_id": "dogfathers-marietta", "id": 793344660, "votes": null, "tagline": null, "has_video": false, "website": null, "offers": null, "latitude": 34.017341, "politanName": "Atlanta, GA Metro ", "phone_number": "6783543223", "tags": [{"primary": true, "id": 1722, "name": "Restaurants"}], "fax_number": null, "expansion": {"count": null, "uri": null}, "impression_id": "000b000000e0b8f90c92164c9299ba3e41fa6c6088", "profile": "http://www.citysearch.com/profile/793344660/marietta_ga/dogfathers.html", "address": {"city": "Marietta", "state": "GA", "street": "2769 Chastain Meadows Pkwy", "postal_code": "30066"}, "capProviderId": null, "distance": null, "has_offers": false, "name": "Dogfathers", "longitude": -84.555709, "has_menu": false, "awards": null, "user_review_count": 0}, {"business_operation_status": 1, "rating": null, "neighborhood": null, "image": null, "scorecard": null, "featured": false, "sample_categories": "Restaurants, Mexican", "public_id": "lunas-taqueria-marietta", "id": 793347450, "votes": null, "tagline": null, "has_video": false, "website": null, "offers": null, "latitude": 33.905061, "politanName": "Atlanta, GA Metro ", "phone_number": "6785569766", "tags": [{"primary": false, "id": 11208, "name": "Mexican"}, {"primary": true, "id": 1722, "name": "Restaurants"}], "fax_number": null, "expansion": {"count": null, "uri": null}, "impression_id": "000b0000006fdee6c586b544028c8fca0d95dd6c59", "profile": "http://www.citysearch.com/profile/793347450/marietta_ga/luna_s_taqueria.html", "address": {"city": "Marietta", "state": "GA", "street": "1977 S Cobb Dr Se", "postal_code": "30060"}, "capProviderId": null, "distance": null, "has_offers": false, "name": "Luna's Taqueria", "longitude": -84.542525, "has_menu": false, "awards": null, "user_review_count": 0}, {"business_operation_status": 1, "rating": null, "neighborhood": null, "image": null, "scorecard": null, "featured": false, "sample_categories": "Restaurants", "public_id": "hollie-guacamole-marietta", "id": 806226200, "votes": null, "tagline": null, "has_video": false, "website": null, "offers": null, "latitude": 33.952258, "politanName": "Atlanta, GA Metro ", "phone_number": "6782732403", "tags": [{"primary": true, "id": 1722, "name": "Restaurants"}], "fax_number": null, "expansion": {"count": null, "uri": null}, "impression_id": "000b0000002e6b4f46f4a941cc9b39ec4da970298d", "profile": "http://www.citysearch.com/profile/806226200/marietta_ga/hollie_guacamole_.html", "address": {"city": "Marietta", "state": "GA", "street": "154 Roswell St SE", "postal_code": "30060"}, "capProviderId": null, "distance": null, "has_offers": false, "name": "Hollie Guacamole!", "longitude": -84.54874, "has_menu": false, "awards": null, "user_review_count": 0}, {"business_operation_status": 1, "rating": null, "neighborhood": null, "image": null, "scorecard": null, "featured": false, "sample_categories": "Restaurants", "public_id": "whistle-stop-cafe-kennesaw", "id": 611247574, "votes": null, "tagline": null, "has_video": false, "website": null, "offers": null, "latitude": 33.999345, "politanName": "Atlanta, GA Metro ", "phone_number": "7707940100", "tags": [{"primary": true, "id": 1722, "name": "Restaurants"}], "fax_number": null, "expansion": {"count": null, "uri": null}, "impression_id": "000b0000006fad6a977da2402b8d195efc3322a6cb", "profile": "http://www.citysearch.com/profile/611247574/kennesaw_ga/whistle_stop_cafe.html", "address": {"city": "Kennesaw", "state": "GA", "street": "1200 Ernest W Barrett Pkwy NW # Ste 144", "postal_code": "30144"}, "capProviderId": null, "distance": null, "has_offers": false, "name": "Whistle Stop Cafe", "longitude": -84.586888, "has_menu": false, "awards": null, "user_review_count": 0}, {"business_operation_status": 1, "rating": null, "neighborhood": null, "image": null, "scorecard": null, "featured": false, "sample_categories": "Restaurants, Carry Out", "public_id": "firehouse-subs-roswell-2", "id": 611387524, "votes": null, "tagline": null, "has_video": false, "website": null, "offers": null, "latitude": 34.062762, "politanName": "Atlanta, GA Metro ", "phone_number": "4702993918", "tags": [{"primary": false, "id": 11247, "name": "Carry Out"}, {"primary": true, "id": 1722, "name": "Restaurants"}], "fax_number": null, "expansion": {"count": null, "uri": null}, "impression_id": "000b000000578f95c719a94b05be063aeafbc969f4", "profile": "http://www.citysearch.com/profile/611387524/roswell_ga/firehouse_subs.html", "address": {"city": "Roswell", "state": "GA", "street": "4648 Woodstock Rd", "postal_code": "30075"}, "capProviderId": null, "distance": null, "has_offers": false, "name": "Firehouse Subs", "longitude": -84.42056, "has_menu": false, "awards": null, "user_review_count": 0}, {"business_operation_status": 1, "rating": null, "neighborhood": null, "image": null, "scorecard": null, "featured": false, "sample_categories": "Restaurants", "public_id": "cafe-amazonia-marietta", "id": 808265410, "votes": null, "tagline": null, "has_video": false, "website": null, "offers": null, "latitude": 33.952198, "politanName": "Atlanta, GA Metro ", "phone_number": "7705796773", "tags": [{"primary": true, "id": 1722, "name": "Restaurants"}], "fax_number": null, "expansion": {"count": null, "uri": null}, "impression_id": "000b00000000f726f5d5834d4c84560cafd86e384e", "profile": "http://www.citysearch.com/profile/808265410/marietta_ga/cafe_amazonia.html", "address": {"city": "Marietta", "state": "GA", "street": "1355 Roswell Rd # 152", "postal_code": "30062"}, "capProviderId": null, "distance": null, "has_offers": false, "name": "Cafe Amazonia", "longitude": -84.512302, "has_menu": false, "awards": null, "user_review_count": 0}, {"business_operation_status": 1, "rating": null, "neighborhood": null, "image": null, "scorecard": null, "featured": false, "sample_categories": "Restaurants, American Express, Discover, MasterCard, Visa", "public_id": "one-stop-marietta", "id": 43841116, "votes": null, "tagline": null, "has_video": false, "website": null, "offers": null, "latitude": 33.903919, "politanName": "Atlanta, GA Metro ", "phone_number": "7706900083", "tags": [{"primary": false, "id": 11333, "name": "American Express"}, {"primary": false, "id": 11349, "name": "Discover"}, {"primary": false, "id": 11361, "name": "MasterCard"}, {"primary": false, "id": 11382, "name": "Visa"}, {"primary": true, "id": 1722, "name": "Restaurants"}], "fax_number": null, "expansion": {"count": null, "uri": null}, "impression_id": "000b000000354abe77edfb4467926fb3d9d5d4391b", "profile": "http://www.citysearch.com/profile/43841116/marietta_ga/one_stop.html", "address": {"city": "Marietta", "state": "GA", "street": "3000 Windy Hill Rd SE Ste A2", "postal_code": "30067"}, "capProviderId": null, "distance": null, "has_offers": false, "name": "One Stop", "longitude": -84.4706, "has_menu": false, "awards": null, "user_review_count": 0}, {"business_operation_status": 1, "rating": null, "neighborhood": null, "image": null, "scorecard": null, "featured": false, "sample_categories": "Restaurants", "public_id": "jocks-jills-sports-grill-atlanta-3", "id": 626460694, "votes": null, "tagline": null, "has_video": false, "website": null, "offers": null, "latitude": 33.878815, "politanName": "Atlanta, GA Metro ", "phone_number": "7709528401", "tags": [{"primary": true, "id": 1722, "name": "Restaurants"}], "fax_number": null, "expansion": {"count": null, "uri": null}, "impression_id": "000b000000879bcf0b635340be9fada708d3bc0951", "profile": "http://www.citysearch.com/profile/626460694/atlanta_ga/jocks_jills_sports_grill.html", "address": {"city": "Atlanta", "state": "GA", "street": "1 Galleria Pkwy SE 1D17A", "postal_code": "30339"}, "capProviderId": null, "distance": null, "has_offers": false, "name": "Jocks & Jills Sports Grill", "longitude": -84.464518, "has_menu": false, "awards": null, "user_review_count": 0}, {"business_operation_status": 1, "rating": null, "neighborhood": null, "image": null, "scorecard": null, "featured": false, "sample_categories": "Restaurants, Sandwich Shops, Soups", "public_id": "cafe-400-atlanta-4", "id": 622054250, "votes": null, "tagline": null, "has_video": false, "website": null, "offers": null, "latitude": 33.894187, "politanName": "Atlanta, GA Metro ", "phone_number": "7702260074", "tags": [{"primary": false, "id": 1736, "name": "Sandwich Shops"}, {"primary": false, "id": 11311, "name": "Soups"}, {"primary": true, "id": 1722, "name": "Restaurants"}], "fax_number": null, "expansion": {"count": null, "uri": null}, "impression_id": "000b000000f424383bef31460381cc91d5721f9b92", "profile": "http://www.citysearch.com/profile/622054250/atlanta_ga/cafe_400.html", "address": {"city": "Atlanta", "state": "GA", "street": "400 Interstate North Pkwy Se", "postal_code": "30339"}, "capProviderId": null, "distance": null, "has_offers": false, "name": "Cafe 400", "longitude": -84.456313, "has_menu": false, "awards": null, "user_review_count": 0}, {"business_operation_status": 1, "rating": null, "neighborhood": null, "image": null, "scorecard": null, "featured": false, "sample_categories": "Restaurants", "public_id": "mythos-pizzeria-marietta", "id": 627338904, "votes": null, "tagline": null, "has_video": false, "website": null, "offers": null, "latitude": 33.953414, "politanName": "Atlanta, GA Metro ", "phone_number": "7704255100", "tags": [{"primary": true, "id": 1722, "name": "Restaurants"}], "fax_number": null, "expansion": {"count": null, "uri": null}, "impression_id": "000b000000cf05c795ae794003be7e1cf7c70e2a63", "profile": "http://www.citysearch.com/profile/627338904/marietta_ga/mythos_pizzeria.html", "address": {"city": "Marietta", "state": "GA", "street": "1000 Whitlock Ave NW", "postal_code": "30064"}, "capProviderId": null, "distance": null, "has_offers": false, "name": "Mythos Pizzeria", "longitude": -84.581304, "has_menu": false, "awards": null, "user_review_count": 0}, {"business_operation_status": 1, "rating": null, "neighborhood": null, "image": null, "scorecard": null, "featured": false, "sample_categories": "Restaurants", "public_id": "suniece-cafe-marietta", "id": 655897070, "votes": null, "tagline": null, "has_video": false, "website": null, "offers": null, "latitude": 33.972386, "politanName": "Atlanta, GA Metro ", "phone_number": "7704272005", "tags": [{"primary": true, "id": 1722, "name": "Restaurants"}], "fax_number": null, "expansion": {"count": null, "uri": null}, "impression_id": "000b000000412a9063ab77454bbeb8e9685d3caede", "profile": "http://www.citysearch.com/profile/655897070/marietta_ga/suniece_cafe.html", "address": {"city": "Marietta", "state": "GA", "street": "833 Campbell Hill St Nw", "postal_code": "30060"}, "capProviderId": null, "distance": null, "has_offers": false, "name": "Suniece Cafe", "longitude": -84.552023, "has_menu": false, "awards": null, "user_review_count": 0}, {"business_operation_status": 1, "rating": null, "neighborhood": null, "image": null, "scorecard": null, "featured": false, "sample_categories": "Restaurants", "public_id": "vaqueros-marietta", "id": 672714020, "votes": null, "tagline": null, "has_video": false, "website": null, "offers": null, "latitude": 33.953033, "politanName": "Atlanta, GA Metro ", "phone_number": "6787385431", "tags": [{"primary": true, "id": 1722, "name": "Restaurants"}], "fax_number": null, "expansion": {"count": null, "uri": null}, "impression_id": "000b000000786a794db46a40de848479cac650de00", "profile": "http://www.citysearch.com/profile/672714020/marietta_ga/vaqueros.html", "address": {"city": "Marietta", "state": "GA", "street": "1000 Whitlock Ave. #400", "postal_code": "30064"}, "capProviderId": null, "distance": null, "has_offers": false, "name": "Vaqueros", "longitude": -84.581202, "has_menu": false, "awards": null, "user_review_count": 0}, {"business_operation_status": 1, "rating": null, "neighborhood": null, "image": null, "scorecard": null, "featured": false, "sample_categories": "Restaurants", "public_id": "presto-latin-restaurant-marietta", "id": 672230170, "votes": null, "tagline": null, "has_video": false, "website": null, "offers": null, "latitude": 33.951248, "politanName": "Atlanta, GA Metro ", "phone_number": "7709731282", "tags": [{"primary": true, "id": 1722, "name": "Restaurants"}], "fax_number": null, "expansion": {"count": null, "uri": null}, "impression_id": "000b000000eeed05b9bac548548b4961a2a9a51242", "profile": "http://www.citysearch.com/profile/672230170/marietta_ga/presto_latin_restaurant.html", "address": {"city": "Marietta", "state": "GA", "street": "1392-B Roswell Road", "postal_code": "30062"}, "capProviderId": null, "distance": null, "has_offers": false, "name": "Presto Latin Restaurant", "longitude": -84.508172, "has_menu": false, "awards": null, "user_review_count": 0}, {"business_operation_status": 1, "rating": null, "neighborhood": null, "image": null, "scorecard": null, "featured": false, "sample_categories": "Restaurants, Carry Out, American Express, Discover, MasterCard", "public_id": "churchs-chicken-marietta-4", "id": 682647720, "votes": null, "tagline": null, "has_video": false, "website": "http://www.citysearch.com/profile/external/682647720/marietta_ga/church_s_chicken.html", "offers": null, "latitude": 33.94964, "politanName": "Atlanta, GA Metro ", "phone_number": "7704241193", "tags": [{"primary": false, "id": 11247, "name": "Carry Out"}, {"primary": false, "id": 11333, "name": "American Express"}, {"primary": false, "id": 11349, "name": "Discover"}, {"primary": false, "id": 11361, "name": "MasterCard"}, {"primary": false, "id": 11382, "name": "Visa"}, {"primary": false, "id": 12839, "name": "Chicken"}, {"primary": true, "id": 1722, "name": "Restaurants"}], "fax_number": null, "expansion": {"count": null, "uri": null}, "impression_id": "000b000000cffd1c029bed433e8a734896d6a140f9", "profile": "http://www.citysearch.com/profile/682647720/marietta_ga/church_s_chicken.html", "address": {"city": "Marietta", "state": "GA", "street": "75 S Marietta Pkwy Sw", "postal_code": "30064"}, "capProviderId": null, "distance": null, "has_offers": false, "name": "Church's Chicken", "longitude": -84.55079, "has_menu": false, "awards": null, "user_review_count": 0}, {"business_operation_status": 1, "rating": null, "neighborhood": null, "image": null, "scorecard": null, "featured": false, "sample_categories": "Restaurants", "public_id": "niks-place-marietta", "id": 618038054, "votes": null, "tagline": null, "has_video": false, "website": "http://www.citysearch.com/profile/external/618038054/marietta_ga/niks_place.html", "offers": null, "latitude": 33.952096, "politanName": "Atlanta, GA Metro ", "phone_number": "7707926666", "tags": [{"primary": true, "id": 1722, "name": "Restaurants"}], "fax_number": null, "expansion": {"count": null, "uri": null}, "impression_id": "000b000000a88760b57ce34c9c8d8cdb7faabdced3", "profile": "http://www.citysearch.com/profile/618038054/marietta_ga/niks_place.html", "address": {"city": "Marietta", "state": "GA", "street": "Whitlock Ave NW", "postal_code": "30064"}, "capProviderId": null, "distance": null, "has_offers": false, "name": "Niks Place", "longitude": -84.576903, "has_menu": true, "awards": null, "user_review_count": 0}, {"business_operation_status": 1, "rating": null, "neighborhood": null, "image": null, "scorecard": null, "featured": false, "sample_categories": "Restaurants", "public_id": "predido-mexican-restaurant-marietta", "id": 624515334, "votes": null, "tagline": null, "has_video": false, "website": null, "offers": null, "latitude": 33.925751, "politanName": "Atlanta, GA Metro ", "phone_number": "6784015846", "tags": [{"primary": true, "id": 1722, "name": "Restaurants"}], "fax_number": null, "expansion": {"count": null, "uri": null}, "impression_id": "000b00000073bf4f0e2e5e4c9a80a588c3ac56879e", "profile": "http://www.citysearch.com/profile/624515334/marietta_ga/predido_mexican_restaurant.html", "address": {"city": "Marietta", "state": "GA", "street": "1092 W Atlanta St SE", "postal_code": "30060"}, "capProviderId": null, "distance": null, "has_offers": false, "name": "Predido Mexican Restaurant", "longitude": -84.543429, "has_menu": false, "awards": null, "user_review_count": 0}, {"business_operation_status": 1, "rating": null, "neighborhood": null, "image": null, "scorecard": null, "featured": false, "sample_categories": "Restaurants, Ice Cream Parlors, Carry Out", "public_id": "churchs-chicken-marietta-6", "id": 812139520, "votes": null, "tagline": null, "has_video": false, "website": null, "offers": null, "latitude": 33.95153, "politanName": "Atlanta, GA Metro ", "phone_number": "7704228166", "tags": [{"primary": false, "id": 1730, "name": "Ice Cream Parlors"}, {"primary": false, "id": 11247, "name": "Carry Out"}, {"primary": true, "id": 1722, "name": "Restaurants"}], "fax_number": null, "expansion": {"count": null, "uri": null}, "impression_id": "000b0000009a32294da3af4888b8edb8cf344718d7", "profile": "http://www.citysearch.com/profile/812139520/marietta_ga/church_s_chicken.html", "address": {"city": "Marietta", "state": "GA", "street": "23 Powder Springs St", "postal_code": "30064"}, "capProviderId": null, "distance": null, "has_offers": false, "name": "Church's Chicken", "longitude": -84.550217, "has_menu": false, "awards": null, "user_review_count": 0}, {"business_operation_status": 1, "rating": null, "neighborhood": null, "image": null, "scorecard": null, "featured": false, "sample_categories": "Restaurants", "public_id": "el-barco-mexican-restaurant-marietta-2", "id": 813626580, "votes": null, "tagline": null, "has_video": false, "website": null, "offers": null, "latitude": 33.903309, "politanName": "Atlanta, GA Metro ", "phone_number": "6783555007", "tags": [{"primary": true, "id": 1722, "name": "Restaurants"}], "fax_number": null, "expansion": {"count": null, "uri": null}, "impression_id": "000b00000000ac3e65ce9b446ba4b98bbadd144e6a", "profile": "http://www.citysearch.com/profile/813626580/marietta_ga/el_barco_mexican_restaurant.html", "address": {"city": "Marietta", "state": "GA", "street": "Arbor Spring CT SW", "postal_code": "30064"}, "capProviderId": null, "distance": null, "has_offers": false, "name": "El Barco Mexican Restaurant", "longitude": -84.629546, "has_menu": false, "awards": null, "user_review_count": 0}, {"business_operation_status": 1, "rating": null, "neighborhood": null, "image": null, "scorecard": null, "featured": false, "sample_categories": "Restaurants", "public_id": "san-luis-marietta-2", "id": 815793680, "votes": null, "tagline": null, "has_video": false, "website": null, "offers": null, "latitude": 33.939122, "politanName": "Atlanta, GA Metro ", "phone_number": "7705147050", "tags": [{"primary": true, "id": 1722, "name": "Restaurants"}], "fax_number": null, "expansion": {"count": null, "uri": null}, "impression_id": "000b000000ea27805edb5048f2afc7458ea18e2b91", "profile": "http://www.citysearch.com/profile/815793680/marietta_ga/san_luis.html", "address": {"city": "Marietta", "state": "GA", "street": "971 S Marietta Pkwy SE", "postal_code": "30060"}, "capProviderId": null, "distance": null, "has_offers": false, "name": "San Luis", "longitude": -84.526386, "has_menu": false, "awards": null, "user_review_count": 0}, {"business_operation_status": 1, "rating": 6.0, "neighborhood": null, "image": null, "scorecard": null, "featured": false, "sample_categories": "Restaurants", "public_id": "back-porch-of-marietta-marietta", "id": 37646043, "votes": null, "tagline": null, "has_video": false, "website": "http://www.citysearch.com/profile/external/37646043/marietta_ga/back_porch_of_marietta.html", "offers": null, "latitude": 33.951281, "politanName": "Atlanta, GA Metro ", "phone_number": "7707926666", "tags": [{"primary": true, "id": 1722, "name": "Restaurants"}], "fax_number": null, "expansion": {"count": null, "uri": null}, "impression_id": "000b000000c986c417235c4107be92c647adb483ff", "profile": "http://www.citysearch.com/profile/37646043/marietta_ga/back_porch_of_marietta.html", "address": {"city": "Marietta", "state": "GA", "street": "645 Whitlock Ave SW", "postal_code": "30064"}, "capProviderId": null, "distance": null, "has_offers": false, "name": "Back Porch Of Marietta", "longitude": -84.571275, "has_menu": false, "awards": null, "user_review_count": 1}, {"business_operation_status": 1, "rating": null, "neighborhood": null, "image": null, "scorecard": null, "featured": false, "sample_categories": "Restaurants", "public_id": "k-j-fish-chicken-marietta", "id": 816880880, "votes": null, "tagline": null, "has_video": false, "website": null, "offers": null, "latitude": 33.894433, "politanName": "Atlanta, GA Metro ", "phone_number": "7704058877", "tags": [{"primary": true, "id": 1722, "name": "Restaurants"}], "fax_number": null, "expansion": {"count": null, "uri": null}, "impression_id": "000b00000040afdf987ff54540878ec4527bc8e0e0", "profile": "http://www.citysearch.com/profile/816880880/marietta_ga/k_j_fish_chicken.html", "address": {"city": "Marietta", "state": "GA", "street": "234 Windy Hill Rd SE", "postal_code": "30060"}, "capProviderId": null, "distance": null, "has_offers": false, "name": "K J Fish & Chicken", "longitude": -84.552798, "has_menu": false, "awards": null, "user_review_count": 0}, {"business_operation_status": 1, "rating": null, "neighborhood": null, "image": null, "scorecard": null, "featured": false, "sample_categories": "Restaurants", "public_id": "sarku-japan-kennesaw", "id": 820884340, "votes": null, "tagline": null, "has_video": false, "website": null, "offers": null, "latitude": 34.017369, "politanName": "Atlanta, GA Metro ", "phone_number": "7702189700", "tags": [{"primary": true, "id": 1722, "name": "Restaurants"}], "fax_number": null, "expansion": {"count": null, "uri": null}, "impression_id": "000b000000e76af3fc23264e31a7002b63d604641a", "profile": "http://www.citysearch.com/profile/820884340/kennesaw_ga/sarku_japan.html", "address": {"city": "Kennesaw", "state": "GA", "street": "400 Ernest W Barrett Pkwy NW", "postal_code": "30144"}, "capProviderId": null, "distance": null, "has_offers": false, "name": "Sarku Japan", "longitude": -84.564255, "has_menu": true, "awards": null, "user_review_count": 0}, {"business_operation_status": 1, "rating": null, "neighborhood": null, "image": null, "scorecard": null, "featured": false, "sample_categories": "Restaurants", "public_id": "real-cabana-restaurant-inc-marietta", "id": 764845910, "votes": null, "tagline": null, "has_video": false, "website": null, "offers": null, "latitude": 33.905083, "politanName": "Atlanta, GA Metro ", "phone_number": "7704364079", "tags": [{"primary": true, "id": 1722, "name": "Restaurants"}], "fax_number": null, "expansion": {"count": null, "uri": null}, "impression_id": "000b0000002914fd3d3fd146a49a986f92cf2775df", "profile": "http://www.citysearch.com/profile/764845910/marietta_ga/real_cabana_restaurant_inc.html", "address": {"city": "Marietta", "state": "GA", "street": "1977 S Cobb Dr SE", "postal_code": "30060"}, "capProviderId": null, "distance": null, "has_offers": false, "name": "Real Cabana Restaurant Inc", "longitude": -84.542545, "has_menu": false, "awards": null, "user_review_count": 0}, {"business_operation_status": 1, "rating": null, "neighborhood": null, "image": null, "scorecard": null, "featured": false, "sample_categories": "Restaurants, Bars & Pubs", "public_id": "breaking-point-sports-bar-marietta", "id": 764906570, "votes": null, "tagline": null, "has_video": false, "website": null, "offers": null, "latitude": 33.936757, "politanName": "Atlanta, GA Metro ", "phone_number": "7704264199", "tags": [{"primary": false, "id": 1686, "name": "Bars & Pubs"}, {"primary": true, "id": 1722, "name": "Restaurants"}], "fax_number": null, "expansion": {"count": null, "uri": null}, "impression_id": "000b0000006bc350c4a78b49e08495ef7e6df4ea95", "profile": "http://www.citysearch.com/profile/764906570/marietta_ga/breaking_point_sports_bar.html", "address": {"city": "Marietta", "state": "GA", "street": "680 Powder Springs St", "postal_code": "30064"}, "capProviderId": null, "distance": null, "has_offers": false, "name": "Breaking Point Sports Bar", "longitude": -84.557357, "has_menu": false, "awards": null, "user_review_count": 0}, {"business_operation_status": 1, "rating": null, "neighborhood": null, "image": null, "scorecard": null, "featured": false, "sample_categories": "Restaurants", "public_id": "wave-restaurant-lounge-marietta", "id": 828326640, "votes": null, "tagline": null, "has_video": false, "website": null, "offers": null, "latitude": 33.914806, "politanName": "Atlanta, GA Metro ", "phone_number": "6784263250", "tags": [{"primary": true, "id": 1722, "name": "Restaurants"}], "fax_number": null, "expansion": {"count": null, "uri": null}, "impression_id": "000b000000f3d0e564e1f94d508419bd9dbbf66c53", "profile": "http://www.citysearch.com/profile/828326640/marietta_ga/wave_restaurant_lounge.html", "address": {"city": "Marietta", "state": "GA", "street": "2767 Windy Hill Rd SE", "postal_code": "30067"}, "capProviderId": null, "distance": null, "has_offers": false, "name": "Wave Restaurant & Lounge", "longitude": -84.45906, "has_menu": false, "awards": null, "user_review_count": 0}, {"business_operation_status": 1, "rating": null, "neighborhood": null, "image": null, "scorecard": null, "featured": false, "sample_categories": "Restaurants, Chicken", "public_id": "rotisserie-shop-kennesaw", "id": 786376760, "votes": null, "tagline": null, "has_video": false, "website": null, "offers": null, "latitude": 34.013172, "politanName": "Atlanta, GA Metro ", "phone_number": "6785408244", "tags": [{"primary": false, "id": 12839, "name": "Chicken"}, {"primary": true, "id": 1722, "name": "Restaurants"}], "fax_number": null, "expansion": {"count": null, "uri": null}, "impression_id": "000b000000d8d05af0ba7f414cbb5703898d2c1603", "profile": "http://www.citysearch.com/profile/786376760/kennesaw_ga/rotisserie_shop.html", "address": {"city": "Kennesaw", "state": "GA", "street": "2615 George Busbee Pkwy NW", "postal_code": "30144"}, "capProviderId": null, "distance": null, "has_offers": false, "name": "Rotisserie Shop", "longitude": -84.567215, "has_menu": false, "awards": null, "user_review_count": 0}, {"business_operation_status": 1, "rating": null, "neighborhood": null, "image": null, "scorecard": null, "featured": false, "sample_categories": "Restaurants, Carry Out, Hamburgers, American Express, Discover", "public_id": "krystal-marietta-3", "id": 43852561, "votes": null, "tagline": null, "has_video": false, "website": "http://www.citysearch.com/profile/external/43852561/marietta_ga/krystal.html", "offers": null, "latitude": 33.944405, "politanName": "Atlanta, GA Metro ", "phone_number": "7707929020", "tags": [{"primary": false, "id": 11247, "name": "Carry Out"}, {"primary": false, "id": 11270, "name": "Hamburgers"}, {"primary": false, "id": 11333, "name": "American Express"}, {"primary": false, "id": 11349, "name": "Discover"}, {"primary": false, "id": 11361, "name": "MasterCard"}, {"primary": false, "id": 11382, "name": "Visa"}, {"primary": true, "id": 1722, "name": "Restaurants"}], "fax_number": null, "expansion": {"count": null, "uri": null}, "impression_id": "000b0000008ffd7ac57f134a139ed4dcddbb1516a9", "profile": "http://www.citysearch.com/profile/43852561/marietta_ga/krystal.html", "address": {"city": "Marietta", "state": "GA", "street": "3520 Ernest W Barrett Pkwy SW", "postal_code": "30064"}, "capProviderId": null, "distance": null, "has_offers": false, "name": "Krystal", "longitude": -84.624735, "has_menu": true, "awards": null, "user_review_count": 0}, {"business_operation_status": 1, "rating": null, "neighborhood": null, "image": null, "scorecard": null, "featured": false, "sample_categories": "Restaurants, Barbecue Restaurants", "public_id": "wings-fiesta-smyrna", "id": 43853119, "votes": null, "tagline": null, "has_video": false, "website": null, "offers": null, "latitude": 33.892507, "politanName": "Atlanta, GA Metro ", "phone_number": "7704349999", "tags": [{"primary": false, "id": 1724, "name": "Barbecue Restaurants"}, {"primary": true, "id": 1722, "name": "Restaurants"}], "fax_number": null, "expansion": {"count": null, "uri": null}, "impression_id": "000b0000003331dcf62b61446ba3e41ba28839e9e9", "profile": "http://www.citysearch.com/profile/43853119/smyrna_ga/wings_fiesta.html", "address": {"city": "Smyrna", "state": "GA", "street": "2500 S Cobb Dr SE", "postal_code": "30080"}, "capProviderId": null, "distance": null, "has_offers": false, "name": "Wings Fiesta", "longitude": -84.537976, "has_menu": false, "awards": null, "user_review_count": 0}, {"business_operation_status": 1, "rating": null, "neighborhood": null, "image": null, "scorecard": null, "featured": false, "sample_categories": "Restaurants, Steakhouse", "public_id": "steak-escape-atlanta", "id": 43874404, "votes": null, "tagline": null, "has_video": false, "website": "http://www.citysearch.com/profile/external/43874404/atlanta_ga/steak_escape.html", "offers": null, "latitude": 33.879293, "politanName": "Atlanta, GA Metro ", "phone_number": "7704348988", "tags": [{"primary": false, "id": 11316, "name": "Steakhouse"}, {"primary": true, "id": 1722, "name": "Restaurants"}], "fax_number": null, "expansion": {"count": null, "uri": null}, "impression_id": "000b0000006bbc0fb0d28c4e6cabc4a6dd2bc49b90", "profile": "http://www.citysearch.com/profile/43874404/atlanta_ga/steak_escape.html", "address": {"city": "Atlanta", "state": "GA", "street": "1310 Cumberland Mall SE", "postal_code": "30339"}, "capProviderId": null, "distance": null, "has_offers": false, "name": "Steak Escape", "longitude": -84.471307, "has_menu": true, "awards": null, "user_review_count": 0}, {"business_operation_status": 1, "rating": null, "neighborhood": null, "image": null, "scorecard": null, "featured": false, "sample_categories": "Restaurants, Pizza", "public_id": "q-pizza-marietta", "id": 812951040, "votes": null, "tagline": null, "has_video": false, "website": null, "offers": null, "latitude": 33.925388, "politanName": "Atlanta, GA Metro ", "phone_number": "7709197026", "tags": [{"primary": false, "id": 1722, "name": "Restaurants"}, {"primary": true, "id": 11299, "name": "Pizza"}], "fax_number": null, "expansion": {"count": null, "uri": null}, "impression_id": "000b00000097bf5418a3a04a888cffab6c5f2d4845", "profile": "http://www.citysearch.com/profile/812951040/marietta_ga/q_pizza.html", "address": {"city": "Marietta", "state": "GA", "street": "1135 Powder Springs St", "postal_code": "30064"}, "capProviderId": null, "distance": null, "has_offers": false, "name": "Q Pizza", "longitude": -84.573222, "has_menu": false, "awards": null, "user_review_count": 0}, {"business_operation_status": 1, "rating": null, "neighborhood": null, "image": null, "scorecard": null, "featured": false, "sample_categories": "Restaurants", "public_id": "hms-host-atlanta-7", "id": 813608660, "votes": null, "tagline": null, "has_video": false, "website": null, "offers": null, "latitude": 33.878815, "politanName": "Atlanta, GA Metro ", "phone_number": "4045303680", "tags": [{"primary": true, "id": 1722, "name": "Restaurants"}], "fax_number": null, "expansion": {"count": null, "uri": null}, "impression_id": "000b0000000ba1e4ae85cb4f10ada0d7ddd6525ec9", "profile": "http://www.citysearch.com/profile/813608660/atlanta_ga/hms_host.html", "address": {"city": "Atlanta", "state": "GA", "street": "215 I North Pkwy SE", "postal_code": "30339"}, "capProviderId": null, "distance": null, "has_offers": false, "name": "Hms Host", "longitude": -84.464518, "has_menu": false, "awards": null, "user_review_count": 0}, {"business_operation_status": 1, "rating": null, "neighborhood": null, "image": null, "scorecard": null, "featured": false, "sample_categories": "Restaurants", "public_id": "vito-goldbergs-marietta", "id": 814374650, "votes": null, "tagline": null, "has_video": false, "website": "http://www.citysearch.com/profile/external/814374650/marietta_ga/vito_goldberg_s.html", "offers": null, "latitude": 33.951001, "politanName": "Atlanta, GA Metro ", "phone_number": "7707958631", "tags": [{"primary": true, "id": 1722, "name": "Restaurants"}], "fax_number": null, "expansion": {"count": null, "uri": null}, "impression_id": "000b000000833f34e1fd0846a49fc7ca5317f02e21", "profile": "http://www.citysearch.com/profile/814374650/marietta_ga/vito_goldberg_s.html", "address": {"city": "Marietta", "state": "GA", "street": "999 Whitlock Ave SW", "postal_code": "30064"}, "capProviderId": null, "distance": null, "has_offers": false, "name": "Vito Goldberg's", "longitude": -84.57917, "has_menu": false, "awards": null, "user_review_count": 0}, {"business_operation_status": 1, "rating": null, "neighborhood": null, "image": null, "scorecard": null, "featured": false, "sample_categories": "Catering, Restaurants, Sandwich Shops, Ham, Pork", "public_id": "honeybaked-ham-marietta-2", "id": 45112957, "votes": null, "tagline": null, "has_video": false, "website": "http://www.citysearch.com/profile/external/45112957/marietta_ga/honeybaked_ham.html", "offers": null, "latitude": 33.944997, "politanName": "Atlanta, GA Metro ", "phone_number": "7707950196", "tags": [{"primary": false, "id": 1705, "name": "Catering"}, {"primary": false, "id": 1722, "name": "Restaurants"}, {"primary": false, "id": 1736, "name": "Sandwich Shops"}, {"primary": false, "id": 11125, "name": "Pork"}, {"primary": false, "id": 11333, "name": "American Express"}, {"primary": false, "id": 11347, "name": "Debit Card"}, {"primary": false, "id": 11349, "name": "Discover"}, {"primary": false, "id": 11361, "name": "MasterCard"}, {"primary": false, "id": 11382, "name": "Visa"}, {"primary": true, "id": 11124, "name": "Ham"}], "fax_number": null, "expansion": {"count": null, "uri": null}, "impression_id": "000b000000434eb9f57ae742d68e2f1d62f0508165", "profile": "http://www.citysearch.com/profile/45112957/marietta_ga/honeybaked_ham.html", "address": {"city": "Marietta", "state": "GA", "street": "3405 Dallas Hwy SW 408", "postal_code": "30064"}, "capProviderId": null, "distance": null, "has_offers": false, "name": "Honeybaked Ham", "longitude": -84.623325, "has_menu": true, "awards": null, "user_review_count": 0}, {"business_operation_status": 1, "rating": null, "neighborhood": null, "image": null, "scorecard": null, "featured": false, "sample_categories": "Restaurants", "public_id": "blue-sky-cafe-atlanta", "id": 45568411, "votes": null, "tagline": null, "has_video": false, "website": null, "offers": null, "latitude": 33.885476, "politanName": "Atlanta, GA Metro ", "phone_number": "7709552285", "tags": [{"primary": true, "id": 1722, "name": "Restaurants"}], "fax_number": null, "expansion": {"count": null, "uri": null}, "impression_id": "000b0000000d0e965c24104c7899aa2dc0c7a952f0", "profile": "http://www.citysearch.com/profile/45568411/atlanta_ga/blue_sky_cafe.html", "address": {"city": "Atlanta", "state": "GA", "street": "600 Galleria Pkwy SE Ste 180", "postal_code": "30339"}, "capProviderId": null, "distance": null, "has_offers": false, "name": "Blue Sky Cafe", "longitude": -84.461662, "has_menu": false, "awards": null, "user_review_count": 0}, {"business_operation_status": 1, "rating": null, "neighborhood": null, "image": null, "scorecard": null, "featured": false, "sample_categories": "Ice Cream Parlors", "public_id": "marble-slab-creamery-smyrna", "id": 822378770, "votes": null, "tagline": null, "has_video": false, "website": null, "offers": null, "latitude": 33.884889, "politanName": "Atlanta, GA Metro ", "phone_number": "7704333336", "tags": [{"primary": true, "id": 1730, "name": "Ice Cream Parlors"}], "fax_number": null, "expansion": {"count": null, "uri": null}, "impression_id": "000b000000b12d4a4fa7e648d9ac6c6fe8cfd556b2", "profile": "http://www.citysearch.com/profile/822378770/smyrna_ga/marble_slab_creamery.html", "address": {"city": "Smyrna", "state": "GA", "street": "400 Village Green Cir SE", "postal_code": "30080"}, "capProviderId": null, "distance": null, "has_offers": false, "name": "Marble Slab Creamery", "longitude": -84.516415, "has_menu": false, "awards": null, "user_review_count": 0}, {"business_operation_status": 1, "rating": null, "neighborhood": null, "image": null, "scorecard": null, "featured": false, "sample_categories": "Restaurants", "public_id": "great-wraps-atlanta-12", "id": 836734760, "votes": null, "tagline": null, "has_video": false, "website": null, "offers": null, "latitude": 33.881743, "politanName": "Atlanta, GA Metro ", "phone_number": "7704323946", "tags": [{"primary": true, "id": 1722, "name": "Restaurants"}], "fax_number": null, "expansion": {"count": null, "uri": null}, "impression_id": "000b0000001072721840674bd2a7bb8a8d59f5ce17", "profile": "http://www.citysearch.com/profile/836734760/atlanta_ga/great_wraps.html", "address": {"city": "Atlanta", "state": "GA", "street": "1000 Cumberland Mall SE", "postal_code": "30339"}, "capProviderId": null, "distance": null, "has_offers": false, "name": "Great Wraps", "longitude": -84.470084, "has_menu": true, "awards": null, "user_review_count": 0}, {"business_operation_status": 1, "rating": null, "neighborhood": null, "image": null, "scorecard": null, "featured": false, "sample_categories": "Restaurants", "public_id": "wings-burger-haven-marietta-2", "id": 836916740, "votes": null, "tagline": null, "has_video": false, "website": null, "offers": null, "latitude": 33.948939, "politanName": "Atlanta, GA Metro ", "phone_number": "7709771411", "tags": [{"primary": true, "id": 1722, "name": "Restaurants"}], "fax_number": null, "expansion": {"count": null, "uri": null}, "impression_id": "000b000000bdc802d8841244f0b287c6e678ff3f15", "profile": "http://www.citysearch.com/profile/836916740/marietta_ga/wings_burger_haven.html", "address": {"city": "Marietta", "state": "GA", "street": "279 Powers Ferry Rd SE", "postal_code": "30067"}, "capProviderId": null, "distance": null, "has_offers": false, "name": "Wings & Burger Haven", "longitude": -84.503582, "has_menu": true, "awards": null, "user_review_count": 0}, {"business_operation_status": 1, "rating": null, "neighborhood": null, "image": null, "scorecard": null, "featured": false, "sample_categories": "Restaurants, Luaus", "public_id": "soup-garden-atlanta", "id": 809055650, "votes": null, "tagline": null, "has_video": false, "website": null, "offers": null, "latitude": 33.883196, "politanName": "Atlanta, GA Metro ", "phone_number": "7709555726", "tags": [{"primary": false, "id": 11285, "name": "Luaus"}, {"primary": true, "id": 1722, "name": "Restaurants"}], "fax_number": null, "expansion": {"count": null, "uri": null}, "impression_id": "000b0000007a9629b61ff148a5b8ab4a30e20f9e89", "profile": "http://www.citysearch.com/profile/809055650/atlanta_ga/soup_garden.html", "address": {"city": "Atlanta", "state": "GA", "street": "2955 Cobb Pkwy SE # 240", "postal_code": "30339"}, "capProviderId": null, "distance": null, "has_offers": false, "name": "Soup Garden", "longitude": -84.461616, "has_menu": false, "awards": null, "user_review_count": 0}, {"business_operation_status": 1, "rating": null, "neighborhood": null, "image": null, "scorecard": null, "featured": false, "sample_categories": "Restaurants, Delis And Delicatessens", "public_id": "philly-connection-atlanta-2", "id": 37653250, "votes": null, "tagline": null, "has_video": false, "website": null, "offers": null, "latitude": 33.901998, "politanName": "Atlanta, GA Metro ", "phone_number": "7709523168", "tags": [{"primary": false, "id": 1727, "name": "Delis And Delicatessens"}, {"primary": true, "id": 1722, "name": "Restaurants"}], "fax_number": null, "expansion": {"count": null, "uri": null}, "impression_id": "000b0000005e6d8f7d51bd4478a7b39906c41cecd9", "profile": "http://www.citysearch.com/profile/37653250/atlanta_ga/philly_connection.html", "address": {"city": "Atlanta", "state": "GA", "street": "120 Interstate North Pkwy SE", "postal_code": "30339"}, "capProviderId": null, "distance": null, "has_offers": false, "name": "Philly Connection", "longitude": -84.464688, "has_menu": true, "awards": null, "user_review_count": 0}, {"business_operation_status": 1, "rating": null, "neighborhood": null, "image": null, "scorecard": null, "featured": false, "sample_categories": "Restaurants", "public_id": "statewide-development-atlanta", "id": 808723820, "votes": null, "tagline": null, "has_video": false, "website": null, "offers": null, "latitude": 33.9093, "politanName": "Atlanta, GA Metro ", "phone_number": "6785466070", "tags": [{"primary": true, "id": 1722, "name": "Restaurants"}], "fax_number": null, "expansion": {"count": null, "uri": null}, "impression_id": "000b0000002757a57ecfcd400ea181bd3440920113", "profile": "http://www.citysearch.com/profile/808723820/atlanta_ga/statewide_development.html", "address": {"city": "Atlanta", "state": "GA", "street": "1775 The Exchange SE # 190", "postal_code": "30339"}, "capProviderId": null, "distance": null, "has_offers": false, "name": "Statewide Development", "longitude": -84.480035, "has_menu": false, "awards": null, "user_review_count": 0}, {"business_operation_status": 1, "rating": null, "neighborhood": null, "image": null, "scorecard": null, "featured": false, "sample_categories": "Restaurants", "public_id": "roadside-cafe-marietta", "id": 809569360, "votes": null, "tagline": null, "has_video": false, "website": null, "offers": null, "latitude": 33.973353, "politanName": "Atlanta, GA Metro ", "phone_number": "6782908551", "tags": [{"primary": true, "id": 1722, "name": "Restaurants"}], "fax_number": null, "expansion": {"count": null, "uri": null}, "impression_id": "000b0000008d6770a0a6144e90881e8bd4a640ee2e", "profile": "http://www.citysearch.com/profile/809569360/marietta_ga/roadside_cafe.html", "address": {"city": "Marietta", "state": "GA", "street": "915 Cobb Pkwy N", "postal_code": "30062"}, "capProviderId": null, "distance": null, "has_offers": false, "name": "Roadside Cafe", "longitude": -84.54318, "has_menu": false, "awards": null, "user_review_count": 0}, {"business_operation_status": 1, "rating": null, "neighborhood": null, "image": null, "scorecard": null, "featured": false, "sample_categories": "Restaurants, Ice Cream Parlors", "public_id": "tcby-marietta-3", "id": 814186530, "votes": null, "tagline": null, "has_video": false, "website": "http://www.citysearch.com/profile/external/814186530/marietta_ga/tcby.html", "offers": null, "latitude": 33.969806, "politanName": "Atlanta, GA Metro ", "phone_number": "7705798833", "tags": [{"primary": false, "id": 1730, "name": "Ice Cream Parlors"}, {"primary": true, "id": 1722, "name": "Restaurants"}], "fax_number": null, "expansion": {"count": null, "uri": null}, "impression_id": "000b0000004ca3419fa9624350a99175b29cae4c8c", "profile": "http://www.citysearch.com/profile/814186530/marietta_ga/tcby.html", "address": {"city": "Marietta", "state": "GA", "street": "2200 Roswell Rd", "postal_code": "30062"}, "capProviderId": null, "distance": null, "has_offers": false, "name": "TCBY", "longitude": -84.487911, "has_menu": true, "awards": null, "user_review_count": 0}, {"business_operation_status": 1, "rating": null, "neighborhood": null, "image": null, "scorecard": null, "featured": false, "sample_categories": "Restaurants", "public_id": "champs-barbq-smyrna", "id": 819797740, "votes": null, "tagline": null, "has_video": false, "website": null, "offers": null, "latitude": 33.896088, "politanName": "Atlanta, GA Metro ", "phone_number": "7704386618", "tags": [{"primary": true, "id": 1722, "name": "Restaurants"}], "fax_number": null, "expansion": {"count": null, "uri": null}, "impression_id": "000b0000002aecc0269a7f4ef4903988877d3539ad", "profile": "http://www.citysearch.com/profile/819797740/smyrna_ga/champs_bar_b_q.html", "address": {"city": "Smyrna", "state": "GA", "street": "2300 S Cobb Dr SE", "postal_code": "30080"}, "capProviderId": null, "distance": null, "has_offers": false, "name": "Champs Bar-B-Q", "longitude": -84.539784, "has_menu": false, "awards": null, "user_review_count": 0}, {"business_operation_status": 1, "rating": null, "neighborhood": null, "image": null, "scorecard": null, "featured": false, "sample_categories": "Restaurants, Barbecue Restaurants", "public_id": "wing-zone-franchise-corp-atlanta", "id": 43874042, "votes": null, "tagline": null, "has_video": false, "website": "http://www.citysearch.com/profile/external/43874042/atlanta_ga/wing_zone_franchise_corp.html", "offers": null, "latitude": 33.887557, "politanName": "Atlanta, GA Metro ", "phone_number": "4048755045", "tags": [{"primary": false, "id": 1724, "name": "Barbecue Restaurants"}, {"primary": true, "id": 1722, "name": "Restaurants"}], "fax_number": null, "expansion": {"count": null, "uri": null}, "impression_id": "000b0000000736cf8633cc453c95d4b403042d9edf", "profile": "http://www.citysearch.com/profile/43874042/atlanta_ga/wing_zone_franchise_corp.html", "address": {"city": "Atlanta", "state": "GA", "street": "900 Circle 75 Pkwy SE Ste 930", "postal_code": "30339"}, "capProviderId": null, "distance": null, "has_offers": false, "name": "Wing Zone Franchise Corp", "longitude": -84.467746, "has_menu": true, "awards": null, "user_review_count": 0}], "histograms": [], "tag_ids": [1722], "uri": "http://api.citygridmedia.com:8080/search/places/v2/search/where?has_offers=false&type=restaurant&format=json&page=15&where=30069&rpp=50&histograms=false&publisher=10000009598&region_type=circle", "did_you_mean": "", "regions": [{"latitude": 33.911972, "default_radius": 1.53, "type": "postal_code", "name": "30069", "longitude": -84.51369799999999}], "call_id": "000b000000f74249dcf6c34f4599e52ac0184f9d68", "first_hit": 701, "total_hits": 1411, "geo_ids": [26297], "page": 15, "last_hit": 750}}