{"results": {"rpp": 50, "locations": [{"business_operation_status": 1, "rating": null, "neighborhood": null, "image": null, "scorecard": null, "featured": false, "sample_categories": "Restaurants", "public_id": "shanes-rib-shack-woodstock", "id": 821206620, "votes": null, "tagline": null, "has_video": false, "website": null, "offers": null, "latitude": 34.155428, "politanName": "Atlanta, GA Metro ", "phone_number": "7705911525", "tags": [{"primary": true, "id": 1722, "name": "Restaurants"}], "fax_number": null, "expansion": {"count": null, "uri": null}, "impression_id": "000b000000a06c4d13d53549c0bed1956709855d60", "profile": "http://www.citysearch.com/profile/821206620/woodstock_ga/shanes_rib_shack.html", "address": {"city": "Woodstock", "state": "GA", "street": "1062 Meadow Brook Dr", "postal_code": "30188"}, "capProviderId": null, "distance": null, "has_offers": false, "name": "Shanes Rib Shack", "longitude": -84.431847, "has_menu": false, "awards": null, "user_review_count": 0}, {"business_operation_status": 1, "rating": null, "neighborhood": null, "image": null, "scorecard": null, "featured": false, "sample_categories": "Restaurants", "public_id": "el-dorado-restaurant-marietta-2", "id": 821705220, "votes": null, "tagline": null, "has_video": false, "website": null, "offers": null, "latitude": 33.902517, "politanName": "Atlanta, GA Metro ", "phone_number": "7704347772", "tags": [{"primary": true, "id": 1722, "name": "Restaurants"}], "fax_number": null, "expansion": {"count": null, "uri": null}, "impression_id": "000b000000bc845d9d85f14d6ab80a51b42f5d6e86", "profile": "http://www.citysearch.com/profile/821705220/marietta_ga/el_dorado_restaurant.html", "address": {"city": "Marietta", "state": "GA", "street": "371 Pat Mell Rd SE # 125", "postal_code": "30060"}, "capProviderId": null, "distance": null, "has_offers": false, "name": "El Dorado Restaurant", "longitude": -84.543334, "has_menu": false, "awards": null, "user_review_count": 0}, {"business_operation_status": 1, "rating": null, "neighborhood": null, "image": null, "scorecard": null, "featured": false, "sample_categories": "Restaurants", "public_id": "my-friends-place-marietta-4", "id": 823196150, "votes": null, "tagline": null, "has_video": false, "website": null, "offers": null, "latitude": 33.911098, "politanName": "Atlanta, GA Metro ", "phone_number": "7709567545", "tags": [{"primary": true, "id": 1722, "name": "Restaurants"}], "fax_number": null, "expansion": {"count": null, "uri": null}, "impression_id": "000b000000962427628a6f418b91aba28d5c8adbd7", "profile": "http://www.citysearch.com/profile/823196150/marietta_ga/my_friend_s_place.html", "address": {"city": "Marietta", "state": "GA", "street": "3100 Windy Hill Rd SE", "postal_code": "30067"}, "capProviderId": null, "distance": null, "has_offers": false, "name": "My Friend's Place", "longitude": -84.459994, "has_menu": false, "awards": null, "user_review_count": 0}, {"business_operation_status": 1, "rating": null, "neighborhood": null, "image": null, "scorecard": null, "featured": false, "sample_categories": "Restaurants", "public_id": "kenny-rogers-roasters-marietta", "id": 775226560, "votes": null, "tagline": null, "has_video": false, "website": null, "offers": null, "latitude": 33.919492, "politanName": "Atlanta, GA Metro ", "phone_number": "7709551800", "tags": [{"primary": true, "id": 1722, "name": "Restaurants"}], "fax_number": null, "expansion": {"count": null, "uri": null}, "impression_id": "000b000000bc28fc3cd0574333a3b1eb6722c4e7a8", "profile": "http://www.citysearch.com/profile/775226560/marietta_ga/kenny_rogers_roasters.html", "address": {"city": "Marietta", "state": "GA", "street": "1325 Powers Ferry Rd SE", "postal_code": "30067"}, "capProviderId": null, "distance": null, "has_offers": false, "name": "Kenny Rogers Roasters", "longitude": -84.466798, "has_menu": false, "awards": null, "user_review_count": 0}, {"business_operation_status": 1, "rating": null, "neighborhood": null, "image": null, "scorecard": null, "featured": false, "sample_categories": "Restaurants, Pizza", "public_id": "uncle-maddios-pizza-joint-kennesaw", "id": 777683550, "votes": null, "tagline": null, "has_video": false, "website": "http://www.citysearch.com/profile/external/777683550/kennesaw_ga/uncle_maddio_s_pizza_joint.html", "offers": null, "latitude": 34.035456, "politanName": "Atlanta, GA Metro ", "phone_number": "7705731694", "tags": [{"primary": false, "id": 1722, "name": "Restaurants"}, {"primary": true, "id": 11299, "name": "Pizza"}], "fax_number": null, "expansion": {"count": null, "uri": null}, "impression_id": "000b0000007111f8622a8a41dc893cc8134240b1cf", "profile": "http://www.citysearch.com/profile/777683550/kennesaw_ga/uncle_maddio_s_pizza_joint.html", "address": {"city": "Kennesaw", "state": "GA", "street": "745 Chastain Rd NW", "postal_code": "30144"}, "capProviderId": null, "distance": null, "has_offers": false, "name": "Uncle Maddio's Pizza Joint", "longitude": -84.56996, "has_menu": true, "awards": null, "user_review_count": 1}, {"business_operation_status": 1, "rating": null, "neighborhood": null, "image": null, "scorecard": null, "featured": false, "sample_categories": "Restaurants, Shop Online", "public_id": "lenox-cupcakes-atlanta-2", "id": 801093700, "votes": null, "tagline": null, "has_video": false, "website": null, "offers": null, "latitude": 33.991025, "politanName": "Atlanta, GA Metro ", "phone_number": "7702776924", "tags": [{"primary": false, "id": 11375, "name": "Shop Online"}, {"primary": true, "id": 1722, "name": "Restaurants"}], "fax_number": null, "expansion": {"count": null, "uri": null}, "impression_id": "000b000000757d37cb25b34541b0829f527da0e492", "profile": "http://www.citysearch.com/profile/801093700/atlanta_ga/lenox_cupcakes.html", "address": {"city": "Atlanta", "state": "GA", "street": "8610 Roswell Rd", "postal_code": "30350"}, "capProviderId": null, "distance": null, "has_offers": false, "name": "Lenox Cupcakes", "longitude": -84.352855, "has_menu": false, "awards": null, "user_review_count": 0}, {"business_operation_status": 1, "rating": null, "neighborhood": null, "image": null, "scorecard": null, "featured": false, "sample_categories": "Restaurants, Carry Out", "public_id": "romanos-macaroni-grill-roswell", "id": 813778880, "votes": null, "tagline": null, "has_video": false, "website": "http://www.citysearch.com/profile/external/813778880/roswell_ga/romano_s_macaroni_grill.html", "offers": null, "latitude": 34.030094, "politanName": "Atlanta, GA Metro ", "phone_number": "7709937115", "tags": [{"primary": false, "id": 11247, "name": "Carry Out"}, {"primary": true, "id": 1722, "name": "Restaurants"}], "fax_number": null, "expansion": {"count": null, "uri": null}, "impression_id": "000b0000007fde1b1cdc4d457687197a4267636d27", "profile": "http://www.citysearch.com/profile/813778880/roswell_ga/romano_s_macaroni_grill.html", "address": {"city": "Roswell", "state": "GA", "street": "770 Holcomb Bridge Rd", "postal_code": "30076"}, "capProviderId": null, "distance": null, "has_offers": false, "name": "Romano's Macaroni Grill", "longitude": -84.337471, "has_menu": false, "awards": null, "user_review_count": 0}, {"business_operation_status": 1, "rating": null, "neighborhood": null, "image": null, "scorecard": null, "featured": false, "sample_categories": "Restaurants", "public_id": "tucker-hospitality-inc-marietta", "id": 819224460, "votes": null, "tagline": null, "has_video": false, "website": null, "offers": null, "latitude": 33.934837, "politanName": "Atlanta, GA Metro ", "phone_number": "6783318222", "tags": [{"primary": true, "id": 1722, "name": "Restaurants"}], "fax_number": null, "expansion": {"count": null, "uri": null}, "impression_id": "000b00000091a2c2181bde4207ad2aa66c4b5594b7", "profile": "http://www.citysearch.com/profile/819224460/marietta_ga/tucker_hospitality_inc.html", "address": {"city": "Marietta", "state": "GA", "street": "707 Franklin Rd SE # 3-6", "postal_code": "30067"}, "capProviderId": null, "distance": null, "has_offers": false, "name": "Tucker Hospitality Inc", "longitude": -84.502941, "has_menu": false, "awards": null, "user_review_count": 0}, {"business_operation_status": 1, "rating": null, "neighborhood": null, "image": null, "scorecard": null, "featured": false, "sample_categories": "Catering, Restaurants, Barbecue Restaurants, Carry Out, Family Style Dining", "public_id": "as-sonnys-real-pit-barbq", "id": 793392090, "votes": null, "tagline": null, "has_video": false, "website": null, "offers": null, "latitude": null, "politanName": null, "phone_number": "7703681653", "tags": [{"primary": false, "id": 1705, "name": "Catering"}, {"primary": false, "id": 1722, "name": "Restaurants"}, {"primary": false, "id": 1724, "name": "Barbecue Restaurants"}, {"primary": false, "id": 11262, "name": "Family Style Dining"}, {"primary": true, "id": 11247, "name": "Carry Out"}], "fax_number": null, "expansion": {"count": null, "uri": null}, "impression_id": "000b000000660f9ae57ddf489ca86961ce68654300", "profile": "http://www.citysearch.com/profile/793392090/sonny_s_real_pit_bar_b_q.html", "address": {"city": null, "state": null, "street": null, "postal_code": null}, "capProviderId": null, "distance": null, "has_offers": false, "name": "Sonny's Real Pit Bar-B-Q", "longitude": null, "has_menu": false, "awards": null, "user_review_count": 0}, {"business_operation_status": 1, "rating": null, "neighborhood": null, "image": null, "scorecard": null, "featured": false, "sample_categories": "Catering, Personal Chefs, Computer & Internet Services, Wedding Cakes, Seafood", "public_id": "as-glamacook-oad", "id": 801975680, "votes": null, "tagline": null, "has_video": false, "website": null, "offers": null, "latitude": null, "politanName": null, "phone_number": "4043451924", "tags": [{"primary": false, "id": 1705, "name": "Catering"}, {"primary": false, "id": 3534, "name": "Personal Chefs"}, {"primary": false, "id": 674, "name": "Computer & Internet Services"}, {"primary": false, "id": 11057, "name": "Wedding Cakes"}, {"primary": false, "id": 11228, "name": "Seafood"}, {"primary": true, "id": 11267, "name": "Food Delivery"}], "fax_number": null, "expansion": {"count": null, "uri": null}, "impression_id": "000b000000041eee27633e4b0c9d1a43b78a8480ba", "profile": "http://www.citysearch.com/profile/801975680/_oad_ga/glamacook.html", "address": {"city": "(Oad)", "state": "GA", "street": null, "postal_code": "30032"}, "capProviderId": null, "distance": null, "has_offers": false, "name": "GlamaCook", "longitude": null, "has_menu": false, "awards": null, "user_review_count": 0}], "histograms": [], "tag_ids": [1722], "uri": "http://api.citygridmedia.com:8080/search/places/v2/search/where?has_offers=false&type=restaurant&format=json&page=44&where=30062&rpp=50&histograms=false&publisher=10000009598&region_type=circle", "did_you_mean": "", "regions": [{"latitude": 34.001368, "default_radius": 5.22, "type": "postal_code", "name": "30062", "longitude": -84.466397}], "call_id": "000b0000007bffdb1058334bc98e1b2937e08a91eb", "first_hit": 2151, "total_hits": 2160, "geo_ids": [26292], "page": 44, "last_hit": 2160}}