{"results": {"rpp": 50, "locations": [{"business_operation_status": 1, "rating": null, "neighborhood": null, "image": null, "scorecard": null, "featured": false, "sample_categories": "Restaurants", "public_id": "haru-sushi-roswell", "id": 815792570, "votes": null, "tagline": null, "has_video": false, "website": null, "offers": null, "latitude": 34.019195, "politanName": "Atlanta, GA Metro ", "phone_number": "7705180099", "tags": [{"primary": true, "id": 1722, "name": "Restaurants"}], "fax_number": null, "expansion": {"count": null, "uri": null}, "impression_id": "000b000000f8e9f8641e5c441499eaa4afd1b3d555", "profile": "http://www.citysearch.com/profile/815792570/roswell_ga/haru_sushi.html", "address": {"city": "Roswell", "state": "GA", "street": "1425 Market Blvd # 320", "postal_code": "30076"}, "capProviderId": null, "distance": null, "has_offers": false, "name": "Haru Sushi", "longitude": -84.318954, "has_menu": true, "awards": null, "user_review_count": 0}, {"business_operation_status": 1, "rating": null, "neighborhood": null, "image": null, "scorecard": null, "featured": false, "sample_categories": "Catering, Restaurants, Traditional American, Food Delivery", "public_id": "gowaiter-atlanta-atlanta", "id": 755520650, "votes": null, "tagline": null, "has_video": false, "website": null, "offers": null, "latitude": 33.914823, "politanName": "Atlanta, GA Metro ", "phone_number": "4042521313", "tags": [{"primary": false, "id": 1722, "name": "Restaurants"}, {"primary": false, "id": 11190, "name": "Traditional American"}, {"primary": false, "id": 11267, "name": "Food Delivery"}, {"primary": true, "id": 1705, "name": "Catering"}], "fax_number": null, "expansion": {"count": null, "uri": null}, "impression_id": "000b00000097f62732ce6e4c91a79dbf251ab26ea3", "profile": "http://www.citysearch.com/profile/755520650/atlanta_ga/gowaiter_atlanta.html", "address": {"city": "Atlanta", "state": "GA", "street": "5825 Glenridge Dr Ste 3-245", "postal_code": "30328"}, "capProviderId": null, "distance": null, "has_offers": false, "name": "GoWaiter Atlanta", "longitude": -84.361566, "has_menu": false, "awards": null, "user_review_count": 0}, {"business_operation_status": 1, "rating": null, "neighborhood": null, "image": null, "scorecard": null, "featured": false, "sample_categories": "Restaurants, Catering, Traditional American", "public_id": "signature-hot-dogs-atlanta-2", "id": 762771120, "votes": null, "tagline": null, "has_video": false, "website": null, "offers": null, "latitude": 33.955038, "politanName": "Atlanta, GA Metro ", "phone_number": "4048493590", "tags": [{"primary": false, "id": 1705, "name": "Catering"}, {"primary": false, "id": 11190, "name": "Traditional American"}, {"primary": true, "id": 1722, "name": "Restaurants"}], "fax_number": null, "expansion": {"count": null, "uri": null}, "impression_id": "000b0000001bfcfecc22fe4b1b805e20c0efe5a6ac", "profile": "http://www.citysearch.com/profile/762771120/atlanta_ga/signature_hot_dogs.html", "address": {"city": "Atlanta", "state": "GA", "street": "17 Dalrymple Rd NE", "postal_code": "30328"}, "capProviderId": null, "distance": null, "has_offers": false, "name": "Signature Hot Dogs", "longitude": -84.387023, "has_menu": false, "awards": null, "user_review_count": 0}, {"business_operation_status": 1, "rating": null, "neighborhood": null, "image": null, "scorecard": null, "featured": false, "sample_categories": "Restaurants, Bars & Pubs", "public_id": "buffalo-wing-pub-marietta", "id": 764831570, "votes": null, "tagline": null, "has_video": false, "website": null, "offers": null, "latitude": 33.915472, "politanName": "Atlanta, GA Metro ", "phone_number": "7709333425", "tags": [{"primary": false, "id": 1686, "name": "Bars & Pubs"}, {"primary": true, "id": 1722, "name": "Restaurants"}], "fax_number": null, "expansion": {"count": null, "uri": null}, "impression_id": "000b000000c7842994f0c34fc6b1cf3601e08c6e8e", "profile": "http://www.citysearch.com/profile/764831570/marietta_ga/buffalo_wing_pub.html", "address": {"city": "Marietta", "state": "GA", "street": "1498 Powers Ferry Rd SE", "postal_code": "30067"}, "capProviderId": null, "distance": null, "has_offers": false, "name": "Buffalo Wing Pub", "longitude": -84.46601, "has_menu": false, "awards": null, "user_review_count": 0}, {"business_operation_status": 1, "rating": null, "neighborhood": null, "image": null, "scorecard": null, "featured": false, "sample_categories": "Restaurants", "public_id": "unsukay-inc-atlanta", "id": 793286370, "votes": null, "tagline": null, "has_video": false, "website": null, "offers": null, "latitude": 33.907787, "politanName": "Atlanta, GA Metro ", "phone_number": "6784028471", "tags": [{"primary": true, "id": 1722, "name": "Restaurants"}], "fax_number": null, "expansion": {"count": null, "uri": null}, "impression_id": "000b000000515a7548410e42ec8598ebcf6c6f443b", "profile": "http://www.citysearch.com/profile/793286370/atlanta_ga/unsukay_inc.html", "address": {"city": "Atlanta", "state": "GA", "street": "1899 Powers Ferry Rd Se", "postal_code": "30339"}, "capProviderId": null, "distance": null, "has_offers": false, "name": "Unsukay INC", "longitude": -84.463769, "has_menu": false, "awards": null, "user_review_count": 0}, {"business_operation_status": 1, "rating": null, "neighborhood": null, "image": null, "scorecard": null, "featured": false, "sample_categories": "Restaurants", "public_id": "twisted-chicken-atlanta", "id": 43871611, "votes": null, "tagline": null, "has_video": false, "website": null, "offers": null, "latitude": 33.982083, "politanName": "Atlanta, GA Metro ", "phone_number": "6784614081", "tags": [{"primary": true, "id": 1722, "name": "Restaurants"}], "fax_number": null, "expansion": {"count": null, "uri": null}, "impression_id": "000b0000009038d2ae2cec4a8bbc27c20084f0ce75", "profile": "http://www.citysearch.com/profile/43871611/atlanta_ga/twisted_chicken.html", "address": {"city": "Atlanta", "state": "GA", "street": "350 Northridge Rd Ste 1A", "postal_code": "30350"}, "capProviderId": null, "distance": null, "has_offers": false, "name": "Twisted Chicken", "longitude": -84.347861, "has_menu": false, "awards": null, "user_review_count": 0}, {"business_operation_status": 1, "rating": null, "neighborhood": null, "image": null, "scorecard": null, "featured": false, "sample_categories": "Restaurants", "public_id": "dineout-inc-marietta", "id": 807939100, "votes": null, "tagline": null, "has_video": false, "website": null, "offers": null, "latitude": 34.021269, "politanName": "Atlanta, GA Metro ", "phone_number": "7705656984", "tags": [{"primary": true, "id": 1722, "name": "Restaurants"}], "fax_number": null, "expansion": {"count": null, "uri": null}, "impression_id": "000b00000039ac99935f7a44149f97afa18956c389", "profile": "http://www.citysearch.com/profile/807939100/marietta_ga/dineout_inc.html", "address": {"city": "Marietta", "state": "GA", "street": "1705 Macby Dr", "postal_code": "30066"}, "capProviderId": null, "distance": null, "has_offers": false, "name": "Dineout Inc", "longitude": -84.502556, "has_menu": false, "awards": null, "user_review_count": 0}, {"business_operation_status": 1, "rating": null, "neighborhood": null, "image": null, "scorecard": null, "featured": false, "sample_categories": "Restaurants", "public_id": "out-of-the-box-gifts-marietta", "id": 812371140, "votes": null, "tagline": null, "has_video": false, "website": null, "offers": null, "latitude": 33.982834, "politanName": "Atlanta, GA Metro ", "phone_number": "7702185455", "tags": [{"primary": true, "id": 1722, "name": "Restaurants"}], "fax_number": null, "expansion": {"count": null, "uri": null}, "impression_id": "000b000000c0b849a40d8947aeb3eeaf158e00679f", "profile": "http://www.citysearch.com/profile/812371140/marietta_ga/out_of_the_box_gifts.html", "address": {"city": "Marietta", "state": "GA", "street": "1343 Canton Rd", "postal_code": "30066"}, "capProviderId": null, "distance": null, "has_offers": false, "name": "Out Of The Box Gifts", "longitude": -84.538604, "has_menu": false, "awards": null, "user_review_count": 0}, {"business_operation_status": 1, "rating": null, "neighborhood": null, "image": null, "scorecard": null, "featured": false, "sample_categories": "Restaurants", "public_id": "a-taste-of-puerto-rico-marietta-2", "id": 813840920, "votes": null, "tagline": null, "has_video": false, "website": null, "offers": null, "latitude": 34.017341, "politanName": "Atlanta, GA Metro ", "phone_number": "6787979992", "tags": [{"primary": true, "id": 1722, "name": "Restaurants"}], "fax_number": null, "expansion": {"count": null, "uri": null}, "impression_id": "000b00000098291ac9f0b94dd59905adfb472bb5ac", "profile": "http://www.citysearch.com/profile/813840920/marietta_ga/a_taste_of_puerto_rico.html", "address": {"city": "Marietta", "state": "GA", "street": "2769 Chastn Mdws Pkwy # 90", "postal_code": "30066"}, "capProviderId": null, "distance": null, "has_offers": false, "name": "A Taste Of Puerto Rico", "longitude": -84.555709, "has_menu": false, "awards": null, "user_review_count": 0}, {"business_operation_status": 1, "rating": null, "neighborhood": null, "image": null, "scorecard": null, "featured": false, "sample_categories": "Restaurants", "public_id": "peters-country-buffet-atlanta", "id": 46007895, "votes": null, "tagline": null, "has_video": false, "website": null, "offers": null, "latitude": 33.981347, "politanName": "Atlanta, GA Metro ", "phone_number": "7706427052", "tags": [{"primary": true, "id": 1722, "name": "Restaurants"}], "fax_number": null, "expansion": {"count": null, "uri": null}, "impression_id": "000b000000a789b1d40a774465a9a433600cda6602", "profile": "http://www.citysearch.com/profile/46007895/atlanta_ga/peter_s_country_buffet.html", "address": {"city": "Atlanta", "state": "GA", "street": "8363 Roswell Rd", "postal_code": "30350"}, "capProviderId": null, "distance": null, "has_offers": false, "name": "Peter's Country Buffet", "longitude": -84.350267, "has_menu": false, "awards": null, "user_review_count": 0}, {"business_operation_status": 1, "rating": null, "neighborhood": null, "image": null, "scorecard": null, "featured": false, "sample_categories": "Restaurants", "public_id": "doc-cheys-asian-kitchen-atlanta", "id": 824100220, "votes": null, "tagline": null, "has_video": false, "website": null, "offers": null, "latitude": 33.919549, "politanName": "Atlanta, GA Metro ", "phone_number": "4049430113", "tags": [{"primary": true, "id": 1722, "name": "Restaurants"}], "fax_number": null, "expansion": {"count": null, "uri": null}, "impression_id": "000b000000389f3043a4b14d098d35019e1690ead1", "profile": "http://www.citysearch.com/profile/824100220/atlanta_ga/doc_cheys_asian_kitchen.html", "address": {"city": "Atlanta", "state": "GA", "street": "227 Sandy Springs Pl", "postal_code": "30328"}, "capProviderId": null, "distance": null, "has_offers": false, "name": "Doc Cheys Asian Kitchen", "longitude": -84.382889, "has_menu": false, "awards": null, "user_review_count": 0}, {"business_operation_status": 1, "rating": null, "neighborhood": null, "image": null, "scorecard": null, "featured": false, "sample_categories": "Restaurants", "public_id": "beff-grill-atlanta", "id": 813768090, "votes": null, "tagline": null, "has_video": false, "website": null, "offers": null, "latitude": 33.988785, "politanName": "Atlanta, GA Metro ", "phone_number": "6784619635", "tags": [{"primary": true, "id": 1722, "name": "Restaurants"}], "fax_number": null, "expansion": {"count": null, "uri": null}, "impression_id": "000b000000f05d1feaecf1450c9ce49fe421d89e91", "profile": "http://www.citysearch.com/profile/813768090/atlanta_ga/beff_grill.html", "address": {"city": "Atlanta", "state": "GA", "street": "8599 Roswell Rd # C2", "postal_code": "30350"}, "capProviderId": null, "distance": null, "has_offers": false, "name": "Beff Grill", "longitude": -84.35097, "has_menu": false, "awards": null, "user_review_count": 0}, {"business_operation_status": 1, "rating": null, "neighborhood": null, "image": null, "scorecard": null, "featured": false, "sample_categories": "Restaurants, Pizza", "public_id": "pizza-sorrento-buffet-marietta", "id": 814485390, "votes": null, "tagline": null, "has_video": false, "website": null, "offers": null, "latitude": 34.017913, "politanName": "Atlanta, GA Metro ", "phone_number": "6783834986", "tags": [{"primary": false, "id": 1722, "name": "Restaurants"}, {"primary": true, "id": 11299, "name": "Pizza"}], "fax_number": null, "expansion": {"count": null, "uri": null}, "impression_id": "000b000000866a0ed7742e4ecd88b9f006d69ff6eb", "profile": "http://www.citysearch.com/profile/814485390/marietta_ga/pizza_sorrento_buffet.html", "address": {"city": "Marietta", "state": "GA", "street": "2745 Sandy Plains Rd # 106", "postal_code": "30066"}, "capProviderId": null, "distance": null, "has_offers": false, "name": "Pizza Sorrento Buffet", "longitude": -84.492683, "has_menu": false, "awards": null, "user_review_count": 0}, {"business_operation_status": 1, "rating": null, "neighborhood": null, "image": null, "scorecard": null, "featured": false, "sample_categories": "Restaurants, Brazilian", "public_id": "rio-de-janeiro-brazilian-bfft-marietta", "id": 764857550, "votes": null, "tagline": null, "has_video": false, "website": null, "offers": null, "latitude": 33.921284, "politanName": "Atlanta, GA Metro ", "phone_number": "7709529556", "tags": [{"primary": false, "id": 11204, "name": "Brazilian"}, {"primary": true, "id": 1722, "name": "Restaurants"}], "fax_number": null, "expansion": {"count": null, "uri": null}, "impression_id": "000b000000394d54093d6d4330a018bbca6a653369", "profile": "http://www.citysearch.com/profile/764857550/marietta_ga/rio_de_janeiro_brazilian_bfft.html", "address": {"city": "Marietta", "state": "GA", "street": "1260 Powers Ferry Rd SE # E", "postal_code": "30067"}, "capProviderId": null, "distance": null, "has_offers": false, "name": "Rio De Janeiro Brazilian Bfft", "longitude": -84.467848, "has_menu": false, "awards": null, "user_review_count": 0}, {"business_operation_status": 1, "rating": null, "neighborhood": null, "image": null, "scorecard": null, "featured": false, "sample_categories": "Restaurants, Pizza", "public_id": "bellinis-pasta-pizza-itln-rest-dunwoody", "id": 764888600, "votes": null, "tagline": null, "has_video": false, "website": null, "offers": null, "latitude": 33.949481, "politanName": "Atlanta, GA Metro ", "phone_number": "7706680558", "tags": [{"primary": false, "id": 11299, "name": "Pizza"}, {"primary": true, "id": 1722, "name": "Restaurants"}], "fax_number": null, "expansion": {"count": null, "uri": null}, "impression_id": "000b0000003f5d4a9aad40496fb77a21591d17ffda", "profile": "http://www.citysearch.com/profile/764888600/dunwoody_ga/bellinis_pasta_pizza_itln_rest.html", "address": {"city": "Dunwoody", "state": "GA", "street": "5525 Chamblee Dunwoody Rd", "postal_code": "30338"}, "capProviderId": null, "distance": null, "has_offers": false, "name": "Bellinis Pasta Pizza Itln Rest", "longitude": -84.336253, "has_menu": false, "awards": null, "user_review_count": 0}, {"business_operation_status": 1, "rating": null, "neighborhood": null, "image": null, "scorecard": null, "featured": false, "sample_categories": "Restaurants", "public_id": "yogoday-marietta", "id": 828480390, "votes": null, "tagline": null, "has_video": false, "website": null, "offers": null, "latitude": 34.013868, "politanName": "Atlanta, GA Metro ", "phone_number": "7707951522", "tags": [{"primary": true, "id": 1722, "name": "Restaurants"}], "fax_number": null, "expansion": {"count": null, "uri": null}, "impression_id": "000b000000e7ef0c0ead09405c9465d61dbe491a19", "profile": "http://www.citysearch.com/profile/828480390/marietta_ga/yogoday.html", "address": {"city": "Marietta", "state": "GA", "street": "125 Ernest W Barrett Pkwy NW", "postal_code": "30060"}, "capProviderId": null, "distance": null, "has_offers": false, "name": "Yogoday", "longitude": -84.55453, "has_menu": false, "awards": null, "user_review_count": 0}, {"business_operation_status": 1, "rating": null, "neighborhood": null, "image": null, "scorecard": null, "featured": false, "sample_categories": "Restaurants, Bars & Clubs, Traditional American", "public_id": "marlows-tavern-dunwoody", "id": 770767560, "votes": null, "tagline": null, "has_video": false, "website": "http://www.citysearch.com/profile/external/770767560/dunwoody_ga/marlow_s_tavern.html", "offers": null, "latitude": 33.949895, "politanName": "Atlanta, GA Metro ", "phone_number": "7705597528", "tags": [{"primary": false, "id": 164, "name": "Bars & Clubs"}, {"primary": false, "id": 11190, "name": "Traditional American"}, {"primary": true, "id": 1722, "name": "Restaurants"}], "fax_number": null, "expansion": {"count": null, "uri": null}, "impression_id": "000b000000fea7438791be40728998b4042cfff727", "profile": "http://www.citysearch.com/profile/770767560/dunwoody_ga/marlow_s_tavern.html", "address": {"city": "Dunwoody", "state": "GA", "street": "1317 Dunwoody Village Pkwy", "postal_code": "30338"}, "capProviderId": null, "distance": null, "has_offers": false, "name": "Marlow's Tavern", "longitude": -84.334942, "has_menu": false, "awards": null, "user_review_count": 0}, {"business_operation_status": 1, "rating": null, "neighborhood": null, "image": null, "scorecard": null, "featured": false, "sample_categories": "Restaurants, Coffeehouses", "public_id": "starbucks-smyrna-6", "id": 834619900, "votes": null, "tagline": null, "has_video": false, "website": null, "offers": null, "latitude": 33.887919, "politanName": "Atlanta, GA Metro ", "phone_number": "7709550322", "tags": [{"primary": false, "id": 1726, "name": "Coffeehouses"}, {"primary": true, "id": 1722, "name": "Restaurants"}], "fax_number": null, "expansion": {"count": null, "uri": null}, "impression_id": "000b0000002f3d23c9a65149b5b500225d3b703a54", "profile": "http://www.citysearch.com/profile/834619900/smyrna_ga/starbucks.html", "address": {"city": "Smyrna", "state": "GA", "street": "2670 Cobb Pkwy SE", "postal_code": "30080"}, "capProviderId": null, "distance": null, "has_offers": false, "name": "Starbucks", "longitude": -84.474232, "has_menu": true, "awards": null, "user_review_count": 0}, {"business_operation_status": 1, "rating": null, "neighborhood": null, "image": null, "scorecard": null, "featured": false, "sample_categories": "Restaurants", "public_id": "park-place-marietta", "id": 775200190, "votes": null, "tagline": null, "has_video": false, "website": null, "offers": null, "latitude": 33.938667, "politanName": "Atlanta, GA Metro ", "phone_number": "7708180041", "tags": [{"primary": true, "id": 1722, "name": "Restaurants"}], "fax_number": null, "expansion": {"count": null, "uri": null}, "impression_id": "000b000000d76d0fcdc6684b73818a2e2706b12d06", "profile": "http://www.citysearch.com/profile/775200190/marietta_ga/park_place.html", "address": {"city": "Marietta", "state": "GA", "street": "560 N Palisades Cir SE", "postal_code": "30067"}, "capProviderId": null, "distance": null, "has_offers": false, "name": "Park Place", "longitude": -84.460642, "has_menu": false, "awards": null, "user_review_count": 0}, {"business_operation_status": 1, "rating": null, "neighborhood": null, "image": null, "scorecard": null, "featured": false, "sample_categories": "Restaurants, Carry Out, Hamburgers", "public_id": "mc-donalds-roswell-9", "id": 775207120, "votes": null, "tagline": null, "has_video": false, "website": "http://www.citysearch.com/profile/external/775207120/roswell_ga/mc_donald_s.html", "offers": null, "latitude": 34.055763, "politanName": "Atlanta, GA Metro ", "phone_number": "7709926121", "tags": [{"primary": false, "id": 11247, "name": "Carry Out"}, {"primary": false, "id": 11270, "name": "Hamburgers"}, {"primary": true, "id": 1722, "name": "Restaurants"}], "fax_number": null, "expansion": {"count": null, "uri": null}, "impression_id": "000b00000002e6bf588da242d1949652294b4405f7", "profile": "http://www.citysearch.com/profile/775207120/roswell_ga/mc_donald_s.html", "address": {"city": "Roswell", "state": "GA", "street": "600 W Crossville Rd", "postal_code": "30075"}, "capProviderId": null, "distance": null, "has_offers": false, "name": "Mc Donald's", "longitude": -84.378004, "has_menu": false, "awards": null, "user_review_count": 0}, {"business_operation_status": 1, "rating": null, "neighborhood": null, "image": null, "scorecard": null, "featured": false, "sample_categories": "Coffeehouses", "public_id": "starbucks-marietta-15", "id": 781239340, "votes": null, "tagline": null, "has_video": false, "website": "http://www.citysearch.com/profile/external/781239340/marietta_ga/starbucks.html", "offers": null, "latitude": 33.91616, "politanName": "Atlanta, GA Metro ", "phone_number": "7708509807", "tags": [{"primary": true, "id": 1726, "name": "Coffeehouses"}], "fax_number": null, "expansion": {"count": null, "uri": null}, "impression_id": "000b0000006dcda402de064151a7e85d3a0a6bd667", "profile": "http://www.citysearch.com/profile/781239340/marietta_ga/starbucks.html", "address": {"city": "Marietta", "state": "GA", "street": "1453 Terrell Mill Rd Se", "postal_code": "30067"}, "capProviderId": null, "distance": null, "has_offers": false, "name": "Starbucks", "longitude": -84.467925, "has_menu": false, "awards": null, "user_review_count": 0}, {"business_operation_status": 1, "rating": null, "neighborhood": null, "image": null, "scorecard": null, "featured": false, "sample_categories": "Bakeries, Restaurants", "public_id": "piece-of-cake-roswell", "id": 43848542, "votes": null, "tagline": null, "has_video": false, "website": "http://www.citysearch.com/profile/external/43848542/roswell_ga/piece_of_cake.html", "offers": null, "latitude": 34.054622, "politanName": "Atlanta, GA Metro ", "phone_number": "4043512253", "tags": [{"primary": false, "id": 1722, "name": "Restaurants"}, {"primary": true, "id": 1685, "name": "Bakeries"}], "fax_number": null, "expansion": {"count": null, "uri": null}, "impression_id": "000b000000f14c2baff5ec4d639f16e9481504ac10", "profile": "http://www.citysearch.com/profile/43848542/roswell_ga/piece_of_cake.html", "address": {"city": "Roswell", "state": "GA", "street": "540 W Crossville Rd 203", "postal_code": "30075"}, "capProviderId": null, "distance": null, "has_offers": false, "name": "Piece Of Cake", "longitude": -84.376724, "has_menu": false, "awards": null, "user_review_count": 0}, {"business_operation_status": 1, "rating": null, "neighborhood": null, "image": null, "scorecard": null, "featured": false, "sample_categories": "Restaurants, Delis And Delicatessens, Sandwich Shops, Carry Out, Soups", "public_id": "subway-marietta-33", "id": 43851179, "votes": null, "tagline": null, "has_video": false, "website": "http://www.citysearch.com/profile/external/43851179/marietta_ga/subway.html", "offers": null, "latitude": 34.019217, "politanName": "Atlanta, GA Metro ", "phone_number": "7705289499", "tags": [{"primary": false, "id": 1727, "name": "Delis And Delicatessens"}, {"primary": false, "id": 1736, "name": "Sandwich Shops"}, {"primary": false, "id": 11247, "name": "Carry Out"}, {"primary": false, "id": 11311, "name": "Soups"}, {"primary": false, "id": 11361, "name": "MasterCard"}, {"primary": false, "id": 11382, "name": "Visa"}, {"primary": true, "id": 1722, "name": "Restaurants"}], "fax_number": null, "expansion": {"count": null, "uri": null}, "impression_id": "000b0000009088823ce715414f949c6f5fb0fa84c3", "profile": "http://www.citysearch.com/profile/43851179/marietta_ga/subway.html", "address": {"city": "Marietta", "state": "GA", "street": "2795 Chastain Meadows Pkwy", "postal_code": "30066"}, "capProviderId": null, "distance": null, "has_offers": false, "name": "Subway", "longitude": -84.556431, "has_menu": true, "awards": null, "user_review_count": 0}, {"business_operation_status": 1, "rating": null, "neighborhood": null, "image": null, "scorecard": null, "featured": false, "sample_categories": "Restaurants", "public_id": "yama-sushi-atlanta", "id": 43874309, "votes": null, "tagline": null, "has_video": false, "website": null, "offers": null, "latitude": 33.986373, "politanName": "Atlanta, GA Metro ", "phone_number": "7706458586", "tags": [{"primary": true, "id": 1722, "name": "Restaurants"}], "fax_number": null, "expansion": {"count": null, "uri": null}, "impression_id": "000b000000e0641e60dc074b5f9105026c1ce28b15", "profile": "http://www.citysearch.com/profile/43874309/atlanta_ga/yama_sushi.html", "address": {"city": "Atlanta", "state": "GA", "street": "8540 Roswell Rd", "postal_code": "30350"}, "capProviderId": null, "distance": null, "has_offers": false, "name": "Yama Sushi", "longitude": -84.351439, "has_menu": true, "awards": null, "user_review_count": 1}, {"business_operation_status": 1, "rating": null, "neighborhood": null, "image": null, "scorecard": null, "featured": false, "sample_categories": "Restaurants, Seafood Markets, Seafood", "public_id": "rickys-fish-camp-roswell", "id": 802514250, "votes": null, "tagline": null, "has_video": false, "website": null, "offers": null, "latitude": 34.016917, "politanName": "Atlanta, GA Metro ", "phone_number": "6784641534", "tags": [{"primary": false, "id": 1719, "name": "Seafood Markets"}, {"primary": false, "id": 11228, "name": "Seafood"}, {"primary": true, "id": 1722, "name": "Restaurants"}], "fax_number": null, "expansion": {"count": null, "uri": null}, "impression_id": "000b0000000f518d72133143f6a68f3cde4ecbc2b2", "profile": "http://www.citysearch.com/profile/802514250/roswell_ga/ricky_s_fish_camp.html", "address": {"city": "Roswell", "state": "GA", "street": "659 Atlanta St", "postal_code": "30075"}, "capProviderId": null, "distance": null, "has_offers": false, "name": "Ricky's Fish Camp", "longitude": -84.362319, "has_menu": false, "awards": null, "user_review_count": 0}, {"business_operation_status": 1, "rating": null, "neighborhood": null, "image": null, "scorecard": null, "featured": false, "sample_categories": "Restaurants", "public_id": "strada-atlanta", "id": 808970470, "votes": null, "tagline": null, "has_video": false, "website": "http://www.citysearch.com/profile/external/808970470/atlanta_ga/strada.html", "offers": null, "latitude": 33.987134, "politanName": "Atlanta, GA Metro ", "phone_number": "7705521300", "tags": [{"primary": true, "id": 1722, "name": "Restaurants"}], "fax_number": null, "expansion": {"count": null, "uri": null}, "impression_id": "000b0000007836b3c346504738a6747581caff6e6e", "profile": "http://www.citysearch.com/profile/808970470/atlanta_ga/strada.html", "address": {"city": "Atlanta", "state": "GA", "street": "8550 Roswell Rd", "postal_code": "30350"}, "capProviderId": null, "distance": null, "has_offers": false, "name": "Strada", "longitude": -84.351438, "has_menu": false, "awards": null, "user_review_count": 0}, {"business_operation_status": 1, "rating": null, "neighborhood": null, "image": null, "scorecard": null, "featured": false, "sample_categories": "Restaurants", "public_id": "home-sphere-incorporated-marietta", "id": 37646261, "votes": null, "tagline": null, "has_video": false, "website": null, "offers": null, "latitude": 34.057885, "politanName": "Atlanta, GA Metro ", "phone_number": "7709247008", "tags": [{"primary": true, "id": 1722, "name": "Restaurants"}], "fax_number": null, "expansion": {"count": null, "uri": null}, "impression_id": "000b00000076717f417f2647409fc1612637cea777", "profile": "http://www.citysearch.com/profile/37646261/marietta_ga/home_sphere_incorporated.html", "address": {"city": "Marietta", "state": "GA", "street": "4386 Windsor Oaks Cir", "postal_code": "30066"}, "capProviderId": null, "distance": null, "has_offers": false, "name": "Home Sphere Incorporated", "longitude": -84.45999, "has_menu": false, "awards": null, "user_review_count": 0}, {"business_operation_status": 0, "rating": null, "neighborhood": null, "image": null, "scorecard": null, "featured": false, "sample_categories": "Restaurants, Indian", "public_id": "guru-indian-cuisine-roswell", "id": 45989425, "votes": null, "tagline": null, "has_video": false, "website": null, "offers": null, "latitude": 34.0134, "politanName": "Atlanta, GA Metro ", "phone_number": "6784619565", "tags": [{"primary": false, "id": 11277, "name": "Indian"}, {"primary": true, "id": 1722, "name": "Restaurants"}], "fax_number": null, "expansion": {"count": null, "uri": null}, "impression_id": "000b000000f05f396d957f4ab9a7769f82c0301e91", "profile": "http://www.citysearch.com/profile/45989425/roswell_ga/guru_indian_cuisine.html", "address": {"city": "Roswell", "state": "GA", "street": "555 S Atlanta St", "postal_code": "30075"}, "capProviderId": null, "distance": null, "has_offers": false, "name": "Guru Indian Cuisine", "longitude": -84.362872, "has_menu": false, "awards": null, "user_review_count": 0}, {"business_operation_status": 1, "rating": null, "neighborhood": null, "image": null, "scorecard": null, "featured": false, "sample_categories": "Restaurants, Diners, Carry Out", "public_id": "ihop-restaurant-atlanta-5", "id": 43874308, "votes": null, "tagline": null, "has_video": false, "website": null, "offers": null, "latitude": 33.9616, "politanName": "Atlanta, GA Metro ", "phone_number": "7703995283", "tags": [{"primary": false, "id": 1732, "name": "Diners"}, {"primary": false, "id": 11247, "name": "Carry Out"}, {"primary": true, "id": 1722, "name": "Restaurants"}], "fax_number": null, "expansion": {"count": null, "uri": null}, "impression_id": "000b000000e97cc8cbf5a4434f85e61e0b39bd8da5", "profile": "http://www.citysearch.com/profile/43874308/atlanta_ga/ihop_restaurant.html", "address": {"city": "Atlanta", "state": "GA", "street": "1911 Huntingdon Chase", "postal_code": "30350"}, "capProviderId": null, "distance": null, "has_offers": false, "name": "IHOP Restaurant", "longitude": -84.355054, "has_menu": false, "awards": null, "user_review_count": 0}, {"business_operation_status": 1, "rating": null, "neighborhood": null, "image": null, "scorecard": null, "featured": false, "sample_categories": "Restaurants", "public_id": "paos-restaurant-group-inc-roswell", "id": 817477870, "votes": null, "tagline": null, "has_video": false, "website": null, "offers": null, "latitude": 34.053819, "politanName": "Atlanta, GA Metro ", "phone_number": "6784618765", "tags": [{"primary": true, "id": 1722, "name": "Restaurants"}], "fax_number": null, "expansion": {"count": null, "uri": null}, "impression_id": "000b00000057e3ba7c7e2748b9b2a6987110431819", "profile": "http://www.citysearch.com/profile/817477870/roswell_ga/paos_restaurant_group_inc.html", "address": {"city": "Roswell", "state": "GA", "street": "1005 Grace Hill Dr", "postal_code": "30075"}, "capProviderId": null, "distance": null, "has_offers": false, "name": "Paos Restaurant Group Inc", "longitude": -84.373112, "has_menu": false, "awards": null, "user_review_count": 0}, {"business_operation_status": 1, "rating": null, "neighborhood": null, "image": null, "scorecard": null, "featured": false, "sample_categories": "Restaurants, Pizza, Carry Out, American Express, Discover", "public_id": "mellow-mushroom-roswell", "id": 601300877, "votes": null, "tagline": null, "has_video": false, "website": "http://www.citysearch.com/profile/external/601300877/roswell_ga/mellow_mushroom.html", "offers": null, "latitude": 34.061715, "politanName": "Atlanta, GA Metro ", "phone_number": "7706458383", "tags": [{"primary": false, "id": 1722, "name": "Restaurants"}, {"primary": false, "id": 11247, "name": "Carry Out"}, {"primary": false, "id": 11333, "name": "American Express"}, {"primary": false, "id": 11349, "name": "Discover"}, {"primary": false, "id": 11361, "name": "MasterCard"}, {"primary": false, "id": 11382, "name": "Visa"}, {"primary": true, "id": 11299, "name": "Pizza"}], "fax_number": null, "expansion": {"count": null, "uri": null}, "impression_id": "000b00000034e0ae6131ba47b68c7040fb44919d1d", "profile": "http://www.citysearch.com/profile/601300877/roswell_ga/mellow_mushroom.html", "address": {"city": "Roswell", "state": "GA", "street": "935 Woodstock Rd", "postal_code": "30075"}, "capProviderId": null, "distance": null, "has_offers": false, "name": "Mellow Mushroom", "longitude": -84.389193, "has_menu": true, "awards": null, "user_review_count": 1}, {"business_operation_status": 1, "rating": null, "neighborhood": null, "image": null, "scorecard": null, "featured": false, "sample_categories": "Barbecue Restaurants", "public_id": "five-star-barbecue-atlanta", "id": 601362518, "votes": null, "tagline": null, "has_video": false, "website": "http://www.citysearch.com/profile/external/601362518/atlanta_ga/five_star_barbecue.html", "offers": null, "latitude": 33.915976, "politanName": "Atlanta, GA Metro ", "phone_number": "4043037827", "tags": [{"primary": true, "id": 1724, "name": "Barbecue Restaurants"}], "fax_number": null, "expansion": {"count": null, "uri": null}, "impression_id": "000b000000d14b538de733452180e65bfd16ea39ed", "profile": "http://www.citysearch.com/profile/601362518/atlanta_ga/five_star_barbecue.html", "address": {"city": "Atlanta", "state": "GA", "street": "5895 Garber Dr Ne", "postal_code": "30328"}, "capProviderId": null, "distance": null, "has_offers": false, "name": "Five Star Barbecue", "longitude": -84.368882, "has_menu": false, "awards": null, "user_review_count": 0}, {"business_operation_status": 1, "rating": null, "neighborhood": null, "image": null, "scorecard": null, "featured": false, "sample_categories": "Restaurants", "public_id": "taxi-roswell", "id": 828349070, "votes": null, "tagline": null, "has_video": false, "website": null, "offers": null, "latitude": 34.034118, "politanName": "Atlanta, GA Metro ", "phone_number": "7706439190", "tags": [{"primary": true, "id": 1722, "name": "Restaurants"}], "fax_number": null, "expansion": {"count": null, "uri": null}, "impression_id": "000b000000bb7c44fe344c4cdfa8c408a165094642", "profile": "http://www.citysearch.com/profile/828349070/roswell_ga/taxi.html", "address": {"city": "Roswell", "state": "GA", "street": "10479 Alpharetta St", "postal_code": "30075"}, "capProviderId": null, "distance": null, "has_offers": false, "name": "Taxi", "longitude": -84.345528, "has_menu": false, "awards": null, "user_review_count": 0}, {"business_operation_status": 1, "rating": 8.0, "neighborhood": null, "image": null, "scorecard": null, "featured": false, "sample_categories": "Bakeries, Restaurants", "public_id": "sunbeam-baking-co-thrift-strs-marietta", "id": 45550819, "votes": null, "tagline": null, "has_video": false, "website": null, "offers": null, "latitude": 33.915248, "politanName": "Atlanta, GA Metro ", "phone_number": "7709735200", "tags": [{"primary": false, "id": 1722, "name": "Restaurants"}, {"primary": true, "id": 1685, "name": "Bakeries"}], "fax_number": null, "expansion": {"count": null, "uri": null}, "impression_id": "000b000000408c82786bf7408bbd797ad20fc36938", "profile": "http://www.citysearch.com/profile/45550819/marietta_ga/sunbeam_baking_co_thrift_strs.html", "address": {"city": "Marietta", "state": "GA", "street": "1550 Powers Ferry Rd SE", "postal_code": "30067"}, "capProviderId": null, "distance": null, "has_offers": false, "name": "Sunbeam Baking Co Thrift Strs", "longitude": -84.465918, "has_menu": false, "awards": null, "user_review_count": 0}, {"business_operation_status": 1, "rating": null, "neighborhood": null, "image": null, "scorecard": null, "featured": false, "sample_categories": "Restaurants", "public_id": "restaurant-lucias-italian-roswell", "id": 836842970, "votes": null, "tagline": null, "has_video": false, "website": null, "offers": null, "latitude": 34.058626, "politanName": "Atlanta, GA Metro ", "phone_number": "6782053353", "tags": [{"primary": true, "id": 1722, "name": "Restaurants"}], "fax_number": null, "expansion": {"count": null, "uri": null}, "impression_id": "000b00000091e7101e6e78445880e2f5431e57dac3", "profile": "http://www.citysearch.com/profile/836842970/roswell_ga/restaurant_lucias_italian.html", "address": {"city": "Roswell", "state": "GA", "street": "[empty]", "postal_code": "30075"}, "capProviderId": null, "distance": null, "has_offers": false, "name": "Restaurant Lucias Italian", "longitude": -84.385744, "has_menu": false, "awards": null, "user_review_count": 0}, {"business_operation_status": 1, "rating": null, "neighborhood": null, "image": null, "scorecard": null, "featured": false, "sample_categories": "Restaurants, Chinese, American Express, Discover, MasterCard", "public_id": "hong-kong-star-chinese-rstrnt-marietta", "id": 601297114, "votes": null, "tagline": null, "has_video": false, "website": null, "offers": null, "latitude": 33.943454, "politanName": "Atlanta, GA Metro ", "phone_number": "7704280988", "tags": [{"primary": false, "id": 11252, "name": "Chinese"}, {"primary": false, "id": 11333, "name": "American Express"}, {"primary": false, "id": 11349, "name": "Discover"}, {"primary": false, "id": 11361, "name": "MasterCard"}, {"primary": false, "id": 11382, "name": "Visa"}, {"primary": true, "id": 1722, "name": "Restaurants"}], "fax_number": null, "expansion": {"count": null, "uri": null}, "impression_id": "000b000000787f50715c814717ab4852261518cfcc", "profile": "http://www.citysearch.com/profile/601297114/marietta_ga/hong_kong_star_chinese_rstrnt.html", "address": {"city": "Marietta", "state": "GA", "street": "557 S Marietta Pkwy Se", "postal_code": "30060"}, "capProviderId": null, "distance": null, "has_offers": false, "name": "Hong Kong Star Chinese Rstrnt", "longitude": -84.536796, "has_menu": true, "awards": null, "user_review_count": 1}, {"business_operation_status": 1, "rating": null, "neighborhood": null, "image": null, "scorecard": null, "featured": false, "sample_categories": "Restaurants, Asian, Chinese", "public_id": "nyona-asain-cuisine-sandy-spgs", "id": 3020355, "votes": null, "tagline": null, "has_video": false, "website": "http://www.citysearch.com/profile/external/3020355/sandy_springs_ga/nyona_asain_cuisine.html", "offers": null, "latitude": 33.95143, "politanName": "Atlanta, GA Metro ", "phone_number": "7703943071", "tags": [{"primary": false, "id": 11235, "name": "Asian"}, {"primary": false, "id": 11252, "name": "Chinese"}, {"primary": true, "id": 1722, "name": "Restaurants"}], "fax_number": null, "expansion": {"count": null, "uri": null}, "impression_id": "000b000000adf796d41b444c1ea201208536c9e692", "profile": "http://www.citysearch.com/profile/3020355/sandy_springs_ga/nyona_asain_cuisine.html", "address": {"city": "Sandy Springs", "state": "GA", "street": "7294 Roswell Rd NE", "postal_code": "30328"}, "capProviderId": null, "distance": null, "has_offers": false, "name": "Nyona Asain Cuisine", "longitude": -84.367762, "has_menu": false, "awards": null, "user_review_count": 0}, {"business_operation_status": 1, "rating": null, "neighborhood": null, "image": null, "scorecard": null, "featured": false, "sample_categories": "Restaurants, Delis And Delicatessens", "public_id": "wildwood-cafe-atlanta-2", "id": 3030534, "votes": null, "tagline": null, "has_video": false, "website": null, "offers": null, "latitude": 33.913333, "politanName": "Atlanta, GA Metro ", "phone_number": "7709532378", "tags": [{"primary": false, "id": 1727, "name": "Delis And Delicatessens"}, {"primary": true, "id": 1722, "name": "Restaurants"}], "fax_number": null, "expansion": {"count": null, "uri": null}, "impression_id": "000b00000052b27c10aef14cca8559cb8db54bb537", "profile": "http://www.citysearch.com/profile/3030534/atlanta_ga/wildwood_cafe.html", "address": {"city": "Atlanta", "state": "GA", "street": "3200 Windy Hill Rd SE 150", "postal_code": "30339"}, "capProviderId": null, "distance": null, "has_offers": false, "name": "Wildwood Cafe", "longitude": -84.460852, "has_menu": false, "awards": null, "user_review_count": 0}, {"business_operation_status": 1, "rating": null, "neighborhood": null, "image": null, "scorecard": null, "featured": false, "sample_categories": "Restaurants, Pizza", "public_id": "saporitos-atlanta", "id": 3045222, "votes": null, "tagline": null, "has_video": false, "website": null, "offers": null, "latitude": 33.994607, "politanName": "Atlanta, GA Metro ", "phone_number": "7709989868", "tags": [{"primary": false, "id": 1722, "name": "Restaurants"}, {"primary": true, "id": 11299, "name": "Pizza"}], "fax_number": null, "expansion": {"count": null, "uri": null}, "impression_id": "000b000000a40a73fd8b584b079fb1cad68d930d01", "profile": "http://www.citysearch.com/profile/3045222/atlanta_ga/saporitos.html", "address": {"city": "Atlanta", "state": "GA", "street": "8725 Roswell Road Ste 4", "postal_code": "30350"}, "capProviderId": null, "distance": null, "has_offers": false, "name": "Saporitos", "longitude": -84.349559, "has_menu": true, "awards": null, "user_review_count": 0}, {"business_operation_status": 1, "rating": 8.0, "neighborhood": null, "image": null, "scorecard": null, "featured": false, "sample_categories": "Restaurants, American Express, Discover, MasterCard, Visa", "public_id": "carols-cafe-marietta", "id": 2908298, "votes": null, "tagline": null, "has_video": false, "website": null, "offers": null, "latitude": 34.013278, "politanName": "Atlanta, GA Metro ", "phone_number": "7704224641", "tags": [{"primary": false, "id": 11333, "name": "American Express"}, {"primary": false, "id": 11349, "name": "Discover"}, {"primary": false, "id": 11361, "name": "MasterCard"}, {"primary": false, "id": 11382, "name": "Visa"}, {"primary": true, "id": 1722, "name": "Restaurants"}], "fax_number": null, "expansion": {"count": null, "uri": null}, "impression_id": "000b000000127d1f0bac4e4a10a54b3248c45fbd4a", "profile": "http://www.citysearch.com/profile/2908298/marietta_ga/carol_s_cafe.html", "address": {"city": "Marietta", "state": "GA", "street": "2543 Bells Ferry Rd", "postal_code": "30066"}, "capProviderId": null, "distance": null, "has_offers": false, "name": "Carol's Cafe", "longitude": -84.549897, "has_menu": false, "awards": null, "user_review_count": 2}, {"business_operation_status": 1, "rating": null, "neighborhood": null, "image": null, "scorecard": null, "featured": false, "sample_categories": "Restaurants, Pizza", "public_id": "all-star-pizza-marietta", "id": 757929600, "votes": null, "tagline": null, "has_video": false, "website": null, "offers": null, "latitude": 33.922673, "politanName": "Atlanta, GA Metro ", "phone_number": "7709525254", "tags": [{"primary": false, "id": 11299, "name": "Pizza"}, {"primary": true, "id": 1722, "name": "Restaurants"}], "fax_number": null, "expansion": {"count": null, "uri": null}, "impression_id": "000b00000023cb61d13eba405f8afd62a14f971c54", "profile": "http://www.citysearch.com/profile/757929600/marietta_ga/all_star_pizza.html", "address": {"city": "Marietta", "state": "GA", "street": "2555 Delk Rd SE", "postal_code": "30067"}, "capProviderId": null, "distance": null, "has_offers": false, "name": "All Star Pizza", "longitude": -84.478383, "has_menu": false, "awards": null, "user_review_count": 0}, {"business_operation_status": 1, "rating": null, "neighborhood": null, "image": null, "scorecard": null, "featured": false, "sample_categories": "Delis And Delicatessens, Restaurants", "public_id": "deli-dellghts-marietta", "id": 764838340, "votes": null, "tagline": null, "has_video": false, "website": null, "offers": null, "latitude": 33.952594, "politanName": "Atlanta, GA Metro ", "phone_number": "6784016001", "tags": [{"primary": false, "id": 1722, "name": "Restaurants"}, {"primary": true, "id": 1727, "name": "Delis And Delicatessens"}], "fax_number": null, "expansion": {"count": null, "uri": null}, "impression_id": "000b000000ca306945876c49a6b9241d2fc8d7bc90", "profile": "http://www.citysearch.com/profile/764838340/marietta_ga/deli_dellghts.html", "address": {"city": "Marietta", "state": "GA", "street": "800 Whitlock Ave NW", "postal_code": "30064"}, "capProviderId": null, "distance": null, "has_offers": false, "name": "Deli Dellghts", "longitude": -84.575881, "has_menu": false, "awards": null, "user_review_count": 0}, {"business_operation_status": 1, "rating": null, "neighborhood": null, "image": null, "scorecard": null, "featured": false, "sample_categories": "Restaurants", "public_id": "vineyard-cafe-marietta", "id": 766766850, "votes": null, "tagline": null, "has_video": false, "website": null, "offers": null, "latitude": 33.950297, "politanName": "Atlanta, GA Metro ", "phone_number": "6785813771", "tags": [{"primary": true, "id": 1722, "name": "Restaurants"}], "fax_number": null, "expansion": {"count": null, "uri": null}, "impression_id": "000b000000b5d1e7d6b9a8455aa6dfd04ff8c8551e", "profile": "http://www.citysearch.com/profile/766766850/marietta_ga/vineyard_cafe.html", "address": {"city": "Marietta", "state": "GA", "street": "21 Park St SE", "postal_code": "30060"}, "capProviderId": null, "distance": null, "has_offers": false, "name": "Vineyard Cafe", "longitude": -84.533173, "has_menu": true, "awards": null, "user_review_count": 0}, {"business_operation_status": 1, "rating": null, "neighborhood": null, "image": null, "scorecard": null, "featured": false, "sample_categories": "Restaurants, Carry Out, Chicken", "public_id": "popeyes-marietta", "id": 775201320, "votes": null, "tagline": null, "has_video": false, "website": null, "offers": null, "latitude": 33.9485, "politanName": "Atlanta, GA Metro ", "phone_number": "7704208800", "tags": [{"primary": false, "id": 11247, "name": "Carry Out"}, {"primary": false, "id": 12839, "name": "Chicken"}, {"primary": true, "id": 1722, "name": "Restaurants"}], "fax_number": null, "expansion": {"count": null, "uri": null}, "impression_id": "000b0000006756aba1097a4e568c94d28650e8743c", "profile": "http://www.citysearch.com/profile/775201320/marietta_ga/popeyes.html", "address": {"city": "Marietta", "state": "GA", "street": "155 Cobb Pkwy S", "postal_code": "30060"}, "capProviderId": null, "distance": null, "has_offers": false, "name": "Popeyes", "longitude": -84.518323, "has_menu": false, "awards": null, "user_review_count": 0}, {"business_operation_status": 1, "rating": null, "neighborhood": null, "image": null, "scorecard": null, "featured": false, "sample_categories": "Restaurants, Steakhouse", "public_id": "steaks-to-go-marietta", "id": 728138380, "votes": null, "tagline": null, "has_video": false, "website": null, "offers": null, "latitude": 33.917352, "politanName": "Atlanta, GA Metro ", "phone_number": "7706128888", "tags": [{"primary": false, "id": 11316, "name": "Steakhouse"}, {"primary": true, "id": 1722, "name": "Restaurants"}], "fax_number": null, "expansion": {"count": null, "uri": null}, "impression_id": "000b0000004e5112d95a814206ad112381b380401b", "profile": "http://www.citysearch.com/profile/728138380/marietta_ga/steaks_to_go.html", "address": {"city": "Marietta", "state": "GA", "street": "1480 Terrell Mill Rd Se", "postal_code": "30067"}, "capProviderId": null, "distance": null, "has_offers": false, "name": "Steaks To Go", "longitude": -84.468836, "has_menu": false, "awards": null, "user_review_count": 0}, {"business_operation_status": 1, "rating": null, "neighborhood": null, "image": null, "scorecard": null, "featured": false, "sample_categories": "Restaurants", "public_id": "sun-dried-restaurant-marietta", "id": 790803840, "votes": null, "tagline": null, "has_video": false, "website": null, "offers": null, "latitude": 34.015118, "politanName": "Atlanta, GA Metro ", "phone_number": "6785406642", "tags": [{"primary": true, "id": 1722, "name": "Restaurants"}], "fax_number": null, "expansion": {"count": null, "uri": null}, "impression_id": "000b0000008e954222fd404922aac32ea95b0508b1", "profile": "http://www.citysearch.com/profile/790803840/marietta_ga/sun_dried_restaurant.html", "address": {"city": "Marietta", "state": "GA", "street": "2635 Sandy Plains Rd", "postal_code": "30066"}, "capProviderId": null, "distance": null, "has_offers": false, "name": "Sun Dried Restaurant", "longitude": -84.495187, "has_menu": true, "awards": null, "user_review_count": 0}, {"business_operation_status": 1, "rating": null, "neighborhood": null, "image": null, "scorecard": null, "featured": false, "sample_categories": "Restaurants, Pizza, Carry Out", "public_id": "little-caesars-pizza-marietta-6", "id": 653553400, "votes": null, "tagline": null, "has_video": false, "website": "http://www.citysearch.com/profile/external/653553400/marietta_ga/little_caesars_pizza.html", "offers": null, "latitude": 33.923677, "politanName": "Atlanta, GA Metro ", "phone_number": "7709849400", "tags": [{"primary": false, "id": 1722, "name": "Restaurants"}, {"primary": false, "id": 11247, "name": "Carry Out"}, {"primary": true, "id": 11299, "name": "Pizza"}], "fax_number": null, "expansion": {"count": null, "uri": null}, "impression_id": "000b0000006541e1678dc740748f6ea7f7e57f1a16", "profile": "http://www.citysearch.com/profile/653553400/marietta_ga/little_caesars_pizza.html", "address": {"city": "Marietta", "state": "GA", "street": "2856 Delk Rd Se", "postal_code": "30067"}, "capProviderId": null, "distance": null, "has_offers": false, "name": "Little Caesars Pizza", "longitude": -84.471351, "has_menu": true, "awards": null, "user_review_count": 0}, {"business_operation_status": 1, "rating": null, "neighborhood": null, "image": null, "scorecard": null, "featured": false, "sample_categories": "Restaurants, Steakhouse", "public_id": "skips-steaks-marietta", "id": 743983550, "votes": null, "tagline": null, "has_video": false, "website": null, "offers": null, "latitude": 33.928458, "politanName": "Atlanta, GA Metro ", "phone_number": "7702269046", "tags": [{"primary": false, "id": 11316, "name": "Steakhouse"}, {"primary": true, "id": 1722, "name": "Restaurants"}], "fax_number": null, "expansion": {"count": null, "uri": null}, "impression_id": "000b000000e0cd6bc3c8ba45fda6c8af1eec064428", "profile": "http://www.citysearch.com/profile/743983550/marietta_ga/skip_s_steaks.html", "address": {"city": "Marietta", "state": "GA", "street": "1033 Franklin Rd Se", "postal_code": "30067"}, "capProviderId": null, "distance": null, "has_offers": false, "name": "Skip's Steaks", "longitude": -84.492995, "has_menu": false, "awards": null, "user_review_count": 0}, {"business_operation_status": 0, "rating": null, "neighborhood": null, "image": null, "scorecard": null, "featured": false, "sample_categories": "Restaurants", "public_id": "sweet-pea-cafe-deli-marietta", "id": 655825170, "votes": null, "tagline": null, "has_video": false, "website": null, "offers": null, "latitude": 33.951248, "politanName": "Atlanta, GA Metro ", "phone_number": "7709777167", "tags": [{"primary": true, "id": 1722, "name": "Restaurants"}], "fax_number": null, "expansion": {"count": null, "uri": null}, "impression_id": "000b00000020c795fa8213429d8e5304dcc67c6fb1", "profile": "http://www.citysearch.com/profile/655825170/marietta_ga/sweet_pea_cafe_deli.html", "address": {"city": "Marietta", "state": "GA", "street": "1516 Roswell Rd", "postal_code": "30062"}, "capProviderId": null, "distance": null, "has_offers": false, "name": "Sweet Pea Cafe & Deli", "longitude": -84.508172, "has_menu": true, "awards": null, "user_review_count": 0}, {"business_operation_status": 1, "rating": null, "neighborhood": null, "image": null, "scorecard": null, "featured": false, "sample_categories": "Restaurants, Caribbean", "public_id": "tassa-authentic-caribbean-marietta", "id": 655828500, "votes": null, "tagline": null, "has_video": false, "website": null, "offers": null, "latitude": 33.947468, "politanName": "Atlanta, GA Metro ", "phone_number": "7705781480", "tags": [{"primary": false, "id": 11195, "name": "Caribbean"}, {"primary": true, "id": 1722, "name": "Restaurants"}], "fax_number": null, "expansion": {"count": null, "uri": null}, "impression_id": "000b0000009c748c97671d4091b5c09de47d378290", "profile": "http://www.citysearch.com/profile/655828500/marietta_ga/tassa_authentic_caribbean.html", "address": {"city": "Marietta", "state": "GA", "street": "224 Powers Ferry Rd Se", "postal_code": "30067"}, "capProviderId": null, "distance": null, "has_offers": false, "name": "Tassa Authentic Caribbean", "longitude": -84.500926, "has_menu": false, "awards": null, "user_review_count": 0}], "histograms": [], "tag_ids": [1722], "uri": "http://api.citygridmedia.com:8080/search/places/v2/search/where?has_offers=false&type=restaurant&format=json&page=25&where=30068&rpp=50&histograms=false&publisher=10000009598&region_type=circle", "did_you_mean": "", "regions": [{"latitude": 33.967813, "default_radius": 3.91, "type": "postal_code", "name": "30068", "longitude": -84.433422}], "call_id": "000b0000009e57a30e82e0480fb69690e9be3ec890", "first_hit": 1201, "total_hits": 2028, "geo_ids": [26296], "page": 25, "last_hit": 1250}}