{"results": {"rpp": 50, "locations": [{"business_operation_status": 1, "rating": null, "neighborhood": null, "image": null, "scorecard": null, "featured": false, "sample_categories": "Restaurants", "public_id": "el-dorado-restaurant-marietta-2", "id": 821705220, "votes": null, "tagline": null, "has_video": false, "website": null, "offers": null, "latitude": 33.902517, "politanName": "Atlanta, GA Metro ", "phone_number": "7704347772", "tags": [{"primary": true, "id": 1722, "name": "Restaurants"}], "fax_number": null, "expansion": {"count": null, "uri": null}, "impression_id": "000b0000004ac0ba8a75284fd2a35c5be3bd2c1299", "profile": "http://www.citysearch.com/profile/821705220/marietta_ga/el_dorado_restaurant.html", "address": {"city": "Marietta", "state": "GA", "street": "371 Pat Mell Rd SE # 125", "postal_code": "30060"}, "capProviderId": null, "distance": null, "has_offers": false, "name": "El Dorado Restaurant", "longitude": -84.543334, "has_menu": false, "awards": null, "user_review_count": 0}, {"business_operation_status": 1, "rating": null, "neighborhood": null, "image": null, "scorecard": null, "featured": false, "sample_categories": "Restaurants", "public_id": "corner-cafe-at-2000-atlanta", "id": 33572440, "votes": null, "tagline": null, "has_video": false, "website": null, "offers": null, "latitude": 33.906709, "politanName": "Atlanta, GA Metro ", "phone_number": "7706120059", "tags": [{"primary": true, "id": 1722, "name": "Restaurants"}], "fax_number": null, "expansion": {"count": null, "uri": null}, "impression_id": "000b000000fda4c366c7c94cfa9ac96c81e10f8f4c", "profile": "http://www.citysearch.com/profile/33572440/atlanta_ga/corner_cafe_at_2000.html", "address": {"city": "Atlanta", "state": "GA", "street": "2000 Riveredge Pkwy NW", "postal_code": "30328"}, "capProviderId": null, "distance": null, "has_offers": false, "name": "Corner Cafe At 2000", "longitude": -84.438622, "has_menu": false, "awards": null, "user_review_count": 1}, {"business_operation_status": 1, "rating": null, "neighborhood": null, "image": null, "scorecard": null, "featured": false, "sample_categories": "Restaurants", "public_id": "my-friends-place-marietta-4", "id": 823196150, "votes": null, "tagline": null, "has_video": false, "website": null, "offers": null, "latitude": 33.911098, "politanName": "Atlanta, GA Metro ", "phone_number": "7709567545", "tags": [{"primary": true, "id": 1722, "name": "Restaurants"}], "fax_number": null, "expansion": {"count": null, "uri": null}, "impression_id": "000b000000436bd01a38304723a53ec4ded9e33227", "profile": "http://www.citysearch.com/profile/823196150/marietta_ga/my_friend_s_place.html", "address": {"city": "Marietta", "state": "GA", "street": "3100 Windy Hill Rd SE", "postal_code": "30067"}, "capProviderId": null, "distance": null, "has_offers": false, "name": "My Friend's Place", "longitude": -84.459994, "has_menu": false, "awards": null, "user_review_count": 0}, {"business_operation_status": 1, "rating": null, "neighborhood": null, "image": null, "scorecard": null, "featured": false, "sample_categories": "Restaurants", "public_id": "northridge-restaurant-inc-marietta", "id": 826655290, "votes": null, "tagline": null, "has_video": false, "website": null, "offers": null, "latitude": 34.034057, "politanName": "Atlanta, GA Metro ", "phone_number": "7706428676", "tags": [{"primary": true, "id": 1722, "name": "Restaurants"}], "fax_number": null, "expansion": {"count": null, "uri": null}, "impression_id": "000b0000003fbf3d87baa14860b6ff881e47eca776", "profile": "http://www.citysearch.com/profile/826655290/marietta_ga/northridge_restaurant_inc.html", "address": {"city": "Marietta", "state": "GA", "street": "3440 Orange Wood CT", "postal_code": "30062"}, "capProviderId": null, "distance": null, "has_offers": false, "name": "Northridge Restaurant Inc", "longitude": -84.435926, "has_menu": false, "awards": null, "user_review_count": 0}, {"business_operation_status": 1, "rating": null, "neighborhood": null, "image": null, "scorecard": null, "featured": false, "sample_categories": "Restaurants, Catering, Carry Out, Chicken", "public_id": "chickfila-marietta-12", "id": 775192090, "votes": null, "tagline": null, "has_video": false, "website": "http://www.citysearch.com/profile/external/775192090/marietta_ga/chick_fil_a.html", "offers": null, "latitude": 33.952602, "politanName": "Atlanta, GA Metro ", "phone_number": "7705659960", "tags": [{"primary": false, "id": 1705, "name": "Catering"}, {"primary": false, "id": 11247, "name": "Carry Out"}, {"primary": false, "id": 12839, "name": "Chicken"}, {"primary": true, "id": 1722, "name": "Restaurants"}], "fax_number": null, "expansion": {"count": null, "uri": null}, "impression_id": "000b000000018fb577e70e4168b01f2aa155e4a345", "profile": "http://www.citysearch.com/profile/775192090/marietta_ga/chick_fil_a.html", "address": {"city": "Marietta", "state": "GA", "street": "5200 Buffington Rd", "postal_code": "30062"}, "capProviderId": null, "distance": null, "has_offers": false, "name": "Chick-Fil-A", "longitude": -84.549933, "has_menu": false, "awards": null, "user_review_count": 0}, {"business_operation_status": 1, "rating": null, "neighborhood": null, "image": null, "scorecard": null, "featured": false, "sample_categories": "Restaurants", "public_id": "lake-park-2400-llc-smyrna", "id": 775218280, "votes": null, "tagline": null, "has_video": false, "website": null, "offers": null, "latitude": 33.897534, "politanName": "Atlanta, GA Metro ", "phone_number": "7704349336", "tags": [{"primary": true, "id": 1722, "name": "Restaurants"}], "fax_number": null, "expansion": {"count": null, "uri": null}, "impression_id": "000b00000029f04fb5c56d43c0a81a6dcd4669fefa", "profile": "http://www.citysearch.com/profile/775218280/smyrna_ga/lake_park_2400_llc.html", "address": {"city": "Smyrna", "state": "GA", "street": "2400 Lake Park Dr SE", "postal_code": "30080"}, "capProviderId": null, "distance": null, "has_offers": false, "name": "Lake Park 2400 LLC", "longitude": -84.484107, "has_menu": false, "awards": null, "user_review_count": 0}, {"business_operation_status": 1, "rating": null, "neighborhood": null, "image": null, "scorecard": null, "featured": false, "sample_categories": "Restaurants", "public_id": "kenny-rogers-roasters-marietta", "id": 775226560, "votes": null, "tagline": null, "has_video": false, "website": null, "offers": null, "latitude": 33.919492, "politanName": "Atlanta, GA Metro ", "phone_number": "7709551800", "tags": [{"primary": true, "id": 1722, "name": "Restaurants"}], "fax_number": null, "expansion": {"count": null, "uri": null}, "impression_id": "000b00000030fac4b45a0b447cadeff9754bf223c1", "profile": "http://www.citysearch.com/profile/775226560/marietta_ga/kenny_rogers_roasters.html", "address": {"city": "Marietta", "state": "GA", "street": "1325 Powers Ferry Rd SE", "postal_code": "30067"}, "capProviderId": null, "distance": null, "has_offers": false, "name": "Kenny Rogers Roasters", "longitude": -84.466798, "has_menu": false, "awards": null, "user_review_count": 0}, {"business_operation_status": 1, "rating": null, "neighborhood": null, "image": null, "scorecard": null, "featured": false, "sample_categories": "Restaurants", "public_id": "bubba-ds-dawgs-inc-marietta", "id": 801089200, "votes": null, "tagline": null, "has_video": false, "website": null, "offers": null, "latitude": 34.01546, "politanName": "Atlanta, GA Metro ", "phone_number": "7703553212", "tags": [{"primary": true, "id": 1722, "name": "Restaurants"}], "fax_number": null, "expansion": {"count": null, "uri": null}, "impression_id": "000b00000053cca2eaf122474cbebb5418883c8901", "profile": "http://www.citysearch.com/profile/801089200/marietta_ga/bubba_d_s_dawgs_inc.html", "address": {"city": "Marietta", "state": "GA", "street": "2690 Sandy Plains Rd", "postal_code": "30066"}, "capProviderId": null, "distance": null, "has_offers": false, "name": "Bubba D's Dawgs INC", "longitude": -84.493053, "has_menu": false, "awards": null, "user_review_count": 0}, {"business_operation_status": 1, "rating": null, "neighborhood": null, "image": null, "scorecard": null, "featured": false, "sample_categories": "Restaurants", "public_id": "tucker-hospitality-inc-marietta", "id": 819224460, "votes": null, "tagline": null, "has_video": false, "website": null, "offers": null, "latitude": 33.934837, "politanName": "Atlanta, GA Metro ", "phone_number": "6783318222", "tags": [{"primary": true, "id": 1722, "name": "Restaurants"}], "fax_number": null, "expansion": {"count": null, "uri": null}, "impression_id": "000b00000050d74c7bfe0047399de1ff3610cd36b8", "profile": "http://www.citysearch.com/profile/819224460/marietta_ga/tucker_hospitality_inc.html", "address": {"city": "Marietta", "state": "GA", "street": "707 Franklin Rd SE # 3-6", "postal_code": "30067"}, "capProviderId": null, "distance": null, "has_offers": false, "name": "Tucker Hospitality Inc", "longitude": -84.502941, "has_menu": false, "awards": null, "user_review_count": 0}, {"business_operation_status": 1, "rating": null, "neighborhood": null, "image": null, "scorecard": null, "featured": false, "sample_categories": "Catering, Restaurants, Barbecue Restaurants, Carry Out, Family Style Dining", "public_id": "as-sonnys-real-pit-barbq", "id": 793392090, "votes": null, "tagline": null, "has_video": false, "website": null, "offers": null, "latitude": null, "politanName": null, "phone_number": "7703681653", "tags": [{"primary": false, "id": 1705, "name": "Catering"}, {"primary": false, "id": 1722, "name": "Restaurants"}, {"primary": false, "id": 1724, "name": "Barbecue Restaurants"}, {"primary": false, "id": 11262, "name": "Family Style Dining"}, {"primary": true, "id": 11247, "name": "Carry Out"}], "fax_number": null, "expansion": {"count": null, "uri": null}, "impression_id": "000b000000a0d88dc4c1c54221bf5e2105be325d81", "profile": "http://www.citysearch.com/profile/793392090/sonny_s_real_pit_bar_b_q.html", "address": {"city": null, "state": null, "street": null, "postal_code": null}, "capProviderId": null, "distance": null, "has_offers": false, "name": "Sonny's Real Pit Bar-B-Q", "longitude": null, "has_menu": false, "awards": null, "user_review_count": 0}, {"business_operation_status": 1, "rating": null, "neighborhood": null, "image": null, "scorecard": null, "featured": false, "sample_categories": "Catering, Personal Chefs, Computer & Internet Services, Wedding Cakes, Seafood", "public_id": "as-glamacook-oad", "id": 801975680, "votes": null, "tagline": null, "has_video": false, "website": null, "offers": null, "latitude": null, "politanName": null, "phone_number": "4043451924", "tags": [{"primary": false, "id": 1705, "name": "Catering"}, {"primary": false, "id": 3534, "name": "Personal Chefs"}, {"primary": false, "id": 674, "name": "Computer & Internet Services"}, {"primary": false, "id": 11057, "name": "Wedding Cakes"}, {"primary": false, "id": 11228, "name": "Seafood"}, {"primary": true, "id": 11267, "name": "Food Delivery"}], "fax_number": null, "expansion": {"count": null, "uri": null}, "impression_id": "000b000000d2b25af4bcad42d88bf7761b552c754c", "profile": "http://www.citysearch.com/profile/801975680/_oad_ga/glamacook.html", "address": {"city": "(Oad)", "state": "GA", "street": null, "postal_code": "30032"}, "capProviderId": null, "distance": null, "has_offers": false, "name": "GlamaCook", "longitude": null, "has_menu": false, "awards": null, "user_review_count": 0}], "histograms": [], "tag_ids": [1722], "uri": "http://api.citygridmedia.com:8080/search/places/v2/search/where?has_offers=false&type=restaurant&format=json&page=29&where=30069&rpp=50&histograms=false&publisher=10000009598&region_type=circle", "did_you_mean": "", "regions": [{"latitude": 33.911972, "default_radius": 1.53, "type": "postal_code", "name": "30069", "longitude": -84.51369799999999}], "call_id": "000b000000a8ac0e3a46d34b349a604cdc56d3aeeb", "first_hit": 1401, "total_hits": 1411, "geo_ids": [26297], "page": 29, "last_hit": 1411}}