{"results": {"rpp": 50, "locations": [{"business_operation_status": 1, "rating": null, "neighborhood": null, "image": null, "scorecard": null, "featured": false, "sample_categories": "Restaurants, Pizza", "public_id": "pizza-314-kennesaw", "id": 768811740, "votes": null, "tagline": null, "has_video": false, "website": null, "offers": null, "latitude": 34.014045, "politanName": "Atlanta, GA Metro ", "phone_number": "7706931156", "tags": [{"primary": false, "id": 11299, "name": "Pizza"}, {"primary": true, "id": 1722, "name": "Restaurants"}], "fax_number": null, "expansion": {"count": null, "uri": null}, "impression_id": "000b00000050f2b8c5d0064107be0f7de3e26c5b1b", "profile": "http://www.citysearch.com/profile/768811740/kennesaw_ga/pizza_314.html", "address": {"city": "Kennesaw", "state": "GA", "street": "2615 George Busbee Pkwy NW", "postal_code": "30144"}, "capProviderId": null, "distance": null, "has_offers": false, "name": "Pizza 314", "longitude": -84.56696, "has_menu": false, "awards": null, "user_review_count": 0}, {"business_operation_status": 1, "rating": null, "neighborhood": null, "image": null, "scorecard": null, "featured": false, "sample_categories": "Restaurants", "public_id": "red-house-marietta", "id": 775207480, "votes": null, "tagline": null, "has_video": false, "website": null, "offers": null, "latitude": 33.951025, "politanName": "Atlanta, GA Metro ", "phone_number": "7704277588", "tags": [{"primary": true, "id": 1722, "name": "Restaurants"}], "fax_number": null, "expansion": {"count": null, "uri": null}, "impression_id": "000b0000009a9226bc2a8347ca946d6b9896be49af", "profile": "http://www.citysearch.com/profile/775207480/marietta_ga/red_house.html", "address": {"city": "Marietta", "state": "GA", "street": "35 S Marietta Pkwy SW", "postal_code": "30064"}, "capProviderId": null, "distance": null, "has_offers": false, "name": "Red House", "longitude": -84.551785, "has_menu": false, "awards": null, "user_review_count": 0}, {"business_operation_status": 1, "rating": null, "neighborhood": null, "image": null, "scorecard": null, "featured": false, "sample_categories": "Restaurants, Barbecue Restaurants", "public_id": "travelers-bar-b-que-ctrng-marietta", "id": 777759510, "votes": null, "tagline": null, "has_video": false, "website": null, "offers": null, "latitude": 33.952909, "politanName": "Atlanta, GA Metro ", "phone_number": "7704234884", "tags": [{"primary": false, "id": 1724, "name": "Barbecue Restaurants"}, {"primary": true, "id": 1722, "name": "Restaurants"}], "fax_number": null, "expansion": {"count": null, "uri": null}, "impression_id": "000b0000002a01c1c07a644c2b878ef55dd53d8419", "profile": "http://www.citysearch.com/profile/777759510/marietta_ga/traveler_s_bar_b_que_ctrng.html", "address": {"city": "Marietta", "state": "GA", "street": "79 N Fairground St Ne", "postal_code": "30060"}, "capProviderId": null, "distance": null, "has_offers": false, "name": "Traveler's Bar B Que & Ctrng", "longitude": -84.53505, "has_menu": false, "awards": null, "user_review_count": 0}, {"business_operation_status": 1, "rating": null, "neighborhood": null, "image": null, "scorecard": null, "featured": false, "sample_categories": "Restaurants, Carry Out", "public_id": "firehouse-subs-marietta-4", "id": 621046074, "votes": null, "tagline": null, "has_video": false, "website": null, "offers": null, "latitude": 33.948258, "politanName": "Atlanta, GA Metro ", "phone_number": null, "tags": [{"primary": false, "id": 11247, "name": "Carry Out"}, {"primary": true, "id": 1722, "name": "Restaurants"}], "fax_number": null, "expansion": {"count": null, "uri": null}, "impression_id": "000b000000068b4c07629e4ffda418f272c918f1f5", "profile": "http://www.citysearch.com/profile/621046074/marietta_ga/firehouse_subs.html", "address": {"city": "Marietta", "state": "GA", "street": "2500 Dallas Hwy SW 650", "postal_code": "30064"}, "capProviderId": null, "distance": null, "has_offers": false, "name": "Firehouse Subs", "longitude": -84.62566, "has_menu": false, "awards": null, "user_review_count": 0}, {"business_operation_status": 1, "rating": null, "neighborhood": null, "image": null, "scorecard": null, "featured": false, "sample_categories": "Ice Cream Parlors", "public_id": "ritas-water-ice-marietta-2", "id": 621872750, "votes": null, "tagline": null, "has_video": false, "website": "http://www.citysearch.com/profile/external/621872750/marietta_ga/rita_s_water_ice.html", "offers": null, "latitude": 33.952594, "politanName": "Atlanta, GA Metro ", "phone_number": "6784026240", "tags": [{"primary": true, "id": 1730, "name": "Ice Cream Parlors"}], "fax_number": null, "expansion": {"count": null, "uri": null}, "impression_id": "000b000000d7c940c5a9294c35b35142eed383c1b2", "profile": "http://www.citysearch.com/profile/621872750/marietta_ga/rita_s_water_ice.html", "address": {"city": "Marietta", "state": "GA", "street": "800 Whitlock Ave Nw", "postal_code": "30064"}, "capProviderId": null, "distance": null, "has_offers": false, "name": "Rita's Water Ice", "longitude": -84.575881, "has_menu": false, "awards": null, "user_review_count": 1}, {"business_operation_status": 1, "rating": null, "neighborhood": null, "image": null, "scorecard": null, "featured": false, "sample_categories": "Restaurants, Carry Out", "public_id": "jimmy-johns-kennesaw-2", "id": 621138804, "votes": null, "tagline": null, "has_video": false, "website": "http://www.citysearch.com/profile/external/621138804/kennesaw_ga/jimmy_john_s.html", "offers": null, "latitude": 34.012833, "politanName": "Atlanta, GA Metro ", "phone_number": "6784264030", "tags": [{"primary": false, "id": 11247, "name": "Carry Out"}, {"primary": true, "id": 1722, "name": "Restaurants"}], "fax_number": null, "expansion": {"count": null, "uri": null}, "impression_id": "000b000000a893c4e32190422c874f1926b66309d4", "profile": "http://www.citysearch.com/profile/621138804/kennesaw_ga/jimmy_john_s.html", "address": {"city": "Kennesaw", "state": "GA", "street": "440 Ernest W Barrett Pkwy NW", "postal_code": "30144"}, "capProviderId": null, "distance": null, "has_offers": false, "name": "Jimmy John's", "longitude": -84.564302, "has_menu": false, "awards": null, "user_review_count": 0}, {"business_operation_status": 1, "rating": null, "neighborhood": null, "image": null, "scorecard": null, "featured": false, "sample_categories": "Restaurants", "public_id": "georges-grill-bbq-marietta", "id": 672294490, "votes": null, "tagline": null, "has_video": false, "website": null, "offers": null, "latitude": 33.997727, "politanName": "Atlanta, GA Metro ", "phone_number": null, "tags": [{"primary": true, "id": 1722, "name": "Restaurants"}], "fax_number": null, "expansion": {"count": null, "uri": null}, "impression_id": "000b0000001820d459c3d548e294b2884ea5f381e5", "profile": "http://www.citysearch.com/profile/672294490/marietta_ga/george_s_grill_bbq.html", "address": {"city": "Marietta", "state": "GA", "street": "1951 Canton Rd NE", "postal_code": "30066"}, "capProviderId": null, "distance": null, "has_offers": false, "name": "George's Grill & BBQ", "longitude": -84.525055, "has_menu": false, "awards": null, "user_review_count": 0}, {"business_operation_status": 1, "rating": null, "neighborhood": null, "image": null, "scorecard": null, "featured": false, "sample_categories": "Ice Cream Parlors", "public_id": "tios-mexican-grill-marietta", "id": 830806670, "votes": null, "tagline": null, "has_video": false, "website": null, "offers": null, "latitude": 33.970818, "politanName": "Atlanta, GA Metro ", "phone_number": "7709779727", "tags": [{"primary": true, "id": 1730, "name": "Ice Cream Parlors"}], "fax_number": null, "expansion": {"count": null, "uri": null}, "impression_id": "000b000000064649026eed4e1d81721d5cd3eec7e8", "profile": "http://www.citysearch.com/profile/830806670/marietta_ga/tios_mexican_grill.html", "address": {"city": "Marietta", "state": "GA", "street": "821 Woodmont Dr", "postal_code": "30062"}, "capProviderId": null, "distance": null, "has_offers": false, "name": "Tios Mexican Grill", "longitude": -84.49593, "has_menu": true, "awards": null, "user_review_count": 0}, {"business_operation_status": 1, "rating": null, "neighborhood": null, "image": null, "scorecard": null, "featured": false, "sample_categories": "Restaurants, Delis And Delicatessens, Sandwich Shops, Carry Out", "public_id": "subway-marietta-36", "id": 655943030, "votes": null, "tagline": null, "has_video": false, "website": "http://www.citysearch.com/profile/external/655943030/marietta_ga/subway.html", "offers": null, "latitude": 33.995879, "politanName": "Atlanta, GA Metro ", "phone_number": "7703212546", "tags": [{"primary": false, "id": 1727, "name": "Delis And Delicatessens"}, {"primary": false, "id": 1736, "name": "Sandwich Shops"}, {"primary": false, "id": 11247, "name": "Carry Out"}, {"primary": true, "id": 1722, "name": "Restaurants"}], "fax_number": null, "expansion": {"count": null, "uri": null}, "impression_id": "000b0000002be4d3b7de964de3803d37140b374721", "profile": "http://www.citysearch.com/profile/655943030/marietta_ga/subway.html", "address": {"city": "Marietta", "state": "GA", "street": "1860 Sandy Plains Rd # 301", "postal_code": "30066"}, "capProviderId": null, "distance": null, "has_offers": false, "name": "Subway", "longitude": -84.507715, "has_menu": false, "awards": null, "user_review_count": 0}, {"business_operation_status": 1, "rating": null, "neighborhood": null, "image": null, "scorecard": null, "featured": false, "sample_categories": "Restaurants, Traditional American, Carry Out", "public_id": "ihop-restaurant-marietta-3", "id": 682450140, "votes": null, "tagline": null, "has_video": false, "website": "http://www.citysearch.com/profile/external/682450140/marietta_ga/ihop.html", "offers": null, "latitude": 33.94651, "politanName": "Atlanta, GA Metro ", "phone_number": "7704851267", "tags": [{"primary": false, "id": 11190, "name": "Traditional American"}, {"primary": false, "id": 11247, "name": "Carry Out"}, {"primary": true, "id": 1722, "name": "Restaurants"}], "fax_number": null, "expansion": {"count": null, "uri": null}, "impression_id": "000b000000fd52e1c6f2aa491fa38e53b25730075a", "profile": "http://www.citysearch.com/profile/682450140/marietta_ga/ihop.html", "address": {"city": "Marietta", "state": "GA", "street": "2390 Dallas Hwy SW", "postal_code": "30064"}, "capProviderId": null, "distance": null, "has_offers": false, "name": "IHOP", "longitude": -84.62155, "has_menu": false, "awards": null, "user_review_count": 0}, {"business_operation_status": 1, "rating": null, "neighborhood": null, "image": null, "scorecard": null, "featured": false, "sample_categories": "Restaurants", "public_id": "leo-franco-chef-marietta", "id": 824426470, "votes": null, "tagline": null, "has_video": false, "website": null, "offers": null, "latitude": 33.948481, "politanName": "Atlanta, GA Metro ", "phone_number": "7704999439", "tags": [{"primary": true, "id": 1722, "name": "Restaurants"}], "fax_number": null, "expansion": {"count": null, "uri": null}, "impression_id": "000b0000000c86326802cd4b11ba7a05eae9be5198", "profile": "http://www.citysearch.com/profile/824426470/marietta_ga/leo_franco_chef.html", "address": {"city": "Marietta", "state": "GA", "street": "20 Emerson Hill Sq", "postal_code": "30060"}, "capProviderId": null, "distance": null, "has_offers": false, "name": "Leo Franco Chef", "longitude": -84.542181, "has_menu": false, "awards": null, "user_review_count": 0}, {"business_operation_status": 1, "rating": null, "neighborhood": null, "image": null, "scorecard": null, "featured": false, "sample_categories": "Restaurants", "public_id": "bridge-smoke-grill-marietta", "id": 838772530, "votes": null, "tagline": null, "has_video": false, "website": null, "offers": null, "latitude": 33.927554, "politanName": "Atlanta, GA Metro ", "phone_number": "6789033043", "tags": [{"primary": true, "id": 1722, "name": "Restaurants"}], "fax_number": null, "expansion": {"count": null, "uri": null}, "impression_id": "000b000000b223667c86fc4e6aacac7b79ad03260e", "profile": "http://www.citysearch.com/profile/838772530/marietta_ga/bridge_smoke_grill.html", "address": {"city": "Marietta", "state": "GA", "street": "1038 Franklin Rd SE", "postal_code": "30067"}, "capProviderId": null, "distance": null, "has_offers": false, "name": "Bridge Smoke Grill", "longitude": -84.493666, "has_menu": false, "awards": null, "user_review_count": 0}, {"business_operation_status": 1, "rating": null, "neighborhood": null, "image": null, "scorecard": null, "featured": false, "sample_categories": "Restaurants, Mexican, Carry Out, American Express, Discover", "public_id": "taco-bell-marietta-7", "id": 682721700, "votes": null, "tagline": null, "has_video": false, "website": "http://www.citysearch.com/profile/external/682721700/marietta_ga/taco_bell.html", "offers": null, "latitude": 33.944909, "politanName": "Atlanta, GA Metro ", "phone_number": "7704218815", "tags": [{"primary": false, "id": 11208, "name": "Mexican"}, {"primary": false, "id": 11247, "name": "Carry Out"}, {"primary": false, "id": 11333, "name": "American Express"}, {"primary": false, "id": 11349, "name": "Discover"}, {"primary": false, "id": 11361, "name": "MasterCard"}, {"primary": false, "id": 11382, "name": "Visa"}, {"primary": true, "id": 1722, "name": "Restaurants"}], "fax_number": null, "expansion": {"count": null, "uri": null}, "impression_id": "000b000000c09904361af84c69adea2662f808e818", "profile": "http://www.citysearch.com/profile/682721700/marietta_ga/taco_bell.html", "address": {"city": "Marietta", "state": "GA", "street": "3480 Ernest W Barrett Pkwy Sw", "postal_code": "30064"}, "capProviderId": null, "distance": null, "has_offers": false, "name": "Taco Bell", "longitude": -84.624717, "has_menu": true, "awards": null, "user_review_count": 0}, {"business_operation_status": 1, "rating": null, "neighborhood": null, "image": null, "scorecard": null, "featured": false, "sample_categories": "Ice Cream Parlors, Restaurants", "public_id": "pino-gelalo-of-marietta-marietta", "id": 713581850, "votes": null, "tagline": null, "has_video": false, "website": null, "offers": null, "latitude": 33.952532, "politanName": "Atlanta, GA Metro ", "phone_number": "7702182525", "tags": [{"primary": false, "id": 1722, "name": "Restaurants"}, {"primary": true, "id": 1730, "name": "Ice Cream Parlors"}], "fax_number": null, "expansion": {"count": null, "uri": null}, "impression_id": "000b000000e19bfceeb8d64aaba57cd14d1f90715a", "profile": "http://www.citysearch.com/profile/713581850/marietta_ga/pino_gelalo_of_marietta.html", "address": {"city": "Marietta", "state": "GA", "street": "21 W Park Sq Ne", "postal_code": "30060"}, "capProviderId": null, "distance": null, "has_offers": false, "name": "Pino Gelalo of Marietta", "longitude": -84.550467, "has_menu": false, "awards": null, "user_review_count": 0}, {"business_operation_status": 1, "rating": null, "neighborhood": null, "image": null, "scorecard": null, "featured": false, "sample_categories": "Ice Cream Parlors", "public_id": "haagendazs-shop-kennesaw", "id": 706821520, "votes": null, "tagline": null, "has_video": false, "website": "http://www.citysearch.com/profile/external/706821520/kennesaw_ga/haagen_dazs_shop.html", "offers": null, "latitude": 34.019128, "politanName": "Atlanta, GA Metro ", "phone_number": "7705903120", "tags": [{"primary": true, "id": 1730, "name": "Ice Cream Parlors"}], "fax_number": null, "expansion": {"count": null, "uri": null}, "impression_id": "000b000000a58623463710454b96e6f7ee1f08ab80", "profile": "http://www.citysearch.com/profile/706821520/kennesaw_ga/haagen_dazs_shop.html", "address": {"city": "Kennesaw", "state": "GA", "street": "400 Ernest W Barrett Pkwy NW", "postal_code": "30144"}, "capProviderId": null, "distance": null, "has_offers": false, "name": "Haagen-Dazs Shop", "longitude": -84.563608, "has_menu": true, "awards": null, "user_review_count": 0}, {"business_operation_status": 1, "rating": null, "neighborhood": null, "image": null, "scorecard": null, "featured": false, "sample_categories": "Restaurants", "public_id": "willamsonbros-marietta-2", "id": 609749214, "votes": null, "tagline": null, "has_video": false, "website": null, "offers": null, "latitude": 33.977691, "politanName": "Atlanta, GA Metro ", "phone_number": "7704999797", "tags": [{"primary": true, "id": 1722, "name": "Restaurants"}], "fax_number": null, "expansion": {"count": null, "uri": null}, "impression_id": "000b000000bc37fe8d320246be8cb080672da0f7cd", "profile": "http://www.citysearch.com/profile/609749214/marietta_ga/willamsonbros.html", "address": {"city": "Marietta", "state": "GA", "street": "1160 Hayes Industrial Dr", "postal_code": "30062"}, "capProviderId": null, "distance": null, "has_offers": false, "name": "Willamsonbros", "longitude": -84.542327, "has_menu": false, "awards": null, "user_review_count": 0}, {"business_operation_status": 1, "rating": null, "neighborhood": null, "image": null, "scorecard": null, "featured": false, "sample_categories": "Restaurants, Carry Out", "public_id": "kfc-marietta-10", "id": 713491660, "votes": null, "tagline": null, "has_video": false, "website": "http://www.citysearch.com/profile/external/713491660/marietta_ga/kfc.html", "offers": null, "latitude": 33.999161, "politanName": "Atlanta, GA Metro ", "phone_number": "7704276866", "tags": [{"primary": false, "id": 11247, "name": "Carry Out"}, {"primary": true, "id": 1722, "name": "Restaurants"}], "fax_number": null, "expansion": {"count": null, "uri": null}, "impression_id": "000b0000001c99245b8e7f43f583ea0048741c6f2c", "profile": "http://www.citysearch.com/profile/713491660/marietta_ga/kfc.html", "address": {"city": "Marietta", "state": "GA", "street": "2012 Canton Rd", "postal_code": "30066"}, "capProviderId": null, "distance": null, "has_offers": false, "name": "KFC", "longitude": -84.523794, "has_menu": false, "awards": null, "user_review_count": 0}, {"business_operation_status": 1, "rating": null, "neighborhood": null, "image": null, "scorecard": null, "featured": false, "sample_categories": "Bars & Clubs, Restaurants", "public_id": "two-monkeys-llc-marietta", "id": 823894470, "votes": null, "tagline": null, "has_video": false, "website": null, "offers": null, "latitude": 33.951907, "politanName": "Atlanta, GA Metro ", "phone_number": "7704220108", "tags": [{"primary": false, "id": 1722, "name": "Restaurants"}, {"primary": true, "id": 164, "name": "Bars & Clubs"}], "fax_number": null, "expansion": {"count": null, "uri": null}, "impression_id": "000b000000937a29059eac4efa9c6276ca87184066", "profile": "http://www.citysearch.com/profile/823894470/marietta_ga/two_monkeys_llc.html", "address": {"city": "Marietta", "state": "GA", "street": "688 Whitlock Ave NW # G", "postal_code": "30064"}, "capProviderId": null, "distance": null, "has_offers": false, "name": "Two Monkeys LLC", "longitude": -84.572199, "has_menu": false, "awards": null, "user_review_count": 0}, {"business_operation_status": 1, "rating": null, "neighborhood": null, "image": null, "scorecard": null, "featured": false, "sample_categories": "Restaurants", "public_id": "new-china-buffet-kennesaw-2", "id": 830498290, "votes": null, "tagline": null, "has_video": false, "website": null, "offers": null, "latitude": 34.014631, "politanName": "Atlanta, GA Metro ", "phone_number": "7707922262", "tags": [{"primary": true, "id": 1722, "name": "Restaurants"}], "fax_number": null, "expansion": {"count": null, "uri": null}, "impression_id": "000b000000a4c7f4fa2a664278a82335221a5d2204", "profile": "http://www.citysearch.com/profile/830498290/kennesaw_ga/new_china_buffet.html", "address": {"city": "Kennesaw", "state": "GA", "street": "Town Center Plz", "postal_code": "30144"}, "capProviderId": null, "distance": null, "has_offers": false, "name": "New China Buffet", "longitude": -84.562889, "has_menu": false, "awards": null, "user_review_count": 0}, {"business_operation_status": 1, "rating": null, "neighborhood": null, "image": null, "scorecard": null, "featured": false, "sample_categories": "Juice & Smoothie Shops", "public_id": "energy-juice-bar-kennesaw", "id": 836019090, "votes": null, "tagline": null, "has_video": false, "website": null, "offers": null, "latitude": 33.999616, "politanName": "Atlanta, GA Metro ", "phone_number": "8622244594", "tags": [{"primary": true, "id": 1735, "name": "Juice & Smoothie Shops"}], "fax_number": null, "expansion": {"count": null, "uri": null}, "impression_id": "000b0000002aa3510a3cb54ad39113c7577fc9f947", "profile": "http://www.citysearch.com/profile/836019090/kennesaw_ga/energy_juice_bar.html", "address": {"city": "Kennesaw", "state": "GA", "street": "1185 Ernest W Barrett Pkwy NW", "postal_code": "30144"}, "capProviderId": null, "distance": null, "has_offers": false, "name": "Energy Juice Bar", "longitude": -84.58372, "has_menu": false, "awards": null, "user_review_count": 0}, {"business_operation_status": 1, "rating": null, "neighborhood": null, "image": null, "scorecard": null, "featured": false, "sample_categories": "Restaurants, Delis And Delicatessens, Sandwich Shops, Carry Out, American Express", "public_id": "quiznos-marietta-3", "id": 43840232, "votes": null, "tagline": null, "has_video": false, "website": null, "offers": null, "latitude": 33.917126, "politanName": "Atlanta, GA Metro ", "phone_number": "6785947600", "tags": [{"primary": false, "id": 1727, "name": "Delis And Delicatessens"}, {"primary": false, "id": 1736, "name": "Sandwich Shops"}, {"primary": false, "id": 11247, "name": "Carry Out"}, {"primary": false, "id": 11333, "name": "American Express"}, {"primary": false, "id": 11347, "name": "Debit Card"}, {"primary": false, "id": 11349, "name": "Discover"}, {"primary": false, "id": 11361, "name": "MasterCard"}, {"primary": false, "id": 11382, "name": "Visa"}, {"primary": true, "id": 1722, "name": "Restaurants"}], "fax_number": null, "expansion": {"count": null, "uri": null}, "impression_id": "000b000000b53491ff26e740fdad9b383e5e5e2abc", "profile": "http://www.citysearch.com/profile/43840232/marietta_ga/quiznos.html", "address": {"city": "Marietta", "state": "GA", "street": "125 Barrett Pkwy Ste 104", "postal_code": "30066"}, "capProviderId": null, "distance": null, "has_offers": false, "name": "Quiznos", "longitude": -84.563854, "has_menu": true, "awards": null, "user_review_count": 0}, {"business_operation_status": 1, "rating": null, "neighborhood": null, "image": null, "scorecard": null, "featured": false, "sample_categories": "Restaurants, Pizza", "public_id": "johnnys-pizza-subs-marietta", "id": 2904727, "votes": null, "tagline": null, "has_video": false, "website": null, "offers": null, "latitude": 33.968758, "politanName": "Atlanta, GA Metro ", "phone_number": "7705658665", "tags": [{"primary": false, "id": 11299, "name": "Pizza"}, {"primary": true, "id": 1722, "name": "Restaurants"}], "fax_number": null, "expansion": {"count": null, "uri": null}, "impression_id": "000b000000f552c0eab0574022be9a73cf0b5eefab", "profile": "http://www.citysearch.com/profile/2904727/marietta_ga/johnny_s_pizza_subs.html", "address": {"city": "Marietta", "state": "GA", "street": "2100 Roswell Rd", "postal_code": "30062"}, "capProviderId": null, "distance": null, "has_offers": false, "name": "Johnny's Pizza & Subs", "longitude": -84.488447, "has_menu": true, "awards": null, "user_review_count": 0}, {"business_operation_status": 1, "rating": null, "neighborhood": null, "image": null, "scorecard": null, "featured": false, "sample_categories": "Restaurants, Pizza, Carry Out", "public_id": "little-caesars-pizza-marietta-14", "id": 607327154, "votes": null, "tagline": null, "has_video": false, "website": "http://www.citysearch.com/profile/external/607327154/marietta_ga/little_caesars_pizza.html", "offers": null, "latitude": 33.951081, "politanName": "Atlanta, GA Metro ", "phone_number": "7709195595", "tags": [{"primary": false, "id": 1722, "name": "Restaurants"}, {"primary": false, "id": 11247, "name": "Carry Out"}, {"primary": true, "id": 11299, "name": "Pizza"}], "fax_number": null, "expansion": {"count": null, "uri": null}, "impression_id": "000b0000006cec91abef4d47d5896e4bb310847652", "profile": "http://www.citysearch.com/profile/607327154/marietta_ga/little_caesars_pizza.html", "address": {"city": "Marietta", "state": "GA", "street": "36 Powder Springs St", "postal_code": "30064"}, "capProviderId": null, "distance": null, "has_offers": false, "name": "Little Caesars Pizza", "longitude": -84.55027, "has_menu": false, "awards": null, "user_review_count": 0}, {"business_operation_status": 1, "rating": null, "neighborhood": null, "image": null, "scorecard": null, "featured": false, "sample_categories": "Restaurants", "public_id": "viva-mexico-restaurant-marietta", "id": 611156824, "votes": null, "tagline": null, "has_video": false, "website": null, "offers": null, "latitude": 33.925486, "politanName": "Atlanta, GA Metro ", "phone_number": "7704298909", "tags": [{"primary": true, "id": 1722, "name": "Restaurants"}], "fax_number": null, "expansion": {"count": null, "uri": null}, "impression_id": "000b00000085eb2c0620dd43e1adf47a3ee1c18b64", "profile": "http://www.citysearch.com/profile/611156824/marietta_ga/viva_mexico_restaurant.html", "address": {"city": "Marietta", "state": "GA", "street": "1115 Powder Springs St # S", "postal_code": "30064"}, "capProviderId": null, "distance": null, "has_offers": false, "name": "Viva Mexico Restaurant", "longitude": -84.572072, "has_menu": false, "awards": null, "user_review_count": 0}, {"business_operation_status": 1, "rating": null, "neighborhood": null, "image": null, "scorecard": null, "featured": false, "sample_categories": "Restaurants", "public_id": "angels-burrito-on-the-square-marietta", "id": 609728344, "votes": null, "tagline": null, "has_video": false, "website": null, "offers": null, "latitude": 33.952259, "politanName": "Atlanta, GA Metro ", "phone_number": "6785943352", "tags": [{"primary": true, "id": 1722, "name": "Restaurants"}], "fax_number": null, "expansion": {"count": null, "uri": null}, "impression_id": "000b0000004d89f4901c2f436b99b70c4eeb3820e9", "profile": "http://www.citysearch.com/profile/609728344/marietta_ga/angel_s_burrito_on_the_square.html", "address": {"city": "Marietta", "state": "GA", "street": "154 Roswell St SE", "postal_code": "30060"}, "capProviderId": null, "distance": null, "has_offers": false, "name": "Angel's Burrito On The Square", "longitude": -84.548687, "has_menu": false, "awards": null, "user_review_count": 0}, {"business_operation_status": 1, "rating": null, "neighborhood": null, "image": null, "scorecard": null, "featured": false, "sample_categories": "Restaurants, Food Delivery", "public_id": "r-t-restaurant-svc-marietta", "id": 742250660, "votes": null, "tagline": null, "has_video": false, "website": null, "offers": null, "latitude": 33.911149, "politanName": "Atlanta, GA Metro ", "phone_number": "7704273260", "tags": [{"primary": false, "id": 11267, "name": "Food Delivery"}, {"primary": true, "id": 1722, "name": "Restaurants"}], "fax_number": null, "expansion": {"count": null, "uri": null}, "impression_id": "000b0000001ee8818eaada4c94a57a4c8461449fe8", "profile": "http://www.citysearch.com/profile/742250660/marietta_ga/r_t_restaurant_svc.html", "address": {"city": "Marietta", "state": "GA", "street": "1679 Longwood Dr SW", "postal_code": "30008"}, "capProviderId": null, "distance": null, "has_offers": false, "name": "R & T Restaurant Svc", "longitude": -84.56801, "has_menu": false, "awards": null, "user_review_count": 0}, {"business_operation_status": 1, "rating": null, "neighborhood": null, "image": null, "scorecard": null, "featured": false, "sample_categories": "Ice Cream Parlors, Restaurants, Carry Out", "public_id": "dairy-queen-kennesaw-3", "id": 777729670, "votes": null, "tagline": null, "has_video": false, "website": "http://www.citysearch.com/profile/external/777729670/kennesaw_ga/dairy_queen.html", "offers": null, "latitude": 34.014009, "politanName": "Atlanta, GA Metro ", "phone_number": "7704281468", "tags": [{"primary": false, "id": 1722, "name": "Restaurants"}, {"primary": false, "id": 11247, "name": "Carry Out"}, {"primary": true, "id": 1730, "name": "Ice Cream Parlors"}], "fax_number": null, "expansion": {"count": null, "uri": null}, "impression_id": "000b00000020e9d6d4f28e47fbad6648e67f9b3c7f", "profile": "http://www.citysearch.com/profile/777729670/kennesaw_ga/dairy_queen.html", "address": {"city": "Kennesaw", "state": "GA", "street": "400 Ernest W Barrett NW # 205", "postal_code": "30144"}, "capProviderId": null, "distance": null, "has_offers": false, "name": "Dairy Queen", "longitude": -84.561425, "has_menu": true, "awards": null, "user_review_count": 0}, {"business_operation_status": 1, "rating": null, "neighborhood": null, "image": null, "scorecard": null, "featured": false, "sample_categories": "Restaurants, Pizza", "public_id": "pizza-rogizio-marietta", "id": 777749830, "votes": null, "tagline": null, "has_video": false, "website": null, "offers": null, "latitude": 33.951936, "politanName": "Atlanta, GA Metro ", "phone_number": "7705782824", "tags": [{"primary": false, "id": 11299, "name": "Pizza"}, {"primary": true, "id": 1722, "name": "Restaurants"}], "fax_number": null, "expansion": {"count": null, "uri": null}, "impression_id": "000b0000007ad2e2bfbf414ec7879be6cb0680f9f2", "profile": "http://www.citysearch.com/profile/777749830/marietta_ga/pizza_rogizio.html", "address": {"city": "Marietta", "state": "GA", "street": "1818 Lower Roswell Rd", "postal_code": "30068"}, "capProviderId": null, "distance": null, "has_offers": false, "name": "Pizza Rogizio", "longitude": -84.499113, "has_menu": false, "awards": null, "user_review_count": 0}, {"business_operation_status": 1, "rating": null, "neighborhood": null, "image": null, "scorecard": null, "featured": false, "sample_categories": "Restaurants, Seafood", "public_id": "a-js-famous-seafood-poboys-marietta", "id": 793361500, "votes": null, "tagline": null, "has_video": false, "website": null, "offers": null, "latitude": 33.968758, "politanName": "Atlanta, GA Metro ", "phone_number": "6786273971", "tags": [{"primary": false, "id": 11228, "name": "Seafood"}, {"primary": true, "id": 1722, "name": "Restaurants"}], "fax_number": null, "expansion": {"count": null, "uri": null}, "impression_id": "000b00000022081dd6b51e4a5c99a8317a498ca788", "profile": "http://www.citysearch.com/profile/793361500/marietta_ga/a_j_s_famous_seafood_poboys.html", "address": {"city": "Marietta", "state": "GA", "street": "2100 Roswell Rd", "postal_code": "30062"}, "capProviderId": null, "distance": null, "has_offers": false, "name": "A J's Famous Seafood & Poboys", "longitude": -84.488447, "has_menu": false, "awards": null, "user_review_count": 0}, {"business_operation_status": 1, "rating": null, "neighborhood": null, "image": null, "scorecard": null, "featured": false, "sample_categories": "Restaurants, Cafes", "public_id": "socrates-cafe-marietta", "id": 713427300, "votes": null, "tagline": null, "has_video": false, "website": null, "offers": null, "latitude": 33.930756, "politanName": "Atlanta, GA Metro ", "phone_number": "7707926042", "tags": [{"primary": false, "id": 6190, "name": "Cafes"}, {"primary": true, "id": 1722, "name": "Restaurants"}], "fax_number": null, "expansion": {"count": null, "uri": null}, "impression_id": "000b0000001d0e5095e35343d6a605c67d6a7c7c17", "profile": "http://www.citysearch.com/profile/713427300/marietta_ga/socrates_cafe.html", "address": {"city": "Marietta", "state": "GA", "street": "1269 Barclay Cir Se", "postal_code": "30060"}, "capProviderId": null, "distance": null, "has_offers": false, "name": "Socrates Cafe", "longitude": -84.514539, "has_menu": false, "awards": null, "user_review_count": 0}, {"business_operation_status": 1, "rating": null, "neighborhood": null, "image": null, "scorecard": null, "featured": false, "sample_categories": "Restaurants", "public_id": "hoof-ale-marietta", "id": 796118290, "votes": null, "tagline": null, "has_video": false, "website": null, "offers": null, "latitude": 33.968758, "politanName": "Atlanta, GA Metro ", "phone_number": "7709710334", "tags": [{"primary": true, "id": 1722, "name": "Restaurants"}], "fax_number": null, "expansion": {"count": null, "uri": null}, "impression_id": "000b000000e37d76213e7f408db52f1ded763b4c98", "profile": "http://www.citysearch.com/profile/796118290/marietta_ga/hoof_ale.html", "address": {"city": "Marietta", "state": "GA", "street": "2100 Roswell Rd", "postal_code": "30062"}, "capProviderId": null, "distance": null, "has_offers": false, "name": "Hoof & Ale", "longitude": -84.488447, "has_menu": false, "awards": null, "user_review_count": 0}, {"business_operation_status": 0, "rating": null, "neighborhood": null, "image": null, "scorecard": null, "featured": false, "sample_categories": "Restaurants, Traditional American", "public_id": "shoneys-marietta", "id": 2900905, "votes": null, "tagline": null, "has_video": false, "website": null, "offers": null, "latitude": 33.9485, "politanName": "Atlanta, GA Metro ", "phone_number": "7704225333", "tags": [{"primary": false, "id": 11190, "name": "Traditional American"}, {"primary": true, "id": 1722, "name": "Restaurants"}], "fax_number": null, "expansion": {"count": null, "uri": null}, "impression_id": "000b0000003cc03bdf5d41441aa403ab09b4ff2b51", "profile": "http://www.citysearch.com/profile/2900905/marietta_ga/shoney_s.html", "address": {"city": "Marietta", "state": "GA", "street": "155 Cobb Pkwy S", "postal_code": "30060"}, "capProviderId": null, "distance": null, "has_offers": false, "name": "Shoney's", "longitude": -84.518323, "has_menu": true, "awards": null, "user_review_count": 0}, {"business_operation_status": 1, "rating": null, "neighborhood": null, "image": null, "scorecard": null, "featured": false, "sample_categories": "Coffeehouses", "public_id": "ashley-cooper-coffee-marietta", "id": 816560520, "votes": null, "tagline": null, "has_video": false, "website": null, "offers": null, "latitude": 33.970881, "politanName": "Atlanta, GA Metro ", "phone_number": "7704229615", "tags": [{"primary": true, "id": 1726, "name": "Coffeehouses"}], "fax_number": null, "expansion": {"count": null, "uri": null}, "impression_id": "000b000000219280e927724968a1a7cef0932f6d0f", "profile": "http://www.citysearch.com/profile/816560520/marietta_ga/ashley_cooper_coffee.html", "address": {"city": "Marietta", "state": "GA", "street": "829 Pickens Industrial Dr # 11", "postal_code": "30062"}, "capProviderId": null, "distance": null, "has_offers": false, "name": "Ashley Cooper Coffee", "longitude": -84.525365, "has_menu": false, "awards": null, "user_review_count": 0}, {"business_operation_status": 1, "rating": null, "neighborhood": null, "image": null, "scorecard": null, "featured": false, "sample_categories": "Restaurants", "public_id": "deli-planet-kennesaw", "id": 828070300, "votes": null, "tagline": null, "has_video": false, "website": null, "offers": null, "latitude": 34.012738, "politanName": "Atlanta, GA Metro ", "phone_number": "6783035062", "tags": [{"primary": true, "id": 1722, "name": "Restaurants"}], "fax_number": null, "expansion": {"count": null, "uri": null}, "impression_id": "000b0000005e3b89d171b7444c85f17e79a68698c3", "profile": "http://www.citysearch.com/profile/828070300/kennesaw_ga/deli_planet.html", "address": {"city": "Kennesaw", "state": "GA", "street": "440 Ernest W Barrett Pkwy NW", "postal_code": "30144"}, "capProviderId": null, "distance": null, "has_offers": false, "name": "Deli Planet", "longitude": -84.5643, "has_menu": false, "awards": null, "user_review_count": 0}, {"business_operation_status": 1, "rating": null, "neighborhood": null, "image": null, "scorecard": null, "featured": false, "sample_categories": "Doughnut Shops", "public_id": "devs-donuts-marietta", "id": 826828870, "votes": null, "tagline": null, "has_video": false, "website": null, "offers": null, "latitude": 33.901077, "politanName": "Atlanta, GA Metro ", "phone_number": "7607025007", "tags": [{"primary": true, "id": 1734, "name": "Doughnut Shops"}], "fax_number": null, "expansion": {"count": null, "uri": null}, "impression_id": "000b0000004616ecdca8734990adcf8725b179c2ba", "profile": "http://www.citysearch.com/profile/826828870/marietta_ga/dev_s_donuts.html", "address": {"city": "Marietta", "state": "GA", "street": "1812 Pdr Spgs Rd SW # 2115", "postal_code": "30064"}, "capProviderId": null, "distance": null, "has_offers": false, "name": "Dev's Donuts", "longitude": -84.606768, "has_menu": false, "awards": null, "user_review_count": 0}, {"business_operation_status": 1, "rating": null, "neighborhood": null, "image": null, "scorecard": null, "featured": false, "sample_categories": "Restaurants, Mexican, Carry Out", "public_id": "chipotle-mexican-grill-kennesaw", "id": 766807240, "votes": null, "tagline": null, "has_video": false, "website": "http://www.citysearch.com/profile/external/766807240/kennesaw_ga/chipotle_mexican_grill.html", "offers": null, "latitude": 34.019128, "politanName": "Atlanta, GA Metro ", "phone_number": "6782797996", "tags": [{"primary": false, "id": 11208, "name": "Mexican"}, {"primary": false, "id": 11247, "name": "Carry Out"}, {"primary": true, "id": 1722, "name": "Restaurants"}], "fax_number": null, "expansion": {"count": null, "uri": null}, "impression_id": "000b000000c98e0f7dc8d04b09b2503cbfe5f61dd5", "profile": "http://www.citysearch.com/profile/766807240/kennesaw_ga/chipotle_mexican_grill.html", "address": {"city": "Kennesaw", "state": "GA", "street": "964 Ernest W Barrett Pkwy NW", "postal_code": "30144"}, "capProviderId": null, "distance": null, "has_offers": false, "name": "Chipotle Mexican Grill", "longitude": -84.563608, "has_menu": false, "awards": null, "user_review_count": 0}, {"business_operation_status": 0, "rating": null, "neighborhood": null, "image": null, "scorecard": null, "featured": false, "sample_categories": "Restaurants, Convenience Stores", "public_id": "pantry-marietta", "id": 777697380, "votes": null, "tagline": null, "has_video": false, "website": null, "offers": null, "latitude": 33.970591, "politanName": "Atlanta, GA Metro ", "phone_number": "7704198988", "tags": [{"primary": false, "id": 1714, "name": "Convenience Stores"}, {"primary": true, "id": 1722, "name": "Restaurants"}], "fax_number": null, "expansion": {"count": null, "uri": null}, "impression_id": "000b00000027df044ca2544a58b634a0056afb5ada", "profile": "http://www.citysearch.com/profile/777697380/marietta_ga/pantry.html", "address": {"city": "Marietta", "state": "GA", "street": "790 Church St Ne # 210", "postal_code": "30060"}, "capProviderId": null, "distance": null, "has_offers": false, "name": "Pantry", "longitude": -84.550288, "has_menu": false, "awards": null, "user_review_count": 0}, {"business_operation_status": 1, "rating": null, "neighborhood": null, "image": null, "scorecard": null, "featured": false, "sample_categories": "Restaurants, Barbecue Restaurants, Carry Out", "public_id": "gem-city-wings-marietta", "id": 777757950, "votes": null, "tagline": null, "has_video": false, "website": null, "offers": null, "latitude": 33.95115, "politanName": "Atlanta, GA Metro ", "phone_number": "6784027331", "tags": [{"primary": false, "id": 1724, "name": "Barbecue Restaurants"}, {"primary": false, "id": 11247, "name": "Carry Out"}, {"primary": true, "id": 1722, "name": "Restaurants"}], "fax_number": null, "expansion": {"count": null, "uri": null}, "impression_id": "000b0000009da2ef845fb4443eb417ab5c0c394c22", "profile": "http://www.citysearch.com/profile/777757950/marietta_ga/gem_city_wings.html", "address": {"city": "Marietta", "state": "GA", "street": "20 N Fairground St Ne", "postal_code": "30060"}, "capProviderId": null, "distance": null, "has_offers": false, "name": "Gem City Wings", "longitude": -84.535474, "has_menu": false, "awards": null, "user_review_count": 0}, {"business_operation_status": 1, "rating": null, "neighborhood": null, "image": null, "scorecard": null, "featured": false, "sample_categories": "Restaurants, Bars & Clubs", "public_id": "highlands-grill-sports-tvrn-kennesaw", "id": 787112570, "votes": null, "tagline": null, "has_video": false, "website": null, "offers": null, "latitude": 34.013172, "politanName": "Atlanta, GA Metro ", "phone_number": "7704261515", "tags": [{"primary": false, "id": 164, "name": "Bars & Clubs"}, {"primary": true, "id": 1722, "name": "Restaurants"}], "fax_number": null, "expansion": {"count": null, "uri": null}, "impression_id": "000b000000ec1a4f1bb7424a10a3c0f9e93603e10d", "profile": "http://www.citysearch.com/profile/787112570/kennesaw_ga/highlands_grill_sports_tvrn.html", "address": {"city": "Kennesaw", "state": "GA", "street": "2615 George Busbee Pkwy NW # 2", "postal_code": "30144"}, "capProviderId": null, "distance": null, "has_offers": false, "name": "Highlands Grill & Sports Tvrn", "longitude": -84.567215, "has_menu": false, "awards": null, "user_review_count": 0}, {"business_operation_status": 1, "rating": null, "neighborhood": null, "image": null, "scorecard": null, "featured": false, "sample_categories": "Restaurants", "public_id": "taqueria-la-villa-marietta", "id": 816057700, "votes": null, "tagline": null, "has_video": false, "website": null, "offers": null, "latitude": 33.969085, "politanName": "Atlanta, GA Metro ", "phone_number": "7705908887", "tags": [{"primary": true, "id": 1722, "name": "Restaurants"}], "fax_number": null, "expansion": {"count": null, "uri": null}, "impression_id": "000b000000e8a1e163ce804e01a0af0b7218c83e92", "profile": "http://www.citysearch.com/profile/816057700/marietta_ga/taqueria_la_villa.html", "address": {"city": "Marietta", "state": "GA", "street": "745 Cobb Pkwy N", "postal_code": "30062"}, "capProviderId": null, "distance": null, "has_offers": false, "name": "Taqueria La Villa", "longitude": -84.538349, "has_menu": false, "awards": null, "user_review_count": 0}, {"business_operation_status": 1, "rating": null, "neighborhood": null, "image": null, "scorecard": null, "featured": false, "sample_categories": "Restaurants", "public_id": "1848-house-marietta", "id": 816308800, "votes": null, "tagline": null, "has_video": false, "website": null, "offers": null, "latitude": 33.934909, "politanName": "Atlanta, GA Metro ", "phone_number": "7704281848", "tags": [{"primary": true, "id": 1722, "name": "Restaurants"}], "fax_number": null, "expansion": {"count": null, "uri": null}, "impression_id": "000b000000ddad25bb46c546728ddbbb27e5c44a09", "profile": "http://www.citysearch.com/profile/816308800/marietta_ga/1848_house.html", "address": {"city": "Marietta", "state": "GA", "street": "780 S Cobb Dr SE", "postal_code": "30060"}, "capProviderId": null, "distance": null, "has_offers": false, "name": "1848 House", "longitude": -84.547956, "has_menu": false, "awards": null, "user_review_count": 1}, {"business_operation_status": 1, "rating": null, "neighborhood": null, "image": null, "scorecard": null, "featured": false, "sample_categories": "Restaurants", "public_id": "beyond-the-box-designs-inc-marietta", "id": 713390380, "votes": null, "tagline": null, "has_video": false, "website": "http://www.citysearch.com/profile/external/713390380/marietta_ga/beyond_the_box_designs_inc.html", "offers": null, "latitude": 33.950732, "politanName": "Atlanta, GA Metro ", "phone_number": "7704898198", "tags": [{"primary": true, "id": 1722, "name": "Restaurants"}], "fax_number": null, "expansion": {"count": null, "uri": null}, "impression_id": "000b0000000f6025cfb0f24d0a9917e03de6ced150", "profile": "http://www.citysearch.com/profile/713390380/marietta_ga/beyond_the_box_designs_inc.html", "address": {"city": "Marietta", "state": "GA", "street": "515 Roswell St Ne", "postal_code": "30060"}, "capProviderId": null, "distance": null, "has_offers": false, "name": "Beyond The Box Designs INC", "longitude": -84.537203, "has_menu": false, "awards": null, "user_review_count": 0}, {"business_operation_status": 1, "rating": null, "neighborhood": null, "image": null, "scorecard": null, "featured": false, "sample_categories": "Restaurants, Hamburgers", "public_id": "smashburger-kennesaw", "id": 739079670, "votes": null, "tagline": null, "has_video": false, "website": null, "offers": null, "latitude": 34.014321, "politanName": "Atlanta, GA Metro ", "phone_number": "7704274141", "tags": [{"primary": false, "id": 11270, "name": "Hamburgers"}, {"primary": true, "id": 1722, "name": "Restaurants"}], "fax_number": null, "expansion": {"count": null, "uri": null}, "impression_id": "000b00000088d79022edc44494a1c8ad0ded6c3f78", "profile": "http://www.citysearch.com/profile/739079670/kennesaw_ga/smashburger.html", "address": {"city": "Kennesaw", "state": "GA", "street": "440 Ernest W Barrett Pkwy NW", "postal_code": "30144"}, "capProviderId": null, "distance": null, "has_offers": false, "name": "Smashburger", "longitude": -84.562111, "has_menu": false, "awards": null, "user_review_count": 0}, {"business_operation_status": 1, "rating": null, "neighborhood": null, "image": null, "scorecard": null, "featured": false, "sample_categories": "Restaurants", "public_id": "buffalos-cafe-marietta", "id": 2870538, "votes": null, "tagline": null, "has_video": false, "website": null, "offers": null, "latitude": 33.950209, "politanName": "Atlanta, GA Metro ", "phone_number": "7705212844", "tags": [{"primary": true, "id": 1722, "name": "Restaurants"}], "fax_number": null, "expansion": {"count": null, "uri": null}, "impression_id": "000b00000019c0ce0dee944c61b3ff608398fcd144", "profile": "http://www.citysearch.com/profile/2870538/marietta_ga/buffalo_s_cafe.html", "address": {"city": "Marietta", "state": "GA", "street": "707 Whitlock Ave SW Ste H13", "postal_code": "30064"}, "capProviderId": null, "distance": null, "has_offers": false, "name": "Buffalo's Cafe", "longitude": -84.573437, "has_menu": true, "awards": null, "user_review_count": 0}, {"business_operation_status": 1, "rating": null, "neighborhood": null, "image": null, "scorecard": null, "featured": false, "sample_categories": "Seafood Markets, Restaurants", "public_id": "cajun-gulf-seafood-marietta", "id": 775189770, "votes": null, "tagline": null, "has_video": false, "website": null, "offers": null, "latitude": 33.970105, "politanName": "Atlanta, GA Metro ", "phone_number": "7705753222", "tags": [{"primary": false, "id": 1722, "name": "Restaurants"}, {"primary": true, "id": 1719, "name": "Seafood Markets"}], "fax_number": null, "expansion": {"count": null, "uri": null}, "impression_id": "000b000000e5449740e96c4336a5ed646a9e34a7f4", "profile": "http://www.citysearch.com/profile/775189770/marietta_ga/cajun_gulf_seafood.html", "address": {"city": "Marietta", "state": "GA", "street": "745 Cobb Pkwy N", "postal_code": "30062"}, "capProviderId": null, "distance": null, "has_offers": false, "name": "Cajun Gulf Seafood", "longitude": -84.5389, "has_menu": false, "awards": null, "user_review_count": 0}, {"business_operation_status": 1, "rating": null, "neighborhood": null, "image": null, "scorecard": null, "featured": false, "sample_categories": "Restaurants", "public_id": "amonos-restaurant-kennesaw", "id": 777767990, "votes": null, "tagline": null, "has_video": false, "website": null, "offers": null, "latitude": 34.014516, "politanName": "Atlanta, GA Metro ", "phone_number": "6783550535", "tags": [{"primary": true, "id": 1722, "name": "Restaurants"}], "fax_number": null, "expansion": {"count": null, "uri": null}, "impression_id": "000b00000061fe79dfe47c4e148d05bc6d2f036c39", "profile": "http://www.citysearch.com/profile/777767990/kennesaw_ga/amono_s_restaurant.html", "address": {"city": "Kennesaw", "state": "GA", "street": "2700 Town Center Dr NW # A", "postal_code": "30144"}, "capProviderId": null, "distance": null, "has_offers": false, "name": "Amono's Restaurant", "longitude": -84.56447, "has_menu": false, "awards": null, "user_review_count": 0}, {"business_operation_status": 1, "rating": null, "neighborhood": null, "image": null, "scorecard": null, "featured": false, "sample_categories": "Coffeehouses", "public_id": "assoc-coffee-mill-enthusics-marietta", "id": 787109920, "votes": null, "tagline": null, "has_video": false, "website": null, "offers": null, "latitude": 33.969136, "politanName": "Atlanta, GA Metro ", "phone_number": "7704276434", "tags": [{"primary": true, "id": 1726, "name": "Coffeehouses"}], "fax_number": null, "expansion": {"count": null, "uri": null}, "impression_id": "000b000000b4e9e21fade343ff8305d319a9eecbab", "profile": "http://www.citysearch.com/profile/787109920/marietta_ga/assoc_coffee_mill_enthusics.html", "address": {"city": "Marietta", "state": "GA", "street": "657 Old Mountain Rd NW", "postal_code": "30064"}, "capProviderId": null, "distance": null, "has_offers": false, "name": "Assoc Coffee Mill Enthusics", "longitude": -84.593531, "has_menu": false, "awards": null, "user_review_count": 0}, {"business_operation_status": 1, "rating": null, "neighborhood": null, "image": null, "scorecard": null, "featured": false, "sample_categories": "Restaurants", "public_id": "righteous-que-marietta", "id": 790722150, "votes": null, "tagline": null, "has_video": false, "website": null, "offers": null, "latitude": 33.976739, "politanName": "Atlanta, GA Metro ", "phone_number": "7709718111", "tags": [{"primary": true, "id": 1722, "name": "Restaurants"}], "fax_number": null, "expansion": {"count": null, "uri": null}, "impression_id": "000b000000096c7efa50984fd2ba36d6e49b8c7a21", "profile": "http://www.citysearch.com/profile/790722150/marietta_ga/righteous_que.html", "address": {"city": "Marietta", "state": "GA", "street": "1050 E Piedmont Rd", "postal_code": "30062"}, "capProviderId": null, "distance": null, "has_offers": false, "name": "Righteous Que", "longitude": -84.479676, "has_menu": false, "awards": null, "user_review_count": 0}, {"business_operation_status": 1, "rating": null, "neighborhood": null, "image": null, "scorecard": null, "featured": false, "sample_categories": "Restaurants", "public_id": "bikini-beach-kennesaw", "id": 672684390, "votes": null, "tagline": null, "has_video": false, "website": null, "offers": null, "latitude": 33.991946, "politanName": "Atlanta, GA Metro ", "phone_number": "7704268001", "tags": [{"primary": true, "id": 1722, "name": "Restaurants"}], "fax_number": null, "expansion": {"count": null, "uri": null}, "impression_id": "000b000000f2f96e0fb80c4618bc570d183c745d0e", "profile": "http://www.citysearch.com/profile/672684390/kennesaw_ga/bikini_beach.html", "address": {"city": "Kennesaw", "state": "GA", "street": "1619 Collins Road Northwest", "postal_code": "30152"}, "capProviderId": null, "distance": null, "has_offers": false, "name": "Bikini Beach", "longitude": -84.59912, "has_menu": false, "awards": null, "user_review_count": 0}, {"business_operation_status": 1, "rating": null, "neighborhood": null, "image": null, "scorecard": null, "featured": false, "sample_categories": "Restaurants, Chinese", "public_id": "china-inn-marietta", "id": 787127820, "votes": null, "tagline": null, "has_video": false, "website": null, "offers": null, "latitude": 33.950252, "politanName": "Atlanta, GA Metro ", "phone_number": "7705908023", "tags": [{"primary": false, "id": 11252, "name": "Chinese"}, {"primary": true, "id": 1722, "name": "Restaurants"}], "fax_number": null, "expansion": {"count": null, "uri": null}, "impression_id": "000b0000001e35670cabde467680f5fb7a320ca7ce", "profile": "http://www.citysearch.com/profile/787127820/marietta_ga/china_inn.html", "address": {"city": "Marietta", "state": "GA", "street": "2500 Dallas Hwy Sw # 200", "postal_code": "30064"}, "capProviderId": null, "distance": null, "has_offers": false, "name": "China Inn", "longitude": -84.638093, "has_menu": false, "awards": null, "user_review_count": 0}], "histograms": [], "tag_ids": [1722], "uri": "http://api.citygridmedia.com:8080/search/places/v2/search/where?has_offers=false&type=restaurant&format=json&page=8&where=30061&rpp=50&histograms=false&publisher=10000009598&region_type=circle", "did_you_mean": "", "regions": [{"latitude": 33.9525, "default_radius": 0.25, "type": "postal_code", "name": "30061", "longitude": -84.55}], "call_id": "000b0000000bc02d134d5c41eca6eb5ce5ceed6c99", "first_hit": 351, "total_hits": 540, "geo_ids": [137024], "page": 8, "last_hit": 400}}