{"results": {"rpp": 50, "locations": [{"business_operation_status": 0, "rating": null, "neighborhood": null, "image": null, "scorecard": null, "featured": false, "sample_categories": "Restaurants", "public_id": "el-tejar-roswell", "id": 672757150, "votes": null, "tagline": null, "has_video": false, "website": null, "offers": null, "latitude": 34.033417, "politanName": "Atlanta, GA Metro ", "phone_number": "7706490019", "tags": [{"primary": true, "id": 1722, "name": "Restaurants"}], "fax_number": null, "expansion": {"count": null, "uri": null}, "impression_id": "000b000000899af77255c848e0a4dd4628215cdc8d", "profile": "http://www.citysearch.com/profile/672757150/roswell_ga/el_tejar.html", "address": {"city": "Roswell", "state": "GA", "street": "690 Holcomb Bridge Rd Ste 160", "postal_code": "30076"}, "capProviderId": null, "distance": null, "has_offers": false, "name": "El Tejar", "longitude": -84.339787, "has_menu": false, "awards": null, "user_review_count": 0}, {"business_operation_status": 1, "rating": null, "neighborhood": null, "image": null, "scorecard": null, "featured": false, "sample_categories": "Restaurants, Asian", "public_id": "asian-star-roswell", "id": 694276220, "votes": null, "tagline": null, "has_video": false, "website": null, "offers": null, "latitude": 34.065697, "politanName": "Atlanta, GA Metro ", "phone_number": "6787617669", "tags": [{"primary": false, "id": 11235, "name": "Asian"}, {"primary": true, "id": 1722, "name": "Restaurants"}], "fax_number": null, "expansion": {"count": null, "uri": null}, "impression_id": "000b00000075b6f7cd4e70436bb81698afa006ea68", "profile": "http://www.citysearch.com/profile/694276220/roswell_ga/asian_star.html", "address": {"city": "Roswell", "state": "GA", "street": "4750 Alabama Rd Ne # 101", "postal_code": "30075"}, "capProviderId": null, "distance": null, "has_offers": false, "name": "Asian Star", "longitude": -84.422792, "has_menu": false, "awards": null, "user_review_count": 0}, {"business_operation_status": 1, "rating": null, "neighborhood": null, "image": null, "scorecard": null, "featured": false, "sample_categories": "Restaurants, Pizza, Carry Out", "public_id": "dominos-pizza-smyrna-7", "id": 713334440, "votes": null, "tagline": null, "has_video": false, "website": "http://www.citysearch.com/profile/external/713334440/smyrna_ga/domino_s_pizza.html", "offers": null, "latitude": 33.921069, "politanName": "Atlanta, GA Metro ", "phone_number": "7709844540", "tags": [{"primary": false, "id": 1722, "name": "Restaurants"}, {"primary": false, "id": 11247, "name": "Carry Out"}, {"primary": true, "id": 11299, "name": "Pizza"}], "fax_number": null, "expansion": {"count": null, "uri": null}, "impression_id": "000b00000041b8b8cb217b413a8f5749cd7a222796", "profile": "http://www.citysearch.com/profile/713334440/smyrna_ga/domino_s_pizza.html", "address": {"city": "Smyrna", "state": "GA", "street": "1230 Powers Rd", "postal_code": "30080"}, "capProviderId": null, "distance": null, "has_offers": false, "name": "Domino's Pizza", "longitude": -84.467591, "has_menu": false, "awards": null, "user_review_count": 0}, {"business_operation_status": 1, "rating": null, "neighborhood": null, "image": null, "scorecard": null, "featured": false, "sample_categories": "Restaurants", "public_id": "place-philllps-mr-marietta", "id": 713425060, "votes": null, "tagline": null, "has_video": false, "website": null, "offers": null, "latitude": 34.032215, "politanName": "Atlanta, GA Metro ", "phone_number": "7706720690", "tags": [{"primary": true, "id": 1722, "name": "Restaurants"}], "fax_number": null, "expansion": {"count": null, "uri": null}, "impression_id": "000b00000006b7e03d9fab47c993e4a42c8f40ecc6", "profile": "http://www.citysearch.com/profile/713425060/marietta_ga/place_philllp_s_mr.html", "address": {"city": "Marietta", "state": "GA", "street": "3402 Canton Rd", "postal_code": "30066"}, "capProviderId": null, "distance": null, "has_offers": false, "name": "Place Philllp's Mr", "longitude": -84.527765, "has_menu": false, "awards": null, "user_review_count": 0}, {"business_operation_status": 1, "rating": null, "neighborhood": null, "image": null, "scorecard": null, "featured": false, "sample_categories": "Restaurants, Delis And Delicatessens, Sandwich Shops, Carry Out", "public_id": "quiznos-roswell-3", "id": 728135020, "votes": null, "tagline": null, "has_video": false, "website": null, "offers": null, "latitude": 34.054622, "politanName": "Atlanta, GA Metro ", "phone_number": "6787950557", "tags": [{"primary": false, "id": 1727, "name": "Delis And Delicatessens"}, {"primary": false, "id": 1736, "name": "Sandwich Shops"}, {"primary": false, "id": 11247, "name": "Carry Out"}, {"primary": true, "id": 1722, "name": "Restaurants"}], "fax_number": null, "expansion": {"count": null, "uri": null}, "impression_id": "000b000000abb7547fd70a40f495fcfb968d859b3f", "profile": "http://www.citysearch.com/profile/728135020/roswell_ga/quiznos.html", "address": {"city": "Roswell", "state": "GA", "street": "540 W Crossville Rd # 204", "postal_code": "30075"}, "capProviderId": null, "distance": null, "has_offers": false, "name": "Quiznos", "longitude": -84.376724, "has_menu": true, "awards": null, "user_review_count": 0}, {"business_operation_status": 1, "rating": null, "neighborhood": null, "image": null, "scorecard": null, "featured": false, "sample_categories": "Restaurants", "public_id": "beef-obradys-roswell", "id": 40942337, "votes": null, "tagline": null, "has_video": false, "website": null, "offers": null, "latitude": 34.06109, "politanName": "Atlanta, GA Metro ", "phone_number": "6783520307", "tags": [{"primary": true, "id": 1722, "name": "Restaurants"}], "fax_number": null, "expansion": {"count": null, "uri": null}, "impression_id": "000b00000019e0f8779b47449aa367e4f1c98eb4d4", "profile": "http://www.citysearch.com/profile/40942337/roswell_ga/beef_o_brady_s.html", "address": {"city": "Roswell", "state": "GA", "street": "910 Woodstock Rd Ste 120", "postal_code": "30075"}, "capProviderId": null, "distance": null, "has_offers": false, "name": "Beef O'Brady's", "longitude": -84.389326, "has_menu": true, "awards": null, "user_review_count": 0}, {"business_operation_status": 0, "rating": null, "neighborhood": null, "image": null, "scorecard": null, "featured": false, "sample_categories": "Ice Cream Parlors", "public_id": "ritas-water-ice-marietta", "id": 621962960, "votes": null, "tagline": null, "has_video": false, "website": "http://www.citysearch.com/profile/external/621962960/marietta_ga/rita_s_water_ice.html", "offers": null, "latitude": 34.021599, "politanName": "Atlanta, GA Metro ", "phone_number": "7706506705", "tags": [{"primary": true, "id": 1730, "name": "Ice Cream Parlors"}], "fax_number": null, "expansion": {"count": null, "uri": null}, "impression_id": "000b0000004501e49f78104fdaa584c35ac513998f", "profile": "http://www.citysearch.com/profile/621962960/marietta_ga/rita_s_water_ice.html", "address": {"city": "Marietta", "state": "GA", "street": "2986 Johnson Ferry Rd # B", "postal_code": "30062"}, "capProviderId": null, "distance": null, "has_offers": false, "name": "Rita's Water Ice", "longitude": -84.426314, "has_menu": true, "awards": null, "user_review_count": 0}, {"business_operation_status": 1, "rating": null, "neighborhood": null, "image": null, "scorecard": null, "featured": false, "sample_categories": "Restaurants, Delis And Delicatessens, Sandwich Shops, Carry Out, MasterCard", "public_id": "subway-marietta-4", "id": 601296783, "votes": null, "tagline": null, "has_video": false, "website": "http://www.citysearch.com/profile/external/601296783/marietta_ga/subway.html", "offers": null, "latitude": 33.906428, "politanName": "Atlanta, GA Metro ", "phone_number": "7709530023", "tags": [{"primary": false, "id": 1727, "name": "Delis And Delicatessens"}, {"primary": false, "id": 1736, "name": "Sandwich Shops"}, {"primary": false, "id": 11247, "name": "Carry Out"}, {"primary": false, "id": 11361, "name": "MasterCard"}, {"primary": false, "id": 11382, "name": "Visa"}, {"primary": true, "id": 1722, "name": "Restaurants"}], "fax_number": null, "expansion": {"count": null, "uri": null}, "impression_id": "000b00000014f5e2ff1f994a5ebd4749738afb2359", "profile": "http://www.citysearch.com/profile/601296783/marietta_ga/subway.html", "address": {"city": "Marietta", "state": "GA", "street": "1871 Cobb Pkwy S # 400", "postal_code": "30060"}, "capProviderId": null, "distance": null, "has_offers": false, "name": "Subway", "longitude": -84.489855, "has_menu": true, "awards": null, "user_review_count": 0}, {"business_operation_status": 0, "rating": null, "neighborhood": null, "image": null, "scorecard": null, "featured": false, "sample_categories": "Restaurants", "public_id": "taco-loco-marietta-3", "id": 672859520, "votes": null, "tagline": null, "has_video": false, "website": null, "offers": null, "latitude": 34.038538, "politanName": "Atlanta, GA Metro ", "phone_number": "7709288060", "tags": [{"primary": true, "id": 1722, "name": "Restaurants"}], "fax_number": null, "expansion": {"count": null, "uri": null}, "impression_id": "000b0000003443a410516f4acda73621a24bbd0b34", "profile": "http://www.citysearch.com/profile/672859520/marietta_ga/taco_loco.html", "address": {"city": "Marietta", "state": "GA", "street": "3545 Canton Road", "postal_code": "30066"}, "capProviderId": null, "distance": null, "has_offers": false, "name": "Taco Loco", "longitude": -84.528373, "has_menu": true, "awards": null, "user_review_count": 0}, {"business_operation_status": 0, "rating": null, "neighborhood": null, "image": null, "scorecard": null, "featured": false, "sample_categories": "Restaurants", "public_id": "roswell-wasabi-sushi-buffet-sandy-spgs", "id": 672886430, "votes": null, "tagline": null, "has_video": false, "website": null, "offers": null, "latitude": 33.91426, "politanName": "Atlanta, GA Metro ", "phone_number": "4042579188", "tags": [{"primary": true, "id": 1722, "name": "Restaurants"}], "fax_number": null, "expansion": {"count": null, "uri": null}, "impression_id": "000b0000002b41c66cb2764f6fb04c908cd002eeeb", "profile": "http://www.citysearch.com/profile/672886430/sandy_springs_ga/roswell_wasabi_sushi_buffet.html", "address": {"city": "Sandy Springs", "state": "GA", "street": "5825 Roswell Rd NE", "postal_code": "30328"}, "capProviderId": null, "distance": null, "has_offers": false, "name": "Roswell Wasabi Sushi Buffet", "longitude": -84.379139, "has_menu": false, "awards": null, "user_review_count": 0}, {"business_operation_status": 1, "rating": null, "neighborhood": null, "image": null, "scorecard": null, "featured": false, "sample_categories": "Restaurants", "public_id": "mambo-italiano-atlanta", "id": 672986060, "votes": null, "tagline": null, "has_video": false, "website": null, "offers": null, "latitude": 33.921134, "politanName": "Atlanta, GA Metro ", "phone_number": "4042554444", "tags": [{"primary": true, "id": 1722, "name": "Restaurants"}], "fax_number": null, "expansion": {"count": null, "uri": null}, "impression_id": "000b000000a6bae853150c4adcb740dc826e7878ef", "profile": "http://www.citysearch.com/profile/672986060/atlanta_ga/mambo_italiano.html", "address": {"city": "Atlanta", "state": "GA", "street": "227 Sandy Springs Pl NE", "postal_code": "30328"}, "capProviderId": null, "distance": null, "has_offers": false, "name": "Mambo Italiano", "longitude": -84.382587, "has_menu": true, "awards": null, "user_review_count": 1}, {"business_operation_status": 1, "rating": null, "neighborhood": null, "image": null, "scorecard": null, "featured": false, "sample_categories": "Restaurants", "public_id": "georges-grill-bbq-marietta", "id": 672294490, "votes": null, "tagline": null, "has_video": false, "website": null, "offers": null, "latitude": 33.997727, "politanName": "Atlanta, GA Metro ", "phone_number": null, "tags": [{"primary": true, "id": 1722, "name": "Restaurants"}], "fax_number": null, "expansion": {"count": null, "uri": null}, "impression_id": "000b000000a35e850d53ae4ec9b10420d42e9c82e4", "profile": "http://www.citysearch.com/profile/672294490/marietta_ga/george_s_grill_bbq.html", "address": {"city": "Marietta", "state": "GA", "street": "1951 Canton Rd NE", "postal_code": "30066"}, "capProviderId": null, "distance": null, "has_offers": false, "name": "George's Grill & BBQ", "longitude": -84.525055, "has_menu": false, "awards": null, "user_review_count": 0}, {"business_operation_status": 1, "rating": null, "neighborhood": null, "image": null, "scorecard": null, "featured": false, "sample_categories": "Restaurants, Coffee & Tea Shops, Italian, Shop Online", "public_id": "caffe-fortunato-marietta", "id": 713374520, "votes": null, "tagline": null, "has_video": false, "website": "http://www.citysearch.com/profile/external/713374520/marietta_ga/caffe_fortunato.html", "offers": null, "latitude": 33.950996, "politanName": "Atlanta, GA Metro ", "phone_number": "7709511394", "tags": [{"primary": false, "id": 1711, "name": "Coffee & Tea Shops"}, {"primary": false, "id": 11279, "name": "Italian"}, {"primary": false, "id": 11375, "name": "Shop Online"}, {"primary": true, "id": 1722, "name": "Restaurants"}], "fax_number": null, "expansion": {"count": null, "uri": null}, "impression_id": "000b000000a5364173482a4cfba1aadc04a1a41813", "profile": "http://www.citysearch.com/profile/713374520/marietta_ga/caffe_fortunato.html", "address": {"city": "Marietta", "state": "GA", "street": "255 Village Pkwy Ne", "postal_code": "30067"}, "capProviderId": null, "distance": null, "has_offers": false, "name": "Caffe Fortunato", "longitude": -84.413999, "has_menu": false, "awards": null, "user_review_count": 0}, {"business_operation_status": 1, "rating": null, "neighborhood": null, "image": null, "scorecard": null, "featured": false, "sample_categories": "Ice Cream Parlors", "public_id": "tios-mexican-grill-marietta", "id": 830806670, "votes": null, "tagline": null, "has_video": false, "website": null, "offers": null, "latitude": 33.970818, "politanName": "Atlanta, GA Metro ", "phone_number": "7709779727", "tags": [{"primary": true, "id": 1730, "name": "Ice Cream Parlors"}], "fax_number": null, "expansion": {"count": null, "uri": null}, "impression_id": "000b000000825a82b9c73b4f2b841d87a2e86aeac3", "profile": "http://www.citysearch.com/profile/830806670/marietta_ga/tios_mexican_grill.html", "address": {"city": "Marietta", "state": "GA", "street": "821 Woodmont Dr", "postal_code": "30062"}, "capProviderId": null, "distance": null, "has_offers": false, "name": "Tios Mexican Grill", "longitude": -84.49593, "has_menu": true, "awards": null, "user_review_count": 0}, {"business_operation_status": 1, "rating": null, "neighborhood": null, "image": null, "scorecard": null, "featured": false, "sample_categories": "Restaurants, Pizza", "public_id": "christos-pizza-marietta-2", "id": 620835184, "votes": null, "tagline": null, "has_video": false, "website": null, "offers": null, "latitude": 33.91616, "politanName": "Atlanta, GA Metro ", "phone_number": "7709521965", "tags": [{"primary": false, "id": 11299, "name": "Pizza"}, {"primary": true, "id": 1722, "name": "Restaurants"}], "fax_number": null, "expansion": {"count": null, "uri": null}, "impression_id": "000b0000006b6600aae76845ac8c0b7a42fc3650f4", "profile": "http://www.citysearch.com/profile/620835184/marietta_ga/christos_pizza.html", "address": {"city": "Marietta", "state": "GA", "street": "1453 Terrell Mill Rd SE", "postal_code": "30067"}, "capProviderId": null, "distance": null, "has_offers": false, "name": "Christos Pizza", "longitude": -84.467925, "has_menu": false, "awards": null, "user_review_count": 0}, {"business_operation_status": 1, "rating": null, "neighborhood": null, "image": null, "scorecard": null, "featured": false, "sample_categories": "Delis And Delicatessens, Restaurants", "public_id": "davids-gourmet-atlanta", "id": 33587605, "votes": null, "tagline": null, "has_video": false, "website": null, "offers": null, "latitude": 33.916975, "politanName": "Atlanta, GA Metro ", "phone_number": "7703919410", "tags": [{"primary": false, "id": 1727, "name": "Delis And Delicatessens"}, {"primary": true, "id": 1722, "name": "Restaurants"}], "fax_number": null, "expansion": {"count": null, "uri": null}, "impression_id": "000b0000001fd89d3c96bb4c90b7160caeb3daf6e7", "profile": "http://www.citysearch.com/profile/33587605/atlanta_ga/david_s_gourmet.html", "address": {"city": "Atlanta", "state": "GA", "street": "6 Concourse Pkwy NE Ste 2250", "postal_code": "30328"}, "capProviderId": null, "distance": null, "has_offers": false, "name": "David's Gourmet", "longitude": -84.356182, "has_menu": false, "awards": null, "user_review_count": 0}, {"business_operation_status": 1, "rating": null, "neighborhood": null, "image": null, "scorecard": null, "featured": false, "sample_categories": "Restaurants, Shop Online", "public_id": "killer-concepts-management-inc-marietta-2", "id": 627641050, "votes": null, "tagline": null, "has_video": false, "website": "http://www.citysearch.com/profile/external/627641050/marietta_ga/killer_concepts_management_inc.html", "offers": null, "latitude": 33.922016, "politanName": "Atlanta, GA Metro ", "phone_number": "7709846350", "tags": [{"primary": false, "id": 11375, "name": "Shop Online"}, {"primary": true, "id": 1722, "name": "Restaurants"}], "fax_number": null, "expansion": {"count": null, "uri": null}, "impression_id": "000b0000004919ffb6bd6c410fbc13834db6a47aac", "profile": "http://www.citysearch.com/profile/627641050/marietta_ga/killer_concepts_management_inc.html", "address": {"city": "Marietta", "state": "GA", "street": "2700 Delk Rd Se # 135", "postal_code": "30067"}, "capProviderId": null, "distance": null, "has_offers": false, "name": "Killer Concepts Management Inc", "longitude": -84.475071, "has_menu": false, "awards": null, "user_review_count": 0}, {"business_operation_status": 1, "rating": null, "neighborhood": null, "image": null, "scorecard": null, "featured": false, "sample_categories": "Restaurants", "public_id": "new-castle-restaurant-atlanta", "id": 35396298, "votes": null, "tagline": null, "has_video": false, "website": null, "offers": null, "latitude": 33.916678, "politanName": "Atlanta, GA Metro ", "phone_number": "4042553388", "tags": [{"primary": true, "id": 1722, "name": "Restaurants"}], "fax_number": null, "expansion": {"count": null, "uri": null}, "impression_id": "000b000000b0676e79c85e4d8dab26fdaf519882e8", "profile": "http://www.citysearch.com/profile/35396298/atlanta_ga/new_castle_restaurant.html", "address": {"city": "Atlanta", "state": "GA", "street": "5920 Roswell Road NE, Ste B111", "postal_code": "30328"}, "capProviderId": null, "distance": null, "has_offers": false, "name": "New Castle Restaurant", "longitude": -84.381718, "has_menu": false, "awards": null, "user_review_count": 0}, {"business_operation_status": 1, "rating": null, "neighborhood": null, "image": null, "scorecard": null, "featured": false, "sample_categories": "Restaurants, Delis And Delicatessens, Sandwich Shops, Carry Out", "public_id": "subway-marietta-36", "id": 655943030, "votes": null, "tagline": null, "has_video": false, "website": "http://www.citysearch.com/profile/external/655943030/marietta_ga/subway.html", "offers": null, "latitude": 33.995879, "politanName": "Atlanta, GA Metro ", "phone_number": "7703212546", "tags": [{"primary": false, "id": 1727, "name": "Delis And Delicatessens"}, {"primary": false, "id": 1736, "name": "Sandwich Shops"}, {"primary": false, "id": 11247, "name": "Carry Out"}, {"primary": true, "id": 1722, "name": "Restaurants"}], "fax_number": null, "expansion": {"count": null, "uri": null}, "impression_id": "000b00000052d1a4026e194fcd9b6d4f10c37e3d8d", "profile": "http://www.citysearch.com/profile/655943030/marietta_ga/subway.html", "address": {"city": "Marietta", "state": "GA", "street": "1860 Sandy Plains Rd # 301", "postal_code": "30066"}, "capProviderId": null, "distance": null, "has_offers": false, "name": "Subway", "longitude": -84.507715, "has_menu": false, "awards": null, "user_review_count": 0}, {"business_operation_status": 0, "rating": null, "neighborhood": null, "image": null, "scorecard": null, "featured": false, "sample_categories": "Restaurants, Banks", "public_id": "kosher-to-go-bagel-break-atlanta", "id": 45569967, "votes": null, "tagline": null, "has_video": false, "website": null, "offers": null, "latitude": 33.927046, "politanName": "Atlanta, GA Metro ", "phone_number": "4042554390", "tags": [{"primary": false, "id": 1722, "name": "Restaurants"}, {"primary": false, "id": 1622, "name": "Banks"}, {"primary": true, "id": 1723, "name": "Bagel Shops"}], "fax_number": null, "expansion": {"count": null, "uri": null}, "impression_id": "000b000000724874cfc0d149e8886da67245f3449f", "profile": "http://www.citysearch.com/profile/45569967/atlanta_ga/kosher_to_go_bagel_break.html", "address": {"city": "Atlanta", "state": "GA", "street": "6333 Roswell Rd NE", "postal_code": "30328"}, "capProviderId": null, "distance": null, "has_offers": false, "name": "Kosher To Go Bagel Break", "longitude": -84.37912, "has_menu": false, "awards": null, "user_review_count": 0}, {"business_operation_status": 0, "rating": null, "neighborhood": null, "image": null, "scorecard": null, "featured": false, "sample_categories": "Restaurants, MasterCard, Visa", "public_id": "mexicali-grill-atlanta", "id": 45569985, "votes": null, "tagline": null, "has_video": false, "website": null, "offers": null, "latitude": 33.936313, "politanName": "Atlanta, GA Metro ", "phone_number": "4042566394", "tags": [{"primary": false, "id": 11361, "name": "MasterCard"}, {"primary": false, "id": 11382, "name": "Visa"}, {"primary": true, "id": 1722, "name": "Restaurants"}], "fax_number": null, "expansion": {"count": null, "uri": null}, "impression_id": "000b00000002de99ca7d6c4106a21e7ae23b9819c3", "profile": "http://www.citysearch.com/profile/45569985/atlanta_ga/mexicali_grill.html", "address": {"city": "Atlanta", "state": "GA", "street": "6631 Roswell Rd NE", "postal_code": "30328"}, "capProviderId": null, "distance": null, "has_offers": false, "name": "Mexicali Grill", "longitude": -84.378811, "has_menu": true, "awards": null, "user_review_count": 1}, {"business_operation_status": 0, "rating": null, "neighborhood": null, "image": null, "scorecard": null, "featured": false, "sample_categories": "Restaurants", "public_id": "cafe-antalya-sandy-spgs", "id": 672189590, "votes": null, "tagline": null, "has_video": false, "website": "http://www.citysearch.com/profile/external/672189590/sandy_springs_ga/cafe_antalya.html", "offers": null, "latitude": 33.981228, "politanName": "Atlanta, GA Metro ", "phone_number": "6785270900", "tags": [{"primary": true, "id": 1722, "name": "Restaurants"}], "fax_number": null, "expansion": {"count": null, "uri": null}, "impression_id": "000b000000cb8aa574422b4376bd0e9d46ee4963c6", "profile": "http://www.citysearch.com/profile/672189590/sandy_springs_ga/cafe_antalya.html", "address": {"city": "Sandy Springs", "state": "GA", "street": "8290 roswell road", "postal_code": "30350"}, "capProviderId": null, "distance": null, "has_offers": false, "name": "Cafe Antalya", "longitude": -84.351122, "has_menu": true, "awards": null, "user_review_count": 0}, {"business_operation_status": 1, "rating": null, "neighborhood": null, "image": null, "scorecard": null, "featured": false, "sample_categories": "Restaurants, Pizza, Carry Out, American Express, Discover", "public_id": "papa-johns-pizza-marietta-9", "id": 682340070, "votes": null, "tagline": null, "has_video": false, "website": "http://www.citysearch.com/profile/external/682340070/marietta_ga/papa_john_s_pizza.html", "offers": null, "latitude": 34.025761, "politanName": "Atlanta, GA Metro ", "phone_number": "7705879072", "tags": [{"primary": false, "id": 1722, "name": "Restaurants"}, {"primary": false, "id": 11247, "name": "Carry Out"}, {"primary": false, "id": 11333, "name": "American Express"}, {"primary": false, "id": 11349, "name": "Discover"}, {"primary": false, "id": 11361, "name": "MasterCard"}, {"primary": false, "id": 11382, "name": "Visa"}, {"primary": true, "id": 11299, "name": "Pizza"}], "fax_number": null, "expansion": {"count": null, "uri": null}, "impression_id": "000b0000008e906d2927fe4a4dafc821d36d1f6205", "profile": "http://www.citysearch.com/profile/682340070/marietta_ga/papa_john_s_pizza.html", "address": {"city": "Marietta", "state": "GA", "street": "3154 Johnson Ferry Rd # 108", "postal_code": "30062"}, "capProviderId": null, "distance": null, "has_offers": false, "name": "Papa John's Pizza", "longitude": -84.424252, "has_menu": true, "awards": null, "user_review_count": 0}, {"business_operation_status": 1, "rating": null, "neighborhood": null, "image": null, "scorecard": null, "featured": false, "sample_categories": "Bakeries, Restaurants", "public_id": "martas-bakery-roswell", "id": 33636807, "votes": null, "tagline": null, "has_video": false, "website": null, "offers": null, "latitude": 34.034238, "politanName": "Atlanta, GA Metro ", "phone_number": "6782779135", "tags": [{"primary": false, "id": 1722, "name": "Restaurants"}, {"primary": true, "id": 1685, "name": "Bakeries"}], "fax_number": null, "expansion": {"count": null, "uri": null}, "impression_id": "000b00000039e31c9506bf430da04c9aa071a2d83f", "profile": "http://www.citysearch.com/profile/33636807/roswell_ga/marta_s_bakery.html", "address": {"city": "Roswell", "state": "GA", "street": "10479 Alpharetta St", "postal_code": "30075"}, "capProviderId": null, "distance": null, "has_offers": false, "name": "Marta's Bakery", "longitude": -84.345527, "has_menu": false, "awards": null, "user_review_count": 0}, {"business_operation_status": 1, "rating": null, "neighborhood": null, "image": null, "scorecard": null, "featured": false, "sample_categories": "Restaurants, French", "public_id": "la-madeleine-atlanta-3", "id": 777814890, "votes": null, "tagline": null, "has_video": false, "website": null, "offers": null, "latitude": 33.904695, "politanName": "Atlanta, GA Metro ", "phone_number": "7709528426", "tags": [{"primary": false, "id": 11219, "name": "French"}, {"primary": true, "id": 1722, "name": "Restaurants"}], "fax_number": null, "expansion": {"count": null, "uri": null}, "impression_id": "000b000000cb83ceaffd8a4d8697ea3b0ec1ceb4fa", "profile": "http://www.citysearch.com/profile/777814890/atlanta_ga/la_madeleine.html", "address": {"city": "Atlanta", "state": "GA", "street": "1931 Powers Ferry Rd Se", "postal_code": "30339"}, "capProviderId": null, "distance": null, "has_offers": false, "name": "La Madeleine", "longitude": -84.46178, "has_menu": false, "awards": null, "user_review_count": 0}, {"business_operation_status": 1, "rating": null, "neighborhood": null, "image": null, "scorecard": null, "featured": false, "sample_categories": "Restaurants", "public_id": "lakeview-cafe-atlanta-3", "id": 33613919, "votes": null, "tagline": null, "has_video": false, "website": null, "offers": null, "latitude": 33.935801, "politanName": "Atlanta, GA Metro ", "phone_number": "6785790028", "tags": [{"primary": true, "id": 1722, "name": "Restaurants"}], "fax_number": null, "expansion": {"count": null, "uri": null}, "impression_id": "000b0000005ea555f7d3e143d6a8212ae4cbccbb20", "profile": "http://www.citysearch.com/profile/33613919/atlanta_ga/lakeview_cafe.html", "address": {"city": "Atlanta", "state": "GA", "street": "10 Glenlake Pkwy NE", "postal_code": "30328"}, "capProviderId": null, "distance": null, "has_offers": false, "name": "Lakeview Cafe", "longitude": -84.361369, "has_menu": false, "awards": null, "user_review_count": 0}, {"business_operation_status": 1, "rating": null, "neighborhood": null, "image": null, "scorecard": null, "featured": false, "sample_categories": "Restaurants", "public_id": "curbside-cafe-marietta", "id": 787133600, "votes": null, "tagline": null, "has_video": false, "website": null, "offers": null, "latitude": 33.996594, "politanName": "Atlanta, GA Metro ", "phone_number": "7709920705", "tags": [{"primary": true, "id": 1722, "name": "Restaurants"}], "fax_number": null, "expansion": {"count": null, "uri": null}, "impression_id": "000b0000000b958acd1e7f432ebd5b3fd1c62b2b51", "profile": "http://www.citysearch.com/profile/787133600/marietta_ga/curbside_cafe.html", "address": {"city": "Marietta", "state": "GA", "street": "1907 Denton Walk Ct", "postal_code": "30062"}, "capProviderId": null, "distance": null, "has_offers": false, "name": "Curbside Cafe", "longitude": -84.416995, "has_menu": false, "awards": null, "user_review_count": 0}, {"business_operation_status": 1, "rating": null, "neighborhood": null, "image": null, "scorecard": null, "featured": false, "sample_categories": "Restaurants, Delis And Delicatessens", "public_id": "wildwood-cafe-marietta", "id": 787135220, "votes": null, "tagline": null, "has_video": false, "website": null, "offers": null, "latitude": 33.905878, "politanName": "Atlanta, GA Metro ", "phone_number": "7709160069", "tags": [{"primary": false, "id": 1727, "name": "Delis And Delicatessens"}, {"primary": true, "id": 1722, "name": "Restaurants"}], "fax_number": null, "expansion": {"count": null, "uri": null}, "impression_id": "000b0000001123653d193848d69ce0c445393f38d8", "profile": "http://www.citysearch.com/profile/787135220/marietta_ga/wildwood_cafe.html", "address": {"city": "Marietta", "state": "GA", "street": "2300 Windy Ridge Pkwy Se", "postal_code": "30067"}, "capProviderId": null, "distance": null, "has_offers": false, "name": "Wildwood Cafe", "longitude": -84.459393, "has_menu": false, "awards": null, "user_review_count": 0}, {"business_operation_status": 1, "rating": null, "neighborhood": null, "image": null, "scorecard": null, "featured": false, "sample_categories": "Restaurants", "public_id": "davids-gourmet-grille-iii-atlanta", "id": 40947163, "votes": null, "tagline": null, "has_video": false, "website": null, "offers": null, "latitude": 33.916903, "politanName": "Atlanta, GA Metro ", "phone_number": "7708040008", "tags": [{"primary": true, "id": 1722, "name": "Restaurants"}], "fax_number": null, "expansion": {"count": null, "uri": null}, "impression_id": "000b00000019de3a3593b248da851dc1fe5ca39c31", "profile": "http://www.citysearch.com/profile/40947163/atlanta_ga/david_s_gourmet_grille_iii.html", "address": {"city": "Atlanta", "state": "GA", "street": "5 Concourse Pkwy NE", "postal_code": "30328"}, "capProviderId": null, "distance": null, "has_offers": false, "name": "David's Gourmet Grille Iii", "longitude": -84.354615, "has_menu": false, "awards": null, "user_review_count": 0}, {"business_operation_status": 0, "rating": null, "neighborhood": null, "image": null, "scorecard": null, "featured": false, "sample_categories": "Restaurants, Mexican", "public_id": "el-cangrejo-atlanta", "id": 40947162, "votes": null, "tagline": null, "has_video": false, "website": null, "offers": null, "latitude": 33.952274, "politanName": "Atlanta, GA Metro ", "phone_number": "7703929991", "tags": [{"primary": false, "id": 11208, "name": "Mexican"}, {"primary": true, "id": 1722, "name": "Restaurants"}], "fax_number": null, "expansion": {"count": null, "uri": null}, "impression_id": "000b000000fecfdb627e8c4ed5aee288a31bee4569", "profile": "http://www.citysearch.com/profile/40947162/atlanta_ga/el_cangrejo.html", "address": {"city": "Atlanta", "state": "GA", "street": "7310 Roswell Rd NE", "postal_code": "30328"}, "capProviderId": null, "distance": null, "has_offers": false, "name": "El Cangrejo", "longitude": -84.367201, "has_menu": false, "awards": null, "user_review_count": 0}, {"business_operation_status": 0, "rating": null, "neighborhood": null, "image": null, "scorecard": null, "featured": false, "sample_categories": "Restaurants", "public_id": "south-beach-bistro-atlanta", "id": 45569984, "votes": null, "tagline": null, "has_video": false, "website": null, "offers": null, "latitude": 33.916678, "politanName": "Atlanta, GA Metro ", "phone_number": "4042528262", "tags": [{"primary": true, "id": 1722, "name": "Restaurants"}], "fax_number": null, "expansion": {"count": null, "uri": null}, "impression_id": "000b00000044ef5d2b362e46bf965237068d62bd27", "profile": "http://www.citysearch.com/profile/45569984/atlanta_ga/south_beach_bistro.html", "address": {"city": "Atlanta", "state": "GA", "street": "5920 Roswell Rd NE", "postal_code": "30328"}, "capProviderId": null, "distance": null, "has_offers": false, "name": "South Beach Bistro", "longitude": -84.381718, "has_menu": false, "awards": null, "user_review_count": 0}, {"business_operation_status": 1, "rating": null, "neighborhood": null, "image": null, "scorecard": null, "featured": false, "sample_categories": "Restaurants", "public_id": "leo-franco-chef-marietta", "id": 824426470, "votes": null, "tagline": null, "has_video": false, "website": null, "offers": null, "latitude": 33.948481, "politanName": "Atlanta, GA Metro ", "phone_number": "7704999439", "tags": [{"primary": true, "id": 1722, "name": "Restaurants"}], "fax_number": null, "expansion": {"count": null, "uri": null}, "impression_id": "000b000000005def2ce58f4729bb34fb7655dcefb7", "profile": "http://www.citysearch.com/profile/824426470/marietta_ga/leo_franco_chef.html", "address": {"city": "Marietta", "state": "GA", "street": "20 Emerson Hill Sq", "postal_code": "30060"}, "capProviderId": null, "distance": null, "has_offers": false, "name": "Leo Franco Chef", "longitude": -84.542181, "has_menu": false, "awards": null, "user_review_count": 0}, {"business_operation_status": 1, "rating": null, "neighborhood": null, "image": null, "scorecard": null, "featured": false, "sample_categories": "Ice Cream Parlors", "public_id": "haagen-dazs-atlanta-2", "id": 601367489, "votes": null, "tagline": null, "has_video": false, "website": "http://www.citysearch.com/profile/external/601367489/atlanta_ga/haagen_dazs.html", "offers": null, "latitude": 33.929879, "politanName": "Atlanta, GA Metro ", "phone_number": "7703938822", "tags": [{"primary": true, "id": 1730, "name": "Ice Cream Parlors"}], "fax_number": null, "expansion": {"count": null, "uri": null}, "impression_id": "000b000000cd89f2e9d3644220b470f964574c9390", "profile": "http://www.citysearch.com/profile/601367489/atlanta_ga/haagen_dazs.html", "address": {"city": "Atlanta", "state": "GA", "street": "1307 Perimeter Ctr W", "postal_code": "30338"}, "capProviderId": null, "distance": null, "has_offers": false, "name": "Haagen Dazs", "longitude": -84.348125, "has_menu": true, "awards": null, "user_review_count": 0}, {"business_operation_status": 1, "rating": 8.0, "neighborhood": null, "image": null, "scorecard": null, "featured": false, "sample_categories": "Restaurants, Chinese, American Express, Discover, MasterCard", "public_id": "new-lucky-china-marietta", "id": 33572518, "votes": null, "tagline": null, "has_video": false, "website": "http://www.citysearch.com/profile/external/33572518/marietta_ga/new_lucky_china.html", "offers": null, "latitude": 34.03494, "politanName": "Atlanta, GA Metro ", "phone_number": "7705659666", "tags": [{"primary": false, "id": 11252, "name": "Chinese"}, {"primary": false, "id": 11333, "name": "American Express"}, {"primary": false, "id": 11349, "name": "Discover"}, {"primary": false, "id": 11361, "name": "MasterCard"}, {"primary": false, "id": 11382, "name": "Visa"}, {"primary": true, "id": 1722, "name": "Restaurants"}], "fax_number": null, "expansion": {"count": null, "uri": null}, "impression_id": "000b000000c81f55c79bc94ee2a640900eb6f18cde", "profile": "http://www.citysearch.com/profile/33572518/marietta_ga/new_lucky_china.html", "address": {"city": "Marietta", "state": "GA", "street": "2960 Shallowford Rd Ste 201", "postal_code": "30066"}, "capProviderId": null, "distance": null, "has_offers": false, "name": "New Lucky China", "longitude": -84.466773, "has_menu": true, "awards": null, "user_review_count": 4}, {"business_operation_status": 1, "rating": null, "neighborhood": null, "image": null, "scorecard": null, "featured": false, "sample_categories": "Restaurants", "public_id": "tanners-chicken-rotisserie-sandy", "id": 823580980, "votes": null, "tagline": null, "has_video": false, "website": null, "offers": null, "latitude": 33.982083, "politanName": "Atlanta, GA Metro ", "phone_number": "7706427777", "tags": [{"primary": true, "id": 1722, "name": "Restaurants"}], "fax_number": null, "expansion": {"count": null, "uri": null}, "impression_id": "000b000000828b76510a454f4a91acb40070d8f54e", "profile": "http://www.citysearch.com/profile/823580980/sandy_springs_ga/tanner_s_chicken_rotisserie.html", "address": {"city": "Sandy Springs", "state": "GA", "street": "350 Northridge Rd", "postal_code": "30350"}, "capProviderId": null, "distance": null, "has_offers": false, "name": "Tanner's Chicken Rotisserie", "longitude": -84.347861, "has_menu": false, "awards": null, "user_review_count": 0}, {"business_operation_status": 1, "rating": null, "neighborhood": null, "image": null, "scorecard": null, "featured": false, "sample_categories": "Restaurants", "public_id": "chipotile-roswell", "id": 614274674, "votes": null, "tagline": null, "has_video": false, "website": "http://www.citysearch.com/profile/external/614274674/roswell_ga/chipotile.html", "offers": null, "latitude": 34.044203, "politanName": "Atlanta, GA Metro ", "phone_number": "7706420490", "tags": [{"primary": true, "id": 1722, "name": "Restaurants"}], "fax_number": null, "expansion": {"count": null, "uri": null}, "impression_id": "000b0000007df137bb4d1e4080a077b2354a2c712a", "profile": "http://www.citysearch.com/profile/614274674/roswell_ga/chipotile.html", "address": {"city": "Roswell", "state": "GA", "street": "10800 Alpharetta Hwy", "postal_code": "30076"}, "capProviderId": null, "distance": null, "has_offers": false, "name": "Chipotile", "longitude": -84.34152, "has_menu": false, "awards": null, "user_review_count": 0}, {"business_operation_status": 1, "rating": null, "neighborhood": null, "image": null, "scorecard": null, "featured": false, "sample_categories": "Restaurants", "public_id": "el-toro-mexican-food-roswell-2", "id": 825386920, "votes": null, "tagline": null, "has_video": false, "website": null, "offers": null, "latitude": 34.022969, "politanName": "Atlanta, GA Metro ", "phone_number": "7706418127", "tags": [{"primary": true, "id": 1722, "name": "Restaurants"}], "fax_number": null, "expansion": {"count": null, "uri": null}, "impression_id": "000b0000007645162835364a3baeed9817a8787dd2", "profile": "http://www.citysearch.com/profile/825386920/roswell_ga/el_toro_mexican_food.html", "address": {"city": "Roswell", "state": "GA", "street": "1085 Holcomb Bridge Rd", "postal_code": "30076"}, "capProviderId": null, "distance": null, "has_offers": false, "name": "El Toro Mexican Food", "longitude": -84.329534, "has_menu": false, "awards": null, "user_review_count": 0}, {"business_operation_status": 1, "rating": null, "neighborhood": null, "image": null, "scorecard": null, "featured": false, "sample_categories": "Restaurants", "public_id": "bridge-smoke-grill-marietta", "id": 838772530, "votes": null, "tagline": null, "has_video": false, "website": null, "offers": null, "latitude": 33.927554, "politanName": "Atlanta, GA Metro ", "phone_number": "6789033043", "tags": [{"primary": true, "id": 1722, "name": "Restaurants"}], "fax_number": null, "expansion": {"count": null, "uri": null}, "impression_id": "000b00000029fb556821f641d49f05a0314b5e58a0", "profile": "http://www.citysearch.com/profile/838772530/marietta_ga/bridge_smoke_grill.html", "address": {"city": "Marietta", "state": "GA", "street": "1038 Franklin Rd SE", "postal_code": "30067"}, "capProviderId": null, "distance": null, "has_offers": false, "name": "Bridge Smoke Grill", "longitude": -84.493666, "has_menu": false, "awards": null, "user_review_count": 0}, {"business_operation_status": 1, "rating": null, "neighborhood": null, "image": null, "scorecard": null, "featured": false, "sample_categories": "Ice Cream Parlors, Frozen Yogurt Shops", "public_id": "baskinrobbins-marietta", "id": 627670240, "votes": null, "tagline": null, "has_video": false, "website": "http://www.citysearch.com/profile/external/627670240/marietta_ga/baskin_robbins.html", "offers": null, "latitude": 34.021176, "politanName": "Atlanta, GA Metro ", "phone_number": "7704223375", "tags": [{"primary": false, "id": 1729, "name": "Frozen Yogurt Shops"}, {"primary": true, "id": 1730, "name": "Ice Cream Parlors"}], "fax_number": null, "expansion": {"count": null, "uri": null}, "impression_id": "000b000000ad7a004339e2423eb44d10a94bf353de", "profile": "http://www.citysearch.com/profile/627670240/marietta_ga/baskin_robbins.html", "address": {"city": "Marietta", "state": "GA", "street": "2885 Canton Rd", "postal_code": "30066"}, "capProviderId": null, "distance": null, "has_offers": false, "name": "Baskin-Robbins", "longitude": -84.529098, "has_menu": true, "awards": null, "user_review_count": 2}, {"business_operation_status": 1, "rating": null, "neighborhood": null, "image": null, "scorecard": null, "featured": false, "sample_categories": "Restaurants, Traditional American, Hot Dogs", "public_id": "shoneys-restaurant-marietta-2", "id": 39887498, "votes": null, "tagline": null, "has_video": false, "website": null, "offers": null, "latitude": 33.905998, "politanName": "Atlanta, GA Metro ", "phone_number": "7709926060", "tags": [{"primary": false, "id": 1722, "name": "Restaurants"}, {"primary": false, "id": 11274, "name": "Hot Dogs"}, {"primary": true, "id": 11190, "name": "Traditional American"}], "fax_number": null, "expansion": {"count": null, "uri": null}, "impression_id": "000b000000c1a1af500c3c4b19a4d8d4793b161d62", "profile": "http://www.citysearch.com/profile/39887498/marietta_ga/shoney_s_restaurant.html", "address": {"city": "Marietta", "state": "GA", "street": "1950 Spectrum Cir SE", "postal_code": "30067"}, "capProviderId": null, "distance": null, "has_offers": false, "name": "Shoney's Restaurant", "longitude": -84.467685, "has_menu": true, "awards": null, "user_review_count": 0}, {"business_operation_status": 1, "rating": null, "neighborhood": null, "image": null, "scorecard": null, "featured": false, "sample_categories": "Restaurants", "public_id": "cool-water-cafe-atlanta", "id": 682535400, "votes": null, "tagline": null, "has_video": false, "website": null, "offers": null, "latitude": 33.906954, "politanName": "Atlanta, GA Metro ", "phone_number": "7709840944", "tags": [{"primary": true, "id": 1722, "name": "Restaurants"}], "fax_number": null, "expansion": {"count": null, "uri": null}, "impression_id": "000b00000083388d7e2d7b4db7bf9aa1f28d452679", "profile": "http://www.citysearch.com/profile/682535400/atlanta_ga/cool_water_cafe.html", "address": {"city": "Atlanta", "state": "GA", "street": "5500 Interstate North Pkwy NW", "postal_code": "30328"}, "capProviderId": null, "distance": null, "has_offers": false, "name": "Cool Water Cafe", "longitude": -84.434288, "has_menu": false, "awards": null, "user_review_count": 0}, {"business_operation_status": 1, "rating": null, "neighborhood": null, "image": null, "scorecard": null, "featured": false, "sample_categories": "Restaurants", "public_id": "com-dunwoody", "id": 713390960, "votes": null, "tagline": null, "has_video": false, "website": "http://www.citysearch.com/profile/external/713390960/dunwoody_ga/co_m.html", "offers": null, "latitude": 33.947419, "politanName": "Atlanta, GA Metro ", "phone_number": "7705127410", "tags": [{"primary": true, "id": 1722, "name": "Restaurants"}], "fax_number": null, "expansion": {"count": null, "uri": null}, "impression_id": "000b000000669597961b7e472a926faaeb698dd628", "profile": "http://www.citysearch.com/profile/713390960/dunwoody_ga/co_m.html", "address": {"city": "Dunwoody", "state": "GA", "street": "5486 Chamblee Dunwoody Rd", "postal_code": "30338"}, "capProviderId": null, "distance": null, "has_offers": false, "name": "Co'm", "longitude": -84.337064, "has_menu": false, "awards": null, "user_review_count": 0}, {"business_operation_status": 1, "rating": null, "neighborhood": null, "image": null, "scorecard": null, "featured": false, "sample_categories": "Ice Cream Parlors, Restaurants", "public_id": "pino-gelalo-of-marietta-marietta", "id": 713581850, "votes": null, "tagline": null, "has_video": false, "website": null, "offers": null, "latitude": 33.952532, "politanName": "Atlanta, GA Metro ", "phone_number": "7702182525", "tags": [{"primary": false, "id": 1722, "name": "Restaurants"}, {"primary": true, "id": 1730, "name": "Ice Cream Parlors"}], "fax_number": null, "expansion": {"count": null, "uri": null}, "impression_id": "000b000000f81a29bc72474a538a7d1a2bc1279efd", "profile": "http://www.citysearch.com/profile/713581850/marietta_ga/pino_gelalo_of_marietta.html", "address": {"city": "Marietta", "state": "GA", "street": "21 W Park Sq Ne", "postal_code": "30060"}, "capProviderId": null, "distance": null, "has_offers": false, "name": "Pino Gelalo of Marietta", "longitude": -84.550467, "has_menu": false, "awards": null, "user_review_count": 0}, {"business_operation_status": 1, "rating": null, "neighborhood": null, "image": null, "scorecard": null, "featured": false, "sample_categories": "Restaurants", "public_id": "willamsonbros-marietta-2", "id": 609749214, "votes": null, "tagline": null, "has_video": false, "website": null, "offers": null, "latitude": 33.977691, "politanName": "Atlanta, GA Metro ", "phone_number": "7704999797", "tags": [{"primary": true, "id": 1722, "name": "Restaurants"}], "fax_number": null, "expansion": {"count": null, "uri": null}, "impression_id": "000b000000d41c59c02c6849fa93f35b309dac4824", "profile": "http://www.citysearch.com/profile/609749214/marietta_ga/willamsonbros.html", "address": {"city": "Marietta", "state": "GA", "street": "1160 Hayes Industrial Dr", "postal_code": "30062"}, "capProviderId": null, "distance": null, "has_offers": false, "name": "Willamsonbros", "longitude": -84.542327, "has_menu": false, "awards": null, "user_review_count": 0}, {"business_operation_status": 1, "rating": null, "neighborhood": null, "image": null, "scorecard": null, "featured": false, "sample_categories": "Restaurants", "public_id": "north-american-restaurants-atlanta", "id": 732183220, "votes": null, "tagline": null, "has_video": false, "website": null, "offers": null, "latitude": 33.967861, "politanName": "Atlanta, GA Metro ", "phone_number": "4046597900", "tags": [{"primary": true, "id": 1722, "name": "Restaurants"}], "fax_number": null, "expansion": {"count": null, "uri": null}, "impression_id": "000b000000191a4036d1d3425eb3c2572c5f8c1b0b", "profile": "http://www.citysearch.com/profile/732183220/atlanta_ga/north_american_restaurants.html", "address": {"city": "Atlanta", "state": "GA", "street": "1255 Spalding Dr", "postal_code": "30350"}, "capProviderId": null, "distance": null, "has_offers": false, "name": "North American Restaurants", "longitude": -84.344487, "has_menu": false, "awards": null, "user_review_count": 0}, {"business_operation_status": 1, "rating": null, "neighborhood": null, "image": null, "scorecard": null, "featured": false, "sample_categories": "Restaurants", "public_id": "hg-regency-inc-atlanta", "id": 732204460, "votes": null, "tagline": null, "has_video": false, "website": null, "offers": null, "latitude": 33.94104, "politanName": "Atlanta, GA Metro ", "phone_number": "4048438119", "tags": [{"primary": true, "id": 1722, "name": "Restaurants"}], "fax_number": null, "expansion": {"count": null, "uri": null}, "impression_id": "000b000000dfd091386eaa496aaa60041ba7a2de56", "profile": "http://www.citysearch.com/profile/732204460/atlanta_ga/hg_regency_inc.html", "address": {"city": "Atlanta", "state": "GA", "street": "150 Landsdowne Dr NW", "postal_code": "30328"}, "capProviderId": null, "distance": null, "has_offers": false, "name": "HG Regency Inc", "longitude": -84.39226, "has_menu": false, "awards": null, "user_review_count": 0}, {"business_operation_status": 1, "rating": null, "neighborhood": null, "image": null, "scorecard": null, "featured": false, "sample_categories": "Restaurants, Carry Out", "public_id": "kfc-marietta-10", "id": 713491660, "votes": null, "tagline": null, "has_video": false, "website": "http://www.citysearch.com/profile/external/713491660/marietta_ga/kfc.html", "offers": null, "latitude": 33.999161, "politanName": "Atlanta, GA Metro ", "phone_number": "7704276866", "tags": [{"primary": false, "id": 11247, "name": "Carry Out"}, {"primary": true, "id": 1722, "name": "Restaurants"}], "fax_number": null, "expansion": {"count": null, "uri": null}, "impression_id": "000b000000bc0731bc9b7849f593dd4382c2926fda", "profile": "http://www.citysearch.com/profile/713491660/marietta_ga/kfc.html", "address": {"city": "Marietta", "state": "GA", "street": "2012 Canton Rd", "postal_code": "30066"}, "capProviderId": null, "distance": null, "has_offers": false, "name": "KFC", "longitude": -84.523794, "has_menu": false, "awards": null, "user_review_count": 0}, {"business_operation_status": 1, "rating": null, "neighborhood": null, "image": null, "scorecard": null, "featured": false, "sample_categories": "Delis And Delicatessens, Restaurants", "public_id": "european-deli-marietta", "id": 713573470, "votes": null, "tagline": null, "has_video": false, "website": null, "offers": null, "latitude": 33.980787, "politanName": "Atlanta, GA Metro ", "phone_number": "7706939409", "tags": [{"primary": false, "id": 1722, "name": "Restaurants"}, {"primary": true, "id": 1727, "name": "Delis And Delicatessens"}], "fax_number": null, "expansion": {"count": null, "uri": null}, "impression_id": "000b000000e2b32e47a6044c6cb66b27378fea782c", "profile": "http://www.citysearch.com/profile/713573470/marietta_ga/european_deli.html", "address": {"city": "Marietta", "state": "GA", "street": "3101 Roswell Rd # F1", "postal_code": "30062"}, "capProviderId": null, "distance": null, "has_offers": false, "name": "European Deli", "longitude": -84.464028, "has_menu": false, "awards": null, "user_review_count": 0}, {"business_operation_status": 1, "rating": null, "neighborhood": null, "image": null, "scorecard": null, "featured": false, "sample_categories": "Restaurants", "public_id": "baja-fresh-sandy", "id": 818471980, "votes": null, "tagline": null, "has_video": false, "website": null, "offers": null, "latitude": 33.918575, "politanName": "Atlanta, GA Metro ", "phone_number": "4042565187", "tags": [{"primary": true, "id": 1722, "name": "Restaurants"}], "fax_number": null, "expansion": {"count": null, "uri": null}, "impression_id": "000b0000000dc91123d03449998996504cd155151e", "profile": "http://www.citysearch.com/profile/818471980/sandy_springs_ga/baja_fresh.html", "address": {"city": "Sandy Springs", "state": "GA", "street": "5992 Roswell Rd", "postal_code": "30328"}, "capProviderId": null, "distance": null, "has_offers": false, "name": "Baja Fresh", "longitude": -84.381854, "has_menu": false, "awards": null, "user_review_count": 0}, {"business_operation_status": 1, "rating": null, "neighborhood": null, "image": null, "scorecard": null, "featured": false, "sample_categories": "Bars & Clubs, Restaurants", "public_id": "two-monkeys-llc-marietta", "id": 823894470, "votes": null, "tagline": null, "has_video": false, "website": null, "offers": null, "latitude": 33.951907, "politanName": "Atlanta, GA Metro ", "phone_number": "7704220108", "tags": [{"primary": false, "id": 1722, "name": "Restaurants"}, {"primary": true, "id": 164, "name": "Bars & Clubs"}], "fax_number": null, "expansion": {"count": null, "uri": null}, "impression_id": "000b000000cd1c0b6a76054575bb02aee894e32003", "profile": "http://www.citysearch.com/profile/823894470/marietta_ga/two_monkeys_llc.html", "address": {"city": "Marietta", "state": "GA", "street": "688 Whitlock Ave NW # G", "postal_code": "30064"}, "capProviderId": null, "distance": null, "has_offers": false, "name": "Two Monkeys LLC", "longitude": -84.572199, "has_menu": false, "awards": null, "user_review_count": 0}], "histograms": [], "tag_ids": [1722], "uri": "http://api.citygridmedia.com:8080/search/places/v2/search/where?has_offers=false&type=restaurant&format=json&page=31&where=30068&rpp=50&histograms=false&publisher=10000009598&region_type=circle", "did_you_mean": "", "regions": [{"latitude": 33.967813, "default_radius": 3.91, "type": "postal_code", "name": "30068", "longitude": -84.433422}], "call_id": "000b00000076bfeac437af45d48df3caae8ce0b63f", "first_hit": 1501, "total_hits": 2028, "geo_ids": [26296], "page": 31, "last_hit": 1550}}