{"results": {"rpp": 50, "locations": [{"business_operation_status": 1, "rating": null, "neighborhood": null, "image": null, "scorecard": null, "featured": false, "sample_categories": "Restaurants, Barbecue Restaurants", "public_id": "hot-wings-marietta-2", "id": 764883190, "votes": null, "tagline": null, "has_video": false, "website": null, "offers": null, "latitude": 33.922673, "politanName": "Atlanta, GA Metro ", "phone_number": "6784013756", "tags": [{"primary": false, "id": 1724, "name": "Barbecue Restaurants"}, {"primary": true, "id": 1722, "name": "Restaurants"}], "fax_number": null, "expansion": {"count": null, "uri": null}, "impression_id": "000b000000e257eb78e0d842fe99b538b2551fbbfc", "profile": "http://www.citysearch.com/profile/764883190/marietta_ga/hot_wings.html", "address": {"city": "Marietta", "state": "GA", "street": "2555 Delk Rd SE # A8", "postal_code": "30067"}, "capProviderId": null, "distance": null, "has_offers": false, "name": "Hot Wings", "longitude": -84.478383, "has_menu": false, "awards": null, "user_review_count": 0}, {"business_operation_status": 1, "rating": null, "neighborhood": null, "image": null, "scorecard": null, "featured": false, "sample_categories": "Restaurants, Delis And Delicatessens", "public_id": "zoes-kitchen-atlanta-4", "id": 764925940, "votes": null, "tagline": null, "has_video": false, "website": null, "offers": null, "latitude": 33.929652, "politanName": "Atlanta, GA Metro ", "phone_number": "7705128637", "tags": [{"primary": false, "id": 1727, "name": "Delis And Delicatessens"}, {"primary": true, "id": 1722, "name": "Restaurants"}], "fax_number": null, "expansion": {"count": null, "uri": null}, "impression_id": "000b000000838f54ad9b8c409f87632031925e39b7", "profile": "http://www.citysearch.com/profile/764925940/atlanta_ga/zoes_kitchen.html", "address": {"city": "Atlanta", "state": "GA", "street": "1165 Perimeter Ctr W", "postal_code": "30338"}, "capProviderId": null, "distance": null, "has_offers": false, "name": "Zoes Kitchen", "longitude": -84.347706, "has_menu": false, "awards": null, "user_review_count": 0}, {"business_operation_status": 0, "rating": null, "neighborhood": null, "image": null, "scorecard": null, "featured": false, "sample_categories": "Restaurants", "public_id": "real-deal-roswell", "id": 713555980, "votes": null, "tagline": null, "has_video": false, "website": null, "offers": null, "latitude": 34.034238, "politanName": "Atlanta, GA Metro ", "phone_number": "6787950394", "tags": [{"primary": true, "id": 1722, "name": "Restaurants"}], "fax_number": null, "expansion": {"count": null, "uri": null}, "impression_id": "000b000000636dbd5549ad484f9339af3de1c5e3a5", "profile": "http://www.citysearch.com/profile/713555980/roswell_ga/real_deal.html", "address": {"city": "Roswell", "state": "GA", "street": "10479 Alpharetta St # 1", "postal_code": "30075"}, "capProviderId": null, "distance": null, "has_offers": false, "name": "Real Deal", "longitude": -84.345527, "has_menu": false, "awards": null, "user_review_count": 0}, {"business_operation_status": 1, "rating": null, "neighborhood": null, "image": null, "scorecard": null, "featured": false, "sample_categories": "Restaurants, Catering, Cajun & Creole", "public_id": "catering-cajun-marietta", "id": 775223040, "votes": null, "tagline": null, "has_video": false, "website": null, "offers": null, "latitude": 34.041613, "politanName": "Atlanta, GA Metro ", "phone_number": "6789960919", "tags": [{"primary": false, "id": 1705, "name": "Catering"}, {"primary": false, "id": 11245, "name": "Cajun & Creole"}, {"primary": true, "id": 1722, "name": "Restaurants"}], "fax_number": null, "expansion": {"count": null, "uri": null}, "impression_id": "000b0000005825b22c373146e6b3143e2c48e70e9a", "profile": "http://www.citysearch.com/profile/775223040/marietta_ga/catering_cajun.html", "address": {"city": "Marietta", "state": "GA", "street": "2409 Shallowford Rd", "postal_code": "30066"}, "capProviderId": null, "distance": null, "has_offers": false, "name": "Catering Cajun", "longitude": -84.480364, "has_menu": false, "awards": null, "user_review_count": 0}, {"business_operation_status": 1, "rating": null, "neighborhood": null, "image": null, "scorecard": null, "featured": false, "sample_categories": "Restaurants, Jamaican", "public_id": "country-style-jamaican-rstrnt-marietta", "id": 790653840, "votes": null, "tagline": null, "has_video": false, "website": null, "offers": null, "latitude": 34.03261, "politanName": "Atlanta, GA Metro ", "phone_number": "7704258444", "tags": [{"primary": false, "id": 11193, "name": "Jamaican"}, {"primary": true, "id": 1722, "name": "Restaurants"}], "fax_number": null, "expansion": {"count": null, "uri": null}, "impression_id": "000b00000037f7a008b7184f7ca6ee4b5db1302715", "profile": "http://www.citysearch.com/profile/790653840/marietta_ga/country_style_jamaican_rstrnt.html", "address": {"city": "Marietta", "state": "GA", "street": "3349 Canton Rd # 201", "postal_code": "30066"}, "capProviderId": null, "distance": null, "has_offers": false, "name": "Country Style Jamaican Rstrnt", "longitude": -84.528907, "has_menu": false, "awards": null, "user_review_count": 0}, {"business_operation_status": 1, "rating": null, "neighborhood": null, "image": null, "scorecard": null, "featured": false, "sample_categories": "Restaurants, Asian, Chinese", "public_id": "chinese-restaurant-marietta", "id": 682576220, "votes": null, "tagline": null, "has_video": false, "website": "http://www.citysearch.com/profile/external/682576220/marietta_ga/chinese_restaurant.html", "offers": null, "latitude": 33.968527, "politanName": "Atlanta, GA Metro ", "phone_number": "7703218202", "tags": [{"primary": false, "id": 11235, "name": "Asian"}, {"primary": false, "id": 11252, "name": "Chinese"}, {"primary": true, "id": 1722, "name": "Restaurants"}], "fax_number": null, "expansion": {"count": null, "uri": null}, "impression_id": "000b000000eb23e5e0ad564ceea2197087c03b8b83", "profile": "http://www.citysearch.com/profile/682576220/marietta_ga/chinese_restaurant.html", "address": {"city": "Marietta", "state": "GA", "street": "2145 Roswell Rd", "postal_code": "30062"}, "capProviderId": null, "distance": null, "has_offers": false, "name": "Chinese Restaurant", "longitude": -84.491622, "has_menu": false, "awards": null, "user_review_count": 0}, {"business_operation_status": 1, "rating": null, "neighborhood": null, "image": null, "scorecard": null, "featured": false, "sample_categories": "Restaurants, Chinese", "public_id": "stoneys-chinese-cuisine-wng-roswell", "id": 757955540, "votes": null, "tagline": null, "has_video": false, "website": null, "offers": null, "latitude": 34.034238, "politanName": "Atlanta, GA Metro ", "phone_number": "7709107810", "tags": [{"primary": false, "id": 11252, "name": "Chinese"}, {"primary": true, "id": 1722, "name": "Restaurants"}], "fax_number": null, "expansion": {"count": null, "uri": null}, "impression_id": "000b0000006c854f3d80dd4b45bca2da9f1468f1ee", "profile": "http://www.citysearch.com/profile/757955540/roswell_ga/stoney_s_chinese_cuisine_wng.html", "address": {"city": "Roswell", "state": "GA", "street": "10479 Alpharetta St", "postal_code": "30075"}, "capProviderId": null, "distance": null, "has_offers": false, "name": "Stoney's Chinese Cuisine & Wng", "longitude": -84.345527, "has_menu": false, "awards": null, "user_review_count": 0}, {"business_operation_status": 1, "rating": null, "neighborhood": null, "image": null, "scorecard": null, "featured": false, "sample_categories": "Restaurants", "public_id": "kelley-restaurants-inc-atlanta", "id": 805545520, "votes": null, "tagline": null, "has_video": false, "website": null, "offers": null, "latitude": 33.907557, "politanName": "Atlanta, GA Metro ", "phone_number": "4042571706", "tags": [{"primary": true, "id": 1722, "name": "Restaurants"}], "fax_number": null, "expansion": {"count": null, "uri": null}, "impression_id": "000b00000030f7ff9df528420abdd2203a73a94a20", "profile": "http://www.citysearch.com/profile/805545520/atlanta_ga/kelley_restaurants_inc.html", "address": {"city": "Atlanta", "state": "GA", "street": "5600 Roswell Rd # 100", "postal_code": "30342"}, "capProviderId": null, "distance": null, "has_offers": false, "name": "Kelley Restaurants Inc", "longitude": -84.378776, "has_menu": false, "awards": null, "user_review_count": 0}, {"business_operation_status": 1, "rating": null, "neighborhood": null, "image": null, "scorecard": null, "featured": false, "sample_categories": "Restaurants", "public_id": "philly-connection-marietta-4", "id": 805419070, "votes": null, "tagline": null, "has_video": false, "website": null, "offers": null, "latitude": 34.011742, "politanName": "Atlanta, GA Metro ", "phone_number": "7705799288", "tags": [{"primary": true, "id": 1722, "name": "Restaurants"}], "fax_number": null, "expansion": {"count": null, "uri": null}, "impression_id": "000b000000c4d6ae3ef76f4a54aa39582d9e2096bd", "profile": "http://www.citysearch.com/profile/805419070/marietta_ga/philly_connection.html", "address": {"city": "Marietta", "state": "GA", "street": "2550 Sandy Plains Rd # 215", "postal_code": "30066"}, "capProviderId": null, "distance": null, "has_offers": false, "name": "Philly Connection", "longitude": -84.495056, "has_menu": true, "awards": null, "user_review_count": 0}, {"business_operation_status": 1, "rating": null, "neighborhood": null, "image": null, "scorecard": null, "featured": false, "sample_categories": "Restaurants, Cafes", "public_id": "dsc-solutions-llc-marietta", "id": 764892180, "votes": null, "tagline": null, "has_video": false, "website": null, "offers": null, "latitude": 34.014183, "politanName": "Atlanta, GA Metro ", "phone_number": "7709776915", "tags": [{"primary": false, "id": 6190, "name": "Cafes"}, {"primary": true, "id": 1722, "name": "Restaurants"}], "fax_number": null, "expansion": {"count": null, "uri": null}, "impression_id": "000b00000002247cb280274ae68aacf27793826ebd", "profile": "http://www.citysearch.com/profile/764892180/marietta_ga/dsc_solutions_llc.html", "address": {"city": "Marietta", "state": "GA", "street": "2595 Sandy Plains Rd # 1", "postal_code": "30066"}, "capProviderId": null, "distance": null, "has_offers": false, "name": "DSC Solutions Llc", "longitude": -84.495373, "has_menu": false, "awards": null, "user_review_count": 0}, {"business_operation_status": 1, "rating": null, "neighborhood": null, "image": null, "scorecard": null, "featured": false, "sample_categories": "Restaurants, Carry Out", "public_id": "ryans-grill-buffet-bakery-marietta", "id": 764837190, "votes": null, "tagline": null, "has_video": false, "website": null, "offers": null, "latitude": 34.010977, "politanName": "Atlanta, GA Metro ", "phone_number": "7704250277", "tags": [{"primary": false, "id": 11247, "name": "Carry Out"}, {"primary": true, "id": 1722, "name": "Restaurants"}], "fax_number": null, "expansion": {"count": null, "uri": null}, "impression_id": "000b000000de781199a58c4e7087b89417c518033e", "profile": "http://www.citysearch.com/profile/764837190/marietta_ga/ryan_s_grill_buffet_bakery.html", "address": {"city": "Marietta", "state": "GA", "street": "2418 Canton Rd", "postal_code": "30066"}, "capProviderId": null, "distance": null, "has_offers": false, "name": "Ryan's Grill Buffet & Bakery", "longitude": -84.526734, "has_menu": false, "awards": null, "user_review_count": 0}, {"business_operation_status": 1, "rating": null, "neighborhood": null, "image": null, "scorecard": null, "featured": false, "sample_categories": "Restaurants", "public_id": "kouzina-christos-marietta", "id": 764881650, "votes": null, "tagline": null, "has_video": false, "website": null, "offers": null, "latitude": 33.91616, "politanName": "Atlanta, GA Metro ", "phone_number": "7709521950", "tags": [{"primary": true, "id": 1722, "name": "Restaurants"}], "fax_number": null, "expansion": {"count": null, "uri": null}, "impression_id": "000b00000089e21e6186524b36a19d2c5d191a54b2", "profile": "http://www.citysearch.com/profile/764881650/marietta_ga/kouzina_christos.html", "address": {"city": "Marietta", "state": "GA", "street": "1453 Terrell Mill Rd SE # 113", "postal_code": "30067"}, "capProviderId": null, "distance": null, "has_offers": false, "name": "Kouzina Christos", "longitude": -84.467925, "has_menu": false, "awards": null, "user_review_count": 0}, {"business_operation_status": 1, "rating": null, "neighborhood": null, "image": null, "scorecard": null, "featured": false, "sample_categories": "Restaurants", "public_id": "seattle-suttons-healthy-roswell", "id": 809649590, "votes": null, "tagline": null, "has_video": false, "website": null, "offers": null, "latitude": 34.049276, "politanName": "Atlanta, GA Metro ", "phone_number": "7709983232", "tags": [{"primary": true, "id": 1722, "name": "Restaurants"}], "fax_number": null, "expansion": {"count": null, "uri": null}, "impression_id": "000b000000c060973b9d5748ef86f77d58267d24b4", "profile": "http://www.citysearch.com/profile/809649590/roswell_ga/seattle_sutton_s_healthy.html", "address": {"city": "Roswell", "state": "GA", "street": "45 W Crossville Rd", "postal_code": "30075"}, "capProviderId": null, "distance": null, "has_offers": false, "name": "Seattle Sutton's Healthy", "longitude": -84.362549, "has_menu": false, "awards": null, "user_review_count": 0}, {"business_operation_status": 1, "rating": null, "neighborhood": null, "image": null, "scorecard": null, "featured": false, "sample_categories": "Barbecue Restaurants, Restaurants, Hot Dogs", "public_id": "bbq-1-roswell", "id": 713485770, "votes": null, "tagline": null, "has_video": false, "website": "http://www.citysearch.com/profile/external/713485770/roswell_ga/bbq_1.html", "offers": null, "latitude": 34.027716, "politanName": "Atlanta, GA Metro ", "phone_number": "7705872271", "tags": [{"primary": false, "id": 1722, "name": "Restaurants"}, {"primary": false, "id": 11274, "name": "Hot Dogs"}, {"primary": true, "id": 1724, "name": "Barbecue Restaurants"}], "fax_number": null, "expansion": {"count": null, "uri": null}, "impression_id": "000b000000c69192d6433c491eba0141af67c8e936", "profile": "http://www.citysearch.com/profile/713485770/roswell_ga/bbq_1.html", "address": {"city": "Roswell", "state": "GA", "street": "4401 Shallowford Rd", "postal_code": "30075"}, "capProviderId": null, "distance": null, "has_offers": false, "name": "BBQ 1", "longitude": -84.420333, "has_menu": false, "awards": null, "user_review_count": 0}, {"business_operation_status": 1, "rating": null, "neighborhood": null, "image": null, "scorecard": null, "featured": false, "sample_categories": "Restaurants, Bars & Clubs, Bars & Pubs", "public_id": "abbey-road-bar-grill-marietta", "id": 728039580, "votes": null, "tagline": null, "has_video": false, "website": "http://www.citysearch.com/profile/external/728039580/marietta_ga/abbey_road_bar_grill.html", "offers": null, "latitude": 34.020856, "politanName": "Atlanta, GA Metro ", "phone_number": "7706430138", "tags": [{"primary": false, "id": 164, "name": "Bars & Clubs"}, {"primary": false, "id": 1686, "name": "Bars & Pubs"}, {"primary": true, "id": 1722, "name": "Restaurants"}], "fax_number": null, "expansion": {"count": null, "uri": null}, "impression_id": "000b000000be04416ece314727a3691534c6a0ffd0", "profile": "http://www.citysearch.com/profile/728039580/marietta_ga/abbey_road_bar_grill.html", "address": {"city": "Marietta", "state": "GA", "street": "2940 Johnson Ferry Rd", "postal_code": "30062"}, "capProviderId": null, "distance": null, "has_offers": false, "name": "Abbey Road Bar & Grill", "longitude": -84.426832, "has_menu": false, "awards": null, "user_review_count": 0}, {"business_operation_status": 1, "rating": null, "neighborhood": null, "image": null, "scorecard": null, "featured": false, "sample_categories": "Restaurants, Greek, Middle Eastern, Family Style Dining, Mediterranean", "public_id": "milos-greek-taverna-marietta", "id": 798213230, "votes": null, "tagline": null, "has_video": false, "website": null, "offers": null, "latitude": 33.953276, "politanName": "Atlanta, GA Metro ", "phone_number": "6789033148", "tags": [{"primary": false, "id": 1722, "name": "Restaurants"}, {"primary": false, "id": 11215, "name": "Middle Eastern"}, {"primary": false, "id": 11262, "name": "Family Style Dining"}, {"primary": false, "id": 11289, "name": "Mediterranean"}, {"primary": true, "id": 11268, "name": "Greek"}], "fax_number": "6789033149", "expansion": {"count": null, "uri": null}, "impression_id": "000b0000003392122388524954a4180aaa7c445151", "profile": "http://www.citysearch.com/profile/798213230/marietta_ga/milos_greek_taverna.html", "address": {"city": "Marietta", "state": "GA", "street": "26 Mill St NE", "postal_code": "30060"}, "capProviderId": null, "distance": null, "has_offers": false, "name": "Milos Greek Taverna", "longitude": -84.551885, "has_menu": false, "awards": null, "user_review_count": 0}, {"business_operation_status": 1, "rating": null, "neighborhood": null, "image": null, "scorecard": null, "featured": false, "sample_categories": "Restaurants, Pizza", "public_id": "brixx-wood-fired-pizza-marietta", "id": 836778520, "votes": null, "tagline": null, "has_video": false, "website": null, "offers": null, "latitude": 33.98752, "politanName": "Atlanta, GA Metro ", "phone_number": "6789034410", "tags": [{"primary": false, "id": 1722, "name": "Restaurants"}, {"primary": true, "id": 11299, "name": "Pizza"}], "fax_number": null, "expansion": {"count": null, "uri": null}, "impression_id": "000b0000009e008ffdc5324e668e55a7037e30f351", "profile": "http://www.citysearch.com/profile/836778520/marietta_ga/brixx_wood_fired_pizza.html", "address": {"city": "Marietta", "state": "GA", "street": "4475 Roswell Rd # 1700", "postal_code": "30062"}, "capProviderId": null, "distance": null, "has_offers": false, "name": "Brixx Wood Fired Pizza", "longitude": -84.42189, "has_menu": false, "awards": null, "user_review_count": 0}, {"business_operation_status": 1, "rating": null, "neighborhood": null, "image": null, "scorecard": null, "featured": false, "sample_categories": "Restaurants", "public_id": "tappan-street-restaurant-group-roswell-2", "id": 808718630, "votes": null, "tagline": null, "has_video": false, "website": null, "offers": null, "latitude": 34.025741, "politanName": "Atlanta, GA Metro ", "phone_number": "7706431090", "tags": [{"primary": true, "id": 1722, "name": "Restaurants"}], "fax_number": null, "expansion": {"count": null, "uri": null}, "impression_id": "000b000000ceee9e46232d4f278b03602494ccc413", "profile": "http://www.citysearch.com/profile/808718630/roswell_ga/tappan_street_restaurant_group.html", "address": {"city": "Roswell", "state": "GA", "street": "66 Norcross St", "postal_code": "30075"}, "capProviderId": null, "distance": null, "has_offers": false, "name": "Tappan Street Restaurant Group", "longitude": -84.359094, "has_menu": false, "awards": null, "user_review_count": 0}, {"business_operation_status": 1, "rating": null, "neighborhood": null, "image": null, "scorecard": null, "featured": false, "sample_categories": "Delis And Delicatessens", "public_id": "deli-management-sandy", "id": 754744130, "votes": null, "tagline": null, "has_video": false, "website": null, "offers": null, "latitude": 33.917883, "politanName": "Atlanta, GA Metro ", "phone_number": "4048438212", "tags": [{"primary": true, "id": 1727, "name": "Delis And Delicatessens"}], "fax_number": null, "expansion": {"count": null, "uri": null}, "impression_id": "000b000000d36ecb2d83f049358da8daa7c238d065", "profile": "http://www.citysearch.com/profile/754744130/sandy_springs_ga/deli_management.html", "address": {"city": "Sandy Springs", "state": "GA", "street": "5975 Roswell Rd NE # B201", "postal_code": "30328"}, "capProviderId": null, "distance": null, "has_offers": false, "name": "Deli Management", "longitude": -84.377671, "has_menu": false, "awards": null, "user_review_count": 0}, {"business_operation_status": 1, "rating": null, "neighborhood": null, "image": null, "scorecard": null, "featured": false, "sample_categories": "Coffeehouses", "public_id": "volcanica-coffee-inc-coral", "id": 732048930, "votes": null, "tagline": null, "has_video": false, "website": null, "offers": "Free Shipping", "latitude": 33.988892, "politanName": "Atlanta, GA Metro ", "phone_number": "8774547031", "tags": [{"primary": true, "id": 1726, "name": "Coffeehouses"}], "fax_number": null, "expansion": {"count": null, "uri": null}, "impression_id": "000b0000004529775e67f94c57a74430524b9f07fe", "profile": "http://www.citysearch.com/profile/732048930/atlanta_ga/volcanica_coffee_inc.html", "address": {"city": "Atlanta", "state": "GA", "street": "1831-C West Oak Parkway", "postal_code": "30062"}, "capProviderId": null, "distance": null, "has_offers": true, "name": "Volcanica Coffee Inc", "longitude": -84.525273, "has_menu": false, "awards": null, "user_review_count": 0}, {"business_operation_status": 1, "rating": null, "neighborhood": null, "image": null, "scorecard": null, "featured": false, "sample_categories": "Restaurants, Mexican, Carry Out", "public_id": "del-taco-smyrna", "id": 762762470, "votes": null, "tagline": null, "has_video": false, "website": "http://www.citysearch.com/profile/external/762762470/smyrna_ga/del_taco.html", "offers": null, "latitude": 33.891305, "politanName": "Atlanta, GA Metro ", "phone_number": "7709559115", "tags": [{"primary": false, "id": 11208, "name": "Mexican"}, {"primary": false, "id": 11247, "name": "Carry Out"}, {"primary": true, "id": 1722, "name": "Restaurants"}], "fax_number": null, "expansion": {"count": null, "uri": null}, "impression_id": "000b000000a6fad4d38cb341b988ba6d80c18638ea", "profile": "http://www.citysearch.com/profile/762762470/smyrna_ga/del_taco.html", "address": {"city": "Smyrna", "state": "GA", "street": "2521 Cobb Pkwy SE", "postal_code": "30080"}, "capProviderId": null, "distance": null, "has_offers": false, "name": "Del Taco", "longitude": -84.47582, "has_menu": false, "awards": null, "user_review_count": 0}, {"business_operation_status": 1, "rating": null, "neighborhood": null, "image": null, "scorecard": null, "featured": false, "sample_categories": "Health Food Stores, Restaurants", "public_id": "planet-smoothie-marietta", "id": 36642521, "votes": null, "tagline": null, "has_video": false, "website": "http://www.citysearch.com/profile/external/36642521/marietta_ga/planet_smoothie.html", "offers": null, "latitude": 33.969856, "politanName": "Atlanta, GA Metro ", "phone_number": "6785604001", "tags": [{"primary": false, "id": 1722, "name": "Restaurants"}, {"primary": true, "id": 1716, "name": "Health Food Stores"}], "fax_number": null, "expansion": {"count": null, "uri": null}, "impression_id": "000b0000001523e377c3ef43bf9465076856171102", "profile": "http://www.citysearch.com/profile/36642521/marietta_ga/planet_smoothie.html", "address": {"city": "Marietta", "state": "GA", "street": "2200 Roswell Rd", "postal_code": "30062"}, "capProviderId": null, "distance": null, "has_offers": false, "name": "Planet Smoothie", "longitude": -84.488427, "has_menu": true, "awards": null, "user_review_count": 0}, {"business_operation_status": 1, "rating": null, "neighborhood": null, "image": null, "scorecard": null, "featured": false, "sample_categories": "Restaurants", "public_id": "royal-waffle-king-marietta", "id": 775234230, "votes": null, "tagline": null, "has_video": false, "website": "http://www.citysearch.com/profile/external/775234230/marietta_ga/royal_waffle_king.html", "offers": null, "latitude": 33.987292, "politanName": "Atlanta, GA Metro ", "phone_number": "7704423800", "tags": [{"primary": true, "id": 1722, "name": "Restaurants"}], "fax_number": null, "expansion": {"count": null, "uri": null}, "impression_id": "000b000000947655e3a24e4331b211077810415cae", "profile": "http://www.citysearch.com/profile/775234230/marietta_ga/royal_waffle_king.html", "address": {"city": "Marietta", "state": "GA", "street": "1459 Field Park Cir", "postal_code": "30066"}, "capProviderId": null, "distance": null, "has_offers": false, "name": "Royal Waffle King", "longitude": -84.563324, "has_menu": true, "awards": null, "user_review_count": 0}, {"business_operation_status": 1, "rating": null, "neighborhood": null, "image": null, "scorecard": null, "featured": false, "sample_categories": "Restaurants, New American, Carry Out, Cooking, Soul", "public_id": "chads-place-marietta", "id": 753259210, "votes": null, "tagline": null, "has_video": false, "website": null, "offers": null, "latitude": 33.964105, "politanName": "Atlanta, GA Metro ", "phone_number": "7704278226", "tags": [{"primary": false, "id": 11189, "name": "New American"}, {"primary": false, "id": 11247, "name": "Carry Out"}, {"primary": false, "id": 11254, "name": "Cooking"}, {"primary": false, "id": 15140, "name": "Soul"}, {"primary": true, "id": 1722, "name": "Restaurants"}], "fax_number": null, "expansion": {"count": null, "uri": null}, "impression_id": "000b000000e714fcc5f16e4a23ae3dfebe6bdac32a", "profile": "http://www.citysearch.com/profile/753259210/marietta_ga/chad_s_place.html", "address": {"city": "Marietta", "state": "GA", "street": "531 Roselane St NW Suite 520 NW", "postal_code": "30060"}, "capProviderId": null, "distance": null, "has_offers": false, "name": "Chad's Place", "longitude": -84.557337, "has_menu": false, "awards": null, "user_review_count": 0}, {"business_operation_status": 1, "rating": null, "neighborhood": null, "image": null, "scorecard": null, "featured": false, "sample_categories": "Restaurants, Traditional American", "public_id": "max-ermas-restaurant-atlanta", "id": 777765110, "votes": null, "tagline": null, "has_video": false, "website": "http://www.citysearch.com/profile/external/777765110/atlanta_ga/max_erma_s_restaurant.html", "offers": null, "latitude": 33.932847, "politanName": "Atlanta, GA Metro ", "phone_number": "7705510055", "tags": [{"primary": false, "id": 11190, "name": "Traditional American"}, {"primary": true, "id": 1722, "name": "Restaurants"}], "fax_number": null, "expansion": {"count": null, "uri": null}, "impression_id": "000b0000001a107b0990684a768f2d2376d19b6082", "profile": "http://www.citysearch.com/profile/777765110/atlanta_ga/max_erma_s_restaurant.html", "address": {"city": "Atlanta", "state": "GA", "street": "1155 Mount Vernon Hwy", "postal_code": "30338"}, "capProviderId": null, "distance": null, "has_offers": false, "name": "Max & Erma's Restaurant", "longitude": -84.35114, "has_menu": true, "awards": null, "user_review_count": 2}, {"business_operation_status": 1, "rating": null, "neighborhood": null, "image": null, "scorecard": null, "featured": false, "sample_categories": "Restaurants, French", "public_id": "snob-sandy", "id": 777651620, "votes": null, "tagline": null, "has_video": false, "website": null, "offers": null, "latitude": 33.9202, "politanName": "Atlanta, GA Metro ", "phone_number": "4042528170", "tags": [{"primary": false, "id": 11219, "name": "French"}, {"primary": true, "id": 1722, "name": "Restaurants"}], "fax_number": null, "expansion": {"count": null, "uri": null}, "impression_id": "000b000000e39c1e4098dc44b5b31214b8944a74f1", "profile": "http://www.citysearch.com/profile/777651620/sandy_springs_ga/snob.html", "address": {"city": "Sandy Springs", "state": "GA", "street": "6010 Sandy Springs Cir Ne # B", "postal_code": "30328"}, "capProviderId": null, "distance": null, "has_offers": false, "name": "Snob", "longitude": -84.384878, "has_menu": false, "awards": null, "user_review_count": 0}, {"business_operation_status": 1, "rating": null, "neighborhood": null, "image": null, "scorecard": null, "featured": false, "sample_categories": "Juice & Smoothie Shops", "public_id": "planet-smoothie-roswell-2", "id": 777823340, "votes": null, "tagline": null, "has_video": false, "website": "http://www.citysearch.com/profile/external/777823340/roswell_ga/planet_smoothie.html", "offers": null, "latitude": 34.059979, "politanName": "Atlanta, GA Metro ", "phone_number": "7709920701", "tags": [{"primary": true, "id": 1735, "name": "Juice & Smoothie Shops"}], "fax_number": null, "expansion": {"count": null, "uri": null}, "impression_id": "000b000000b615d0af21cd4da98b0eeac95dcfb6d0", "profile": "http://www.citysearch.com/profile/777823340/roswell_ga/planet_smoothie.html", "address": {"city": "Roswell", "state": "GA", "street": "855 Woodstock Rd", "postal_code": "30075"}, "capProviderId": null, "distance": null, "has_offers": false, "name": "Planet Smoothie", "longitude": -84.383984, "has_menu": true, "awards": null, "user_review_count": 0}, {"business_operation_status": 1, "rating": null, "neighborhood": null, "image": null, "scorecard": null, "featured": false, "sample_categories": "Restaurants, Mexican, Carry Out, MasterCard, Visa", "public_id": "taco-bell-atlanta-15", "id": 682671380, "votes": null, "tagline": null, "has_video": false, "website": "http://www.citysearch.com/profile/external/682671380/atlanta_ga/taco_bell.html", "offers": null, "latitude": 33.93454, "politanName": "Atlanta, GA Metro ", "phone_number": "4042553495", "tags": [{"primary": false, "id": 11208, "name": "Mexican"}, {"primary": false, "id": 11247, "name": "Carry Out"}, {"primary": false, "id": 11361, "name": "MasterCard"}, {"primary": false, "id": 11382, "name": "Visa"}, {"primary": true, "id": 1722, "name": "Restaurants"}], "fax_number": null, "expansion": {"count": null, "uri": null}, "impression_id": "000b000000f3fde8684fa943f18ba91feea55d0e59", "profile": "http://www.citysearch.com/profile/682671380/atlanta_ga/taco_bell.html", "address": {"city": "Atlanta", "state": "GA", "street": "6560 Roswell Rd Ne", "postal_code": "30328"}, "capProviderId": null, "distance": null, "has_offers": false, "name": "Taco Bell", "longitude": -84.380292, "has_menu": true, "awards": null, "user_review_count": 0}, {"business_operation_status": 1, "rating": null, "neighborhood": null, "image": null, "scorecard": null, "featured": false, "sample_categories": "Restaurants, Carry Out, Hamburgers", "public_id": "hardees-roswell", "id": 770788450, "votes": null, "tagline": null, "has_video": false, "website": "http://www.citysearch.com/profile/external/770788450/roswell_ga/hardee_s.html", "offers": null, "latitude": 34.028347, "politanName": "Atlanta, GA Metro ", "phone_number": "7706457336", "tags": [{"primary": false, "id": 11247, "name": "Carry Out"}, {"primary": false, "id": 11270, "name": "Hamburgers"}, {"primary": true, "id": 1722, "name": "Restaurants"}], "fax_number": null, "expansion": {"count": null, "uri": null}, "impression_id": "000b000000bf7c0a838b024715ab1b83677f3c79e3", "profile": "http://www.citysearch.com/profile/770788450/roswell_ga/hardee_s.html", "address": {"city": "Roswell", "state": "GA", "street": "891 Holcomb Bridge Rd", "postal_code": "30076"}, "capProviderId": null, "distance": null, "has_offers": false, "name": "Hardee's", "longitude": -84.335599, "has_menu": false, "awards": null, "user_review_count": 0}, {"business_operation_status": 1, "rating": null, "neighborhood": null, "image": null, "scorecard": null, "featured": false, "sample_categories": "Restaurants, Pizza", "public_id": "riverside-pizza-alpharetta-2", "id": 777650170, "votes": null, "tagline": null, "has_video": false, "website": null, "offers": null, "latitude": 34.077709, "politanName": "Atlanta, GA Metro ", "phone_number": "6783935500", "tags": [{"primary": false, "id": 11299, "name": "Pizza"}, {"primary": true, "id": 1722, "name": "Restaurants"}], "fax_number": null, "expansion": {"count": null, "uri": null}, "impression_id": "000b0000006906569d38784d1e823e4ede476ef467", "profile": "http://www.citysearch.com/profile/777650170/alpharetta_ga/riverside_pizza.html", "address": {"city": "Alpharetta", "state": "GA", "street": "295 Rucker Rd", "postal_code": "30004"}, "capProviderId": null, "distance": null, "has_offers": false, "name": "Riverside Pizza", "longitude": -84.35254, "has_menu": false, "awards": null, "user_review_count": 0}, {"business_operation_status": 0, "rating": null, "neighborhood": null, "image": null, "scorecard": null, "featured": false, "sample_categories": "Restaurants, Mexican", "public_id": "taqueria-quet-zalcoatl-atlanta", "id": 777703630, "votes": null, "tagline": null, "has_video": false, "website": null, "offers": null, "latitude": 33.987058, "politanName": "Atlanta, GA Metro ", "phone_number": "7705183366", "tags": [{"primary": false, "id": 11208, "name": "Mexican"}, {"primary": true, "id": 1722, "name": "Restaurants"}], "fax_number": null, "expansion": {"count": null, "uri": null}, "impression_id": "000b0000006a0abb8dd5ba40f5a70fbc61b35819c9", "profile": "http://www.citysearch.com/profile/777703630/atlanta_ga/taqueria_quet_zalcoatl.html", "address": {"city": "Atlanta", "state": "GA", "street": "8540 Roswell Rd", "postal_code": "30350"}, "capProviderId": null, "distance": null, "has_offers": false, "name": "Taqueria Quet Zalcoatl", "longitude": -84.351201, "has_menu": false, "awards": null, "user_review_count": 0}, {"business_operation_status": 1, "rating": null, "neighborhood": null, "image": null, "scorecard": null, "featured": false, "sample_categories": "Restaurants, Chicken", "public_id": "chicken-salad-chick-marietta", "id": 803535140, "votes": null, "tagline": null, "has_video": false, "website": null, "offers": null, "latitude": 33.980574, "politanName": "Atlanta, GA Metro ", "phone_number": "7705653985", "tags": [{"primary": false, "id": 12839, "name": "Chicken"}, {"primary": true, "id": 1722, "name": "Restaurants"}], "fax_number": null, "expansion": {"count": null, "uri": null}, "impression_id": "000b000000b4a94bad3431405aadd21d6b1f863f61", "profile": "http://www.citysearch.com/profile/803535140/marietta_ga/chicken_salad_chick.html", "address": {"city": "Marietta", "state": "GA", "street": "4101 Roswell Rd", "postal_code": "30062"}, "capProviderId": null, "distance": null, "has_offers": false, "name": "Chicken Salad Chick", "longitude": -84.433488, "has_menu": false, "awards": null, "user_review_count": 0}, {"business_operation_status": 1, "rating": null, "neighborhood": null, "image": null, "scorecard": null, "featured": false, "sample_categories": "Restaurants", "public_id": "tailfeathers-restaurant-sandy", "id": 781184100, "votes": null, "tagline": null, "has_video": false, "website": null, "offers": null, "latitude": 33.918433, "politanName": "Atlanta, GA Metro ", "phone_number": "4045001680", "tags": [{"primary": true, "id": 1722, "name": "Restaurants"}], "fax_number": null, "expansion": {"count": null, "uri": null}, "impression_id": "000b0000008f47024087eb4960af25c6fe5f82be32", "profile": "http://www.citysearch.com/profile/781184100/sandy_springs_ga/tailfeathers_restaurant.html", "address": {"city": "Sandy Springs", "state": "GA", "street": "5975 Roswell Rd", "postal_code": "30328"}, "capProviderId": null, "distance": null, "has_offers": false, "name": "Tailfeathers Restaurant", "longitude": -84.378541, "has_menu": false, "awards": null, "user_review_count": 0}, {"business_operation_status": 1, "rating": null, "neighborhood": null, "image": null, "scorecard": null, "featured": false, "sample_categories": "Restaurants", "public_id": "nirvana-cafe-grill-roswell", "id": 809159940, "votes": null, "tagline": null, "has_video": false, "website": null, "offers": null, "latitude": 34.03424, "politanName": "Atlanta, GA Metro ", "phone_number": "7709920909", "tags": [{"primary": true, "id": 1722, "name": "Restaurants"}], "fax_number": null, "expansion": {"count": null, "uri": null}, "impression_id": "000b00000084264aa16095484ab952ab5d7c176bc4", "profile": "http://www.citysearch.com/profile/809159940/roswell_ga/nirvana_cafe_grill.html", "address": {"city": "Roswell", "state": "GA", "street": "900 Old Roswell Lakes Pky #230", "postal_code": "30076"}, "capProviderId": null, "distance": null, "has_offers": false, "name": "Nirvana Cafe & Grill", "longitude": -84.336995, "has_menu": false, "awards": null, "user_review_count": 4}, {"business_operation_status": 0, "rating": null, "neighborhood": null, "image": null, "scorecard": null, "featured": false, "sample_categories": "Restaurants", "public_id": "international-industries-service-roswell", "id": 37304353, "votes": null, "tagline": null, "has_video": false, "website": null, "offers": null, "latitude": 34.025782, "politanName": "Atlanta, GA Metro ", "phone_number": "7709937880", "tags": [{"primary": true, "id": 1722, "name": "Restaurants"}], "fax_number": null, "expansion": {"count": null, "uri": null}, "impression_id": "000b000000c53643cbccc14ec2a38c65d9f95d3936", "profile": "http://www.citysearch.com/profile/37304353/roswell_ga/international_industries_service.html", "address": {"city": "Roswell", "state": "GA", "street": "5015 Pattingham Dr", "postal_code": "30075"}, "capProviderId": null, "distance": null, "has_offers": false, "name": "International Industries & Service", "longitude": -84.338114, "has_menu": false, "awards": null, "user_review_count": 0}, {"business_operation_status": 0, "rating": null, "neighborhood": null, "image": null, "scorecard": null, "featured": false, "sample_categories": "Restaurants", "public_id": "jitterbeans-sandwich-coffee-marietta", "id": 728099640, "votes": null, "tagline": null, "has_video": false, "website": null, "offers": null, "latitude": 34.039126, "politanName": "Atlanta, GA Metro ", "phone_number": "7705790019", "tags": [{"primary": true, "id": 1722, "name": "Restaurants"}], "fax_number": null, "expansion": {"count": null, "uri": null}, "impression_id": "000b0000006125fc3665184a7cbd7dd315488610eb", "profile": "http://www.citysearch.com/profile/728099640/marietta_ga/jitterbeans_sandwich_coffee.html", "address": {"city": "Marietta", "state": "GA", "street": "2690 Shallowford Rd", "postal_code": "30066"}, "capProviderId": null, "distance": null, "has_offers": false, "name": "Jitterbeans Sandwich & Coffee", "longitude": -84.470483, "has_menu": false, "awards": null, "user_review_count": 0}, {"business_operation_status": 1, "rating": null, "neighborhood": null, "image": null, "scorecard": null, "featured": false, "sample_categories": "Restaurants", "public_id": "dunkn-dine-restaurant-atlanta", "id": 817310100, "votes": null, "tagline": null, "has_video": false, "website": null, "offers": null, "latitude": 33.916242, "politanName": "Atlanta, GA Metro ", "phone_number": "4042555179", "tags": [{"primary": true, "id": 1722, "name": "Restaurants"}], "fax_number": null, "expansion": {"count": null, "uri": null}, "impression_id": "000b000000b339bd74c2fd4d19a1bd17a7445b0908", "profile": "http://www.citysearch.com/profile/817310100/atlanta_ga/dunk_n_dine_restaurant.html", "address": {"city": "Atlanta", "state": "GA", "street": "4520 Roswell Rd", "postal_code": "30342"}, "capProviderId": null, "distance": null, "has_offers": false, "name": "Dunk'n Dine Restaurant", "longitude": -84.379244, "has_menu": false, "awards": null, "user_review_count": 0}, {"business_operation_status": 1, "rating": null, "neighborhood": null, "image": null, "scorecard": null, "featured": false, "sample_categories": "Restaurants", "public_id": "los-reyes-mexican-marietta", "id": 827063900, "votes": null, "tagline": null, "has_video": false, "website": null, "offers": null, "latitude": 33.906963, "politanName": "Atlanta, GA Metro ", "phone_number": "7709534150", "tags": [{"primary": true, "id": 1722, "name": "Restaurants"}], "fax_number": null, "expansion": {"count": null, "uri": null}, "impression_id": "000b000000bc2d15bf04fd44f9be3fda06001d27d3", "profile": "http://www.citysearch.com/profile/827063900/marietta_ga/los_reyes_mexican.html", "address": {"city": "Marietta", "state": "GA", "street": "1869 Cobb Pkwy S", "postal_code": "30060"}, "capProviderId": null, "distance": null, "has_offers": false, "name": "Los Reyes Mexican", "longitude": -84.488987, "has_menu": false, "awards": null, "user_review_count": 0}, {"business_operation_status": 1, "rating": null, "neighborhood": null, "image": null, "scorecard": null, "featured": false, "sample_categories": "Restaurants", "public_id": "tijuana-joes-roswell", "id": 806172750, "votes": null, "tagline": null, "has_video": false, "website": null, "offers": null, "latitude": 34.060624, "politanName": "Atlanta, GA Metro ", "phone_number": "6782779956", "tags": [{"primary": true, "id": 1722, "name": "Restaurants"}], "fax_number": null, "expansion": {"count": null, "uri": null}, "impression_id": "000b000000c9d904a6c5f34c309caa1110fa48f772", "profile": "http://www.citysearch.com/profile/806172750/roswell_ga/tijuana_joes.html", "address": {"city": "Roswell", "state": "GA", "street": "885 Woodstock Rd", "postal_code": "30075"}, "capProviderId": null, "distance": null, "has_offers": false, "name": "Tijuana Joes", "longitude": -84.385879, "has_menu": false, "awards": null, "user_review_count": 0}, {"business_operation_status": 1, "rating": null, "neighborhood": null, "image": null, "scorecard": null, "featured": false, "sample_categories": "Restaurants", "public_id": "gorins-homemade-cafe-atlanta-3", "id": 810267910, "votes": null, "tagline": null, "has_video": false, "website": null, "offers": null, "latitude": 33.901479, "politanName": "Atlanta, GA Metro ", "phone_number": "7707300904", "tags": [{"primary": true, "id": 1722, "name": "Restaurants"}], "fax_number": null, "expansion": {"count": null, "uri": null}, "impression_id": "000b000000b3733a7f8fc64d8a94ab46bc90484608", "profile": "http://www.citysearch.com/profile/810267910/atlanta_ga/gorin_s_homemade_cafe.html", "address": {"city": "Atlanta", "state": "GA", "street": "1040 Mount Vernon Hwy NW", "postal_code": "30327"}, "capProviderId": null, "distance": null, "has_offers": false, "name": "Gorin's Homemade Cafe", "longitude": -84.421112, "has_menu": false, "awards": null, "user_review_count": 0}, {"business_operation_status": 1, "rating": null, "neighborhood": null, "image": null, "scorecard": null, "featured": false, "sample_categories": "Restaurants", "public_id": "gulf-street-grille-atlanta", "id": 37653138, "votes": null, "tagline": null, "has_video": false, "website": null, "offers": null, "latitude": 33.902397, "politanName": "Atlanta, GA Metro ", "phone_number": "7709539300", "tags": [{"primary": true, "id": 1722, "name": "Restaurants"}], "fax_number": null, "expansion": {"count": null, "uri": null}, "impression_id": "000b000000b6be80ca71d5474391400c69bb5cde75", "profile": "http://www.citysearch.com/profile/37653138/atlanta_ga/gulf_street_grille.html", "address": {"city": "Atlanta", "state": "GA", "street": "2055 S Park Pl SE", "postal_code": "30339"}, "capProviderId": null, "distance": null, "has_offers": false, "name": "Gulf Street Grille", "longitude": -84.476611, "has_menu": false, "awards": null, "user_review_count": 0}, {"business_operation_status": 1, "rating": null, "neighborhood": null, "image": null, "scorecard": null, "featured": false, "sample_categories": "Restaurants, Delis And Delicatessens, Sandwich Shops, Carry Out", "public_id": "subway-atlanta-125", "id": 614001804, "votes": null, "tagline": null, "has_video": false, "website": null, "offers": null, "latitude": 33.936115, "politanName": "Atlanta, GA Metro ", "phone_number": "7706894927", "tags": [{"primary": false, "id": 1727, "name": "Delis And Delicatessens"}, {"primary": false, "id": 1736, "name": "Sandwich Shops"}, {"primary": false, "id": 11247, "name": "Carry Out"}, {"primary": true, "id": 1722, "name": "Restaurants"}], "fax_number": null, "expansion": {"count": null, "uri": null}, "impression_id": "000b0000003ef74206628943358e6667782f07d7e0", "profile": "http://www.citysearch.com/profile/614001804/atlanta_ga/subway.html", "address": {"city": "Atlanta", "state": "GA", "street": "6600 Peachtree Dunwoody Rd # 100", "postal_code": "30328"}, "capProviderId": null, "distance": null, "has_offers": false, "name": "Subway", "longitude": -84.355345, "has_menu": false, "awards": null, "user_review_count": 0}, {"business_operation_status": 1, "rating": null, "neighborhood": null, "image": null, "scorecard": null, "featured": false, "sample_categories": "Restaurants", "public_id": "willys-mexicana-grill-inc-atlanta-2", "id": 619673124, "votes": null, "tagline": null, "has_video": false, "website": null, "offers": null, "latitude": 33.927214, "politanName": "Atlanta, GA Metro ", "phone_number": "4042526366", "tags": [{"primary": true, "id": 1722, "name": "Restaurants"}], "fax_number": null, "expansion": {"count": null, "uri": null}, "impression_id": "000b000000023c9a55df7943b8a19d2abb87516115", "profile": "http://www.citysearch.com/profile/619673124/atlanta_ga/willy_s_mexicana_grill_inc.html", "address": {"city": "Atlanta", "state": "GA", "street": "6309 Roswell Rd Ste 1A", "postal_code": "30328"}, "capProviderId": null, "distance": null, "has_offers": false, "name": "Willy's Mexicana Grill Inc", "longitude": -84.378643, "has_menu": false, "awards": null, "user_review_count": 0}, {"business_operation_status": 1, "rating": null, "neighborhood": null, "image": null, "scorecard": null, "featured": false, "sample_categories": "Restaurants", "public_id": "ninja-japanese-style-steak-sushi-roswell", "id": 43843932, "votes": null, "tagline": null, "has_video": false, "website": null, "offers": null, "latitude": 34.019195, "politanName": "Atlanta, GA Metro ", "phone_number": "7705180658", "tags": [{"primary": true, "id": 1722, "name": "Restaurants"}], "fax_number": null, "expansion": {"count": null, "uri": null}, "impression_id": "000b0000008a1be3cecbcd4f48bbab7ee59b54a4be", "profile": "http://www.citysearch.com/profile/43843932/roswell_ga/ninja_japanese_style_steak_sushi.html", "address": {"city": "Roswell", "state": "GA", "street": "1425 Market Blvd", "postal_code": "30076"}, "capProviderId": null, "distance": null, "has_offers": false, "name": "Ninja Japanese Style Steak & Sushi", "longitude": -84.318954, "has_menu": true, "awards": null, "user_review_count": 0}, {"business_operation_status": 1, "rating": null, "neighborhood": null, "image": null, "scorecard": null, "featured": false, "sample_categories": "Coffee & Tea Shops, Restaurants, Deordorant, Soap, Glue", "public_id": "southern-tea-llc-marietta-2", "id": 43853814, "votes": null, "tagline": null, "has_video": false, "website": null, "offers": null, "latitude": 33.983317, "politanName": "Atlanta, GA Metro ", "phone_number": "7705901221", "tags": [{"primary": false, "id": 1711, "name": "Coffee & Tea Shops"}, {"primary": false, "id": 1722, "name": "Restaurants"}, {"primary": false, "id": 23400, "name": "Deordorant"}, {"primary": false, "id": 23410, "name": "Soap"}, {"primary": false, "id": 24950, "name": "Glue"}, {"primary": false, "id": 25880, "name": "Air Fresheners"}, {"primary": false, "id": 3922, "name": "General Merchandise Stores"}, {"primary": true, "id": 11147, "name": "Tea"}], "fax_number": null, "expansion": {"count": null, "uri": null}, "impression_id": "000b0000000e8b23f7470149a0874dc80f2c60b645", "profile": "http://www.citysearch.com/profile/43853814/marietta_ga/southern_tea_llc.html", "address": {"city": "Marietta", "state": "GA", "street": "1491 Cobb Industrial Dr", "postal_code": "30066"}, "capProviderId": null, "distance": null, "has_offers": false, "name": "Southern Tea Llc", "longitude": -84.534242, "has_menu": false, "awards": null, "user_review_count": 1}, {"business_operation_status": 1, "rating": null, "neighborhood": null, "image": null, "scorecard": null, "featured": false, "sample_categories": "Restaurants, Barbecue Restaurants, Food Delivery", "public_id": "j-wings-and-more-smyrna", "id": 45555723, "votes": null, "tagline": null, "has_video": false, "website": null, "offers": null, "latitude": 33.893244, "politanName": "Atlanta, GA Metro ", "phone_number": "7702269977", "tags": [{"primary": false, "id": 1724, "name": "Barbecue Restaurants"}, {"primary": false, "id": 11267, "name": "Food Delivery"}, {"primary": true, "id": 1722, "name": "Restaurants"}], "fax_number": null, "expansion": {"count": null, "uri": null}, "impression_id": "000b0000001d820ecd13914e6ba9325247f7d045d2", "profile": "http://www.citysearch.com/profile/45555723/smyrna_ga/j_wings_and_more.html", "address": {"city": "Smyrna", "state": "GA", "street": "2380 Cobb Pkwy SE", "postal_code": "30080"}, "capProviderId": null, "distance": null, "has_offers": false, "name": "J Wings And More", "longitude": -84.478459, "has_menu": true, "awards": null, "user_review_count": 0}, {"business_operation_status": 1, "rating": null, "neighborhood": null, "image": null, "scorecard": null, "featured": false, "sample_categories": "Restaurants, Mexican, American Express, MasterCard, Visa", "public_id": "taco-mac-perimeter-atlanta-2", "id": 682728760, "votes": null, "tagline": null, "has_video": false, "website": null, "offers": null, "latitude": 33.937361, "politanName": "Atlanta, GA Metro ", "phone_number": "6783361381", "tags": [{"primary": false, "id": 11208, "name": "Mexican"}, {"primary": false, "id": 11333, "name": "American Express"}, {"primary": false, "id": 11361, "name": "MasterCard"}, {"primary": false, "id": 11382, "name": "Visa"}, {"primary": true, "id": 1722, "name": "Restaurants"}], "fax_number": null, "expansion": {"count": null, "uri": null}, "impression_id": "000b00000036522c1ab1b04cb6a2d844377131d27e", "profile": "http://www.citysearch.com/profile/682728760/atlanta_ga/taco_mac_perimeter.html", "address": {"city": "Atlanta", "state": "GA", "street": "1211 Ashford Center Pkwy", "postal_code": "30338"}, "capProviderId": null, "distance": null, "has_offers": false, "name": "Taco Mac Perimeter", "longitude": -84.335856, "has_menu": false, "awards": null, "user_review_count": 0}, {"business_operation_status": 1, "rating": null, "neighborhood": null, "image": null, "scorecard": null, "featured": false, "sample_categories": "Delis And Delicatessens", "public_id": "kroger-deli-roswell-2", "id": 696362330, "votes": null, "tagline": null, "has_video": false, "website": null, "offers": null, "latitude": 34.054243, "politanName": "Atlanta, GA Metro ", "phone_number": "7706402070", "tags": [{"primary": true, "id": 1727, "name": "Delis And Delicatessens"}], "fax_number": null, "expansion": {"count": null, "uri": null}, "impression_id": "000b0000005ad2195ce46d41f7a7953e725d889538", "profile": "http://www.citysearch.com/profile/696362330/roswell_ga/kroger_deli.html", "address": {"city": "Roswell", "state": "GA", "street": "570 E Crossville Rd", "postal_code": "30075"}, "capProviderId": null, "distance": null, "has_offers": false, "name": "Kroger Deli", "longitude": -84.378213, "has_menu": false, "awards": null, "user_review_count": 0}, {"business_operation_status": 1, "rating": null, "neighborhood": null, "image": null, "scorecard": null, "featured": false, "sample_categories": "Restaurants", "public_id": "six-beans-marietta", "id": 672125350, "votes": null, "tagline": null, "has_video": false, "website": null, "offers": null, "latitude": 33.984475, "politanName": "Atlanta, GA Metro ", "phone_number": "7705651001", "tags": [{"primary": true, "id": 1722, "name": "Restaurants"}], "fax_number": null, "expansion": {"count": null, "uri": null}, "impression_id": "000b000000b1520244dfb44dbabdb9b9e0fc18f20e", "profile": "http://www.citysearch.com/profile/672125350/marietta_ga/six_beans.html", "address": {"city": "Marietta", "state": "GA", "street": "1401 Johnson Ferry Road, Suite 140", "postal_code": "30062"}, "capProviderId": null, "distance": null, "has_offers": false, "name": "Six Beans", "longitude": -84.427681, "has_menu": false, "awards": null, "user_review_count": 0}, {"business_operation_status": 1, "rating": null, "neighborhood": null, "image": null, "scorecard": null, "featured": false, "sample_categories": "Restaurants", "public_id": "mughals-marietta", "id": 672132640, "votes": null, "tagline": null, "has_video": false, "website": null, "offers": null, "latitude": 33.907587, "politanName": "Atlanta, GA Metro ", "phone_number": "7709553130", "tags": [{"primary": true, "id": 1722, "name": "Restaurants"}], "fax_number": null, "expansion": {"count": null, "uri": null}, "impression_id": "000b00000069d813ce4979400584dd598cc8147c0a", "profile": "http://www.citysearch.com/profile/672132640/marietta_ga/mughals.html", "address": {"city": "Marietta", "state": "GA", "street": "1869 S Cobb Dr SE", "postal_code": "30060"}, "capProviderId": null, "distance": null, "has_offers": false, "name": "Mughals", "longitude": -84.543502, "has_menu": false, "awards": null, "user_review_count": 0}], "histograms": [], "tag_ids": [1722], "uri": "http://api.citygridmedia.com:8080/search/places/v2/search/where?has_offers=false&type=restaurant&format=json&page=27&where=30068&rpp=50&histograms=false&publisher=10000009598&region_type=circle", "did_you_mean": "", "regions": [{"latitude": 33.967813, "default_radius": 3.91, "type": "postal_code", "name": "30068", "longitude": -84.433422}], "call_id": "000b00000025a37cc70ef64c9fbdcd7d664d5a40ac", "first_hit": 1301, "total_hits": 2028, "geo_ids": [26296], "page": 27, "last_hit": 1350}}