{"results": {"rpp": 50, "locations": [{"business_operation_status": 1, "rating": null, "neighborhood": null, "image": null, "scorecard": null, "featured": false, "sample_categories": "Restaurants, Mexican", "public_id": "los-cabos-mexican-restaurant-kennesaw", "id": 777728160, "votes": null, "tagline": null, "has_video": false, "website": null, "offers": null, "latitude": 34.014676, "politanName": "Atlanta, GA Metro ", "phone_number": "7705909742", "tags": [{"primary": false, "id": 11208, "name": "Mexican"}, {"primary": true, "id": 1722, "name": "Restaurants"}], "fax_number": null, "expansion": {"count": null, "uri": null}, "impression_id": "000b00000035867bde5bed476c93b296190389f00f", "profile": "http://www.citysearch.com/profile/777728160/kennesaw_ga/los_cabos_mexican_restaurant.html", "address": {"city": "Kennesaw", "state": "GA", "street": "2500 Cobb Pkwy NW # B3", "postal_code": "30152"}, "capProviderId": null, "distance": null, "has_offers": false, "name": "Los Cabos Mexican Restaurant", "longitude": -84.614309, "has_menu": false, "awards": null, "user_review_count": 3}, {"business_operation_status": 0, "rating": null, "neighborhood": null, "image": null, "scorecard": null, "featured": false, "sample_categories": "Restaurants, Delis And Delicatessens, Sandwich Shops, Carry Out", "public_id": "subway-marietta-5", "id": 631969710, "votes": null, "tagline": null, "has_video": false, "website": "http://www.citysearch.com/profile/external/631969710/marietta_ga/subway.html", "offers": null, "latitude": 33.9495, "politanName": "Atlanta, GA Metro ", "phone_number": "7704240520", "tags": [{"primary": false, "id": 1727, "name": "Delis And Delicatessens"}, {"primary": false, "id": 1736, "name": "Sandwich Shops"}, {"primary": false, "id": 11247, "name": "Carry Out"}, {"primary": true, "id": 1722, "name": "Restaurants"}], "fax_number": null, "expansion": {"count": null, "uri": null}, "impression_id": "000b000000645516a0315f49418fd813327c385ab6", "profile": "http://www.citysearch.com/profile/631969710/marietta_ga/subway.html", "address": {"city": "Marietta", "state": "GA", "street": "51 Cobb Pkwy S", "postal_code": "30060"}, "capProviderId": null, "distance": null, "has_offers": false, "name": "Subway", "longitude": -84.519437, "has_menu": true, "awards": null, "user_review_count": 0}, {"business_operation_status": 1, "rating": null, "neighborhood": null, "image": null, "scorecard": null, "featured": false, "sample_categories": "Barbecue Restaurants, Restaurants", "public_id": "sherrals-bbq-marietta", "id": 601297218, "votes": null, "tagline": null, "has_video": false, "website": null, "offers": null, "latitude": 33.952909, "politanName": "Atlanta, GA Metro ", "phone_number": "6782752014", "tags": [{"primary": false, "id": 1722, "name": "Restaurants"}, {"primary": true, "id": 1724, "name": "Barbecue Restaurants"}], "fax_number": null, "expansion": {"count": null, "uri": null}, "impression_id": "000b0000008fbe99cb75bc41829084aa26b311456c", "profile": "http://www.citysearch.com/profile/601297218/marietta_ga/sherral_s_bbq.html", "address": {"city": "Marietta", "state": "GA", "street": "79 N Fairground St Ne", "postal_code": "30060"}, "capProviderId": null, "distance": null, "has_offers": false, "name": "Sherral's Bbq", "longitude": -84.53505, "has_menu": false, "awards": null, "user_review_count": 0}, {"business_operation_status": 1, "rating": null, "neighborhood": null, "image": null, "scorecard": null, "featured": false, "sample_categories": "Restaurants, Mexican, Caribbean", "public_id": "mangos-caribbean-and-mexican-cuisine-acworth", "id": 603937682, "votes": null, "tagline": null, "has_video": false, "website": null, "offers": null, "latitude": 34.06489, "politanName": "Atlanta, GA Metro ", "phone_number": "6789054714", "tags": [{"primary": false, "id": 1722, "name": "Restaurants"}, {"primary": false, "id": 11195, "name": "Caribbean"}, {"primary": true, "id": 11208, "name": "Mexican"}], "fax_number": null, "expansion": {"count": null, "uri": null}, "impression_id": "000b0000002ea098fafd434ad6bad89b639fe8713f", "profile": "http://www.citysearch.com/profile/603937682/acworth_ga/mangos_caribbean_and_mexican_cuisine.html", "address": {"city": "Acworth", "state": "GA", "street": "2535 Hickory Grove Rd NW", "postal_code": "30101"}, "capProviderId": null, "distance": null, "has_offers": false, "name": "Mangos Caribbean and Mexican Cuisine", "longitude": -84.624038, "has_menu": false, "awards": null, "user_review_count": 0}, {"business_operation_status": 1, "rating": null, "neighborhood": null, "image": null, "scorecard": null, "featured": false, "sample_categories": "Restaurants", "public_id": "j-christophers-woodstock", "id": 672647240, "votes": null, "tagline": null, "has_video": false, "website": "http://www.citysearch.com/profile/external/672647240/woodstock_ga/j_christopher_s.html", "offers": null, "latitude": 34.098479, "politanName": "Atlanta, GA Metro ", "phone_number": "7705925990", "tags": [{"primary": true, "id": 1722, "name": "Restaurants"}], "fax_number": null, "expansion": {"count": null, "uri": null}, "impression_id": "000b000000ba400a1449dd422ebfa5e24e99e88634", "profile": "http://www.citysearch.com/profile/672647240/woodstock_ga/j_christopher_s.html", "address": {"city": "Woodstock", "state": "GA", "street": "315 Chambers Street", "postal_code": "30188"}, "capProviderId": null, "distance": null, "has_offers": false, "name": "J Christopher's", "longitude": -84.519579, "has_menu": true, "awards": null, "user_review_count": 0}, {"business_operation_status": 1, "rating": null, "neighborhood": null, "image": null, "scorecard": null, "featured": false, "sample_categories": "Restaurants, Frozen Yogurt Shops, Yogurt Manufacturers", "public_id": "yogli-mogli-marietta-2", "id": 673019480, "votes": null, "tagline": null, "has_video": false, "website": null, "offers": null, "latitude": 33.955116, "politanName": "Atlanta, GA Metro ", "phone_number": "7704997009", "tags": [{"primary": false, "id": 1722, "name": "Restaurants"}, {"primary": false, "id": 1729, "name": "Frozen Yogurt Shops"}, {"primary": false, "id": 2342, "name": "Yogurt Manufacturers"}], "fax_number": null, "expansion": {"count": null, "uri": null}, "impression_id": "000b000000cf0ff4eb052148428a29df455868234a", "profile": "http://www.citysearch.com/profile/673019480/marietta_ga/yogli_mogli.html", "address": {"city": "Marietta", "state": "GA", "street": "3600 Dallas Highway", "postal_code": "30064"}, "capProviderId": null, "distance": null, "has_offers": false, "name": "Yogli Mogli", "longitude": -84.656027, "has_menu": false, "awards": null, "user_review_count": 0}, {"business_operation_status": 1, "rating": null, "neighborhood": null, "image": null, "scorecard": null, "featured": false, "sample_categories": "Restaurants", "public_id": "rojo-cocina-mexicana-cantina-roswell", "id": 617503554, "votes": null, "tagline": null, "has_video": false, "website": "http://www.citysearch.com/profile/external/617503554/roswell_ga/rojo_cocina_mexicana_and_cantina.html", "offers": null, "latitude": 34.061428, "politanName": "Atlanta, GA Metro ", "phone_number": "7708200111", "tags": [{"primary": true, "id": 1722, "name": "Restaurants"}], "fax_number": null, "expansion": {"count": null, "uri": null}, "impression_id": "000b000000645c5eefe23949c5ba01cb64fba8be2d", "profile": "http://www.citysearch.com/profile/617503554/roswell_ga/rojo_cocina_mexicana_and_cantina.html", "address": {"city": "Roswell", "state": "GA", "street": "885 Woodstock Rd 410", "postal_code": "30075"}, "capProviderId": null, "distance": null, "has_offers": false, "name": "Rojo Cocina Mexicana And Cantina", "longitude": -84.384932, "has_menu": false, "awards": null, "user_review_count": 0}, {"business_operation_status": 1, "rating": null, "neighborhood": null, "image": null, "scorecard": null, "featured": false, "sample_categories": "Ice Cream Parlors", "public_id": "haagendazs-shop-marietta", "id": 621882610, "votes": null, "tagline": null, "has_video": false, "website": "http://www.citysearch.com/profile/external/621882610/marietta_ga/haagen_dazs_shop.html", "offers": null, "latitude": 34.019128, "politanName": "Atlanta, GA Metro ", "phone_number": "7705903120", "tags": [{"primary": true, "id": 1730, "name": "Ice Cream Parlors"}], "fax_number": null, "expansion": {"count": null, "uri": null}, "impression_id": "000b000000879013c6450e4fb39a163658256e914b", "profile": "http://www.citysearch.com/profile/621882610/marietta_ga/haagen_dazs_shop.html", "address": {"city": "Marietta", "state": "GA", "street": "400 Ernest Barrett Pkwy Nw", "postal_code": "30060"}, "capProviderId": null, "distance": null, "has_offers": false, "name": "Haagen-Dazs Shop", "longitude": -84.563608, "has_menu": false, "awards": null, "user_review_count": 0}, {"business_operation_status": 0, "rating": null, "neighborhood": null, "image": null, "scorecard": null, "featured": false, "sample_categories": "Restaurants, Traditional American", "public_id": "barkers-red-hots-roswell", "id": 713390300, "votes": null, "tagline": null, "has_video": false, "website": null, "offers": null, "latitude": 34.058649, "politanName": "Atlanta, GA Metro ", "phone_number": "7706431833", "tags": [{"primary": false, "id": 11190, "name": "Traditional American"}, {"primary": true, "id": 1722, "name": "Restaurants"}], "fax_number": null, "expansion": {"count": null, "uri": null}, "impression_id": "000b00000007ce294be18743d5b5e834f8c7811107", "profile": "http://www.citysearch.com/profile/713390300/roswell_ga/barker_s_red_hots.html", "address": {"city": "Roswell", "state": "GA", "street": "725 W Crossville Rd", "postal_code": "30075"}, "capProviderId": null, "distance": null, "has_offers": false, "name": "Barker's Red Hots", "longitude": -84.381702, "has_menu": false, "awards": null, "user_review_count": 0}, {"business_operation_status": 1, "rating": null, "neighborhood": null, "image": null, "scorecard": null, "featured": false, "sample_categories": "Restaurants", "public_id": "nagoya-roswell", "id": 625538904, "votes": null, "tagline": null, "has_video": false, "website": null, "offers": null, "latitude": 34.004732, "politanName": "Atlanta, GA Metro ", "phone_number": "7709988899", "tags": [{"primary": true, "id": 1722, "name": "Restaurants"}], "fax_number": null, "expansion": {"count": null, "uri": null}, "impression_id": "000b000000668587d8254e42a8bbb26a191c982083", "profile": "http://www.citysearch.com/profile/625538904/roswell_ga/nagoya.html", "address": {"city": "Roswell", "state": "GA", "street": "910 Marietta Hwy", "postal_code": "30075"}, "capProviderId": null, "distance": null, "has_offers": false, "name": "Nagoya", "longitude": -84.389163, "has_menu": false, "awards": null, "user_review_count": 0}, {"business_operation_status": 1, "rating": null, "neighborhood": null, "image": null, "scorecard": null, "featured": false, "sample_categories": "Restaurants, Chinese", "public_id": "wok-star-roswell", "id": 739069330, "votes": null, "tagline": null, "has_video": false, "website": null, "offers": null, "latitude": 34.04631, "politanName": "Atlanta, GA Metro ", "phone_number": "7706450444", "tags": [{"primary": false, "id": 11252, "name": "Chinese"}, {"primary": true, "id": 1722, "name": "Restaurants"}], "fax_number": null, "expansion": {"count": null, "uri": null}, "impression_id": "000b000000a38cdfe6af0e4777bc54386076161250", "profile": "http://www.citysearch.com/profile/739069330/roswell_ga/wok_star.html", "address": {"city": "Roswell", "state": "GA", "street": "10930 Crabapple Rd", "postal_code": "30075"}, "capProviderId": null, "distance": null, "has_offers": false, "name": "Wok Star", "longitude": -84.361208, "has_menu": false, "awards": null, "user_review_count": 0}, {"business_operation_status": 1, "rating": null, "neighborhood": null, "image": null, "scorecard": null, "featured": false, "sample_categories": "Restaurants", "public_id": "vinevera-kennesaw", "id": 793361100, "votes": null, "tagline": null, "has_video": false, "website": null, "offers": null, "latitude": 34.01771, "politanName": "Atlanta, GA Metro ", "phone_number": "7705909522", "tags": [{"primary": true, "id": 1722, "name": "Restaurants"}], "fax_number": null, "expansion": {"count": null, "uri": null}, "impression_id": "000b000000b3fe2c1035bd4af986c83dcc6206c701", "profile": "http://www.citysearch.com/profile/793361100/kennesaw_ga/vinevera.html", "address": {"city": "Kennesaw", "state": "GA", "street": "400 Ernest W Barrett Pkwy NW", "postal_code": "30144"}, "capProviderId": null, "distance": null, "has_offers": false, "name": "Vinevera", "longitude": -84.564475, "has_menu": false, "awards": null, "user_review_count": 0}, {"business_operation_status": 1, "rating": null, "neighborhood": null, "image": null, "scorecard": null, "featured": false, "sample_categories": "Restaurants, Bars & Clubs", "public_id": "bells-ferry-bar-grill-acworth", "id": 801116470, "votes": null, "tagline": null, "has_video": false, "website": null, "offers": null, "latitude": 34.089977, "politanName": "Atlanta, GA Metro ", "phone_number": "6784012438", "tags": [{"primary": false, "id": 164, "name": "Bars & Clubs"}, {"primary": true, "id": 1722, "name": "Restaurants"}], "fax_number": null, "expansion": {"count": null, "uri": null}, "impression_id": "000b000000001283ff94134e63987468457ae4fc03", "profile": "http://www.citysearch.com/profile/801116470/acworth_ga/bells_ferry_bar_grill.html", "address": {"city": "Acworth", "state": "GA", "street": "5735 Bells Ferry Rd", "postal_code": "30102"}, "capProviderId": null, "distance": null, "has_offers": false, "name": "Bells Ferry Bar & Grill", "longitude": -84.579336, "has_menu": false, "awards": null, "user_review_count": 0}, {"business_operation_status": 0, "rating": null, "neighborhood": null, "image": null, "scorecard": null, "featured": false, "sample_categories": "Restaurants, Traditional American", "public_id": "magnolia-cafe-roswell", "id": 41779065, "votes": null, "tagline": null, "has_video": false, "website": null, "offers": null, "latitude": 34.024666, "politanName": "Atlanta, GA Metro ", "phone_number": "7705186011", "tags": [{"primary": false, "id": 1722, "name": "Restaurants"}, {"primary": true, "id": 11190, "name": "Traditional American"}], "fax_number": null, "expansion": {"count": null, "uri": null}, "impression_id": "000b00000076602e1da173467281cb15d46c9a1973", "profile": "http://www.citysearch.com/profile/41779065/roswell_ga/magnolia_cafe.html", "address": {"city": "Roswell", "state": "GA", "street": "957 Canton St", "postal_code": "30075"}, "capProviderId": null, "distance": null, "has_offers": false, "name": "Magnolia Cafe", "longitude": -84.361254, "has_menu": true, "awards": null, "user_review_count": 0}, {"business_operation_status": 1, "rating": 10.0, "neighborhood": null, "image": null, "scorecard": null, "featured": false, "sample_categories": "Catering, Restaurants", "public_id": "a-delightful-bitefull-catering-marietta", "id": 43855795, "votes": null, "tagline": null, "has_video": false, "website": "http://www.citysearch.com/profile/external/43855795/marietta_ga/a_delightful_bitefull_catering.html", "offers": null, "latitude": 33.973087, "politanName": "Atlanta, GA Metro ", "phone_number": "7705654146", "tags": [{"primary": false, "id": 1705, "name": "Catering"}, {"primary": true, "id": 1722, "name": "Restaurants"}], "fax_number": null, "expansion": {"count": null, "uri": null}, "impression_id": "000b0000004105dd3332544aad9c76227e3fc52241", "profile": "http://www.citysearch.com/profile/43855795/marietta_ga/a_delightful_bitefull_catering.html", "address": {"city": "Marietta", "state": "GA", "street": "2235 Sewell Mill Rd", "postal_code": "30062"}, "capProviderId": null, "distance": null, "has_offers": false, "name": "A Delightful Bitefull Catering", "longitude": -84.486914, "has_menu": false, "awards": null, "user_review_count": 1}, {"business_operation_status": 1, "rating": null, "neighborhood": null, "image": null, "scorecard": null, "featured": false, "sample_categories": "Ice Cream Parlors, Restaurants, Dessert Shops", "public_id": "dairylicious-treats-marietta", "id": 43855993, "votes": null, "tagline": null, "has_video": false, "website": null, "offers": null, "latitude": 33.947264, "politanName": "Atlanta, GA Metro ", "phone_number": "7702185744", "tags": [{"primary": false, "id": 1722, "name": "Restaurants"}, {"primary": false, "id": 1728, "name": "Dessert Shops"}, {"primary": true, "id": 1730, "name": "Ice Cream Parlors"}], "fax_number": null, "expansion": {"count": null, "uri": null}, "impression_id": "000b0000008220443cd1174237917eb915d06218b2", "profile": "http://www.citysearch.com/profile/43855993/marietta_ga/dairylicious_treats.html", "address": {"city": "Marietta", "state": "GA", "street": "270 Martin Ridge Dr SW", "postal_code": "30064"}, "capProviderId": null, "distance": null, "has_offers": false, "name": "Dairylicious Treats", "longitude": -84.617328, "has_menu": false, "awards": null, "user_review_count": 0}, {"business_operation_status": 0, "rating": null, "neighborhood": null, "image": null, "scorecard": null, "featured": false, "sample_categories": "Barbecue Restaurants, Restaurants", "public_id": "beetles-barbeque-woodstock", "id": 46003164, "votes": null, "tagline": null, "has_video": false, "website": null, "offers": null, "latitude": 34.086104, "politanName": "Atlanta, GA Metro ", "phone_number": "6782140227", "tags": [{"primary": false, "id": 1722, "name": "Restaurants"}, {"primary": true, "id": 1724, "name": "Barbecue Restaurants"}], "fax_number": null, "expansion": {"count": null, "uri": null}, "impression_id": "000b000000b910c2b4294a496a949308ef7d932910", "profile": "http://www.citysearch.com/profile/46003164/woodstock_ga/beetles_barbeque.html", "address": {"city": "Woodstock", "state": "GA", "street": "9539 Highway 92 Ste 110", "postal_code": "30188"}, "capProviderId": null, "distance": null, "has_offers": false, "name": "Beetles Barbeque", "longitude": -84.530062, "has_menu": true, "awards": null, "user_review_count": 0}, {"business_operation_status": 1, "rating": null, "neighborhood": null, "image": null, "scorecard": null, "featured": false, "sample_categories": "Restaurants", "public_id": "the-crepe-chefs-roswell", "id": 826309590, "votes": null, "tagline": null, "has_video": false, "website": null, "offers": null, "latitude": 34.056687, "politanName": "Atlanta, GA Metro ", "phone_number": "7706490261", "tags": [{"primary": true, "id": 1722, "name": "Restaurants"}], "fax_number": null, "expansion": {"count": null, "uri": null}, "impression_id": "000b0000009a1d9713048244f69753eecf1ea475e6", "profile": "http://www.citysearch.com/profile/826309590/roswell_ga/the_crepe_chefs.html", "address": {"city": "Roswell", "state": "GA", "street": "11405 West Rd", "postal_code": "30075"}, "capProviderId": null, "distance": null, "has_offers": false, "name": "The Crepe Chefs", "longitude": -84.413411, "has_menu": false, "awards": null, "user_review_count": 0}, {"business_operation_status": 1, "rating": null, "neighborhood": null, "image": null, "scorecard": null, "featured": false, "sample_categories": "Restaurants, Cajun & Creole", "public_id": "cajun-johns-restaurant-marietta", "id": 45988795, "votes": null, "tagline": null, "has_video": false, "website": null, "offers": null, "latitude": 33.937014, "politanName": "Atlanta, GA Metro ", "phone_number": "7704998700", "tags": [{"primary": false, "id": 11245, "name": "Cajun & Creole"}, {"primary": true, "id": 1722, "name": "Restaurants"}], "fax_number": null, "expansion": {"count": null, "uri": null}, "impression_id": "000b000000b1e7a4db1396449e9f4ddb4d18cea05a", "profile": "http://www.citysearch.com/profile/45988795/marietta_ga/cajun_john_s_restaurant.html", "address": {"city": "Marietta", "state": "GA", "street": "1123 Powder Springs St", "postal_code": "30064"}, "capProviderId": null, "distance": null, "has_offers": false, "name": "Cajun John's Restaurant", "longitude": -84.554706, "has_menu": false, "awards": null, "user_review_count": 0}, {"business_operation_status": 1, "rating": null, "neighborhood": null, "image": null, "scorecard": null, "featured": false, "sample_categories": "Restaurants, Pizza", "public_id": "the-real-fix-pizzeria-roswell", "id": 608445304, "votes": null, "tagline": null, "has_video": false, "website": null, "offers": null, "latitude": 34.024111, "politanName": "Atlanta, GA Metro ", "phone_number": "7702991657", "tags": [{"primary": false, "id": 11299, "name": "Pizza"}, {"primary": true, "id": 1722, "name": "Restaurants"}], "fax_number": null, "expansion": {"count": null, "uri": null}, "impression_id": "000b00000054bcf5f2a02c4429aa48a30c28a41f82", "profile": "http://www.citysearch.com/profile/608445304/roswell_ga/the_real_fix_pizzeria.html", "address": {"city": "Roswell", "state": "GA", "street": "14 Elizabeth Way", "postal_code": "30075"}, "capProviderId": null, "distance": null, "has_offers": false, "name": "The Real Fix Pizzeria", "longitude": -84.361099, "has_menu": false, "awards": null, "user_review_count": 0}, {"business_operation_status": 1, "rating": null, "neighborhood": null, "image": null, "scorecard": null, "featured": false, "sample_categories": "Restaurants", "public_id": "bound-south-inc-marietta", "id": 728020120, "votes": null, "tagline": null, "has_video": false, "website": null, "offers": null, "latitude": 33.977868, "politanName": "Atlanta, GA Metro ", "phone_number": "7704223953", "tags": [{"primary": true, "id": 1722, "name": "Restaurants"}], "fax_number": null, "expansion": {"count": null, "uri": null}, "impression_id": "000b000000317d65eec46044518b2dcd0219a2b3b8", "profile": "http://www.citysearch.com/profile/728020120/marietta_ga/bound_south_inc.html", "address": {"city": "Marietta", "state": "GA", "street": "850 Kennesaw Ave NW # C6", "postal_code": "30060"}, "capProviderId": null, "distance": null, "has_offers": false, "name": "Bound South INC", "longitude": -84.568453, "has_menu": false, "awards": null, "user_review_count": 0}, {"business_operation_status": 1, "rating": null, "neighborhood": null, "image": null, "scorecard": null, "featured": false, "sample_categories": "Restaurants, Carry Out", "public_id": "mcdonalds-woodstock-2", "id": 623070454, "votes": null, "tagline": null, "has_video": false, "website": "http://www.citysearch.com/profile/external/623070454/woodstock_ga/mcdonald_s.html", "offers": null, "latitude": 34.109506, "politanName": "Atlanta, GA Metro ", "phone_number": "7709288510", "tags": [{"primary": false, "id": 11247, "name": "Carry Out"}, {"primary": true, "id": 1722, "name": "Restaurants"}], "fax_number": null, "expansion": {"count": null, "uri": null}, "impression_id": "000b00000069b225bce66f40258e1bbac48e9160d1", "profile": "http://www.citysearch.com/profile/623070454/woodstock_ga/mcdonald_s.html", "address": {"city": "Woodstock", "state": "GA", "street": "2115 Towne Lake Pkwy", "postal_code": "30189"}, "capProviderId": null, "distance": null, "has_offers": false, "name": "Mcdonald's", "longitude": -84.553031, "has_menu": true, "awards": null, "user_review_count": 0}, {"business_operation_status": 1, "rating": null, "neighborhood": null, "image": null, "scorecard": null, "featured": false, "sample_categories": "Restaurants, Bars & Clubs, Bars & Pubs, Mexican", "public_id": "la-bamba-mexican-bar-grill-kennesaw", "id": 742263110, "votes": null, "tagline": null, "has_video": false, "website": null, "offers": null, "latitude": 34.047772, "politanName": "Atlanta, GA Metro ", "phone_number": "7704221106", "tags": [{"primary": false, "id": 164, "name": "Bars & Clubs"}, {"primary": false, "id": 1686, "name": "Bars & Pubs"}, {"primary": false, "id": 11208, "name": "Mexican"}, {"primary": true, "id": 1722, "name": "Restaurants"}], "fax_number": null, "expansion": {"count": null, "uri": null}, "impression_id": "000b00000043c7f45e74444df9b2e77e82dfab8d53", "profile": "http://www.citysearch.com/profile/742263110/kennesaw_ga/la_bamba_mexican_bar_grill.html", "address": {"city": "Kennesaw", "state": "GA", "street": "4100 Jiles Rd NW", "postal_code": "30144"}, "capProviderId": null, "distance": null, "has_offers": false, "name": "La Bamba Mexican Bar & Grill", "longitude": -84.610566, "has_menu": false, "awards": null, "user_review_count": 0}, {"business_operation_status": 1, "rating": null, "neighborhood": null, "image": null, "scorecard": null, "featured": false, "sample_categories": "Delis And Delicatessens", "public_id": "psycha-deli-marietta", "id": 748309660, "votes": null, "tagline": null, "has_video": false, "website": null, "offers": null, "latitude": 33.964105, "politanName": "Atlanta, GA Metro ", "phone_number": "7707921320", "tags": [{"primary": true, "id": 1727, "name": "Delis And Delicatessens"}], "fax_number": null, "expansion": {"count": null, "uri": null}, "impression_id": "000b00000004c9d557394441c685ce9ce8ca31ee10", "profile": "http://www.citysearch.com/profile/748309660/marietta_ga/psycha_deli.html", "address": {"city": "Marietta", "state": "GA", "street": "531 Roselane St NW # 520", "postal_code": "30060"}, "capProviderId": null, "distance": null, "has_offers": false, "name": "Psycha Deli", "longitude": -84.557337, "has_menu": false, "awards": null, "user_review_count": 0}, {"business_operation_status": 1, "rating": null, "neighborhood": null, "image": null, "scorecard": null, "featured": false, "sample_categories": "Restaurants, Mexican", "public_id": "la-bamba-mexican-restaurant-canton", "id": 754782430, "votes": null, "tagline": null, "has_video": false, "website": null, "offers": null, "latitude": 34.176927, "politanName": "Atlanta, GA Metro ", "phone_number": "7707047382", "tags": [{"primary": false, "id": 11208, "name": "Mexican"}, {"primary": true, "id": 1722, "name": "Restaurants"}], "fax_number": null, "expansion": {"count": null, "uri": null}, "impression_id": "000b0000005db516efc4f44831af8cccc3243b6f5e", "profile": "http://www.citysearch.com/profile/754782430/canton_ga/la_bamba_mexican_restaurant.html", "address": {"city": "Canton", "state": "GA", "street": "6109 Hickory Flat Hwy", "postal_code": "30115"}, "capProviderId": null, "distance": null, "has_offers": false, "name": "La Bamba Mexican Restaurant", "longitude": -84.421005, "has_menu": false, "awards": null, "user_review_count": 0}, {"business_operation_status": 1, "rating": null, "neighborhood": null, "image": null, "scorecard": null, "featured": false, "sample_categories": "Restaurants", "public_id": "cajun-johns-marietta", "id": 672215460, "votes": null, "tagline": null, "has_video": false, "website": null, "offers": null, "latitude": 33.937014, "politanName": "Atlanta, GA Metro ", "phone_number": null, "tags": [{"primary": true, "id": 1722, "name": "Restaurants"}], "fax_number": null, "expansion": {"count": null, "uri": null}, "impression_id": "000b000000c149c624a4f24c0b941fc32e315aa902", "profile": "http://www.citysearch.com/profile/672215460/marietta_ga/cajun_john_s.html", "address": {"city": "Marietta", "state": "GA", "street": "1123 Powder Springs St. SE", "postal_code": "30064"}, "capProviderId": null, "distance": null, "has_offers": false, "name": "Cajun John's", "longitude": -84.554706, "has_menu": false, "awards": null, "user_review_count": 0}, {"business_operation_status": 1, "rating": null, "neighborhood": null, "image": null, "scorecard": null, "featured": false, "sample_categories": "Restaurants", "public_id": "lil-whisper-woodstock", "id": 777714940, "votes": null, "tagline": null, "has_video": false, "website": null, "offers": null, "latitude": 34.087943, "politanName": "Atlanta, GA Metro ", "phone_number": "7705920501", "tags": [{"primary": true, "id": 1722, "name": "Restaurants"}], "fax_number": null, "expansion": {"count": null, "uri": null}, "impression_id": "000b0000003b5bf5dd8961421493d2c55de250b859", "profile": "http://www.citysearch.com/profile/777714940/woodstock_ga/lil_whisper.html", "address": {"city": "Woodstock", "state": "GA", "street": "6889 Highway 92", "postal_code": "30189"}, "capProviderId": null, "distance": null, "has_offers": false, "name": "Lil Whisper", "longitude": -84.573347, "has_menu": false, "awards": null, "user_review_count": 0}, {"business_operation_status": 1, "rating": null, "neighborhood": null, "image": null, "scorecard": null, "featured": false, "sample_categories": "Restaurants, Barbecue Restaurants", "public_id": "wings-inc-kennesaw", "id": 777815920, "votes": null, "tagline": null, "has_video": false, "website": null, "offers": null, "latitude": 34.008395, "politanName": "Atlanta, GA Metro ", "phone_number": "6782903950", "tags": [{"primary": false, "id": 1724, "name": "Barbecue Restaurants"}, {"primary": true, "id": 1722, "name": "Restaurants"}], "fax_number": null, "expansion": {"count": null, "uri": null}, "impression_id": "000b000000d86ee5c4796a465c8d374a29106a2ea6", "profile": "http://www.citysearch.com/profile/777815920/kennesaw_ga/wings_inc.html", "address": {"city": "Kennesaw", "state": "GA", "street": "319 Heritage Park Trce NW", "postal_code": "30144"}, "capProviderId": null, "distance": null, "has_offers": false, "name": "Wings INC", "longitude": -84.56101, "has_menu": false, "awards": null, "user_review_count": 0}, {"business_operation_status": 1, "rating": null, "neighborhood": null, "image": null, "scorecard": null, "featured": false, "sample_categories": "Restaurants", "public_id": "are-you-hungry-marietta", "id": 777827260, "votes": null, "tagline": null, "has_video": false, "website": null, "offers": null, "latitude": 34.021599, "politanName": "Atlanta, GA Metro ", "phone_number": "6783520770", "tags": [{"primary": true, "id": 1722, "name": "Restaurants"}], "fax_number": null, "expansion": {"count": null, "uri": null}, "impression_id": "000b0000009f03766b3acf408fa1a331ac71da6b7c", "profile": "http://www.citysearch.com/profile/777827260/marietta_ga/are_you_hungry.html", "address": {"city": "Marietta", "state": "GA", "street": "2986 Johnson Ferry Rd", "postal_code": "30062"}, "capProviderId": null, "distance": null, "has_offers": false, "name": "Are You Hungry", "longitude": -84.426314, "has_menu": false, "awards": null, "user_review_count": 0}, {"business_operation_status": 1, "rating": null, "neighborhood": null, "image": null, "scorecard": null, "featured": false, "sample_categories": "Restaurants, Seafood", "public_id": "sfb-crab-apple-alpharetta", "id": 777654370, "votes": null, "tagline": null, "has_video": false, "website": null, "offers": null, "latitude": 34.081775, "politanName": "Atlanta, GA Metro ", "phone_number": "6783668129", "tags": [{"primary": false, "id": 11228, "name": "Seafood"}, {"primary": true, "id": 1722, "name": "Restaurants"}], "fax_number": null, "expansion": {"count": null, "uri": null}, "impression_id": "000b000000e1799621e052444e8873cf8dadc9521a", "profile": "http://www.citysearch.com/profile/777654370/alpharetta_ga/sfb_crab_apple.html", "address": {"city": "Alpharetta", "state": "GA", "street": "12330 Crabapple Rd", "postal_code": "30004"}, "capProviderId": null, "distance": null, "has_offers": false, "name": "Sfb Crab Apple", "longitude": -84.358005, "has_menu": false, "awards": null, "user_review_count": 0}, {"business_operation_status": 1, "rating": null, "neighborhood": null, "image": null, "scorecard": null, "featured": false, "sample_categories": "Restaurants, Barbecue Restaurants", "public_id": "hot-wings-marietta", "id": 682287680, "votes": null, "tagline": null, "has_video": false, "website": null, "offers": null, "latitude": 33.941419, "politanName": "Atlanta, GA Metro ", "phone_number": "7702181589", "tags": [{"primary": false, "id": 1724, "name": "Barbecue Restaurants"}, {"primary": true, "id": 1722, "name": "Restaurants"}], "fax_number": null, "expansion": {"count": null, "uri": null}, "impression_id": "000b0000009b02268a26e04dd58ac1a529e8e51976", "profile": "http://www.citysearch.com/profile/682287680/marietta_ga/hot_wings.html", "address": {"city": "Marietta", "state": "GA", "street": "981 S Marietta Pkwy Se", "postal_code": "30060"}, "capProviderId": null, "distance": null, "has_offers": false, "name": "Hot Wings", "longitude": -84.522978, "has_menu": true, "awards": null, "user_review_count": 2}, {"business_operation_status": 1, "rating": null, "neighborhood": null, "image": null, "scorecard": null, "featured": false, "sample_categories": "Restaurants, Cajun & Creole", "public_id": "ji-bou-te-marietta", "id": 777783530, "votes": null, "tagline": null, "has_video": false, "website": null, "offers": null, "latitude": 33.952594, "politanName": "Atlanta, GA Metro ", "phone_number": "7707940772", "tags": [{"primary": false, "id": 11245, "name": "Cajun & Creole"}, {"primary": true, "id": 1722, "name": "Restaurants"}], "fax_number": null, "expansion": {"count": null, "uri": null}, "impression_id": "000b0000009ec28671e26f4d29b59854f5eadc6a39", "profile": "http://www.citysearch.com/profile/777783530/marietta_ga/ji_bou_te.html", "address": {"city": "Marietta", "state": "GA", "street": "800 Whitlock Ave NW # 103", "postal_code": "30064"}, "capProviderId": null, "distance": null, "has_offers": false, "name": "Ji Bou Te", "longitude": -84.575881, "has_menu": false, "awards": null, "user_review_count": 0}, {"business_operation_status": 1, "rating": null, "neighborhood": null, "image": null, "scorecard": null, "featured": false, "sample_categories": "Restaurants, South American", "public_id": "el-hondureno-billares-marietta", "id": 777670670, "votes": null, "tagline": null, "has_video": false, "website": null, "offers": null, "latitude": 33.928458, "politanName": "Atlanta, GA Metro ", "phone_number": "7709532737", "tags": [{"primary": false, "id": 15490, "name": "South American"}, {"primary": true, "id": 1722, "name": "Restaurants"}], "fax_number": null, "expansion": {"count": null, "uri": null}, "impression_id": "000b0000005596b38b43e148159269660ec25c4fb7", "profile": "http://www.citysearch.com/profile/777670670/marietta_ga/el_hondureno_billares.html", "address": {"city": "Marietta", "state": "GA", "street": "1033 Franklin Rd Se", "postal_code": "30067"}, "capProviderId": null, "distance": null, "has_offers": false, "name": "El Hondureno Billares", "longitude": -84.492995, "has_menu": false, "awards": null, "user_review_count": 0}, {"business_operation_status": 0, "rating": null, "neighborhood": null, "image": null, "scorecard": null, "featured": false, "sample_categories": "Restaurants, Italian, $", "public_id": "pizza-etc-woodstock", "id": 35740258, "votes": null, "tagline": null, "has_video": false, "website": null, "offers": null, "latitude": 34.085957, "politanName": "Atlanta, GA Metro ", "phone_number": "7705921500", "tags": [{"primary": false, "id": 1722, "name": "Restaurants"}, {"primary": false, "id": 11231, "name": "$"}, {"primary": true, "id": 11279, "name": "Italian"}], "fax_number": null, "expansion": {"count": null, "uri": null}, "impression_id": "000b000000c51809470897436bb0d960a3979e36cc", "profile": "http://www.citysearch.com/profile/35740258/woodstock_ga/pizza_etc_.html", "address": {"city": "Woodstock", "state": "GA", "street": "9550 Main St., Ste. 150", "postal_code": "30188"}, "capProviderId": null, "distance": null, "has_offers": false, "name": "Pizza, Etc.", "longitude": -84.519251, "has_menu": true, "awards": null, "user_review_count": 0}, {"business_operation_status": 1, "rating": null, "neighborhood": null, "image": null, "scorecard": null, "featured": false, "sample_categories": "Restaurants", "public_id": "chili-dog-factory-marietta", "id": 672271920, "votes": null, "tagline": null, "has_video": false, "website": null, "offers": null, "latitude": 33.940571, "politanName": "Atlanta, GA Metro ", "phone_number": "6782131114", "tags": [{"primary": true, "id": 1722, "name": "Restaurants"}], "fax_number": null, "expansion": {"count": null, "uri": null}, "impression_id": "000b0000007ac1e84439b944128e07d19b655b5252", "profile": "http://www.citysearch.com/profile/672271920/marietta_ga/chili_dog_factory.html", "address": {"city": "Marietta", "state": "GA", "street": "940 South Marietta Parkway", "postal_code": "30060"}, "capProviderId": null, "distance": null, "has_offers": false, "name": "Chili Dog Factory", "longitude": -84.525094, "has_menu": false, "awards": null, "user_review_count": 0}, {"business_operation_status": 1, "rating": null, "neighborhood": null, "image": null, "scorecard": null, "featured": false, "sample_categories": "Restaurants", "public_id": "ajr-inc-marietta-2", "id": 682658690, "votes": null, "tagline": null, "has_video": false, "website": null, "offers": null, "latitude": 33.967992, "politanName": "Atlanta, GA Metro ", "phone_number": "7705653753", "tags": [{"primary": true, "id": 1722, "name": "Restaurants"}], "fax_number": null, "expansion": {"count": null, "uri": null}, "impression_id": "000b0000007ff8d8e5e95f40fbb845ebddf0755e48", "profile": "http://www.citysearch.com/profile/682658690/marietta_ga/ajr_inc.html", "address": {"city": "Marietta", "state": "GA", "street": "2945 Robinson Rd Ne", "postal_code": "30068"}, "capProviderId": null, "distance": null, "has_offers": false, "name": "Ajr INC", "longitude": -84.466217, "has_menu": false, "awards": null, "user_review_count": 0}, {"business_operation_status": 1, "rating": 8.0, "neighborhood": null, "image": null, "scorecard": null, "featured": false, "sample_categories": "Restaurants, Traditional American", "public_id": "silos-grill-alpharetta", "id": 33623237, "votes": null, "tagline": null, "has_video": false, "website": null, "offers": null, "latitude": 34.082716, "politanName": "Atlanta, GA Metro ", "phone_number": "7707527456", "tags": [{"primary": false, "id": 1722, "name": "Restaurants"}, {"primary": true, "id": 11190, "name": "Traditional American"}], "fax_number": null, "expansion": {"count": null, "uri": null}, "impression_id": "000b00000091e6beebc4724ce99c77b71f0c0e2551", "profile": "http://www.citysearch.com/profile/33623237/alpharetta_ga/silos_grill.html", "address": {"city": "Alpharetta", "state": "GA", "street": "12315 Crabapple Rd", "postal_code": "30004"}, "capProviderId": null, "distance": null, "has_offers": false, "name": "Silos Grill", "longitude": -84.355553, "has_menu": false, "awards": null, "user_review_count": 0}, {"business_operation_status": 1, "rating": null, "neighborhood": null, "image": null, "scorecard": null, "featured": false, "sample_categories": "Restaurants, Delis And Delicatessens, Sandwich Shops, Carry Out", "public_id": "subway-kennesaw-11", "id": 777683740, "votes": null, "tagline": null, "has_video": false, "website": "http://www.citysearch.com/profile/external/777683740/kennesaw_ga/subway.html", "offers": null, "latitude": 34.033713, "politanName": "Atlanta, GA Metro ", "phone_number": "7705440339", "tags": [{"primary": false, "id": 1727, "name": "Delis And Delicatessens"}, {"primary": false, "id": 1736, "name": "Sandwich Shops"}, {"primary": false, "id": 11247, "name": "Carry Out"}, {"primary": true, "id": 1722, "name": "Restaurants"}], "fax_number": null, "expansion": {"count": null, "uri": null}, "impression_id": "000b000000714e602a5b4144999c80f1ecbcc7e956", "profile": "http://www.citysearch.com/profile/777683740/kennesaw_ga/subway.html", "address": {"city": "Kennesaw", "state": "GA", "street": "3300 Frey Rd NW", "postal_code": "30144"}, "capProviderId": null, "distance": null, "has_offers": false, "name": "SUBWAY", "longitude": -84.579677, "has_menu": true, "awards": null, "user_review_count": 0}, {"business_operation_status": 0, "rating": null, "neighborhood": null, "image": null, "scorecard": null, "featured": false, "sample_categories": "Restaurants, Mexican, Carry Out", "public_id": "taco-bell-corporate-office-roswell", "id": 777708760, "votes": null, "tagline": null, "has_video": false, "website": null, "offers": null, "latitude": 34.04192, "politanName": "Atlanta, GA Metro ", "phone_number": "7709903000", "tags": [{"primary": false, "id": 11208, "name": "Mexican"}, {"primary": false, "id": 11247, "name": "Carry Out"}, {"primary": true, "id": 1722, "name": "Restaurants"}], "fax_number": null, "expansion": {"count": null, "uri": null}, "impression_id": "000b000000388837d1d60945048bce1b0a747ebf1f", "profile": "http://www.citysearch.com/profile/777708760/roswell_ga/taco_bell_corporate_office.html", "address": {"city": "Roswell", "state": "GA", "street": "675 Mansell Rd # 200", "postal_code": "30076"}, "capProviderId": null, "distance": null, "has_offers": false, "name": "Taco Bell Corporate Office", "longitude": -84.344642, "has_menu": false, "awards": null, "user_review_count": 0}, {"business_operation_status": 0, "rating": null, "neighborhood": null, "image": null, "scorecard": null, "featured": false, "sample_categories": "Restaurants, Italian", "public_id": "fratelli-di-napoli-roswell", "id": 777781570, "votes": null, "tagline": null, "has_video": false, "website": "http://www.citysearch.com/profile/external/777781570/roswell_ga/fratelli_di_napoli.html", "offers": null, "latitude": 34.023676, "politanName": "Atlanta, GA Metro ", "phone_number": "7706429917", "tags": [{"primary": false, "id": 11279, "name": "Italian"}, {"primary": true, "id": 1722, "name": "Restaurants"}], "fax_number": null, "expansion": {"count": null, "uri": null}, "impression_id": "000b00000074b752ccc72e464aad0086f54aeb7f5b", "profile": "http://www.citysearch.com/profile/777781570/roswell_ga/fratelli_di_napoli.html", "address": {"city": "Roswell", "state": "GA", "street": "928 Canton St", "postal_code": "30075"}, "capProviderId": null, "distance": null, "has_offers": false, "name": "Fratelli Di Napoli", "longitude": -84.361782, "has_menu": true, "awards": null, "user_review_count": 2}, {"business_operation_status": 1, "rating": null, "neighborhood": null, "image": null, "scorecard": null, "featured": false, "sample_categories": "Coffeehouses", "public_id": "house-of-brews-llc-kennesaw", "id": 777659260, "votes": null, "tagline": null, "has_video": false, "website": null, "offers": null, "latitude": 34.018008, "politanName": "Atlanta, GA Metro ", "phone_number": "7704274005", "tags": [{"primary": true, "id": 1726, "name": "Coffeehouses"}], "fax_number": null, "expansion": {"count": null, "uri": null}, "impression_id": "000b000000c5b64feefa774fc39e9b7a1cb670f205", "profile": "http://www.citysearch.com/profile/777659260/kennesaw_ga/house_of_brews_llc.html", "address": {"city": "Kennesaw", "state": "GA", "street": "2655 Cobb Pkwy NW # 2101", "postal_code": "30152"}, "capProviderId": null, "distance": null, "has_offers": false, "name": "House of Brews LLC", "longitude": -84.619527, "has_menu": false, "awards": null, "user_review_count": 0}, {"business_operation_status": 1, "rating": null, "neighborhood": null, "image": null, "scorecard": null, "featured": false, "sample_categories": "Restaurants", "public_id": "chans-alterations-roswell", "id": 777659440, "votes": null, "tagline": null, "has_video": false, "website": null, "offers": null, "latitude": 34.011764, "politanName": "Atlanta, GA Metro ", "phone_number": "7709987882", "tags": [{"primary": true, "id": 1722, "name": "Restaurants"}], "fax_number": null, "expansion": {"count": null, "uri": null}, "impression_id": "000b000000d153a5ebc7bc4a4a80ad530d5d111ff1", "profile": "http://www.citysearch.com/profile/777659440/roswell_ga/chan_s_alterations.html", "address": {"city": "Roswell", "state": "GA", "street": "48 King St", "postal_code": "30075"}, "capProviderId": null, "distance": null, "has_offers": false, "name": "Chan's Alterations", "longitude": -84.36332, "has_menu": false, "awards": null, "user_review_count": 0}, {"business_operation_status": 1, "rating": null, "neighborhood": null, "image": null, "scorecard": null, "featured": false, "sample_categories": "Restaurants", "public_id": "dominicks-of-roswell-roswell", "id": 779688750, "votes": null, "tagline": null, "has_video": false, "website": null, "offers": null, "latitude": 34.009785, "politanName": "Atlanta, GA Metro ", "phone_number": "7705181430", "tags": [{"primary": true, "id": 1722, "name": "Restaurants"}], "fax_number": null, "expansion": {"count": null, "uri": null}, "impression_id": "000b000000fd0a2b82f900489da8a85f906150e335", "profile": "http://www.citysearch.com/profile/779688750/roswell_ga/dominick_s_of_roswell.html", "address": {"city": "Roswell", "state": "GA", "street": "408 S Atlanta St", "postal_code": "30075"}, "capProviderId": null, "distance": null, "has_offers": false, "name": "Dominick's of Roswell", "longitude": -84.361532, "has_menu": false, "awards": null, "user_review_count": 0}, {"business_operation_status": 1, "rating": null, "neighborhood": null, "image": null, "scorecard": null, "featured": false, "sample_categories": "Restaurants, Bars & Clubs, Mexican", "public_id": "bogeys-kennesaw", "id": 775191750, "votes": null, "tagline": null, "has_video": false, "website": null, "offers": null, "latitude": 34.013172, "politanName": "Atlanta, GA Metro ", "phone_number": "7704261515", "tags": [{"primary": false, "id": 164, "name": "Bars & Clubs"}, {"primary": false, "id": 11208, "name": "Mexican"}, {"primary": true, "id": 1722, "name": "Restaurants"}], "fax_number": null, "expansion": {"count": null, "uri": null}, "impression_id": "000b000000c59d2bcd989e49b392e0dca755363be4", "profile": "http://www.citysearch.com/profile/775191750/kennesaw_ga/bogey_s.html", "address": {"city": "Kennesaw", "state": "GA", "street": "2615 George Busbee Pkwy NW", "postal_code": "30144"}, "capProviderId": null, "distance": null, "has_offers": false, "name": "Bogey's", "longitude": -84.567215, "has_menu": false, "awards": null, "user_review_count": 0}, {"business_operation_status": 1, "rating": null, "neighborhood": null, "image": null, "scorecard": null, "featured": false, "sample_categories": "Coffee & Tea Shops, Coffeehouses", "public_id": "classic-coffee-inc-kennesaw", "id": 775222890, "votes": null, "tagline": null, "has_video": false, "website": null, "offers": null, "latitude": 34.042632, "politanName": "Atlanta, GA Metro ", "phone_number": "7706357120", "tags": [{"primary": false, "id": 1726, "name": "Coffeehouses"}, {"primary": true, "id": 1711, "name": "Coffee & Tea Shops"}], "fax_number": null, "expansion": {"count": null, "uri": null}, "impression_id": "000b0000003d16db2fb21746b5a101ddb7ef2f4ea5", "profile": "http://www.citysearch.com/profile/775222890/kennesaw_ga/classic_coffee_inc.html", "address": {"city": "Kennesaw", "state": "GA", "street": "3805 Canton Pl NW", "postal_code": "30144"}, "capProviderId": null, "distance": null, "has_offers": false, "name": "Classic Coffee Inc", "longitude": -84.584447, "has_menu": false, "awards": null, "user_review_count": 0}, {"business_operation_status": 1, "rating": null, "neighborhood": null, "image": null, "scorecard": null, "featured": false, "sample_categories": "Restaurants", "public_id": "joes-delivery-woodstock", "id": 777767090, "votes": null, "tagline": null, "has_video": false, "website": null, "offers": null, "latitude": 34.108565, "politanName": "Atlanta, GA Metro ", "phone_number": "7705174877", "tags": [{"primary": true, "id": 1722, "name": "Restaurants"}], "fax_number": null, "expansion": {"count": null, "uri": null}, "impression_id": "000b000000344cff61a81f476a8831eaa6cea964ee", "profile": "http://www.citysearch.com/profile/777767090/woodstock_ga/joe_s_delivery.html", "address": {"city": "Woodstock", "state": "GA", "street": "100 Paces Pkwy", "postal_code": "30189"}, "capProviderId": null, "distance": null, "has_offers": false, "name": "Joe's Delivery", "longitude": -84.539393, "has_menu": false, "awards": null, "user_review_count": 0}, {"business_operation_status": 0, "rating": null, "neighborhood": null, "image": null, "scorecard": null, "featured": false, "sample_categories": "Restaurants, Chicken", "public_id": "teriyaki-chicken-kennesaw", "id": 777806690, "votes": null, "tagline": null, "has_video": false, "website": null, "offers": null, "latitude": 34.061692, "politanName": "Atlanta, GA Metro ", "phone_number": "7704269225", "tags": [{"primary": false, "id": 12839, "name": "Chicken"}, {"primary": true, "id": 1722, "name": "Restaurants"}], "fax_number": null, "expansion": {"count": null, "uri": null}, "impression_id": "000b000000039f747fdee4445590359cb13d16830b", "profile": "http://www.citysearch.com/profile/777806690/kennesaw_ga/teriyaki_chicken.html", "address": {"city": "Kennesaw", "state": "GA", "street": "4430 Wade Green Rd NW", "postal_code": "30144"}, "capProviderId": null, "distance": null, "has_offers": false, "name": "Teriyaki Chicken", "longitude": -84.591055, "has_menu": true, "awards": null, "user_review_count": 2}, {"business_operation_status": 1, "rating": null, "neighborhood": null, "image": null, "scorecard": null, "featured": false, "sample_categories": "Restaurants, Catering, Carry Out, Chicken", "public_id": "chickfila-woodstock-3", "id": 798836240, "votes": null, "tagline": null, "has_video": false, "website": "http://www.citysearch.com/profile/external/798836240/woodstock_ga/chick_fil_a.html", "offers": null, "latitude": 34.122483, "politanName": "Atlanta, GA Metro ", "phone_number": "7705924755", "tags": [{"primary": false, "id": 1705, "name": "Catering"}, {"primary": false, "id": 11247, "name": "Carry Out"}, {"primary": false, "id": 12839, "name": "Chicken"}, {"primary": true, "id": 1722, "name": "Restaurants"}], "fax_number": null, "expansion": {"count": null, "uri": null}, "impression_id": "000b0000002de72067d10142b890c70d67784e4e13", "profile": "http://www.citysearch.com/profile/798836240/woodstock_ga/chick_fil_a.html", "address": {"city": "Woodstock", "state": "GA", "street": "951 Ridgewalk Pkwy", "postal_code": "30188"}, "capProviderId": null, "distance": null, "has_offers": false, "name": "Chick-fil-A", "longitude": -84.52522, "has_menu": false, "awards": null, "user_review_count": 0}, {"business_operation_status": 1, "rating": null, "neighborhood": null, "image": null, "scorecard": null, "featured": false, "sample_categories": "Restaurants", "public_id": "cappys-oyster-bar-kennesaw", "id": 805596570, "votes": null, "tagline": null, "has_video": false, "website": null, "offers": null, "latitude": 34.015064, "politanName": "Atlanta, GA Metro ", "phone_number": "7705909742", "tags": [{"primary": true, "id": 1722, "name": "Restaurants"}], "fax_number": null, "expansion": {"count": null, "uri": null}, "impression_id": "000b000000f40088445813455cbc04ec76915b9ba5", "profile": "http://www.citysearch.com/profile/805596570/kennesaw_ga/cappy_s_oyster_bar.html", "address": {"city": "Kennesaw", "state": "GA", "street": "2500 Cobb Pkwy NW # B3", "postal_code": "30152"}, "capProviderId": null, "distance": null, "has_offers": false, "name": "Cappy's Oyster Bar", "longitude": -84.613619, "has_menu": false, "awards": null, "user_review_count": 0}, {"business_operation_status": 1, "rating": null, "neighborhood": null, "image": null, "scorecard": null, "featured": false, "sample_categories": "Sandwich Shops, Restaurants, Delis And Delicatessens, Soups", "public_id": "georgia-sandwich-co-marietta", "id": 33646008, "votes": null, "tagline": null, "has_video": false, "website": "http://www.citysearch.com/profile/external/33646008/marietta_ga/georgia_sandwich_co.html", "offers": null, "latitude": 33.933969, "politanName": "Atlanta, GA Metro ", "phone_number": "7704265678", "tags": [{"primary": false, "id": 1722, "name": "Restaurants"}, {"primary": false, "id": 1727, "name": "Delis And Delicatessens"}, {"primary": false, "id": 11311, "name": "Soups"}, {"primary": true, "id": 1736, "name": "Sandwich Shops"}], "fax_number": null, "expansion": {"count": null, "uri": null}, "impression_id": "000b0000008a68832d11ae4553a59fab484c22aaed", "profile": "http://www.citysearch.com/profile/33646008/marietta_ga/georgia_sandwich_co.html", "address": {"city": "Marietta", "state": "GA", "street": "115 Davis Cir SW", "postal_code": "30008"}, "capProviderId": null, "distance": null, "has_offers": false, "name": "Georgia Sandwich Co", "longitude": -84.554133, "has_menu": false, "awards": null, "user_review_count": 0}], "histograms": [], "tag_ids": [1722], "uri": "http://api.citygridmedia.com:8080/search/places/v2/search/where?has_offers=false&type=restaurant&format=json&page=31&where=30066&rpp=50&histograms=false&publisher=10000009598&region_type=circle", "did_you_mean": "", "regions": [{"latitude": 34.034132, "default_radius": 5.28, "type": "postal_code", "name": "30066", "longitude": -84.508332}], "call_id": "000b000000219295c047334c7293ea4fd909c5434f", "first_hit": 1501, "total_hits": 2075, "geo_ids": [26294], "page": 31, "last_hit": 1550}}