{"results": {"rpp": 50, "locations": [{"business_operation_status": 1, "rating": null, "neighborhood": null, "image": null, "scorecard": null, "featured": false, "sample_categories": "Ice Cream Parlors, Bakeries, Catering, Restaurants, Frozen Yogurt Shops", "public_id": "baskinrobbins-atlanta-10", "id": 682511670, "votes": null, "tagline": null, "has_video": false, "website": "http://www.citysearch.com/profile/external/682511670/atlanta_ga/baskin_robbins.html", "offers": null, "latitude": 33.919103, "politanName": "Atlanta, GA Metro ", "phone_number": "4042526311", "tags": [{"primary": false, "id": 1685, "name": "Bakeries"}, {"primary": false, "id": 1705, "name": "Catering"}, {"primary": false, "id": 1722, "name": "Restaurants"}, {"primary": false, "id": 1729, "name": "Frozen Yogurt Shops"}, {"primary": true, "id": 1730, "name": "Ice Cream Parlors"}], "fax_number": null, "expansion": {"count": null, "uri": null}, "impression_id": "000b000000fd993d3141f74d7f93480e8a759c0b67", "profile": "http://www.citysearch.com/profile/682511670/atlanta_ga/baskin_robbins.html", "address": {"city": "Atlanta", "state": "GA", "street": "230 Hammond Dr Ne # 332", "postal_code": "30328"}, "capProviderId": null, "distance": null, "has_offers": false, "name": "Baskin-Robbins", "longitude": -84.382649, "has_menu": true, "awards": null, "user_review_count": 0}, {"business_operation_status": 1, "rating": null, "neighborhood": null, "image": null, "scorecard": null, "featured": false, "sample_categories": "Restaurants", "public_id": "enzo-sushi-and-steakhouse-sandy-spgs", "id": 672122790, "votes": null, "tagline": null, "has_video": false, "website": null, "offers": null, "latitude": 33.986373, "politanName": "Atlanta, GA Metro ", "phone_number": null, "tags": [{"primary": true, "id": 1722, "name": "Restaurants"}], "fax_number": null, "expansion": {"count": null, "uri": null}, "impression_id": "000b00000045194428de904210876d00f82215fa62", "profile": "http://www.citysearch.com/profile/672122790/sandy_springs_ga/enzo_sushi_and_steakhouse.html", "address": {"city": "Sandy Springs", "state": "GA", "street": "8540 Roswell Road #800", "postal_code": "30350"}, "capProviderId": null, "distance": null, "has_offers": false, "name": "Enzo Sushi and Steakhouse", "longitude": -84.351439, "has_menu": false, "awards": null, "user_review_count": 0}, {"business_operation_status": 1, "rating": null, "neighborhood": null, "image": null, "scorecard": null, "featured": false, "sample_categories": "Restaurants", "public_id": "fused-bar-restaurant-roswell", "id": 672280920, "votes": null, "tagline": null, "has_video": false, "website": null, "offers": null, "latitude": 34.024666, "politanName": "Atlanta, GA Metro ", "phone_number": null, "tags": [{"primary": true, "id": 1722, "name": "Restaurants"}], "fax_number": null, "expansion": {"count": null, "uri": null}, "impression_id": "000b0000003efec5ead0a74067af3b16fad792a030", "profile": "http://www.citysearch.com/profile/672280920/roswell_ga/fused_bar_restaurant.html", "address": {"city": "Roswell", "state": "GA", "street": "957 Canton St", "postal_code": "30075"}, "capProviderId": null, "distance": null, "has_offers": false, "name": "Fused Bar & Restaurant", "longitude": -84.361254, "has_menu": false, "awards": null, "user_review_count": 0}, {"business_operation_status": 1, "rating": null, "neighborhood": null, "image": null, "scorecard": null, "featured": false, "sample_categories": "Restaurants, Lounges", "public_id": "mill-kitchen-bar-roswell", "id": 775226660, "votes": null, "tagline": null, "has_video": false, "website": "http://www.citysearch.com/profile/external/775226660/roswell_ga/the_mill_kitchen_bar.html", "offers": null, "latitude": 34.014683, "politanName": "Atlanta, GA Metro ", "phone_number": "7708179345", "tags": [{"primary": false, "id": 1697, "name": "Lounges"}, {"primary": true, "id": 1722, "name": "Restaurants"}], "fax_number": null, "expansion": {"count": null, "uri": null}, "impression_id": "000b000000aec33a767616434aa68e9ddc38b4336a", "profile": "http://www.citysearch.com/profile/775226660/roswell_ga/the_mill_kitchen_bar.html", "address": {"city": "Roswell", "state": "GA", "street": "590 Mimosa Blvd", "postal_code": "30075"}, "capProviderId": null, "distance": null, "has_offers": false, "name": "The Mill Kitchen & Bar", "longitude": -84.363923, "has_menu": false, "awards": null, "user_review_count": 0}, {"business_operation_status": 1, "rating": null, "neighborhood": null, "image": null, "scorecard": null, "featured": false, "sample_categories": "Restaurants, Carry Out", "public_id": "ya-shu-yuen-restaurant-dunwoody", "id": 777657370, "votes": null, "tagline": null, "has_video": false, "website": null, "offers": null, "latitude": 33.949007, "politanName": "Atlanta, GA Metro ", "phone_number": "7703938674", "tags": [{"primary": false, "id": 11247, "name": "Carry Out"}, {"primary": true, "id": 1722, "name": "Restaurants"}], "fax_number": null, "expansion": {"count": null, "uri": null}, "impression_id": "000b000000bcfa2c35dd9f48f188dccc7bfd58c6d9", "profile": "http://www.citysearch.com/profile/777657370/dunwoody_ga/ya_shu_yuen_restaurant.html", "address": {"city": "Dunwoody", "state": "GA", "street": "5499 Chamblee Dunwoody Rd", "postal_code": "30338"}, "capProviderId": null, "distance": null, "has_offers": false, "name": "Ya Shu Yuen Restaurant", "longitude": -84.33603, "has_menu": false, "awards": null, "user_review_count": 0}, {"business_operation_status": 1, "rating": null, "neighborhood": null, "image": null, "scorecard": null, "featured": false, "sample_categories": "Restaurants, Mexican", "public_id": "taco-mac-sandy", "id": 781194630, "votes": null, "tagline": null, "has_video": false, "website": "http://www.citysearch.com/profile/external/781194630/sandy_springs_ga/taco_mac.html", "offers": null, "latitude": 33.907557, "politanName": "Atlanta, GA Metro ", "phone_number": "4042521434", "tags": [{"primary": false, "id": 11208, "name": "Mexican"}, {"primary": true, "id": 1722, "name": "Restaurants"}], "fax_number": null, "expansion": {"count": null, "uri": null}, "impression_id": "000b0000006bab3ba38b9343eea19554200a01369b", "profile": "http://www.citysearch.com/profile/781194630/sandy_springs_ga/taco_mac.html", "address": {"city": "Sandy Springs", "state": "GA", "street": "5600 Roswell Rd Ne", "postal_code": "30342"}, "capProviderId": null, "distance": null, "has_offers": false, "name": "Taco Mac", "longitude": -84.378776, "has_menu": false, "awards": null, "user_review_count": 0}, {"business_operation_status": 1, "rating": null, "neighborhood": null, "image": null, "scorecard": null, "featured": false, "sample_categories": "Restaurants, Balloon Artists", "public_id": "funny-farm-comedy-club-roswell-2", "id": 777655850, "votes": null, "tagline": null, "has_video": false, "website": null, "offers": null, "latitude": 34.03823, "politanName": "Atlanta, GA Metro ", "phone_number": "7708174242", "tags": [{"primary": false, "id": 26300, "name": "Balloon Artists"}, {"primary": true, "id": 1722, "name": "Restaurants"}], "fax_number": null, "expansion": {"count": null, "uri": null}, "impression_id": "000b0000002d22f45427dc4c0199b1157a024581cd", "profile": "http://www.citysearch.com/profile/777655850/roswell_ga/funny_farm_comedy_club.html", "address": {"city": "Roswell", "state": "GA", "street": "608 Holcomb Bridge Rd", "postal_code": "30076"}, "capProviderId": null, "distance": null, "has_offers": false, "name": "Funny Farm Comedy Club", "longitude": -84.340804, "has_menu": false, "awards": null, "user_review_count": 0}, {"business_operation_status": 1, "rating": null, "neighborhood": null, "image": null, "scorecard": null, "featured": false, "sample_categories": "Restaurants, Traditional American", "public_id": "three-dollar-cafe-marietta", "id": 777696440, "votes": null, "tagline": null, "has_video": false, "website": null, "offers": null, "latitude": 33.904328, "politanName": "Atlanta, GA Metro ", "phone_number": "6782146729", "tags": [{"primary": false, "id": 11190, "name": "Traditional American"}, {"primary": true, "id": 1722, "name": "Restaurants"}], "fax_number": null, "expansion": {"count": null, "uri": null}, "impression_id": "000b0000001632e71f0fe24d5ca5374d40f0b9f8bb", "profile": "http://www.citysearch.com/profile/777696440/marietta_ga/three_dollar_cafe.html", "address": {"city": "Marietta", "state": "GA", "street": "3000 Windy Hill Rd Se # 132", "postal_code": "30067"}, "capProviderId": null, "distance": null, "has_offers": false, "name": "Three Dollar Cafe", "longitude": -84.466526, "has_menu": false, "awards": null, "user_review_count": 0}, {"business_operation_status": 1, "rating": null, "neighborhood": null, "image": null, "scorecard": null, "featured": false, "sample_categories": "Restaurants, Bars & Clubs, Carry Out, Steakhouse", "public_id": "outback-steakhouse-marietta-2", "id": 777828920, "votes": null, "tagline": null, "has_video": false, "website": "http://www.citysearch.com/profile/external/777828920/marietta_ga/outback_steakhouse.html", "offers": null, "latitude": 33.923116, "politanName": "Atlanta, GA Metro ", "phone_number": "7708509182", "tags": [{"primary": false, "id": 164, "name": "Bars & Clubs"}, {"primary": false, "id": 11247, "name": "Carry Out"}, {"primary": false, "id": 11316, "name": "Steakhouse"}, {"primary": true, "id": 1722, "name": "Restaurants"}], "fax_number": null, "expansion": {"count": null, "uri": null}, "impression_id": "000b000000a67ecac7856b44f49fae1bf5efee9d2e", "profile": "http://www.citysearch.com/profile/777828920/marietta_ga/outback_steakhouse.html", "address": {"city": "Marietta", "state": "GA", "street": "2900 Delk Rd Se", "postal_code": "30067"}, "capProviderId": null, "distance": null, "has_offers": false, "name": "Outback Steakhouse", "longitude": -84.46674, "has_menu": true, "awards": null, "user_review_count": 0}, {"business_operation_status": 1, "rating": null, "neighborhood": null, "image": null, "scorecard": null, "featured": false, "sample_categories": "Restaurants, Chinese", "public_id": "pearl-china-atlanta", "id": 713424300, "votes": null, "tagline": null, "has_video": false, "website": null, "offers": null, "latitude": 33.950268, "politanName": "Atlanta, GA Metro ", "phone_number": "7704438859", "tags": [{"primary": false, "id": 11252, "name": "Chinese"}, {"primary": true, "id": 1722, "name": "Restaurants"}], "fax_number": null, "expansion": {"count": null, "uri": null}, "impression_id": "000b000000bab8282f64c44f7c814c78e0a49b2bcd", "profile": "http://www.citysearch.com/profile/713424300/atlanta_ga/pearl_china.html", "address": {"city": "Atlanta", "state": "GA", "street": "55 W Spalding Dr Ne", "postal_code": "30328"}, "capProviderId": null, "distance": null, "has_offers": false, "name": "Pearl China", "longitude": -84.383949, "has_menu": false, "awards": null, "user_review_count": 0}, {"business_operation_status": 1, "rating": null, "neighborhood": null, "image": null, "scorecard": null, "featured": false, "sample_categories": "Restaurants", "public_id": "fork-u-concepts-marietta", "id": 801125670, "votes": null, "tagline": null, "has_video": false, "website": null, "offers": null, "latitude": 33.952269, "politanName": "Atlanta, GA Metro ", "phone_number": "6789036243", "tags": [{"primary": true, "id": 1722, "name": "Restaurants"}], "fax_number": null, "expansion": {"count": null, "uri": null}, "impression_id": "000b000000451ce7fe4fdc49a6be2dbf45be40f27a", "profile": "http://www.citysearch.com/profile/801125670/marietta_ga/fork_u_concepts.html", "address": {"city": "Marietta", "state": "GA", "street": "30 S Park Sq Ne", "postal_code": "30060"}, "capProviderId": null, "distance": null, "has_offers": false, "name": "Fork U Concepts", "longitude": -84.550109, "has_menu": false, "awards": null, "user_review_count": 0}, {"business_operation_status": 1, "rating": null, "neighborhood": null, "image": null, "scorecard": null, "featured": false, "sample_categories": "Restaurants, Steakhouse", "public_id": "chimichurri-steakhouse-roswell", "id": 801130980, "votes": null, "tagline": null, "has_video": false, "website": null, "offers": null, "latitude": 34.032773, "politanName": "Atlanta, GA Metro ", "phone_number": "6785850012", "tags": [{"primary": false, "id": 11316, "name": "Steakhouse"}, {"primary": true, "id": 1722, "name": "Restaurants"}], "fax_number": null, "expansion": {"count": null, "uri": null}, "impression_id": "000b00000083d4c9cf3d5e4a4a896e2d51cdb13396", "profile": "http://www.citysearch.com/profile/801130980/roswell_ga/chimichurri_steakhouse.html", "address": {"city": "Roswell", "state": "GA", "street": "690 Holcomb Bridge Rd", "postal_code": "30076"}, "capProviderId": null, "distance": null, "has_offers": false, "name": "Chimichurri Steakhouse", "longitude": -84.340744, "has_menu": false, "awards": null, "user_review_count": 0}, {"business_operation_status": 1, "rating": null, "neighborhood": null, "image": null, "scorecard": null, "featured": false, "sample_categories": "Restaurants, Carry Out, Shop Online, Chicken", "public_id": "kfc-marietta-11", "id": 801057620, "votes": null, "tagline": null, "has_video": false, "website": "http://www.citysearch.com/profile/external/801057620/marietta_ga/kfc.html", "offers": null, "latitude": 33.951359, "politanName": "Atlanta, GA Metro ", "phone_number": "7704274291", "tags": [{"primary": false, "id": 11247, "name": "Carry Out"}, {"primary": false, "id": 11375, "name": "Shop Online"}, {"primary": false, "id": 12839, "name": "Chicken"}, {"primary": true, "id": 1722, "name": "Restaurants"}], "fax_number": null, "expansion": {"count": null, "uri": null}, "impression_id": "000b0000005d9348409c224b5cbc8f724fe0967e27", "profile": "http://www.citysearch.com/profile/801057620/marietta_ga/kfc.html", "address": {"city": "Marietta", "state": "GA", "street": "37 Powder Springs St", "postal_code": "30064"}, "capProviderId": null, "distance": null, "has_offers": false, "name": "KFC", "longitude": -84.550223, "has_menu": true, "awards": null, "user_review_count": 0}, {"business_operation_status": 1, "rating": null, "neighborhood": null, "image": null, "scorecard": null, "featured": false, "sample_categories": "Restaurants, Barbecue Restaurants", "public_id": "wings-xpress-marietta", "id": 803550980, "votes": null, "tagline": null, "has_video": false, "website": null, "offers": null, "latitude": 33.933132, "politanName": "Atlanta, GA Metro ", "phone_number": "6784621167", "tags": [{"primary": false, "id": 1724, "name": "Barbecue Restaurants"}, {"primary": true, "id": 1722, "name": "Restaurants"}], "fax_number": null, "expansion": {"count": null, "uri": null}, "impression_id": "000b000000dbb6225174e7437aaf3c10270951be82", "profile": "http://www.citysearch.com/profile/803550980/marietta_ga/wings_xpress.html", "address": {"city": "Marietta", "state": "GA", "street": "803 Powder Springs St # 2", "postal_code": "30064"}, "capProviderId": null, "distance": null, "has_offers": false, "name": "Wings Xpress", "longitude": -84.559871, "has_menu": false, "awards": null, "user_review_count": 0}, {"business_operation_status": 1, "rating": null, "neighborhood": null, "image": null, "scorecard": null, "featured": false, "sample_categories": "Restaurants", "public_id": "corner-cafe-at-2000-atlanta", "id": 33572440, "votes": null, "tagline": null, "has_video": false, "website": null, "offers": null, "latitude": 33.906709, "politanName": "Atlanta, GA Metro ", "phone_number": "7706120059", "tags": [{"primary": true, "id": 1722, "name": "Restaurants"}], "fax_number": null, "expansion": {"count": null, "uri": null}, "impression_id": "000b000000e71937e5b03b4a2e9da98cb1f27cbb43", "profile": "http://www.citysearch.com/profile/33572440/atlanta_ga/corner_cafe_at_2000.html", "address": {"city": "Atlanta", "state": "GA", "street": "2000 Riveredge Pkwy NW", "postal_code": "30328"}, "capProviderId": null, "distance": null, "has_offers": false, "name": "Corner Cafe At 2000", "longitude": -84.438622, "has_menu": false, "awards": null, "user_review_count": 1}, {"business_operation_status": 1, "rating": null, "neighborhood": null, "image": null, "scorecard": null, "featured": false, "sample_categories": "Restaurants", "public_id": "my-friends-place-marietta-4", "id": 823196150, "votes": null, "tagline": null, "has_video": false, "website": null, "offers": null, "latitude": 33.911098, "politanName": "Atlanta, GA Metro ", "phone_number": "7709567545", "tags": [{"primary": true, "id": 1722, "name": "Restaurants"}], "fax_number": null, "expansion": {"count": null, "uri": null}, "impression_id": "000b000000ef09c483a46445a28f2bce9b25952c1c", "profile": "http://www.citysearch.com/profile/823196150/marietta_ga/my_friend_s_place.html", "address": {"city": "Marietta", "state": "GA", "street": "3100 Windy Hill Rd SE", "postal_code": "30067"}, "capProviderId": null, "distance": null, "has_offers": false, "name": "My Friend's Place", "longitude": -84.459994, "has_menu": false, "awards": null, "user_review_count": 0}, {"business_operation_status": 1, "rating": null, "neighborhood": null, "image": null, "scorecard": null, "featured": false, "sample_categories": "Restaurants", "public_id": "northridge-restaurant-inc-marietta", "id": 826655290, "votes": null, "tagline": null, "has_video": false, "website": null, "offers": null, "latitude": 34.034057, "politanName": "Atlanta, GA Metro ", "phone_number": "7706428676", "tags": [{"primary": true, "id": 1722, "name": "Restaurants"}], "fax_number": null, "expansion": {"count": null, "uri": null}, "impression_id": "000b000000237f69ecfc8940c28dca9a17650ebc29", "profile": "http://www.citysearch.com/profile/826655290/marietta_ga/northridge_restaurant_inc.html", "address": {"city": "Marietta", "state": "GA", "street": "3440 Orange Wood CT", "postal_code": "30062"}, "capProviderId": null, "distance": null, "has_offers": false, "name": "Northridge Restaurant Inc", "longitude": -84.435926, "has_menu": false, "awards": null, "user_review_count": 0}, {"business_operation_status": 1, "rating": null, "neighborhood": null, "image": null, "scorecard": null, "featured": false, "sample_categories": "Restaurants, Catering, Carry Out, Chicken", "public_id": "chickfila-marietta-12", "id": 775192090, "votes": null, "tagline": null, "has_video": false, "website": "http://www.citysearch.com/profile/external/775192090/marietta_ga/chick_fil_a.html", "offers": null, "latitude": 33.952602, "politanName": "Atlanta, GA Metro ", "phone_number": "7705659960", "tags": [{"primary": false, "id": 1705, "name": "Catering"}, {"primary": false, "id": 11247, "name": "Carry Out"}, {"primary": false, "id": 12839, "name": "Chicken"}, {"primary": true, "id": 1722, "name": "Restaurants"}], "fax_number": null, "expansion": {"count": null, "uri": null}, "impression_id": "000b0000003c7455bc2f68468db5bebb69f2802fb6", "profile": "http://www.citysearch.com/profile/775192090/marietta_ga/chick_fil_a.html", "address": {"city": "Marietta", "state": "GA", "street": "5200 Buffington Rd", "postal_code": "30062"}, "capProviderId": null, "distance": null, "has_offers": false, "name": "Chick-Fil-A", "longitude": -84.549933, "has_menu": false, "awards": null, "user_review_count": 0}, {"business_operation_status": 1, "rating": null, "neighborhood": null, "image": null, "scorecard": null, "featured": false, "sample_categories": "Restaurants", "public_id": "lake-park-2400-llc-smyrna", "id": 775218280, "votes": null, "tagline": null, "has_video": false, "website": null, "offers": null, "latitude": 33.897534, "politanName": "Atlanta, GA Metro ", "phone_number": "7704349336", "tags": [{"primary": true, "id": 1722, "name": "Restaurants"}], "fax_number": null, "expansion": {"count": null, "uri": null}, "impression_id": "000b00000095a06ea6bd464e49b3e62de40e5a9e68", "profile": "http://www.citysearch.com/profile/775218280/smyrna_ga/lake_park_2400_llc.html", "address": {"city": "Smyrna", "state": "GA", "street": "2400 Lake Park Dr SE", "postal_code": "30080"}, "capProviderId": null, "distance": null, "has_offers": false, "name": "Lake Park 2400 LLC", "longitude": -84.484107, "has_menu": false, "awards": null, "user_review_count": 0}, {"business_operation_status": 1, "rating": null, "neighborhood": null, "image": null, "scorecard": null, "featured": false, "sample_categories": "Restaurants", "public_id": "kenny-rogers-roasters-marietta", "id": 775226560, "votes": null, "tagline": null, "has_video": false, "website": null, "offers": null, "latitude": 33.919492, "politanName": "Atlanta, GA Metro ", "phone_number": "7709551800", "tags": [{"primary": true, "id": 1722, "name": "Restaurants"}], "fax_number": null, "expansion": {"count": null, "uri": null}, "impression_id": "000b000000438b53664e2247db83dc414134590f8d", "profile": "http://www.citysearch.com/profile/775226560/marietta_ga/kenny_rogers_roasters.html", "address": {"city": "Marietta", "state": "GA", "street": "1325 Powers Ferry Rd SE", "postal_code": "30067"}, "capProviderId": null, "distance": null, "has_offers": false, "name": "Kenny Rogers Roasters", "longitude": -84.466798, "has_menu": false, "awards": null, "user_review_count": 0}, {"business_operation_status": 1, "rating": null, "neighborhood": null, "image": null, "scorecard": null, "featured": false, "sample_categories": "Restaurants", "public_id": "bubba-ds-dawgs-inc-marietta", "id": 801089200, "votes": null, "tagline": null, "has_video": false, "website": null, "offers": null, "latitude": 34.01546, "politanName": "Atlanta, GA Metro ", "phone_number": "7703553212", "tags": [{"primary": true, "id": 1722, "name": "Restaurants"}], "fax_number": null, "expansion": {"count": null, "uri": null}, "impression_id": "000b000000a4ae634cc80444bfb4d47f719b0a9be9", "profile": "http://www.citysearch.com/profile/801089200/marietta_ga/bubba_d_s_dawgs_inc.html", "address": {"city": "Marietta", "state": "GA", "street": "2690 Sandy Plains Rd", "postal_code": "30066"}, "capProviderId": null, "distance": null, "has_offers": false, "name": "Bubba D's Dawgs INC", "longitude": -84.493053, "has_menu": false, "awards": null, "user_review_count": 0}, {"business_operation_status": 1, "rating": null, "neighborhood": null, "image": null, "scorecard": null, "featured": false, "sample_categories": "Restaurants, Shop Online", "public_id": "lenox-cupcakes-atlanta-2", "id": 801093700, "votes": null, "tagline": null, "has_video": false, "website": null, "offers": null, "latitude": 33.991025, "politanName": "Atlanta, GA Metro ", "phone_number": "7702776924", "tags": [{"primary": false, "id": 11375, "name": "Shop Online"}, {"primary": true, "id": 1722, "name": "Restaurants"}], "fax_number": null, "expansion": {"count": null, "uri": null}, "impression_id": "000b000000f956fb8d459e4d5e896d999030ca6601", "profile": "http://www.citysearch.com/profile/801093700/atlanta_ga/lenox_cupcakes.html", "address": {"city": "Atlanta", "state": "GA", "street": "8610 Roswell Rd", "postal_code": "30350"}, "capProviderId": null, "distance": null, "has_offers": false, "name": "Lenox Cupcakes", "longitude": -84.352855, "has_menu": false, "awards": null, "user_review_count": 0}, {"business_operation_status": 1, "rating": null, "neighborhood": null, "image": null, "scorecard": null, "featured": false, "sample_categories": "Lounges, Restaurants", "public_id": "heat-lounge-atlanta", "id": 801129610, "votes": null, "tagline": null, "has_video": false, "website": null, "offers": null, "latitude": 33.92943, "politanName": "Atlanta, GA Metro ", "phone_number": "7703524328", "tags": [{"primary": false, "id": 1722, "name": "Restaurants"}, {"primary": true, "id": 1697, "name": "Lounges"}], "fax_number": null, "expansion": {"count": null, "uri": null}, "impression_id": "000b000000081e044a0dbe4f928eedc0ff4b35f245", "profile": "http://www.citysearch.com/profile/801129610/atlanta_ga/heat_lounge.html", "address": {"city": "Atlanta", "state": "GA", "street": "6355 Peachtree Dunwoody Rd", "postal_code": "30328"}, "capProviderId": null, "distance": null, "has_offers": false, "name": "Heat Lounge", "longitude": -84.351241, "has_menu": false, "awards": null, "user_review_count": 0}, {"business_operation_status": 1, "rating": null, "neighborhood": null, "image": null, "scorecard": null, "featured": false, "sample_categories": "Restaurants, Carry Out", "public_id": "romanos-macaroni-grill-roswell", "id": 813778880, "votes": null, "tagline": null, "has_video": false, "website": "http://www.citysearch.com/profile/external/813778880/roswell_ga/romano_s_macaroni_grill.html", "offers": null, "latitude": 34.030094, "politanName": "Atlanta, GA Metro ", "phone_number": "7709937115", "tags": [{"primary": false, "id": 11247, "name": "Carry Out"}, {"primary": true, "id": 1722, "name": "Restaurants"}], "fax_number": null, "expansion": {"count": null, "uri": null}, "impression_id": "000b0000003dbd309d537b4cf7a1f3e7aaf8f8e360", "profile": "http://www.citysearch.com/profile/813778880/roswell_ga/romano_s_macaroni_grill.html", "address": {"city": "Roswell", "state": "GA", "street": "770 Holcomb Bridge Rd", "postal_code": "30076"}, "capProviderId": null, "distance": null, "has_offers": false, "name": "Romano's Macaroni Grill", "longitude": -84.337471, "has_menu": false, "awards": null, "user_review_count": 0}, {"business_operation_status": 1, "rating": null, "neighborhood": null, "image": null, "scorecard": null, "featured": false, "sample_categories": "Restaurants", "public_id": "tucker-hospitality-inc-marietta", "id": 819224460, "votes": null, "tagline": null, "has_video": false, "website": null, "offers": null, "latitude": 33.934837, "politanName": "Atlanta, GA Metro ", "phone_number": "6783318222", "tags": [{"primary": true, "id": 1722, "name": "Restaurants"}], "fax_number": null, "expansion": {"count": null, "uri": null}, "impression_id": "000b0000004f394a170ab143cfbf0a8b5564f6a130", "profile": "http://www.citysearch.com/profile/819224460/marietta_ga/tucker_hospitality_inc.html", "address": {"city": "Marietta", "state": "GA", "street": "707 Franklin Rd SE # 3-6", "postal_code": "30067"}, "capProviderId": null, "distance": null, "has_offers": false, "name": "Tucker Hospitality Inc", "longitude": -84.502941, "has_menu": false, "awards": null, "user_review_count": 0}, {"business_operation_status": 1, "rating": null, "neighborhood": null, "image": null, "scorecard": null, "featured": false, "sample_categories": "Restaurants", "public_id": "mojo-burrito-dunwoody", "id": 839541130, "votes": null, "tagline": null, "has_video": false, "website": null, "offers": null, "latitude": 33.948629, "politanName": "Atlanta, GA Metro ", "phone_number": "6785851092", "tags": [{"primary": true, "id": 1722, "name": "Restaurants"}], "fax_number": null, "expansion": {"count": null, "uri": null}, "impression_id": "000b00000033b81683a14c49999483debee0392f03", "profile": "http://www.citysearch.com/profile/839541130/dunwoody_ga/mojo_burrito.html", "address": {"city": "Dunwoody", "state": "GA", "street": "5479 Chamblee Dunwoody Rd", "postal_code": "30338"}, "capProviderId": null, "distance": null, "has_offers": false, "name": "Mojo Burrito", "longitude": -84.335867, "has_menu": false, "awards": null, "user_review_count": 0}, {"business_operation_status": 1, "rating": null, "neighborhood": null, "image": null, "scorecard": null, "featured": false, "sample_categories": "Catering, Restaurants, Barbecue Restaurants, Carry Out, Family Style Dining", "public_id": "as-sonnys-real-pit-barbq", "id": 793392090, "votes": null, "tagline": null, "has_video": false, "website": null, "offers": null, "latitude": null, "politanName": null, "phone_number": "7703681653", "tags": [{"primary": false, "id": 1705, "name": "Catering"}, {"primary": false, "id": 1722, "name": "Restaurants"}, {"primary": false, "id": 1724, "name": "Barbecue Restaurants"}, {"primary": false, "id": 11262, "name": "Family Style Dining"}, {"primary": true, "id": 11247, "name": "Carry Out"}], "fax_number": null, "expansion": {"count": null, "uri": null}, "impression_id": "000b00000064c2538642eb45ee801b25f6a82d214b", "profile": "http://www.citysearch.com/profile/793392090/sonny_s_real_pit_bar_b_q.html", "address": {"city": null, "state": null, "street": null, "postal_code": null}, "capProviderId": null, "distance": null, "has_offers": false, "name": "Sonny's Real Pit Bar-B-Q", "longitude": null, "has_menu": false, "awards": null, "user_review_count": 0}, {"business_operation_status": 1, "rating": null, "neighborhood": null, "image": null, "scorecard": null, "featured": false, "sample_categories": "Catering, Personal Chefs, Computer & Internet Services, Wedding Cakes, Seafood", "public_id": "as-glamacook-oad", "id": 801975680, "votes": null, "tagline": null, "has_video": false, "website": null, "offers": null, "latitude": null, "politanName": null, "phone_number": "4043451924", "tags": [{"primary": false, "id": 1705, "name": "Catering"}, {"primary": false, "id": 3534, "name": "Personal Chefs"}, {"primary": false, "id": 674, "name": "Computer & Internet Services"}, {"primary": false, "id": 11057, "name": "Wedding Cakes"}, {"primary": false, "id": 11228, "name": "Seafood"}, {"primary": true, "id": 11267, "name": "Food Delivery"}], "fax_number": null, "expansion": {"count": null, "uri": null}, "impression_id": "000b000000221bcf3b64a64df3a20b6f4188a68be0", "profile": "http://www.citysearch.com/profile/801975680/_oad_ga/glamacook.html", "address": {"city": "(Oad)", "state": "GA", "street": null, "postal_code": "30032"}, "capProviderId": null, "distance": null, "has_offers": false, "name": "GlamaCook", "longitude": null, "has_menu": false, "awards": null, "user_review_count": 0}], "histograms": [], "tag_ids": [1722], "uri": "http://api.citygridmedia.com:8080/search/places/v2/search/where?has_offers=false&type=restaurant&format=json&page=41&where=30068&rpp=50&histograms=false&publisher=10000009598&region_type=circle", "did_you_mean": "", "regions": [{"latitude": 33.967813, "default_radius": 3.91, "type": "postal_code", "name": "30068", "longitude": -84.433422}], "call_id": "000b00000026e16503c91f4575abed36923c126ca5", "first_hit": 2001, "total_hits": 2028, "geo_ids": [26296], "page": 41, "last_hit": 2028}}