{"results": {"rpp": 50, "locations": [{"business_operation_status": 1, "rating": null, "neighborhood": null, "image": null, "scorecard": null, "featured": false, "sample_categories": "Restaurants", "public_id": "healthy-smoothies-marietta", "id": 839059750, "votes": null, "tagline": null, "has_video": false, "website": null, "offers": null, "latitude": 33.901077, "politanName": "Atlanta, GA Metro ", "phone_number": "4046044604", "tags": [{"primary": true, "id": 1722, "name": "Restaurants"}], "fax_number": null, "expansion": {"count": null, "uri": null}, "impression_id": "000b00000060fda3a3ed1d4bc5b471ef61b8ccc83f", "profile": "http://www.citysearch.com/profile/839059750/marietta_ga/healthy_smoothies.html", "address": {"city": "Marietta", "state": "GA", "street": "1812 Powder Springs Rd SW", "postal_code": "30064"}, "capProviderId": null, "distance": null, "has_offers": false, "name": "Healthy Smoothies", "longitude": -84.606768, "has_menu": false, "awards": null, "user_review_count": 0}, {"business_operation_status": 1, "rating": null, "neighborhood": null, "image": null, "scorecard": null, "featured": false, "sample_categories": "Cafes", "public_id": "reveille-cafe-marietta-2", "id": 619600404, "votes": null, "tagline": null, "has_video": false, "website": null, "offers": null, "latitude": 34.023215, "politanName": "Atlanta, GA Metro ", "phone_number": "7709716800", "tags": [{"primary": true, "id": 6190, "name": "Cafes"}], "fax_number": null, "expansion": {"count": null, "uri": null}, "impression_id": "000b0000002e670cfc4e104187b32de7aea2639f31", "profile": "http://www.citysearch.com/profile/619600404/marietta_ga/reveille_cafe.html", "address": {"city": "Marietta", "state": "GA", "street": "2960 Sandy Plains Rd # 130", "postal_code": "30066"}, "capProviderId": null, "distance": null, "has_offers": false, "name": "Reveille Cafe", "longitude": -84.485512, "has_menu": false, "awards": null, "user_review_count": 0}, {"business_operation_status": 1, "rating": null, "neighborhood": null, "image": null, "scorecard": null, "featured": false, "sample_categories": "Restaurants, Delis And Delicatessens, Sandwich Shops, Carry Out", "public_id": "subway-atlanta-129", "id": 627096204, "votes": null, "tagline": null, "has_video": false, "website": "http://www.citysearch.com/profile/external/627096204/atlanta_ga/subway.html", "offers": null, "latitude": 33.880962, "politanName": "Atlanta, GA Metro ", "phone_number": "6789050209", "tags": [{"primary": false, "id": 1727, "name": "Delis And Delicatessens"}, {"primary": false, "id": 1736, "name": "Sandwich Shops"}, {"primary": false, "id": 11247, "name": "Carry Out"}, {"primary": true, "id": 1722, "name": "Restaurants"}], "fax_number": null, "expansion": {"count": null, "uri": null}, "impression_id": "000b0000008d75ff0922134e1caa341079b4076c49", "profile": "http://www.citysearch.com/profile/627096204/atlanta_ga/subway.html", "address": {"city": "Atlanta", "state": "GA", "street": "1330 Cumberland Mall SE 245", "postal_code": "30339"}, "capProviderId": null, "distance": null, "has_offers": false, "name": "Subway", "longitude": -84.470024, "has_menu": false, "awards": null, "user_review_count": 0}, {"business_operation_status": 1, "rating": null, "neighborhood": null, "image": null, "scorecard": null, "featured": false, "sample_categories": "Ice Cream Parlors, Restaurants", "public_id": "haagan-ice-cream-atlanta", "id": 627717420, "votes": null, "tagline": null, "has_video": false, "website": "http://www.citysearch.com/profile/external/627717420/atlanta_ga/haagan_ice_cream.html", "offers": null, "latitude": 33.879202, "politanName": "Atlanta, GA Metro ", "phone_number": "7704348089", "tags": [{"primary": false, "id": 1722, "name": "Restaurants"}, {"primary": true, "id": 1730, "name": "Ice Cream Parlors"}], "fax_number": null, "expansion": {"count": null, "uri": null}, "impression_id": "000b0000002fe9742d3714416abb48c680c83c321a", "profile": "http://www.citysearch.com/profile/627717420/atlanta_ga/haagan_ice_cream.html", "address": {"city": "Atlanta", "state": "GA", "street": "1154 Cumberland Mall Se", "postal_code": "30339"}, "capProviderId": null, "distance": null, "has_offers": false, "name": "Haagan Ice Cream", "longitude": -84.471382, "has_menu": false, "awards": null, "user_review_count": 0}, {"business_operation_status": 1, "rating": null, "neighborhood": null, "image": null, "scorecard": null, "featured": false, "sample_categories": "Restaurants, Barbecue Restaurants", "public_id": "ruchda-wings-powder-spg", "id": 682329700, "votes": null, "tagline": null, "has_video": false, "website": null, "offers": null, "latitude": 33.867624, "politanName": "Atlanta, GA Metro ", "phone_number": "7709439399", "tags": [{"primary": false, "id": 1724, "name": "Barbecue Restaurants"}, {"primary": true, "id": 1722, "name": "Restaurants"}], "fax_number": null, "expansion": {"count": null, "uri": null}, "impression_id": "000b0000001f1c1f5e4b5643469ab548a0803a3ff8", "profile": "http://www.citysearch.com/profile/682329700/powder_springs_ga/ruchda_wings.html", "address": {"city": "Powder Springs", "state": "GA", "street": "2860 East W Connector Sw", "postal_code": "30127"}, "capProviderId": null, "distance": null, "has_offers": false, "name": "Ruchda Wings", "longitude": -84.631069, "has_menu": false, "awards": null, "user_review_count": 0}, {"business_operation_status": 1, "rating": null, "neighborhood": null, "image": null, "scorecard": null, "featured": false, "sample_categories": "Bars & Clubs, Bars & Pubs, Restaurants, Carry Out", "public_id": "hooters-of-america-inc-atlanta", "id": 682344370, "votes": null, "tagline": null, "has_video": false, "website": "http://www.citysearch.com/profile/external/682344370/atlanta_ga/hooters_of_america_inc.html", "offers": null, "latitude": 33.908131, "politanName": "Atlanta, GA Metro ", "phone_number": "7703038124", "tags": [{"primary": false, "id": 164, "name": "Bars & Clubs"}, {"primary": false, "id": 1686, "name": "Bars & Pubs"}, {"primary": false, "id": 11247, "name": "Carry Out"}, {"primary": true, "id": 1722, "name": "Restaurants"}], "fax_number": null, "expansion": {"count": null, "uri": null}, "impression_id": "000b000000e9ef3ffa18ba4d5d97f33760cd6d22ca", "profile": "http://www.citysearch.com/profile/682344370/atlanta_ga/hooters_of_america_inc.html", "address": {"city": "Atlanta", "state": "GA", "street": "1815 The Exchange Se", "postal_code": "30339"}, "capProviderId": null, "distance": null, "has_offers": false, "name": "Hooters of America INC", "longitude": -84.479005, "has_menu": true, "awards": null, "user_review_count": 0}, {"business_operation_status": 1, "rating": null, "neighborhood": null, "image": null, "scorecard": null, "featured": false, "sample_categories": "Restaurants, Pizza", "public_id": "johnnys-new-york-style-pizza-smyrna-4", "id": 682425730, "votes": null, "tagline": null, "has_video": false, "website": "http://www.citysearch.com/profile/external/682425730/smyrna_ga/johnny_s_new_york_style_pizza.html", "offers": null, "latitude": 33.887838, "politanName": "Atlanta, GA Metro ", "phone_number": "7704380300", "tags": [{"primary": false, "id": 1722, "name": "Restaurants"}, {"primary": true, "id": 11299, "name": "Pizza"}], "fax_number": null, "expansion": {"count": null, "uri": null}, "impression_id": "000b00000006535d0322ee4d688de35c64c5d52f6a", "profile": "http://www.citysearch.com/profile/682425730/smyrna_ga/johnny_s_new_york_style_pizza.html", "address": {"city": "Smyrna", "state": "GA", "street": "2651 Cumberland Blvd Se", "postal_code": "30080"}, "capProviderId": null, "distance": null, "has_offers": false, "name": "Johnny's New York Style Pizza", "longitude": -84.475608, "has_menu": true, "awards": null, "user_review_count": 0}, {"business_operation_status": 1, "rating": null, "neighborhood": null, "image": null, "scorecard": null, "featured": false, "sample_categories": "Restaurants, Bars & Clubs, Bars & Pubs", "public_id": "stadium-bar-grill-marietta", "id": 647336140, "votes": null, "tagline": null, "has_video": false, "website": null, "offers": null, "latitude": 34.011742, "politanName": "Atlanta, GA Metro ", "phone_number": "7705092899", "tags": [{"primary": false, "id": 164, "name": "Bars & Clubs"}, {"primary": false, "id": 1686, "name": "Bars & Pubs"}, {"primary": true, "id": 1722, "name": "Restaurants"}], "fax_number": null, "expansion": {"count": null, "uri": null}, "impression_id": "000b000000ecbed452269c411980fec49d6181d2d1", "profile": "http://www.citysearch.com/profile/647336140/marietta_ga/stadium_bar_grill.html", "address": {"city": "Marietta", "state": "GA", "street": "2550 Sandy Plains Rd", "postal_code": "30066"}, "capProviderId": null, "distance": null, "has_offers": false, "name": "Stadium Bar & Grill", "longitude": -84.495056, "has_menu": false, "awards": null, "user_review_count": 0}, {"business_operation_status": 0, "rating": null, "neighborhood": null, "image": null, "scorecard": null, "featured": false, "sample_categories": "Restaurants", "public_id": "little-azio-kennesaw", "id": 672589690, "votes": null, "tagline": null, "has_video": false, "website": null, "offers": null, "latitude": 34.037182, "politanName": "Atlanta, GA Metro ", "phone_number": "6782131200", "tags": [{"primary": true, "id": 1722, "name": "Restaurants"}], "fax_number": null, "expansion": {"count": null, "uri": null}, "impression_id": "000b000000ef9af13aa1eb44fd856cb6eb91a37f68", "profile": "http://www.citysearch.com/profile/672589690/kennesaw_ga/little_azio.html", "address": {"city": "Kennesaw", "state": "GA", "street": "600 Chastain Rd NW", "postal_code": "30144"}, "capProviderId": null, "distance": null, "has_offers": false, "name": "Little Azio", "longitude": -84.567518, "has_menu": false, "awards": null, "user_review_count": 0}, {"business_operation_status": 1, "rating": null, "neighborhood": null, "image": null, "scorecard": null, "featured": false, "sample_categories": "Restaurants, Pizza, American Express, Discover, MasterCard", "public_id": "st-angelos-pizza-vinings-vlg-smyrna", "id": 682274700, "votes": null, "tagline": null, "has_video": false, "website": "http://www.citysearch.com/profile/external/682274700/smyrna_ga/st_angelo_s_pizza_vinings_vlg.html", "offers": null, "latitude": 33.838436, "politanName": "Atlanta, GA Metro ", "phone_number": "4047949254", "tags": [{"primary": false, "id": 1722, "name": "Restaurants"}, {"primary": false, "id": 11333, "name": "American Express"}, {"primary": false, "id": 11349, "name": "Discover"}, {"primary": false, "id": 11361, "name": "MasterCard"}, {"primary": false, "id": 11382, "name": "Visa"}, {"primary": true, "id": 11299, "name": "Pizza"}], "fax_number": null, "expansion": {"count": null, "uri": null}, "impression_id": "000b0000008fc9c45165014c98a370a4d5a5b1ce26", "profile": "http://www.citysearch.com/profile/682274700/smyrna_ga/st_angelo_s_pizza_vinings_vlg.html", "address": {"city": "Smyrna", "state": "GA", "street": "4686 S Atlanta Rd Se", "postal_code": "30080"}, "capProviderId": null, "distance": null, "has_offers": false, "name": "St Angelo's Pizza Vinings Vlg", "longitude": -84.482318, "has_menu": true, "awards": null, "user_review_count": 5}, {"business_operation_status": 1, "rating": null, "neighborhood": null, "image": null, "scorecard": null, "featured": false, "sample_categories": "Restaurants, Barbecue Restaurants, Cajun & Creole", "public_id": "wow-cafe-wingery-kennesaw", "id": 732246340, "votes": null, "tagline": null, "has_video": false, "website": null, "offers": null, "latitude": 33.99449, "politanName": "Atlanta, GA Metro ", "phone_number": "7707958590", "tags": [{"primary": false, "id": 1724, "name": "Barbecue Restaurants"}, {"primary": false, "id": 11245, "name": "Cajun & Creole"}, {"primary": true, "id": 1722, "name": "Restaurants"}], "fax_number": null, "expansion": {"count": null, "uri": null}, "impression_id": "000b00000047ab6dfc0354483fb090aef6b41206df", "profile": "http://www.citysearch.com/profile/732246340/kennesaw_ga/wow_cafe_wingery.html", "address": {"city": "Kennesaw", "state": "GA", "street": "1615 Ridenour Blvd NW # 207", "postal_code": "30152"}, "capProviderId": null, "distance": null, "has_offers": false, "name": "WOW Cafe & Wingery", "longitude": -84.592515, "has_menu": false, "awards": null, "user_review_count": 0}, {"business_operation_status": 1, "rating": null, "neighborhood": null, "image": null, "scorecard": null, "featured": false, "sample_categories": "Ice Cream Parlors", "public_id": "tropicanna-billiards-grill-smyrna", "id": 614553874, "votes": null, "tagline": null, "has_video": false, "website": null, "offers": null, "latitude": 33.890202, "politanName": "Atlanta, GA Metro ", "phone_number": "7704320051", "tags": [{"primary": true, "id": 1730, "name": "Ice Cream Parlors"}], "fax_number": null, "expansion": {"count": null, "uri": null}, "impression_id": "000b000000de23275220aa402398ce146c37cbc489", "profile": "http://www.citysearch.com/profile/614553874/smyrna_ga/tropicanna_billiards_grill.html", "address": {"city": "Smyrna", "state": "GA", "street": "2570 Atlanta Rd SE", "postal_code": "30080"}, "capProviderId": null, "distance": null, "has_offers": false, "name": "Tropicanna Billiards & Grill", "longitude": -84.517036, "has_menu": false, "awards": null, "user_review_count": 0}, {"business_operation_status": 1, "rating": null, "neighborhood": null, "image": null, "scorecard": null, "featured": false, "sample_categories": "Restaurants", "public_id": "stiffys-llc-padriacs-atlanta", "id": 614692654, "votes": null, "tagline": null, "has_video": false, "website": "http://www.citysearch.com/profile/external/614692654/atlanta_ga/stiffys_llc_padriacs.html", "offers": null, "latitude": 33.86409, "politanName": "Atlanta, GA Metro ", "phone_number": "7704332398", "tags": [{"primary": true, "id": 1722, "name": "Restaurants"}], "fax_number": null, "expansion": {"count": null, "uri": null}, "impression_id": "000b0000004e9363ada5774af4ba4c0cc369e83158", "profile": "http://www.citysearch.com/profile/614692654/atlanta_ga/stiffys_llc_padriacs.html", "address": {"city": "Atlanta", "state": "GA", "street": "2460 Cumberland Pkwy SE # Ste 110", "postal_code": "30339"}, "capProviderId": null, "distance": null, "has_offers": false, "name": "Stiffys LLC Padriacs", "longitude": -84.476528, "has_menu": false, "awards": null, "user_review_count": 0}, {"business_operation_status": 1, "rating": null, "neighborhood": null, "image": null, "scorecard": null, "featured": false, "sample_categories": "Restaurants, Carry Out, Hamburgers", "public_id": "mc-donalds-marietta-20", "id": 713574940, "votes": null, "tagline": null, "has_video": false, "website": "http://www.citysearch.com/profile/external/713574940/marietta_ga/mc_donald_s.html", "offers": null, "latitude": 33.924211, "politanName": "Atlanta, GA Metro ", "phone_number": "7708509549", "tags": [{"primary": false, "id": 11247, "name": "Carry Out"}, {"primary": false, "id": 11270, "name": "Hamburgers"}, {"primary": true, "id": 1722, "name": "Restaurants"}], "fax_number": null, "expansion": {"count": null, "uri": null}, "impression_id": "000b0000006e4780349dbd40af98512aceb8b2fbb2", "profile": "http://www.citysearch.com/profile/713574940/marietta_ga/mc_donald_s.html", "address": {"city": "Marietta", "state": "GA", "street": "2375 Delk Rd Se", "postal_code": "30067"}, "capProviderId": null, "distance": null, "has_offers": false, "name": "Mc Donald's", "longitude": -84.483793, "has_menu": false, "awards": null, "user_review_count": 0}, {"business_operation_status": 1, "rating": null, "neighborhood": null, "image": null, "scorecard": null, "featured": false, "sample_categories": "Restaurants, Pizza", "public_id": "manhattan-pizza-marietta", "id": 624064324, "votes": null, "tagline": null, "has_video": false, "website": null, "offers": null, "latitude": 33.944967, "politanName": "Atlanta, GA Metro ", "phone_number": "6789092097", "tags": [{"primary": false, "id": 11299, "name": "Pizza"}, {"primary": true, "id": 1722, "name": "Restaurants"}], "fax_number": null, "expansion": {"count": null, "uri": null}, "impression_id": "000b000000c40142b56d1244749c5349949dd21fec", "profile": "http://www.citysearch.com/profile/624064324/marietta_ga/manhattan_pizza.html", "address": {"city": "Marietta", "state": "GA", "street": "279 Powers Ferry Rd SE", "postal_code": "30067"}, "capProviderId": null, "distance": null, "has_offers": false, "name": "Manhattan Pizza", "longitude": -84.497588, "has_menu": false, "awards": null, "user_review_count": 0}, {"business_operation_status": 1, "rating": null, "neighborhood": null, "image": null, "scorecard": null, "featured": false, "sample_categories": "Frozen Yogurt Shops, Restaurants, Ice Cream Parlors, Discover, MasterCard", "public_id": "freshens-kennesaw", "id": 2955857, "votes": null, "tagline": null, "has_video": false, "website": "http://www.citysearch.com/profile/external/2955857/kennesaw_ga/freshens.html", "offers": null, "latitude": 34.019128, "politanName": "Atlanta, GA Metro ", "phone_number": "7704241171", "tags": [{"primary": false, "id": 1722, "name": "Restaurants"}, {"primary": false, "id": 1730, "name": "Ice Cream Parlors"}, {"primary": false, "id": 11349, "name": "Discover"}, {"primary": false, "id": 11361, "name": "MasterCard"}, {"primary": false, "id": 11382, "name": "Visa"}, {"primary": true, "id": 1729, "name": "Frozen Yogurt Shops"}], "fax_number": null, "expansion": {"count": null, "uri": null}, "impression_id": "000b0000007f5d9e0199a7409c8b85288650699577", "profile": "http://www.citysearch.com/profile/2955857/kennesaw_ga/freshens.html", "address": {"city": "Kennesaw", "state": "GA", "street": "400 Ernest W Barrett Pkwy NW", "postal_code": "30144"}, "capProviderId": null, "distance": null, "has_offers": false, "name": "Freshens", "longitude": -84.563608, "has_menu": true, "awards": null, "user_review_count": 0}, {"business_operation_status": 1, "rating": null, "neighborhood": null, "image": null, "scorecard": null, "featured": false, "sample_categories": "Restaurants, Delis And Delicatessens, Sandwich Shops, Carry Out, Soups", "public_id": "subway-kennesaw-5", "id": 43860432, "votes": null, "tagline": null, "has_video": false, "website": "http://www.citysearch.com/profile/external/43860432/kennesaw_ga/subway.html", "offers": null, "latitude": 33.992292, "politanName": "Atlanta, GA Metro ", "phone_number": "7704298722", "tags": [{"primary": false, "id": 1727, "name": "Delis And Delicatessens"}, {"primary": false, "id": 1736, "name": "Sandwich Shops"}, {"primary": false, "id": 11247, "name": "Carry Out"}, {"primary": false, "id": 11311, "name": "Soups"}, {"primary": false, "id": 11333, "name": "American Express"}, {"primary": false, "id": 11349, "name": "Discover"}, {"primary": false, "id": 11361, "name": "MasterCard"}, {"primary": false, "id": 11382, "name": "Visa"}, {"primary": true, "id": 1722, "name": "Restaurants"}], "fax_number": null, "expansion": {"count": null, "uri": null}, "impression_id": "000b000000f81b4640e6a74e77a379b5531c5131ee", "profile": "http://www.citysearch.com/profile/43860432/kennesaw_ga/subway.html", "address": {"city": "Kennesaw", "state": "GA", "street": "1605 Collins Rd NW 500", "postal_code": "30152"}, "capProviderId": null, "distance": null, "has_offers": false, "name": "Subway", "longitude": -84.598483, "has_menu": true, "awards": null, "user_review_count": 0}, {"business_operation_status": 1, "rating": null, "neighborhood": null, "image": null, "scorecard": null, "featured": false, "sample_categories": "Restaurants", "public_id": "cafe-alice-smyrna", "id": 672226100, "votes": null, "tagline": null, "has_video": false, "website": null, "offers": null, "latitude": 33.901234, "politanName": "Atlanta, GA Metro ", "phone_number": "7709550300", "tags": [{"primary": true, "id": 1722, "name": "Restaurants"}], "fax_number": null, "expansion": {"count": null, "uri": null}, "impression_id": "000b0000008a38f74786054d0a9cef281fd5b663d1", "profile": "http://www.citysearch.com/profile/672226100/smyrna_ga/cafe_alice.html", "address": {"city": "Smyrna", "state": "GA", "street": "2092 Cobb Pkwy", "postal_code": "30080"}, "capProviderId": null, "distance": null, "has_offers": false, "name": "Cafe Alice", "longitude": -84.488366, "has_menu": false, "awards": null, "user_review_count": 0}, {"business_operation_status": 1, "rating": null, "neighborhood": null, "image": null, "scorecard": null, "featured": false, "sample_categories": "Restaurants, Barbecue Restaurants", "public_id": "wings-express-smyrna", "id": 655890370, "votes": null, "tagline": null, "has_video": false, "website": null, "offers": null, "latitude": 33.887226, "politanName": "Atlanta, GA Metro ", "phone_number": "6783059522", "tags": [{"primary": false, "id": 1724, "name": "Barbecue Restaurants"}, {"primary": true, "id": 1722, "name": "Restaurants"}], "fax_number": null, "expansion": {"count": null, "uri": null}, "impression_id": "000b0000007c99c1039ceb4b2f9c7ba2c14bb37c7f", "profile": "http://www.citysearch.com/profile/655890370/smyrna_ga/wings_express.html", "address": {"city": "Smyrna", "state": "GA", "street": "2711 S Cobb Dr Se", "postal_code": "30080"}, "capProviderId": null, "distance": null, "has_offers": false, "name": "Wings Express", "longitude": -84.535161, "has_menu": false, "awards": null, "user_review_count": 0}, {"business_operation_status": 1, "rating": null, "neighborhood": null, "image": null, "scorecard": null, "featured": false, "sample_categories": "Restaurants, Traditional American, Carry Out, American Express, Discover", "public_id": "arbys-marietta-13", "id": 682479030, "votes": null, "tagline": null, "has_video": false, "website": "http://www.citysearch.com/profile/external/682479030/marietta_ga/arby_s.html", "offers": null, "latitude": 34.01427, "politanName": "Atlanta, GA Metro ", "phone_number": "7709730642", "tags": [{"primary": false, "id": 11190, "name": "Traditional American"}, {"primary": false, "id": 11247, "name": "Carry Out"}, {"primary": false, "id": 11333, "name": "American Express"}, {"primary": false, "id": 11349, "name": "Discover"}, {"primary": false, "id": 11361, "name": "MasterCard"}, {"primary": false, "id": 11382, "name": "Visa"}, {"primary": true, "id": 1722, "name": "Restaurants"}], "fax_number": null, "expansion": {"count": null, "uri": null}, "impression_id": "000b0000008fbe906b70e54063a555a36929930706", "profile": "http://www.citysearch.com/profile/682479030/marietta_ga/arby_s.html", "address": {"city": "Marietta", "state": "GA", "street": "2626 Sandy Plains Rd", "postal_code": "30066"}, "capProviderId": null, "distance": null, "has_offers": false, "name": "Arby's", "longitude": -84.494182, "has_menu": true, "awards": null, "user_review_count": 0}, {"business_operation_status": 0, "rating": null, "neighborhood": null, "image": null, "scorecard": null, "featured": false, "sample_categories": "Restaurants, Carry Out", "public_id": "mc-donalds-smyrna-11", "id": 682428720, "votes": null, "tagline": null, "has_video": false, "website": "http://www.citysearch.com/profile/external/682428720/smyrna_ga/mc_donald_s.html", "offers": null, "latitude": 33.855476, "politanName": "Atlanta, GA Metro ", "phone_number": "7708019353", "tags": [{"primary": false, "id": 11247, "name": "Carry Out"}, {"primary": true, "id": 1722, "name": "Restaurants"}], "fax_number": null, "expansion": {"count": null, "uri": null}, "impression_id": "000b0000004b5ee1978a0b4aad9fa2026fe7eaa50e", "profile": "http://www.citysearch.com/profile/682428720/smyrna_ga/mc_donald_s.html", "address": {"city": "Smyrna", "state": "GA", "street": "4301 Ridgehurst Dr Se", "postal_code": "30080"}, "capProviderId": null, "distance": null, "has_offers": false, "name": "Mc Donald's", "longitude": -84.505022, "has_menu": false, "awards": null, "user_review_count": 0}, {"business_operation_status": 1, "rating": null, "neighborhood": null, "image": null, "scorecard": null, "featured": false, "sample_categories": "Restaurants", "public_id": "masse-grill-bar-kennesaw", "id": 839969040, "votes": null, "tagline": null, "has_video": false, "website": null, "offers": null, "latitude": 34.020439, "politanName": "Atlanta, GA Metro ", "phone_number": "7704263095", "tags": [{"primary": true, "id": 1722, "name": "Restaurants"}], "fax_number": null, "expansion": {"count": null, "uri": null}, "impression_id": "000b0000005fb8d7ec830e49d48af28f4b99e760f0", "profile": "http://www.citysearch.com/profile/839969040/kennesaw_ga/masse_grill_bar.html", "address": {"city": "Kennesaw", "state": "GA", "street": "2975 Ring Rd NW", "postal_code": "30144"}, "capProviderId": null, "distance": null, "has_offers": false, "name": "Masse Grill & Bar", "longitude": -84.566579, "has_menu": false, "awards": null, "user_review_count": 0}, {"business_operation_status": 1, "rating": null, "neighborhood": null, "image": null, "scorecard": null, "featured": false, "sample_categories": "Restaurants, Carry Out", "public_id": "atlanta-bread-co-smyrna-3", "id": 822894330, "votes": null, "tagline": null, "has_video": false, "website": null, "offers": null, "latitude": 33.844924, "politanName": "Atlanta, GA Metro ", "phone_number": "6785030710", "tags": [{"primary": false, "id": 11247, "name": "Carry Out"}, {"primary": true, "id": 1722, "name": "Restaurants"}], "fax_number": null, "expansion": {"count": null, "uri": null}, "impression_id": "000b00000079a965860e704efd9c064fc79e90ddda", "profile": "http://www.citysearch.com/profile/822894330/smyrna_ga/atlanta_bread_co.html", "address": {"city": "Smyrna", "state": "GA", "street": "1270 Winchester Pkwy SE # 219", "postal_code": "30080"}, "capProviderId": null, "distance": null, "has_offers": false, "name": "Atlanta Bread Co", "longitude": -84.489021, "has_menu": false, "awards": null, "user_review_count": 0}, {"business_operation_status": 1, "rating": null, "neighborhood": null, "image": null, "scorecard": null, "featured": false, "sample_categories": "Restaurants", "public_id": "brusters-kennesaw", "id": 821944740, "votes": null, "tagline": null, "has_video": false, "website": null, "offers": null, "latitude": 34.023434, "politanName": "Atlanta, GA Metro ", "phone_number": "7704939014", "tags": [{"primary": true, "id": 1722, "name": "Restaurants"}], "fax_number": null, "expansion": {"count": null, "uri": null}, "impression_id": "000b000000f339803a3f1a4669ad349ea4f903cc9b", "profile": "http://www.citysearch.com/profile/821944740/kennesaw_ga/brusters.html", "address": {"city": "Kennesaw", "state": "GA", "street": "101 Riverwalk CT", "postal_code": "30144"}, "capProviderId": null, "distance": null, "has_offers": false, "name": "Brusters", "longitude": -84.61549, "has_menu": false, "awards": null, "user_review_count": 0}, {"business_operation_status": 1, "rating": null, "neighborhood": null, "image": null, "scorecard": null, "featured": false, "sample_categories": "Restaurants", "public_id": "cafe-803-marietta", "id": 838064280, "votes": null, "tagline": null, "has_video": false, "website": null, "offers": null, "latitude": 33.933132, "politanName": "Atlanta, GA Metro ", "phone_number": "7707925579", "tags": [{"primary": true, "id": 1722, "name": "Restaurants"}], "fax_number": null, "expansion": {"count": null, "uri": null}, "impression_id": "000b0000000a8937b17c0340bf8f1f7bb93aa1e972", "profile": "http://www.citysearch.com/profile/838064280/marietta_ga/cafe_803.html", "address": {"city": "Marietta", "state": "GA", "street": "803 Powder Springs St", "postal_code": "30064"}, "capProviderId": null, "distance": null, "has_offers": false, "name": "Cafe 803", "longitude": -84.559871, "has_menu": false, "awards": null, "user_review_count": 0}, {"business_operation_status": 1, "rating": null, "neighborhood": null, "image": null, "scorecard": null, "featured": false, "sample_categories": "Restaurants", "public_id": "italian-kitchen-atlanta", "id": 839778230, "votes": null, "tagline": null, "has_video": false, "website": null, "offers": null, "latitude": 33.881743, "politanName": "Atlanta, GA Metro ", "phone_number": "7704324357", "tags": [{"primary": true, "id": 1722, "name": "Restaurants"}], "fax_number": null, "expansion": {"count": null, "uri": null}, "impression_id": "000b0000000a8aa1479be6480e93b9493414cdd316", "profile": "http://www.citysearch.com/profile/839778230/atlanta_ga/italian_kitchen.html", "address": {"city": "Atlanta", "state": "GA", "street": "1000 Cumberland Mall SE", "postal_code": "30339"}, "capProviderId": null, "distance": null, "has_offers": false, "name": "Italian Kitchen", "longitude": -84.470084, "has_menu": false, "awards": null, "user_review_count": 0}, {"business_operation_status": 1, "rating": null, "neighborhood": null, "image": null, "scorecard": null, "featured": false, "sample_categories": "Restaurants, Fast Food, Carry Out, American Express, MasterCard", "public_id": "popeyes-chicken-biscuits-marietta-2", "id": 45112943, "votes": null, "tagline": null, "has_video": false, "website": "http://www.citysearch.com/profile/external/45112943/marietta_ga/popeye_s_chicken_biscuits.html", "offers": null, "latitude": 33.9485, "politanName": "Atlanta, GA Metro ", "phone_number": "7704208800", "tags": [{"primary": false, "id": 11199, "name": "Fast Food"}, {"primary": false, "id": 11247, "name": "Carry Out"}, {"primary": false, "id": 11333, "name": "American Express"}, {"primary": false, "id": 11361, "name": "MasterCard"}, {"primary": false, "id": 11382, "name": "Visa"}, {"primary": false, "id": 12839, "name": "Chicken"}, {"primary": true, "id": 1722, "name": "Restaurants"}], "fax_number": null, "expansion": {"count": null, "uri": null}, "impression_id": "000b0000001a118b46ab394ca6875a18b6e65fb3d1", "profile": "http://www.citysearch.com/profile/45112943/marietta_ga/popeye_s_chicken_biscuits.html", "address": {"city": "Marietta", "state": "GA", "street": "155 Cobb Pkwy S", "postal_code": "30060"}, "capProviderId": null, "distance": null, "has_offers": false, "name": "Popeye's Chicken & Biscuits", "longitude": -84.518323, "has_menu": true, "awards": null, "user_review_count": 0}, {"business_operation_status": 1, "rating": null, "neighborhood": null, "image": null, "scorecard": null, "featured": false, "sample_categories": "Pasta Manufacturers, Restaurants, Wholesale Foods, Italian Food Products, $", "public_id": "costas-pasta-kennesaw", "id": 2957371, "votes": null, "tagline": null, "has_video": false, "website": "http://www.citysearch.com/profile/external/2957371/kennesaw_ga/costas_pasta.html", "offers": null, "latitude": 34.002327, "politanName": "Atlanta, GA Metro ", "phone_number": "7705148814", "tags": [{"primary": false, "id": 2373, "name": "Pasta Manufacturers"}, {"primary": false, "id": 1722, "name": "Restaurants"}, {"primary": false, "id": 5693, "name": "Wholesale Foods"}, {"primary": false, "id": 11154, "name": "Italian Food Products"}, {"primary": false, "id": 11231, "name": "$"}, {"primary": false, "id": 11279, "name": "Italian"}], "fax_number": null, "expansion": {"count": null, "uri": null}, "impression_id": "000b000000d14434332e99480c86f8b60384a5e3ba", "profile": "http://www.citysearch.com/profile/2957371/kennesaw_ga/costas_pasta.html", "address": {"city": "Kennesaw", "state": "GA", "street": "2045 Attic Pkwy NW", "postal_code": "30152"}, "capProviderId": null, "distance": null, "has_offers": false, "name": "Costas Pasta", "longitude": -84.604376, "has_menu": false, "awards": null, "user_review_count": 0}, {"business_operation_status": 1, "rating": null, "neighborhood": null, "image": null, "scorecard": null, "featured": false, "sample_categories": "Restaurants", "public_id": "tme-enterprises-i-ltd-marietta-3", "id": 793319820, "votes": null, "tagline": null, "has_video": false, "website": null, "offers": null, "latitude": 33.924583, "politanName": "Atlanta, GA Metro ", "phone_number": "7704198081", "tags": [{"primary": true, "id": 1722, "name": "Restaurants"}], "fax_number": null, "expansion": {"count": null, "uri": null}, "impression_id": "000b0000004bcc3e96ac004a1d9ea7e679a633476b", "profile": "http://www.citysearch.com/profile/793319820/marietta_ga/tme_enterprises_i_ltd.html", "address": {"city": "Marietta", "state": "GA", "street": "1180 Powder Springs St", "postal_code": "30064"}, "capProviderId": null, "distance": null, "has_offers": false, "name": "Tme Enterprises I LTD", "longitude": -84.575231, "has_menu": false, "awards": null, "user_review_count": 0}, {"business_operation_status": 1, "rating": null, "neighborhood": null, "image": null, "scorecard": null, "featured": false, "sample_categories": "Restaurants, Pizza", "public_id": "brothers-pizza-kennesaw", "id": 793255470, "votes": null, "tagline": null, "has_video": false, "website": null, "offers": null, "latitude": 34.020417, "politanName": "Atlanta, GA Metro ", "phone_number": "6784016215", "tags": [{"primary": false, "id": 11299, "name": "Pizza"}, {"primary": true, "id": 1722, "name": "Restaurants"}], "fax_number": null, "expansion": {"count": null, "uri": null}, "impression_id": "000b000000b127e8ca531f410c8914b718f1551d7e", "profile": "http://www.citysearch.com/profile/793255470/kennesaw_ga/brothers_pizza.html", "address": {"city": "Kennesaw", "state": "GA", "street": "2740 Summers St NW", "postal_code": "30144"}, "capProviderId": null, "distance": null, "has_offers": false, "name": "Brothers Pizza", "longitude": -84.614273, "has_menu": false, "awards": null, "user_review_count": 0}, {"business_operation_status": 1, "rating": null, "neighborhood": null, "image": null, "scorecard": null, "featured": false, "sample_categories": "Restaurants, Carry Out", "public_id": "atlanta-bread-co-smyrna-2", "id": 805222070, "votes": null, "tagline": null, "has_video": false, "website": null, "offers": null, "latitude": 33.923686, "politanName": "Atlanta, GA Metro ", "phone_number": "6785030710", "tags": [{"primary": false, "id": 11247, "name": "Carry Out"}, {"primary": true, "id": 1722, "name": "Restaurants"}], "fax_number": null, "expansion": {"count": null, "uri": null}, "impression_id": "000b000000338d5ae118b4441b90c4cf182e635f1e", "profile": "http://www.citysearch.com/profile/805222070/smyrna_ga/atlanta_bread_co.html", "address": {"city": "Smyrna", "state": "GA", "street": "2160 Kingston CT SE", "postal_code": "30080"}, "capProviderId": null, "distance": null, "has_offers": false, "name": "Atlanta Bread Co", "longitude": -84.488921, "has_menu": false, "awards": null, "user_review_count": 0}, {"business_operation_status": 1, "rating": null, "neighborhood": null, "image": null, "scorecard": null, "featured": false, "sample_categories": "Food Delivery", "public_id": "beffalicious-mableton", "id": 809126440, "votes": null, "tagline": null, "has_video": false, "website": null, "offers": null, "latitude": 33.817489, "politanName": "Atlanta, GA Metro ", "phone_number": "7707452381", "tags": [{"primary": true, "id": 11267, "name": "Food Delivery"}], "fax_number": null, "expansion": {"count": null, "uri": null}, "impression_id": "000b000000cff4e6c4e7e644fe8a009a924325b9ef", "profile": "http://www.citysearch.com/profile/809126440/mableton_ga/beffalicious.html", "address": {"city": "Mableton", "state": "GA", "street": "5590 Mableton Pkwy SW", "postal_code": "30126"}, "capProviderId": null, "distance": null, "has_offers": false, "name": "Beffalicious", "longitude": -84.575963, "has_menu": false, "awards": null, "user_review_count": 0}, {"business_operation_status": 1, "rating": null, "neighborhood": null, "image": null, "scorecard": null, "featured": false, "sample_categories": "Restaurants", "public_id": "soba-asian-bistro-marietta-2", "id": 809491560, "votes": null, "tagline": null, "has_video": false, "website": null, "offers": null, "latitude": 33.977233, "politanName": "Atlanta, GA Metro ", "phone_number": "7709711888", "tags": [{"primary": true, "id": 1722, "name": "Restaurants"}], "fax_number": null, "expansion": {"count": null, "uri": null}, "impression_id": "000b000000f7fb1cb636ff477ea16a7a5ce0fe72a6", "profile": "http://www.citysearch.com/profile/809491560/marietta_ga/soba_asian_bistro.html", "address": {"city": "Marietta", "state": "GA", "street": "1060 E Piedmont Rd", "postal_code": "30062"}, "capProviderId": null, "distance": null, "has_offers": false, "name": "Soba Asian Bistro", "longitude": -84.479764, "has_menu": false, "awards": null, "user_review_count": 0}, {"business_operation_status": 1, "rating": null, "neighborhood": null, "image": null, "scorecard": null, "featured": false, "sample_categories": "Restaurants", "public_id": "planet-smoothie-marietta-7", "id": 812605020, "votes": null, "tagline": null, "has_video": false, "website": null, "offers": null, "latitude": 33.947326, "politanName": "Atlanta, GA Metro ", "phone_number": "7704272700", "tags": [{"primary": true, "id": 1722, "name": "Restaurants"}], "fax_number": null, "expansion": {"count": null, "uri": null}, "impression_id": "000b0000001b4d2e64c03e4dff9a915648e3e071f9", "profile": "http://www.citysearch.com/profile/812605020/marietta_ga/planet_smoothie.html", "address": {"city": "Marietta", "state": "GA", "street": "3451 Ernest W Barrett NW # 145", "postal_code": "30064"}, "capProviderId": null, "distance": null, "has_offers": false, "name": "Planet Smoothie", "longitude": -84.622965, "has_menu": true, "awards": null, "user_review_count": 0}, {"business_operation_status": 1, "rating": null, "neighborhood": null, "image": null, "scorecard": null, "featured": false, "sample_categories": "Restaurants", "public_id": "mcdonald-ronda-mableton", "id": 812801220, "votes": null, "tagline": null, "has_video": false, "website": null, "offers": null, "latitude": 33.805594, "politanName": "Atlanta, GA Metro ", "phone_number": "7707398785", "tags": [{"primary": true, "id": 1722, "name": "Restaurants"}], "fax_number": null, "expansion": {"count": null, "uri": null}, "impression_id": "000b00000094c010d83f6b4bafb075cab225b41839", "profile": "http://www.citysearch.com/profile/812801220/mableton_ga/mcdonald_ronda.html", "address": {"city": "Mableton", "state": "GA", "street": "6066 Heritage Way SE", "postal_code": "30126"}, "capProviderId": null, "distance": null, "has_offers": false, "name": "Mcdonald & Ronda", "longitude": -84.552065, "has_menu": false, "awards": null, "user_review_count": 0}, {"business_operation_status": 1, "rating": null, "neighborhood": null, "image": null, "scorecard": null, "featured": false, "sample_categories": "Restaurants", "public_id": "andrews-arbys-rico-atlanta", "id": 607265084, "votes": null, "tagline": null, "has_video": false, "website": null, "offers": null, "latitude": 33.876131, "politanName": "Atlanta, GA Metro ", "phone_number": "6785038868", "tags": [{"primary": true, "id": 1722, "name": "Restaurants"}], "fax_number": null, "expansion": {"count": null, "uri": null}, "impression_id": "000b000000a1aa2cec07c344649bc1ad409af6b91d", "profile": "http://www.citysearch.com/profile/607265084/atlanta_ga/andrews_arbys_rico.html", "address": {"city": "Atlanta", "state": "GA", "street": "3151 Stillhouse Creek Dr SE", "postal_code": "30339"}, "capProviderId": null, "distance": null, "has_offers": false, "name": "Andrews Arbys Rico", "longitude": -84.46228, "has_menu": false, "awards": null, "user_review_count": 0}, {"business_operation_status": 1, "rating": null, "neighborhood": null, "image": null, "scorecard": null, "featured": false, "sample_categories": "Restaurants, Delis And Delicatessens, Sandwich Shops, Carry Out", "public_id": "firehouse-subs-marietta-3", "id": 764915450, "votes": null, "tagline": null, "has_video": false, "website": null, "offers": null, "latitude": 33.92306, "politanName": "Atlanta, GA Metro ", "phone_number": "7706908103", "tags": [{"primary": false, "id": 1727, "name": "Delis And Delicatessens"}, {"primary": false, "id": 1736, "name": "Sandwich Shops"}, {"primary": false, "id": 11247, "name": "Carry Out"}, {"primary": true, "id": 1722, "name": "Restaurants"}], "fax_number": null, "expansion": {"count": null, "uri": null}, "impression_id": "000b00000050ed02c674e24fc5a077d9fe1120b70d", "profile": "http://www.citysearch.com/profile/764915450/marietta_ga/firehouse_subs.html", "address": {"city": "Marietta", "state": "GA", "street": "2900 Delk Rd SE", "postal_code": "30067"}, "capProviderId": null, "distance": null, "has_offers": false, "name": "Firehouse Subs", "longitude": -84.467405, "has_menu": true, "awards": null, "user_review_count": 0}, {"business_operation_status": 1, "rating": null, "neighborhood": null, "image": null, "scorecard": null, "featured": false, "sample_categories": "Restaurants, Barbecue Restaurants", "public_id": "wing-zone-smyrna", "id": 764933090, "votes": null, "tagline": null, "has_video": false, "website": "http://www.citysearch.com/profile/external/764933090/smyrna_ga/wing_zone.html", "offers": null, "latitude": 33.844439, "politanName": "Atlanta, GA Metro ", "phone_number": "6783090002", "tags": [{"primary": false, "id": 1724, "name": "Barbecue Restaurants"}, {"primary": true, "id": 1722, "name": "Restaurants"}], "fax_number": null, "expansion": {"count": null, "uri": null}, "impression_id": "000b000000e8b9cffe3f4741edaecf21f8dd87465e", "profile": "http://www.citysearch.com/profile/764933090/smyrna_ga/wing_zone.html", "address": {"city": "Smyrna", "state": "GA", "street": "4490 S Cobb Dr SE", "postal_code": "30080"}, "capProviderId": null, "distance": null, "has_offers": false, "name": "Wing Zone", "longitude": -84.501907, "has_menu": true, "awards": null, "user_review_count": 0}, {"business_operation_status": 1, "rating": null, "neighborhood": null, "image": null, "scorecard": null, "featured": false, "sample_categories": "Ice Cream Parlors", "public_id": "talenti-gelato-marietta", "id": 766766740, "votes": null, "tagline": null, "has_video": false, "website": null, "offers": null, "latitude": 33.977334, "politanName": "Atlanta, GA Metro ", "phone_number": "7704990442", "tags": [{"primary": true, "id": 1730, "name": "Ice Cream Parlors"}], "fax_number": null, "expansion": {"count": null, "uri": null}, "impression_id": "000b000000b0eb901e2b82439081903defa72e7847", "profile": "http://www.citysearch.com/profile/766766740/marietta_ga/talenti_gelato.html", "address": {"city": "Marietta", "state": "GA", "street": "1058 King Industrial Dr", "postal_code": "30062"}, "capProviderId": null, "distance": null, "has_offers": false, "name": "Talenti Gelato", "longitude": -84.539884, "has_menu": false, "awards": null, "user_review_count": 0}, {"business_operation_status": 1, "rating": null, "neighborhood": null, "image": null, "scorecard": null, "featured": false, "sample_categories": "Restaurants, Delis And Delicatessens", "public_id": "planet-sub-marietta", "id": 770774340, "votes": null, "tagline": null, "has_video": false, "website": null, "offers": null, "latitude": 34.013859, "politanName": "Atlanta, GA Metro ", "phone_number": "7705750206", "tags": [{"primary": false, "id": 1727, "name": "Delis And Delicatessens"}, {"primary": true, "id": 1722, "name": "Restaurants"}], "fax_number": null, "expansion": {"count": null, "uri": null}, "impression_id": "000b000000519dc78723d944f982ebb16c787ba710", "profile": "http://www.citysearch.com/profile/770774340/marietta_ga/planet_sub.html", "address": {"city": "Marietta", "state": "GA", "street": "125 Barrett Pkwy", "postal_code": "30066"}, "capProviderId": null, "distance": null, "has_offers": false, "name": "Planet Sub", "longitude": -84.554543, "has_menu": false, "awards": null, "user_review_count": 0}, {"business_operation_status": 1, "rating": 9.0, "neighborhood": null, "image": null, "scorecard": null, "featured": false, "sample_categories": "Restaurants, Greek", "public_id": "bobs-kebobs-kennesaw", "id": 41612270, "votes": null, "tagline": null, "has_video": false, "website": null, "offers": null, "latitude": 33.999764, "politanName": "Atlanta, GA Metro ", "phone_number": "7704224362", "tags": [{"primary": false, "id": 1722, "name": "Restaurants"}, {"primary": true, "id": 11268, "name": "Greek"}], "fax_number": null, "expansion": {"count": null, "uri": null}, "impression_id": "000b0000004856a4dbe4d04472984d072eda49ad52", "profile": "http://www.citysearch.com/profile/41612270/kennesaw_ga/bob_s_kebobs.html", "address": {"city": "Kennesaw", "state": "GA", "street": "1200 Earnest Barrett Pkwy", "postal_code": "30144"}, "capProviderId": null, "distance": null, "has_offers": false, "name": "Bob's Kebobs", "longitude": -84.585396, "has_menu": false, "awards": null, "user_review_count": 0}, {"business_operation_status": 1, "rating": null, "neighborhood": null, "image": null, "scorecard": null, "featured": false, "sample_categories": "Restaurants, Fast Food", "public_id": "wendys-atlanta-7", "id": 45010678, "votes": null, "tagline": null, "has_video": false, "website": null, "offers": null, "latitude": 33.884003, "politanName": "Atlanta, GA Metro ", "phone_number": "7709524553", "tags": [{"primary": false, "id": 11199, "name": "Fast Food"}, {"primary": true, "id": 1722, "name": "Restaurants"}], "fax_number": null, "expansion": {"count": null, "uri": null}, "impression_id": "000b00000010cd33908670492c900b12f14654e21e", "profile": "http://www.citysearch.com/profile/45010678/atlanta_ga/wendy_s.html", "address": {"city": "Atlanta", "state": "GA", "street": "2818 Spring Rd SE", "postal_code": "30339"}, "capProviderId": null, "distance": null, "has_offers": false, "name": "Wendy's", "longitude": -84.475031, "has_menu": false, "awards": null, "user_review_count": 0}, {"business_operation_status": 1, "rating": null, "neighborhood": null, "image": null, "scorecard": null, "featured": false, "sample_categories": "Restaurants", "public_id": "swiss-alpine-bakery-marietta", "id": 814198400, "votes": null, "tagline": null, "has_video": false, "website": null, "offers": null, "latitude": 33.977034, "politanName": "Atlanta, GA Metro ", "phone_number": "7706431100", "tags": [{"primary": true, "id": 1722, "name": "Restaurants"}], "fax_number": null, "expansion": {"count": null, "uri": null}, "impression_id": "000b00000080b267a726f04e1194a095526e50b97f", "profile": "http://www.citysearch.com/profile/814198400/marietta_ga/swiss_alpine_bakery.html", "address": {"city": "Marietta", "state": "GA", "street": "2460 Sheila Ln", "postal_code": "30062"}, "capProviderId": null, "distance": null, "has_offers": false, "name": "Swiss Alpine Bakery", "longitude": -84.475931, "has_menu": false, "awards": null, "user_review_count": 0}, {"business_operation_status": 1, "rating": null, "neighborhood": null, "image": null, "scorecard": null, "featured": false, "sample_categories": "Restaurants, Pizza", "public_id": "marcos-pizza-kennesaw", "id": 619235134, "votes": null, "tagline": null, "has_video": false, "website": "http://www.citysearch.com/profile/external/619235134/kennesaw_ga/marco_s_pizza.html", "offers": null, "latitude": 34.058006, "politanName": "Atlanta, GA Metro ", "phone_number": "6786266668", "tags": [{"primary": false, "id": 1722, "name": "Restaurants"}, {"primary": true, "id": 11299, "name": "Pizza"}], "fax_number": null, "expansion": {"count": null, "uri": null}, "impression_id": "000b000000322ededa30714368958f1be6c4a8493a", "profile": "http://www.citysearch.com/profile/619235134/kennesaw_ga/marco_s_pizza.html", "address": {"city": "Kennesaw", "state": "GA", "street": "4250 Wade Green Rd NW", "postal_code": "30144"}, "capProviderId": null, "distance": null, "has_offers": false, "name": "Marco's Pizza", "longitude": -84.592307, "has_menu": false, "awards": null, "user_review_count": 0}, {"business_operation_status": 1, "rating": null, "neighborhood": null, "image": null, "scorecard": null, "featured": false, "sample_categories": "Restaurants", "public_id": "zackbys-endless-chicken-llc-austell", "id": 837841690, "votes": null, "tagline": null, "has_video": false, "website": null, "offers": null, "latitude": 33.867601, "politanName": "Atlanta, GA Metro ", "phone_number": "7702221550", "tags": [{"primary": true, "id": 1722, "name": "Restaurants"}], "fax_number": null, "expansion": {"count": null, "uri": null}, "impression_id": "000b00000060e5cafff62948e088a3ce725bd7ca1d", "profile": "http://www.citysearch.com/profile/837841690/austell_ga/zackby_s_endless_chicken_llc.html", "address": {"city": "Austell", "state": "GA", "street": "2603 E West Connector", "postal_code": "30106"}, "capProviderId": null, "distance": null, "has_offers": false, "name": "Zackby's Endless Chicken LLC", "longitude": -84.631045, "has_menu": false, "awards": null, "user_review_count": 0}, {"business_operation_status": 1, "rating": null, "neighborhood": null, "image": null, "scorecard": null, "featured": false, "sample_categories": "Restaurants", "public_id": "savory-corner-kennesaw-2", "id": 839498940, "votes": null, "tagline": null, "has_video": false, "website": null, "offers": null, "latitude": 34.006214, "politanName": "Atlanta, GA Metro ", "phone_number": "7703295419", "tags": [{"primary": true, "id": 1722, "name": "Restaurants"}], "fax_number": null, "expansion": {"count": null, "uri": null}, "impression_id": "000b000000db54b77608fb4addbe7658b793777c11", "profile": "http://www.citysearch.com/profile/839498940/kennesaw_ga/savory_corner.html", "address": {"city": "Kennesaw", "state": "GA", "street": "2120 Barrett Park Dr NW", "postal_code": "30144"}, "capProviderId": null, "distance": null, "has_offers": false, "name": "Savory Corner", "longitude": -84.595772, "has_menu": false, "awards": null, "user_review_count": 0}, {"business_operation_status": 1, "rating": null, "neighborhood": null, "image": null, "scorecard": null, "featured": false, "sample_categories": "Catering, Restaurants, Pizza, Carry Out, Food Delivery", "public_id": "pizza-hut-mableton-2", "id": 835803370, "votes": null, "tagline": null, "has_video": false, "website": "http://www.citysearch.com/profile/external/835803370/mableton_ga/pizza_hut.html", "offers": null, "latitude": 33.833318, "politanName": "Atlanta, GA Metro ", "phone_number": "7707397739", "tags": [{"primary": false, "id": 1705, "name": "Catering"}, {"primary": false, "id": 1722, "name": "Restaurants"}, {"primary": false, "id": 11247, "name": "Carry Out"}, {"primary": false, "id": 11267, "name": "Food Delivery"}, {"primary": true, "id": 11299, "name": "Pizza"}], "fax_number": null, "expansion": {"count": null, "uri": null}, "impression_id": "000b000000651eea482e1f40aaa8ae197b2fcf4f80", "profile": "http://www.citysearch.com/profile/835803370/mableton_ga/pizza_hut.html", "address": {"city": "Mableton", "state": "GA", "street": "5005 Floyd Rd SW 910", "postal_code": "30126"}, "capProviderId": null, "distance": null, "has_offers": false, "name": "Pizza Hut", "longitude": -84.575479, "has_menu": true, "awards": null, "user_review_count": 0}, {"business_operation_status": 1, "rating": null, "neighborhood": null, "image": null, "scorecard": null, "featured": false, "sample_categories": "Restaurants", "public_id": "american-wing-co-kennesaw", "id": 839999600, "votes": null, "tagline": null, "has_video": false, "website": null, "offers": null, "latitude": 34.017369, "politanName": "Atlanta, GA Metro ", "phone_number": "7706357648", "tags": [{"primary": true, "id": 1722, "name": "Restaurants"}], "fax_number": null, "expansion": {"count": null, "uri": null}, "impression_id": "000b0000007d33afc8592b4254bd7a1bccaf05a22b", "profile": "http://www.citysearch.com/profile/839999600/kennesaw_ga/american_wing_co.html", "address": {"city": "Kennesaw", "state": "GA", "street": "400 Ernest W Barrett Pkwy NW", "postal_code": "30144"}, "capProviderId": null, "distance": null, "has_offers": false, "name": "American Wing Co", "longitude": -84.564255, "has_menu": false, "awards": null, "user_review_count": 0}, {"business_operation_status": 1, "rating": null, "neighborhood": null, "image": null, "scorecard": null, "featured": false, "sample_categories": "Restaurants, Hispanic Food Products, Online Reservations", "public_id": "casanova-mexican-restaurant-marietta", "id": 840325760, "votes": null, "tagline": null, "has_video": false, "website": "http://www.citysearch.com/profile/external/840325760/marietta_ga/casanova_mexican_restaurant.html", "offers": null, "latitude": 33.90763, "politanName": "Atlanta, GA Metro ", "phone_number": "7704209666", "tags": [{"primary": false, "id": 11153, "name": "Hispanic Food Products"}, {"primary": false, "id": 11295, "name": "Online Reservations"}, {"primary": true, "id": 1722, "name": "Restaurants"}], "fax_number": null, "expansion": {"count": null, "uri": null}, "impression_id": "000b000000bac74c82278f45d4a904965e736ef356", "profile": "http://www.citysearch.com/profile/840325760/marietta_ga/casanova_mexican_restaurant.html", "address": {"city": "Marietta", "state": "GA", "street": "1651 Powder Springs Rd SW", "postal_code": "30064"}, "capProviderId": null, "distance": null, "has_offers": false, "name": "Casanova Mexican Restaurant", "longitude": -84.600889, "has_menu": false, "awards": null, "user_review_count": 0}, {"business_operation_status": 1, "rating": null, "neighborhood": null, "image": null, "scorecard": null, "featured": false, "sample_categories": "Restaurants, Mexican, Chicken", "public_id": "pollo-tropical-atlanta", "id": 757946800, "votes": null, "tagline": null, "has_video": false, "website": null, "offers": null, "latitude": 33.88074, "politanName": "Atlanta, GA Metro ", "phone_number": "7709800635", "tags": [{"primary": false, "id": 11208, "name": "Mexican"}, {"primary": false, "id": 12839, "name": "Chicken"}, {"primary": true, "id": 1722, "name": "Restaurants"}], "fax_number": null, "expansion": {"count": null, "uri": null}, "impression_id": "000b0000001bd11235d20c4330ae136a96b0742476", "profile": "http://www.citysearch.com/profile/757946800/atlanta_ga/pollo_tropical.html", "address": {"city": "Atlanta", "state": "GA", "street": "2955 Cobb Pkwy SE", "postal_code": "30339"}, "capProviderId": null, "distance": null, "has_offers": false, "name": "Pollo Tropical", "longitude": -84.462229, "has_menu": false, "awards": null, "user_review_count": 0}], "histograms": [], "tag_ids": [1722], "uri": "http://api.citygridmedia.com:8080/search/places/v2/search/where?has_offers=false&type=restaurant&format=json&page=36&where=30060&rpp=50&histograms=false&publisher=10000009598&region_type=circle", "did_you_mean": "", "regions": [{"latitude": 33.92521, "default_radius": 3.68, "type": "postal_code", "name": "30060", "longitude": -84.546093}], "call_id": "000b0000000624631f015349b58cf522983515c8dc", "first_hit": 1751, "total_hits": 2103, "geo_ids": [26291], "page": 36, "last_hit": 1800}}