{"results": {"rpp": 50, "locations": [{"business_operation_status": 1, "rating": null, "neighborhood": null, "image": null, "scorecard": null, "featured": false, "sample_categories": "Restaurants", "public_id": "birrierias-tepechi-marietta", "id": 829992440, "votes": null, "tagline": null, "has_video": false, "website": null, "offers": null, "latitude": 33.925388, "politanName": "Atlanta, GA Metro ", "phone_number": "7704990470", "tags": [{"primary": true, "id": 1722, "name": "Restaurants"}], "fax_number": null, "expansion": {"count": null, "uri": null}, "impression_id": "000b000000d06a90105dcf4ea08028ee805c4226bf", "profile": "http://www.citysearch.com/profile/829992440/marietta_ga/birrieria_s_tepechi.html", "address": {"city": "Marietta", "state": "GA", "street": "1135 Powder Springs St", "postal_code": "30064"}, "capProviderId": null, "distance": null, "has_offers": false, "name": "Birrieria's Tepechi", "longitude": -84.573222, "has_menu": false, "awards": null, "user_review_count": 0}, {"business_operation_status": 1, "rating": null, "neighborhood": null, "image": null, "scorecard": null, "featured": false, "sample_categories": "Ice Cream Parlors, Restaurants, Dessert Shops", "public_id": "dippin-dots-kennesaw", "id": 36642606, "votes": null, "tagline": null, "has_video": false, "website": "http://www.citysearch.com/profile/external/36642606/kennesaw_ga/dippin_dots.html", "offers": null, "latitude": 34.019128, "politanName": "Atlanta, GA Metro ", "phone_number": "7709191015", "tags": [{"primary": false, "id": 1722, "name": "Restaurants"}, {"primary": false, "id": 1728, "name": "Dessert Shops"}, {"primary": true, "id": 1730, "name": "Ice Cream Parlors"}], "fax_number": null, "expansion": {"count": null, "uri": null}, "impression_id": "000b000000da59cecb04ed4afe84059497425e7479", "profile": "http://www.citysearch.com/profile/36642606/kennesaw_ga/dippin_dots.html", "address": {"city": "Kennesaw", "state": "GA", "street": "400 Ernest W Barrett Pkwy NW", "postal_code": "30144"}, "capProviderId": null, "distance": null, "has_offers": false, "name": "Dippin' Dots", "longitude": -84.563608, "has_menu": true, "awards": null, "user_review_count": 0}, {"business_operation_status": 1, "rating": null, "neighborhood": null, "image": null, "scorecard": null, "featured": false, "sample_categories": "Restaurants, Japanese, American Express, Discover, MasterCard", "public_id": "japan-express-marietta", "id": 36940470, "votes": null, "tagline": null, "has_video": false, "website": null, "offers": null, "latitude": 33.980787, "politanName": "Atlanta, GA Metro ", "phone_number": "7703216353", "tags": [{"primary": false, "id": 11202, "name": "Japanese"}, {"primary": false, "id": 11333, "name": "American Express"}, {"primary": false, "id": 11349, "name": "Discover"}, {"primary": false, "id": 11361, "name": "MasterCard"}, {"primary": false, "id": 11382, "name": "Visa"}, {"primary": true, "id": 1722, "name": "Restaurants"}], "fax_number": null, "expansion": {"count": null, "uri": null}, "impression_id": "000b0000008aa92fc87c69437dba1522bb2af08820", "profile": "http://www.citysearch.com/profile/36940470/marietta_ga/japan_express.html", "address": {"city": "Marietta", "state": "GA", "street": "3101 Roswell Rd", "postal_code": "30062"}, "capProviderId": null, "distance": null, "has_offers": false, "name": "Japan Express", "longitude": -84.464028, "has_menu": true, "awards": null, "user_review_count": 0}, {"business_operation_status": 1, "rating": null, "neighborhood": null, "image": null, "scorecard": null, "featured": false, "sample_categories": "Ethnic Food Markets, Restaurants, Hispanic Food Products, Mexican", "public_id": "el-maizal-tortilleria-inc-kennesaw", "id": 36715365, "votes": null, "tagline": null, "has_video": false, "website": "http://www.citysearch.com/profile/external/36715365/kennesaw_ga/el_maizal_tortilleria_inc.html", "offers": null, "latitude": 34.056577, "politanName": "Atlanta, GA Metro ", "phone_number": "7709192501", "tags": [{"primary": false, "id": 1712, "name": "Ethnic Food Markets"}, {"primary": false, "id": 11153, "name": "Hispanic Food Products"}, {"primary": false, "id": 11208, "name": "Mexican"}, {"primary": true, "id": 1722, "name": "Restaurants"}], "fax_number": null, "expansion": {"count": null, "uri": null}, "impression_id": "000b000000f820e5b60e3b408bb1901dfd2501dedc", "profile": "http://www.citysearch.com/profile/36715365/kennesaw_ga/el_maizal_tortilleria_inc.html", "address": {"city": "Kennesaw", "state": "GA", "street": "1920 Shiloh Rd NW", "postal_code": "30144"}, "capProviderId": null, "distance": null, "has_offers": false, "name": "El Maizal Tortilleria Inc", "longitude": -84.606862, "has_menu": false, "awards": null, "user_review_count": 0}, {"business_operation_status": 1, "rating": null, "neighborhood": null, "image": null, "scorecard": null, "featured": false, "sample_categories": "Restaurants", "public_id": "kennesaw-thai-kennesaw", "id": 608222434, "votes": null, "tagline": null, "has_video": false, "website": null, "offers": null, "latitude": 34.020591, "politanName": "Atlanta, GA Metro ", "phone_number": "6783311988", "tags": [{"primary": true, "id": 1722, "name": "Restaurants"}], "fax_number": null, "expansion": {"count": null, "uri": null}, "impression_id": "000b000000b505e7d0a8b84c8d80a896e9dc7c4648", "profile": "http://www.citysearch.com/profile/608222434/kennesaw_ga/kennesaw_thai.html", "address": {"city": "Kennesaw", "state": "GA", "street": "2754 S Main Street", "postal_code": "30144"}, "capProviderId": null, "distance": null, "has_offers": false, "name": "Kennesaw Thai", "longitude": -84.612586, "has_menu": true, "awards": null, "user_review_count": 1}, {"business_operation_status": 1, "rating": null, "neighborhood": null, "image": null, "scorecard": null, "featured": false, "sample_categories": "Barbecue Restaurants", "public_id": "apple-two-peach-barbecue-marietta", "id": 614162144, "votes": null, "tagline": null, "has_video": false, "website": null, "offers": null, "latitude": 33.936816, "politanName": "Atlanta, GA Metro ", "phone_number": "7706756411", "tags": [{"primary": true, "id": 1724, "name": "Barbecue Restaurants"}], "fax_number": null, "expansion": {"count": null, "uri": null}, "impression_id": "000b0000005c7c36a4fea54abfa0165a4946ce30ca", "profile": "http://www.citysearch.com/profile/614162144/marietta_ga/apple_two_peach_barbecue.html", "address": {"city": "Marietta", "state": "GA", "street": "680 Powder Springs St", "postal_code": "30064"}, "capProviderId": null, "distance": null, "has_offers": false, "name": "Apple Two Peach Barbecue", "longitude": -84.557309, "has_menu": false, "awards": null, "user_review_count": 0}, {"business_operation_status": 1, "rating": null, "neighborhood": null, "image": null, "scorecard": null, "featured": false, "sample_categories": "Grocery Stores, Bakeries, Delis And Delicatessens, Florists, Department Stores", "public_id": "kroger-deli-marietta", "id": 621968220, "votes": null, "tagline": null, "has_video": false, "website": "http://www.citysearch.com/profile/external/621968220/marietta_ga/kroger_deli.html", "offers": null, "latitude": 34.038928, "politanName": "Atlanta, GA Metro ", "phone_number": "7709247930", "tags": [{"primary": false, "id": 1685, "name": "Bakeries"}, {"primary": false, "id": 1727, "name": "Delis And Delicatessens"}, {"primary": false, "id": 3921, "name": "Florists"}, {"primary": false, "id": 3924, "name": "Department Stores"}, {"primary": true, "id": 1713, "name": "Grocery Stores"}], "fax_number": null, "expansion": {"count": null, "uri": null}, "impression_id": "000b000000d1d1e9fdc84a4c678dbb0afa52f79e7b", "profile": "http://www.citysearch.com/profile/621968220/marietta_ga/kroger_deli.html", "address": {"city": "Marietta", "state": "GA", "street": "3595 Canton Rd # B", "postal_code": "30066"}, "capProviderId": null, "distance": null, "has_offers": false, "name": "Kroger Deli", "longitude": -84.530249, "has_menu": false, "awards": null, "user_review_count": 0}, {"business_operation_status": 1, "rating": null, "neighborhood": null, "image": null, "scorecard": null, "featured": false, "sample_categories": "Restaurants", "public_id": "tme-enterprises-iltd-marietta", "id": 631965290, "votes": null, "tagline": null, "has_video": false, "website": "http://www.citysearch.com/profile/external/631965290/marietta_ga/tme_enterprises_iltd.html", "offers": null, "latitude": 33.968631, "politanName": "Atlanta, GA Metro ", "phone_number": "7705652095", "tags": [{"primary": true, "id": 1722, "name": "Restaurants"}], "fax_number": null, "expansion": {"count": null, "uri": null}, "impression_id": "000b000000d7e38f3e1d534c50ac216918516e4313", "profile": "http://www.citysearch.com/profile/631965290/marietta_ga/tme_enterprises_iltd.html", "address": {"city": "Marietta", "state": "GA", "street": "2169 Roswell Rd", "postal_code": "30062"}, "capProviderId": null, "distance": null, "has_offers": false, "name": "Tme Enterprises Iltd", "longitude": -84.489815, "has_menu": false, "awards": null, "user_review_count": 0}, {"business_operation_status": 1, "rating": null, "neighborhood": null, "image": null, "scorecard": null, "featured": false, "sample_categories": "Restaurants, Food Service Management", "public_id": "eurest-dining-svc-marietta", "id": 632989390, "votes": null, "tagline": null, "has_video": false, "website": "http://www.citysearch.com/profile/external/632989390/marietta_ga/eurest_dining_svc.html", "offers": null, "latitude": 33.929162, "politanName": "Atlanta, GA Metro ", "phone_number": "7706443211", "tags": [{"primary": false, "id": 11120, "name": "Food Service Management"}, {"primary": true, "id": 1722, "name": "Restaurants"}], "fax_number": null, "expansion": {"count": null, "uri": null}, "impression_id": "000b0000009a82cb79620c4543b8abcb615c75cd74", "profile": "http://www.citysearch.com/profile/632989390/marietta_ga/eurest_dining_svc.html", "address": {"city": "Marietta", "state": "GA", "street": "814 Livingston Ct Se", "postal_code": "30067"}, "capProviderId": null, "distance": null, "has_offers": false, "name": "Eurest Dining Svc", "longitude": -84.499949, "has_menu": false, "awards": null, "user_review_count": 0}, {"business_operation_status": 1, "rating": null, "neighborhood": null, "image": null, "scorecard": null, "featured": false, "sample_categories": "Restaurants, Shop Online", "public_id": "freshnfit-marietta", "id": 621924400, "votes": null, "tagline": null, "has_video": false, "website": null, "offers": null, "latitude": 33.974036, "politanName": "Atlanta, GA Metro ", "phone_number": "7705092232", "tags": [{"primary": false, "id": 11375, "name": "Shop Online"}, {"primary": true, "id": 1722, "name": "Restaurants"}], "fax_number": null, "expansion": {"count": null, "uri": null}, "impression_id": "000b000000a907c9d0a4ae415aa4a60d1769de17f3", "profile": "http://www.citysearch.com/profile/621924400/marietta_ga/fresh_n_fit.html", "address": {"city": "Marietta", "state": "GA", "street": "2265 Roswell Rd", "postal_code": "30062"}, "capProviderId": null, "distance": null, "has_offers": false, "name": "Fresh-N-Fit", "longitude": -84.485346, "has_menu": false, "awards": null, "user_review_count": 0}, {"business_operation_status": 1, "rating": null, "neighborhood": null, "image": null, "scorecard": null, "featured": false, "sample_categories": "Restaurants, Carry Out", "public_id": "panera-bread-kennesaw-3", "id": 621013304, "votes": null, "tagline": null, "has_video": false, "website": "http://www.citysearch.com/profile/external/621013304/kennesaw_ga/panera_bread.html", "offers": null, "latitude": 34.016149, "politanName": "Atlanta, GA Metro ", "phone_number": "7704851240", "tags": [{"primary": false, "id": 11247, "name": "Carry Out"}, {"primary": true, "id": 1722, "name": "Restaurants"}], "fax_number": null, "expansion": {"count": null, "uri": null}, "impression_id": "000b000000f9dd3dc6b2b74bf2bff5136c9a008a67", "profile": "http://www.citysearch.com/profile/621013304/kennesaw_ga/panera_bread.html", "address": {"city": "Kennesaw", "state": "GA", "street": "3629 Hollyhock Way NW", "postal_code": "30152"}, "capProviderId": null, "distance": null, "has_offers": false, "name": "Panera Bread", "longitude": -84.658211, "has_menu": false, "awards": null, "user_review_count": 0}, {"business_operation_status": 1, "rating": null, "neighborhood": null, "image": null, "scorecard": null, "featured": false, "sample_categories": "Restaurants, Eclectic & International", "public_id": "presto-latin-intl-cuisine-marietta", "id": 751337040, "votes": null, "tagline": null, "has_video": false, "website": null, "offers": null, "latitude": 33.951043, "politanName": "Atlanta, GA Metro ", "phone_number": "7709731280", "tags": [{"primary": false, "id": 11259, "name": "Eclectic & International"}, {"primary": true, "id": 1722, "name": "Restaurants"}], "fax_number": null, "expansion": {"count": null, "uri": null}, "impression_id": "000b0000004e1bd30d10c54a0da093588fbc004edb", "profile": "http://www.citysearch.com/profile/751337040/marietta_ga/presto_latin_intl_cuisine.html", "address": {"city": "Marietta", "state": "GA", "street": "1157 Roswell Rd", "postal_code": "30062"}, "capProviderId": null, "distance": null, "has_offers": false, "name": "Presto Latin & Intl Cuisine", "longitude": -84.517842, "has_menu": false, "awards": null, "user_review_count": 0}, {"business_operation_status": 0, "rating": null, "neighborhood": null, "image": null, "scorecard": null, "featured": false, "sample_categories": "Restaurants, Carry Out", "public_id": "cheesecake-factory-marietta", "id": 739060620, "votes": null, "tagline": null, "has_video": false, "website": null, "offers": null, "latitude": 33.879177, "politanName": "Atlanta, GA Metro ", "phone_number": "7704371190", "tags": [{"primary": false, "id": 11247, "name": "Carry Out"}, {"primary": true, "id": 1722, "name": "Restaurants"}], "fax_number": null, "expansion": {"count": null, "uri": null}, "impression_id": "000b000000da3c43fadb1d419699e34a5b362e3b1d", "profile": "http://www.citysearch.com/profile/739060620/marietta_ga/cheesecake_factory.html", "address": {"city": "Marietta", "state": "GA", "street": "1562 Milford Creek Ln SW", "postal_code": "30008"}, "capProviderId": null, "distance": null, "has_offers": false, "name": "Cheesecake Factory", "longitude": -84.599961, "has_menu": false, "awards": null, "user_review_count": 0}, {"business_operation_status": 1, "rating": null, "neighborhood": null, "image": null, "scorecard": null, "featured": false, "sample_categories": "Restaurants, Delis And Delicatessens, Sandwich Shops, Carry Out, Food Delivery", "public_id": "subway-kennesaw-9", "id": 764838880, "votes": null, "tagline": null, "has_video": false, "website": "http://www.citysearch.com/profile/external/764838880/kennesaw_ga/subway.html", "offers": null, "latitude": 33.992719, "politanName": "Atlanta, GA Metro ", "phone_number": "6783248948", "tags": [{"primary": false, "id": 1727, "name": "Delis And Delicatessens"}, {"primary": false, "id": 1736, "name": "Sandwich Shops"}, {"primary": false, "id": 11247, "name": "Carry Out"}, {"primary": false, "id": 11267, "name": "Food Delivery"}, {"primary": true, "id": 1722, "name": "Restaurants"}], "fax_number": null, "expansion": {"count": null, "uri": null}, "impression_id": "000b000000d7e9df9d1895459fb5151f3d8f51f49e", "profile": "http://www.citysearch.com/profile/764838880/kennesaw_ga/subway.html", "address": {"city": "Kennesaw", "state": "GA", "street": "1600 Kennesaw Due West Rd NW", "postal_code": "30152"}, "capProviderId": null, "distance": null, "has_offers": false, "name": "SUBWAY", "longitude": -84.627117, "has_menu": false, "awards": null, "user_review_count": 0}, {"business_operation_status": 1, "rating": null, "neighborhood": null, "image": null, "scorecard": null, "featured": false, "sample_categories": "Catering, Restaurants, Cafes", "public_id": "yeon-ahn-inc-atlanta", "id": 754863130, "votes": null, "tagline": null, "has_video": false, "website": null, "offers": null, "latitude": 33.90496, "politanName": "Atlanta, GA Metro ", "phone_number": "7705410057", "tags": [{"primary": false, "id": 1722, "name": "Restaurants"}, {"primary": false, "id": 6190, "name": "Cafes"}, {"primary": true, "id": 1705, "name": "Catering"}], "fax_number": null, "expansion": {"count": null, "uri": null}, "impression_id": "000b000000d53a29d32e2f49d5b960ffa1d974415b", "profile": "http://www.citysearch.com/profile/754863130/atlanta_ga/yeon_ahn_inc.html", "address": {"city": "Atlanta", "state": "GA", "street": "2100 Riveredge Pkwy NW # C1", "postal_code": "30328"}, "capProviderId": null, "distance": null, "has_offers": false, "name": "Yeon Ahn Inc", "longitude": -84.439737, "has_menu": false, "awards": null, "user_review_count": 0}, {"business_operation_status": 1, "rating": null, "neighborhood": null, "image": null, "scorecard": null, "featured": false, "sample_categories": "Restaurants", "public_id": "pearls-country-kitchen-mableton", "id": 777716180, "votes": null, "tagline": null, "has_video": false, "website": null, "offers": null, "latitude": 33.817665, "politanName": "Atlanta, GA Metro ", "phone_number": "7707398739", "tags": [{"primary": true, "id": 1722, "name": "Restaurants"}], "fax_number": null, "expansion": {"count": null, "uri": null}, "impression_id": "000b000000d529a970b1a64978b3cbf5aef05c44ea", "profile": "http://www.citysearch.com/profile/777716180/mableton_ga/pearl_s_country_kitchen.html", "address": {"city": "Mableton", "state": "GA", "street": "1129 Veterans Memorial Hwy Sw", "postal_code": "30126"}, "capProviderId": null, "distance": null, "has_offers": false, "name": "Pearl's Country Kitchen", "longitude": -84.58707, "has_menu": false, "awards": null, "user_review_count": 2}, {"business_operation_status": 1, "rating": null, "neighborhood": null, "image": null, "scorecard": null, "featured": false, "sample_categories": "Restaurants", "public_id": "pmtd-restaurants-llc-marietta", "id": 775223360, "votes": null, "tagline": null, "has_video": false, "website": null, "offers": null, "latitude": 33.978517, "politanName": "Atlanta, GA Metro ", "phone_number": "7705788749", "tags": [{"primary": true, "id": 1722, "name": "Restaurants"}], "fax_number": null, "expansion": {"count": null, "uri": null}, "impression_id": "000b000000e58b1ac019544a7cbebc5a3f0e28499a", "profile": "http://www.citysearch.com/profile/775223360/marietta_ga/pmtd_restaurants_llc.html", "address": {"city": "Marietta", "state": "GA", "street": "3901 Roswell Rd # 315", "postal_code": "30062"}, "capProviderId": null, "distance": null, "has_offers": false, "name": "Pmtd Restaurants LLC", "longitude": -84.438044, "has_menu": false, "awards": null, "user_review_count": 0}, {"business_operation_status": 1, "rating": null, "neighborhood": null, "image": null, "scorecard": null, "featured": false, "sample_categories": "Restaurants, Delis And Delicatessens, Carry Out, American Express, Debit Card", "public_id": "panera-bread-kennesaw-2", "id": 779662590, "votes": null, "tagline": null, "has_video": false, "website": "http://www.citysearch.com/profile/external/779662590/kennesaw_ga/panera_bread.html", "offers": null, "latitude": 34.003608, "politanName": "Atlanta, GA Metro ", "phone_number": "7707992750", "tags": [{"primary": false, "id": 1727, "name": "Delis And Delicatessens"}, {"primary": false, "id": 11247, "name": "Carry Out"}, {"primary": false, "id": 11333, "name": "American Express"}, {"primary": false, "id": 11347, "name": "Debit Card"}, {"primary": false, "id": 11349, "name": "Discover"}, {"primary": false, "id": 11361, "name": "MasterCard"}, {"primary": false, "id": 11382, "name": "Visa"}, {"primary": true, "id": 1722, "name": "Restaurants"}], "fax_number": null, "expansion": {"count": null, "uri": null}, "impression_id": "000b000000113f3e0f3a8d4105b119a44cc61aa00f", "profile": "http://www.citysearch.com/profile/779662590/kennesaw_ga/panera_bread.html", "address": {"city": "Kennesaw", "state": "GA", "street": "964 Ernest W Barrett Pkwy NW", "postal_code": "30144"}, "capProviderId": null, "distance": null, "has_offers": false, "name": "Panera Bread", "longitude": -84.580197, "has_menu": false, "awards": null, "user_review_count": 0}, {"business_operation_status": 1, "rating": null, "neighborhood": null, "image": null, "scorecard": null, "featured": false, "sample_categories": "Restaurants", "public_id": "hot-skillet-marietta", "id": 798833310, "votes": null, "tagline": null, "has_video": false, "website": null, "offers": null, "latitude": 33.883313, "politanName": "Atlanta, GA Metro ", "phone_number": "4043746897", "tags": [{"primary": true, "id": 1722, "name": "Restaurants"}], "fax_number": null, "expansion": {"count": null, "uri": null}, "impression_id": "000b000000627515f473614c878ae336d741fff01a", "profile": "http://www.citysearch.com/profile/798833310/marietta_ga/hot_skillet.html", "address": {"city": "Marietta", "state": "GA", "street": "2200 Powder Springs Rd Sw", "postal_code": "30064"}, "capProviderId": null, "distance": null, "has_offers": false, "name": "Hot Skillet", "longitude": -84.620092, "has_menu": false, "awards": null, "user_review_count": 0}, {"business_operation_status": 1, "rating": null, "neighborhood": null, "image": null, "scorecard": null, "featured": false, "sample_categories": "Restaurants", "public_id": "loya-soriano-llc-marietta", "id": 790674770, "votes": null, "tagline": null, "has_video": false, "website": null, "offers": null, "latitude": 33.904705, "politanName": "Atlanta, GA Metro ", "phone_number": "7704348888", "tags": [{"primary": true, "id": 1722, "name": "Restaurants"}], "fax_number": null, "expansion": {"count": null, "uri": null}, "impression_id": "000b00000068cef6e1480a4261a5b4c07be53f4b15", "profile": "http://www.citysearch.com/profile/790674770/marietta_ga/loya_soriano_llc.html", "address": {"city": "Marietta", "state": "GA", "street": "2359 Windy Hill Rd Se # 340", "postal_code": "30067"}, "capProviderId": null, "distance": null, "has_offers": false, "name": "Loya Soriano LLC", "longitude": -84.484545, "has_menu": false, "awards": null, "user_review_count": 0}, {"business_operation_status": 1, "rating": null, "neighborhood": null, "image": null, "scorecard": null, "featured": false, "sample_categories": "Restaurants, Catering", "public_id": "corner-cafe-atlanta-3", "id": 790747850, "votes": null, "tagline": null, "has_video": false, "website": null, "offers": null, "latitude": 33.909561, "politanName": "Atlanta, GA Metro ", "phone_number": "7705410057", "tags": [{"primary": false, "id": 1705, "name": "Catering"}, {"primary": true, "id": 1722, "name": "Restaurants"}], "fax_number": null, "expansion": {"count": null, "uri": null}, "impression_id": "000b000000665cf10aefb448e98cb8e11b4fd44ded", "profile": "http://www.citysearch.com/profile/790747850/atlanta_ga/corner_cafe.html", "address": {"city": "Atlanta", "state": "GA", "street": "2100 Riveredge Pkwy # C1", "postal_code": "30328"}, "capProviderId": null, "distance": null, "has_offers": false, "name": "Corner Cafe", "longitude": -84.44041, "has_menu": true, "awards": null, "user_review_count": 0}, {"business_operation_status": 1, "rating": null, "neighborhood": null, "image": null, "scorecard": null, "featured": false, "sample_categories": "Restaurants, Bakeries", "public_id": "brooklyn-water-bagels-atlanta", "id": 790809680, "votes": null, "tagline": null, "has_video": false, "website": null, "offers": null, "latitude": 33.883196, "politanName": "Atlanta, GA Metro ", "phone_number": "7709889991", "tags": [{"primary": false, "id": 1685, "name": "Bakeries"}, {"primary": true, "id": 1722, "name": "Restaurants"}], "fax_number": null, "expansion": {"count": null, "uri": null}, "impression_id": "000b00000079d2420a3f9348adad1ed6f81cc8cfb3", "profile": "http://www.citysearch.com/profile/790809680/atlanta_ga/brooklyn_water_bagels.html", "address": {"city": "Atlanta", "state": "GA", "street": "2955 Cobb Pkwy Se # 240", "postal_code": "30339"}, "capProviderId": null, "distance": null, "has_offers": false, "name": "Brooklyn Water Bagels", "longitude": -84.461616, "has_menu": false, "awards": null, "user_review_count": 0}, {"business_operation_status": 1, "rating": 6.0, "neighborhood": null, "image": null, "scorecard": null, "featured": false, "sample_categories": "Restaurants", "public_id": "daabha-indian-cafe-smyrna", "id": 35682006, "votes": null, "tagline": null, "has_video": false, "website": null, "offers": null, "latitude": 33.885315, "politanName": "Atlanta, GA Metro ", "phone_number": "7704440940", "tags": [{"primary": true, "id": 1722, "name": "Restaurants"}], "fax_number": null, "expansion": {"count": null, "uri": null}, "impression_id": "000b000000525f296a6d5145b6bd55166e714f1a4b", "profile": "http://www.citysearch.com/profile/35682006/smyrna_ga/daabha_indian_cafe.html", "address": {"city": "Smyrna", "state": "GA", "street": "2772 Cumberland Blvd SE", "postal_code": "30080"}, "capProviderId": null, "distance": null, "has_offers": false, "name": "Daabha Indian Cafe", "longitude": -84.476776, "has_menu": false, "awards": null, "user_review_count": 1}, {"business_operation_status": 1, "rating": null, "neighborhood": null, "image": null, "scorecard": null, "featured": false, "sample_categories": "Restaurants", "public_id": "nuccis-italian-ice-gelato-marietta", "id": 810739460, "votes": null, "tagline": null, "has_video": false, "website": null, "offers": null, "latitude": 33.976739, "politanName": "Atlanta, GA Metro ", "phone_number": "7703210954", "tags": [{"primary": true, "id": 1722, "name": "Restaurants"}], "fax_number": null, "expansion": {"count": null, "uri": null}, "impression_id": "000b000000255242c5956443dab23c27f4c66b0697", "profile": "http://www.citysearch.com/profile/810739460/marietta_ga/nucci_s_italian_ice_gelato.html", "address": {"city": "Marietta", "state": "GA", "street": "1050 E Piedmont Rd # 146", "postal_code": "30062"}, "capProviderId": null, "distance": null, "has_offers": false, "name": "Nucci's Italian Ice & Gelato", "longitude": -84.479676, "has_menu": true, "awards": null, "user_review_count": 1}, {"business_operation_status": 1, "rating": null, "neighborhood": null, "image": null, "scorecard": null, "featured": false, "sample_categories": "Coffeehouses", "public_id": "java-juice-smoothie-co-kennesaw", "id": 807031020, "votes": null, "tagline": null, "has_video": false, "website": null, "offers": null, "latitude": 34.010391, "politanName": "Atlanta, GA Metro ", "phone_number": "7704999306", "tags": [{"primary": true, "id": 1726, "name": "Coffeehouses"}], "fax_number": null, "expansion": {"count": null, "uri": null}, "impression_id": "000b000000143ee63df9be4a1a9e0ef564d6622b66", "profile": "http://www.citysearch.com/profile/807031020/kennesaw_ga/java_juice_smoothie_co.html", "address": {"city": "Kennesaw", "state": "GA", "street": "501 Roberts CT NW", "postal_code": "30144"}, "capProviderId": null, "distance": null, "has_offers": false, "name": "Java & Juice Smoothie Co", "longitude": -84.563237, "has_menu": false, "awards": null, "user_review_count": 0}, {"business_operation_status": 1, "rating": null, "neighborhood": null, "image": null, "scorecard": null, "featured": false, "sample_categories": "Restaurants", "public_id": "cancun-seafood-restaurant-smyrna", "id": 807595980, "votes": null, "tagline": null, "has_video": false, "website": null, "offers": null, "latitude": 33.894868, "politanName": "Atlanta, GA Metro ", "phone_number": "7704360565", "tags": [{"primary": true, "id": 1722, "name": "Restaurants"}], "fax_number": null, "expansion": {"count": null, "uri": null}, "impression_id": "000b0000002fafc7f96c5c441a937d34e1da5ffa36", "profile": "http://www.citysearch.com/profile/807595980/smyrna_ga/cancun_seafood_restaurant.html", "address": {"city": "Smyrna", "state": "GA", "street": "1005 Windy Hill Rd SE", "postal_code": "30080"}, "capProviderId": null, "distance": null, "has_offers": false, "name": "Cancun Seafood Restaurant", "longitude": -84.523746, "has_menu": false, "awards": null, "user_review_count": 0}, {"business_operation_status": 1, "rating": null, "neighborhood": null, "image": null, "scorecard": null, "featured": false, "sample_categories": "Restaurants, Carry Out", "public_id": "atlanta-bread-co-marietta-4", "id": 825753830, "votes": null, "tagline": null, "has_video": false, "website": null, "offers": null, "latitude": 33.948083, "politanName": "Atlanta, GA Metro ", "phone_number": "7704250442", "tags": [{"primary": false, "id": 11247, "name": "Carry Out"}, {"primary": true, "id": 1722, "name": "Restaurants"}], "fax_number": null, "expansion": {"count": null, "uri": null}, "impression_id": "000b000000793c23c3f63c4cbcbd6c1e299c8084a6", "profile": "http://www.citysearch.com/profile/825753830/marietta_ga/atlanta_bread_co.html", "address": {"city": "Marietta", "state": "GA", "street": "245 Rdgeway Rd NW Ste 200", "postal_code": "30064"}, "capProviderId": null, "distance": null, "has_offers": false, "name": "Atlanta Bread Co", "longitude": -84.626672, "has_menu": false, "awards": null, "user_review_count": 0}, {"business_operation_status": 1, "rating": null, "neighborhood": null, "image": null, "scorecard": null, "featured": false, "sample_categories": "Restaurants", "public_id": "ocharleys-regional-office-marietta", "id": 826459340, "votes": null, "tagline": null, "has_video": false, "website": null, "offers": null, "latitude": 34.009709, "politanName": "Atlanta, GA Metro ", "phone_number": "7705098868", "tags": [{"primary": true, "id": 1722, "name": "Restaurants"}], "fax_number": null, "expansion": {"count": null, "uri": null}, "impression_id": "000b00000039b87d8bd7db4392abac214992d20cb9", "profile": "http://www.citysearch.com/profile/826459340/marietta_ga/o_charley_s_regional_office.html", "address": {"city": "Marietta", "state": "GA", "street": "2440 Sandy Plains Rd", "postal_code": "30066"}, "capProviderId": null, "distance": null, "has_offers": false, "name": "O'Charley's Regional Office", "longitude": -84.496627, "has_menu": true, "awards": null, "user_review_count": 0}, {"business_operation_status": 1, "rating": null, "neighborhood": null, "image": null, "scorecard": null, "featured": false, "sample_categories": "Restaurants", "public_id": "taqueria-tecolotes-marietta", "id": 826288150, "votes": null, "tagline": null, "has_video": false, "website": null, "offers": null, "latitude": 34.048278, "politanName": "Atlanta, GA Metro ", "phone_number": "7705921277", "tags": [{"primary": true, "id": 1722, "name": "Restaurants"}], "fax_number": null, "expansion": {"count": null, "uri": null}, "impression_id": "000b0000004e6feba9ecd143559cb63836984db9c1", "profile": "http://www.citysearch.com/profile/826288150/marietta_ga/taqueria_tecolotes.html", "address": {"city": "Marietta", "state": "GA", "street": "4017 Canton Rd", "postal_code": "30066"}, "capProviderId": null, "distance": null, "has_offers": false, "name": "Taqueria Tecolotes", "longitude": -84.52851, "has_menu": false, "awards": null, "user_review_count": 0}, {"business_operation_status": 1, "rating": null, "neighborhood": null, "image": null, "scorecard": null, "featured": false, "sample_categories": "Ice Cream Parlors", "public_id": "eatin-ice-cream-daily-inc-kennesaw", "id": 826821860, "votes": null, "tagline": null, "has_video": false, "website": null, "offers": null, "latitude": 34.023018, "politanName": "Atlanta, GA Metro ", "phone_number": "7704275378", "tags": [{"primary": true, "id": 1730, "name": "Ice Cream Parlors"}], "fax_number": null, "expansion": {"count": null, "uri": null}, "impression_id": "000b000000d5e34a653c5947e99b96e10eec00ec77", "profile": "http://www.citysearch.com/profile/826821860/kennesaw_ga/eatin_ice_cream_daily_inc.html", "address": {"city": "Kennesaw", "state": "GA", "street": "2847 S Main St NW", "postal_code": "30144"}, "capProviderId": null, "distance": null, "has_offers": false, "name": "Eatin Ice Cream Daily Inc", "longitude": -84.615298, "has_menu": false, "awards": null, "user_review_count": 0}, {"business_operation_status": 1, "rating": null, "neighborhood": null, "image": null, "scorecard": null, "featured": false, "sample_categories": "Restaurants", "public_id": "philly-connection-marietta-5", "id": 833997530, "votes": null, "tagline": null, "has_video": false, "website": null, "offers": null, "latitude": 34.037983, "politanName": "Atlanta, GA Metro ", "phone_number": "7709263120", "tags": [{"primary": true, "id": 1722, "name": "Restaurants"}], "fax_number": null, "expansion": {"count": null, "uri": null}, "impression_id": "000b0000004840710544ab483ba621a7d267f8cf8b", "profile": "http://www.citysearch.com/profile/833997530/marietta_ga/philly_connection.html", "address": {"city": "Marietta", "state": "GA", "street": "3545 Canton Rd", "postal_code": "30066"}, "capProviderId": null, "distance": null, "has_offers": false, "name": "Philly Connection", "longitude": -84.528616, "has_menu": true, "awards": null, "user_review_count": 0}, {"business_operation_status": 1, "rating": null, "neighborhood": null, "image": null, "scorecard": null, "featured": false, "sample_categories": "Restaurants, Jamaican", "public_id": "jamaican-restaurant-cntrystyl-marietta", "id": 775206370, "votes": null, "tagline": null, "has_video": false, "website": null, "offers": null, "latitude": 34.032429, "politanName": "Atlanta, GA Metro ", "phone_number": "7704251004", "tags": [{"primary": false, "id": 11193, "name": "Jamaican"}, {"primary": true, "id": 1722, "name": "Restaurants"}], "fax_number": null, "expansion": {"count": null, "uri": null}, "impression_id": "000b00000036693d565b10429789cfb9e862efdbf5", "profile": "http://www.citysearch.com/profile/775206370/marietta_ga/jamaican_restaurant_cntrystyl.html", "address": {"city": "Marietta", "state": "GA", "street": "3349 Canton Rd", "postal_code": "30066"}, "capProviderId": null, "distance": null, "has_offers": false, "name": "Jamaican Restaurant Cntrystyl", "longitude": -84.528135, "has_menu": false, "awards": null, "user_review_count": 0}, {"business_operation_status": 1, "rating": null, "neighborhood": null, "image": null, "scorecard": null, "featured": false, "sample_categories": "Restaurants, Mexican", "public_id": "los-cabos-mexican-restaurant-kennesaw", "id": 777728160, "votes": null, "tagline": null, "has_video": false, "website": null, "offers": null, "latitude": 34.014676, "politanName": "Atlanta, GA Metro ", "phone_number": "7705909742", "tags": [{"primary": false, "id": 11208, "name": "Mexican"}, {"primary": true, "id": 1722, "name": "Restaurants"}], "fax_number": null, "expansion": {"count": null, "uri": null}, "impression_id": "000b0000008da22ce31bd74d1cbac32d10200f2304", "profile": "http://www.citysearch.com/profile/777728160/kennesaw_ga/los_cabos_mexican_restaurant.html", "address": {"city": "Kennesaw", "state": "GA", "street": "2500 Cobb Pkwy NW # B3", "postal_code": "30152"}, "capProviderId": null, "distance": null, "has_offers": false, "name": "Los Cabos Mexican Restaurant", "longitude": -84.614309, "has_menu": false, "awards": null, "user_review_count": 3}, {"business_operation_status": 1, "rating": null, "neighborhood": null, "image": null, "scorecard": null, "featured": false, "sample_categories": "Restaurants, Mexican", "public_id": "las-tortas-smyrna", "id": 36642548, "votes": null, "tagline": null, "has_video": false, "website": null, "offers": null, "latitude": 33.894337, "politanName": "Atlanta, GA Metro ", "phone_number": "7708050304", "tags": [{"primary": false, "id": 11208, "name": "Mexican"}, {"primary": true, "id": 1722, "name": "Restaurants"}], "fax_number": null, "expansion": {"count": null, "uri": null}, "impression_id": "000b0000003ea430ffd9324ad1aa31d4088daef306", "profile": "http://www.citysearch.com/profile/36642548/smyrna_ga/las_tortas.html", "address": {"city": "Smyrna", "state": "GA", "street": "1026 Windy Hill Rd SE", "postal_code": "30080"}, "capProviderId": null, "distance": null, "has_offers": false, "name": "Las Tortas", "longitude": -84.523128, "has_menu": false, "awards": null, "user_review_count": 0}, {"business_operation_status": 1, "rating": null, "neighborhood": null, "image": null, "scorecard": null, "featured": false, "sample_categories": "Coffeehouses", "public_id": "barista-express-gourmet-coffee-atlanta", "id": 802523940, "votes": null, "tagline": null, "has_video": false, "website": null, "offers": null, "latitude": 33.886437, "politanName": "Atlanta, GA Metro ", "phone_number": "4046971006", "tags": [{"primary": true, "id": 1726, "name": "Coffeehouses"}], "fax_number": null, "expansion": {"count": null, "uri": null}, "impression_id": "000b00000010da476c4e6c4d8babaca6f89b153dc0", "profile": "http://www.citysearch.com/profile/802523940/atlanta_ga/barista_express_gourmet_coffee.html", "address": {"city": "Atlanta", "state": "GA", "street": "4756 Woodvale Dr", "postal_code": "30327"}, "capProviderId": null, "distance": null, "has_offers": false, "name": "Barista Express Gourmet Coffee", "longitude": -84.421372, "has_menu": false, "awards": null, "user_review_count": 0}, {"business_operation_status": 1, "rating": null, "neighborhood": null, "image": null, "scorecard": null, "featured": false, "sample_categories": "Restaurants, Pizza, American Express, Discover, MasterCard", "public_id": "pizza-more-marietta", "id": 601298901, "votes": null, "tagline": null, "has_video": false, "website": null, "offers": null, "latitude": 33.90778, "politanName": "Atlanta, GA Metro ", "phone_number": "7706122922", "tags": [{"primary": false, "id": 1722, "name": "Restaurants"}, {"primary": false, "id": 11333, "name": "American Express"}, {"primary": false, "id": 11349, "name": "Discover"}, {"primary": false, "id": 11361, "name": "MasterCard"}, {"primary": false, "id": 11382, "name": "Visa"}, {"primary": true, "id": 11299, "name": "Pizza"}], "fax_number": null, "expansion": {"count": null, "uri": null}, "impression_id": "000b0000006afbf43d5dda428bbfb131e39b8d8a92", "profile": "http://www.citysearch.com/profile/601298901/marietta_ga/pizza_more.html", "address": {"city": "Marietta", "state": "GA", "street": "1853 Terrell Mill Rd Se", "postal_code": "30067"}, "capProviderId": null, "distance": null, "has_offers": false, "name": "Pizza & More", "longitude": -84.487669, "has_menu": false, "awards": null, "user_review_count": 0}, {"business_operation_status": 1, "rating": null, "neighborhood": null, "image": null, "scorecard": null, "featured": false, "sample_categories": "Health Food Stores, Restaurants, Health Food Stores", "public_id": "smoothie-king-austell", "id": 601307784, "votes": null, "tagline": null, "has_video": false, "website": "http://www.citysearch.com/profile/external/601307784/austell_ga/smoothie_king.html", "offers": null, "latitude": 33.866983, "politanName": "Atlanta, GA Metro ", "phone_number": "7704395464", "tags": [{"primary": false, "id": 1722, "name": "Restaurants"}, {"primary": false, "id": 17570, "name": "Health Food Stores"}, {"primary": true, "id": 1716, "name": "Health Food Stores"}], "fax_number": null, "expansion": {"count": null, "uri": null}, "impression_id": "000b00000084c53d2d0cdd4eafb17e79a190a0905d", "profile": "http://www.citysearch.com/profile/601307784/austell_ga/smoothie_king.html", "address": {"city": "Austell", "state": "GA", "street": "2840 E West Connector 340", "postal_code": "30106"}, "capProviderId": null, "distance": null, "has_offers": false, "name": "Smoothie King", "longitude": -84.624721, "has_menu": false, "awards": null, "user_review_count": 0}, {"business_operation_status": 1, "rating": 6.0, "neighborhood": null, "image": null, "scorecard": null, "featured": false, "sample_categories": "Delis And Delicatessens", "public_id": "wildwood-cafe-atlanta", "id": 2911217, "votes": null, "tagline": null, "has_video": false, "website": null, "offers": null, "latitude": 33.906254, "politanName": "Atlanta, GA Metro ", "phone_number": "7709160069", "tags": [{"primary": true, "id": 1727, "name": "Delis And Delicatessens"}], "fax_number": null, "expansion": {"count": null, "uri": null}, "impression_id": "000b00000066782b5a373248e5aabd7cf8c86982ff", "profile": "http://www.citysearch.com/profile/2911217/atlanta_ga/wildwood_cafe.html", "address": {"city": "Atlanta", "state": "GA", "street": "2300 Windy Ridge Pkwy SE Ste 3", "postal_code": "30339"}, "capProviderId": null, "distance": null, "has_offers": false, "name": "Wildwood Cafe", "longitude": -84.460402, "has_menu": true, "awards": null, "user_review_count": 1}, {"business_operation_status": 0, "rating": null, "neighborhood": null, "image": null, "scorecard": null, "featured": false, "sample_categories": "Restaurants", "public_id": "atlanta-ribs-smyrna", "id": 672295420, "votes": null, "tagline": null, "has_video": false, "website": null, "offers": null, "latitude": 33.841827, "politanName": "Atlanta, GA Metro ", "phone_number": "7704382886", "tags": [{"primary": true, "id": 1722, "name": "Restaurants"}], "fax_number": null, "expansion": {"count": null, "uri": null}, "impression_id": "000b000000e3ab0e3b7e444c5f9f3b5a34a68980e3", "profile": "http://www.citysearch.com/profile/672295420/smyrna_ga/atlanta_ribs.html", "address": {"city": "Smyrna", "state": "GA", "street": "4624 Camp Highland Rd SE # 700", "postal_code": "30082"}, "capProviderId": null, "distance": null, "has_offers": false, "name": "Atlanta Ribs", "longitude": -84.505595, "has_menu": false, "awards": null, "user_review_count": 1}, {"business_operation_status": 1, "rating": null, "neighborhood": null, "image": null, "scorecard": null, "featured": false, "sample_categories": "Restaurants", "public_id": "cheeseburger-bobbys-marietta", "id": 672561730, "votes": null, "tagline": null, "has_video": false, "website": "http://www.citysearch.com/profile/external/672561730/marietta_ga/cheeseburger_bobby_s.html", "offers": null, "latitude": 34.013539, "politanName": "Atlanta, GA Metro ", "phone_number": "7709199110", "tags": [{"primary": true, "id": 1722, "name": "Restaurants"}], "fax_number": null, "expansion": {"count": null, "uri": null}, "impression_id": "000b00000058c4a4b220db4a699fe2d8ff05dd5481", "profile": "http://www.citysearch.com/profile/672561730/marietta_ga/cheeseburger_bobby_s.html", "address": {"city": "Marietta", "state": "GA", "street": "125 Barrett Parkway", "postal_code": "30066"}, "capProviderId": null, "distance": null, "has_offers": false, "name": "Cheeseburger Bobby's", "longitude": -84.552923, "has_menu": true, "awards": null, "user_review_count": 0}, {"business_operation_status": 1, "rating": null, "neighborhood": null, "image": null, "scorecard": null, "featured": false, "sample_categories": "Catering, Restaurants", "public_id": "sweet-art-of-cateringparkside-atlanta", "id": 3030557, "votes": null, "tagline": null, "has_video": false, "website": null, "offers": null, "latitude": 33.906442, "politanName": "Atlanta, GA Metro ", "phone_number": "7709330089", "tags": [{"primary": false, "id": 1722, "name": "Restaurants"}, {"primary": true, "id": 1705, "name": "Catering"}], "fax_number": null, "expansion": {"count": null, "uri": null}, "impression_id": "000b000000672e0a33f3f045b09d71082486137a70", "profile": "http://www.citysearch.com/profile/3030557/atlanta_ga/sweet_art_of_catering_parkside.html", "address": {"city": "Atlanta", "state": "GA", "street": "2500 Windy Rdg Pkwy SE Ste 100", "postal_code": "30339"}, "capProviderId": null, "distance": null, "has_offers": false, "name": "Sweet Art Of Catering-Parkside", "longitude": -84.46162, "has_menu": false, "awards": null, "user_review_count": 0}, {"business_operation_status": 1, "rating": null, "neighborhood": null, "image": null, "scorecard": null, "featured": false, "sample_categories": "Restaurants, Mexican, Caribbean", "public_id": "mangos-caribbean-and-mexican-cuisine-acworth", "id": 603937682, "votes": null, "tagline": null, "has_video": false, "website": null, "offers": null, "latitude": 34.06489, "politanName": "Atlanta, GA Metro ", "phone_number": "6789054714", "tags": [{"primary": false, "id": 1722, "name": "Restaurants"}, {"primary": false, "id": 11195, "name": "Caribbean"}, {"primary": true, "id": 11208, "name": "Mexican"}], "fax_number": null, "expansion": {"count": null, "uri": null}, "impression_id": "000b00000077b24343587c4975aefca2e689c621d5", "profile": "http://www.citysearch.com/profile/603937682/acworth_ga/mangos_caribbean_and_mexican_cuisine.html", "address": {"city": "Acworth", "state": "GA", "street": "2535 Hickory Grove Rd NW", "postal_code": "30101"}, "capProviderId": null, "distance": null, "has_offers": false, "name": "Mangos Caribbean and Mexican Cuisine", "longitude": -84.624038, "has_menu": false, "awards": null, "user_review_count": 0}, {"business_operation_status": 0, "rating": null, "neighborhood": null, "image": null, "scorecard": null, "featured": false, "sample_categories": "Restaurants", "public_id": "chez-carmelle-pastry-restaurant-smyrna", "id": 672394340, "votes": null, "tagline": null, "has_video": false, "website": null, "offers": null, "latitude": 33.89429, "politanName": "Atlanta, GA Metro ", "phone_number": "7704384331", "tags": [{"primary": true, "id": 1722, "name": "Restaurants"}], "fax_number": null, "expansion": {"count": null, "uri": null}, "impression_id": "000b00000052fea8a870214daab443f3b50c7c298d", "profile": "http://www.citysearch.com/profile/672394340/smyrna_ga/chez_carmelle_pastry_restaurant.html", "address": {"city": "Smyrna", "state": "GA", "street": "560 Windy Hill Rd SE", "postal_code": "30080"}, "capProviderId": null, "distance": null, "has_offers": false, "name": "Chez Carmelle Pastry Restaurant", "longitude": -84.536945, "has_menu": false, "awards": null, "user_review_count": 0}, {"business_operation_status": 1, "rating": null, "neighborhood": null, "image": null, "scorecard": null, "featured": false, "sample_categories": "Restaurants, Frozen Yogurt Shops, Yogurt Manufacturers", "public_id": "yogli-mogli-marietta-2", "id": 673019480, "votes": null, "tagline": null, "has_video": false, "website": null, "offers": null, "latitude": 33.955116, "politanName": "Atlanta, GA Metro ", "phone_number": "7704997009", "tags": [{"primary": false, "id": 1722, "name": "Restaurants"}, {"primary": false, "id": 1729, "name": "Frozen Yogurt Shops"}, {"primary": false, "id": 2342, "name": "Yogurt Manufacturers"}], "fax_number": null, "expansion": {"count": null, "uri": null}, "impression_id": "000b0000009d53c5ac0e2e47a4b940a64909b3fefd", "profile": "http://www.citysearch.com/profile/673019480/marietta_ga/yogli_mogli.html", "address": {"city": "Marietta", "state": "GA", "street": "3600 Dallas Highway", "postal_code": "30064"}, "capProviderId": null, "distance": null, "has_offers": false, "name": "Yogli Mogli", "longitude": -84.656027, "has_menu": false, "awards": null, "user_review_count": 0}, {"business_operation_status": 1, "rating": null, "neighborhood": null, "image": null, "scorecard": null, "featured": false, "sample_categories": "Restaurants, Delis And Delicatessens, Sandwich Shops, Carry Out", "public_id": "blimpie-xpress-marietta", "id": 713310460, "votes": null, "tagline": null, "has_video": false, "website": "http://www.citysearch.com/profile/external/713310460/marietta_ga/blimpie_xpress.html", "offers": null, "latitude": 33.967672, "politanName": "Atlanta, GA Metro ", "phone_number": "7709171550", "tags": [{"primary": false, "id": 1727, "name": "Delis And Delicatessens"}, {"primary": false, "id": 1736, "name": "Sandwich Shops"}, {"primary": false, "id": 11247, "name": "Carry Out"}, {"primary": true, "id": 1722, "name": "Restaurants"}], "fax_number": null, "expansion": {"count": null, "uri": null}, "impression_id": "000b00000007b05fc8f4c242c0b71cfb6ab7e1e301", "profile": "http://www.citysearch.com/profile/713310460/marietta_ga/blimpie_xpress.html", "address": {"city": "Marietta", "state": "GA", "street": "3960 Mary Eliza Trce NW", "postal_code": "30064"}, "capProviderId": null, "distance": null, "has_offers": false, "name": "Blimpie Xpress", "longitude": -84.667328, "has_menu": false, "awards": null, "user_review_count": 0}, {"business_operation_status": 1, "rating": null, "neighborhood": null, "image": null, "scorecard": null, "featured": false, "sample_categories": "Restaurants, Mexican", "public_id": "wuvm-atlanta", "id": 622267360, "votes": null, "tagline": null, "has_video": false, "website": null, "offers": null, "latitude": 33.894187, "politanName": "Atlanta, GA Metro ", "phone_number": "7706616188", "tags": [{"primary": false, "id": 11208, "name": "Mexican"}, {"primary": true, "id": 1722, "name": "Restaurants"}], "fax_number": null, "expansion": {"count": null, "uri": null}, "impression_id": "000b000000b4bc32d1f31d4d17a96e36a7b9617e7b", "profile": "http://www.citysearch.com/profile/622267360/atlanta_ga/wuvm.html", "address": {"city": "Atlanta", "state": "GA", "street": "400 Interstate North Pkwy Se", "postal_code": "30339"}, "capProviderId": null, "distance": null, "has_offers": false, "name": "Wuvm", "longitude": -84.456313, "has_menu": false, "awards": null, "user_review_count": 0}, {"business_operation_status": 1, "rating": null, "neighborhood": null, "image": null, "scorecard": null, "featured": false, "sample_categories": "Restaurants, Pizza", "public_id": "pizza-314-marietta", "id": 754799300, "votes": null, "tagline": null, "has_video": false, "website": null, "offers": null, "latitude": 34.011742, "politanName": "Atlanta, GA Metro ", "phone_number": "7709712929", "tags": [{"primary": false, "id": 11299, "name": "Pizza"}, {"primary": true, "id": 1722, "name": "Restaurants"}], "fax_number": null, "expansion": {"count": null, "uri": null}, "impression_id": "000b0000007f0d71c1ddf7496ca40593721bb34c6b", "profile": "http://www.citysearch.com/profile/754799300/marietta_ga/pizza_314.html", "address": {"city": "Marietta", "state": "GA", "street": "2550 Sandy Plains Rd", "postal_code": "30066"}, "capProviderId": null, "distance": null, "has_offers": false, "name": "Pizza 314", "longitude": -84.495056, "has_menu": false, "awards": null, "user_review_count": 0}, {"business_operation_status": 1, "rating": null, "neighborhood": null, "image": null, "scorecard": null, "featured": false, "sample_categories": "Restaurants", "public_id": "vinevera-kennesaw", "id": 793361100, "votes": null, "tagline": null, "has_video": false, "website": null, "offers": null, "latitude": 34.01771, "politanName": "Atlanta, GA Metro ", "phone_number": "7705909522", "tags": [{"primary": true, "id": 1722, "name": "Restaurants"}], "fax_number": null, "expansion": {"count": null, "uri": null}, "impression_id": "000b000000149b30a3c58f4ad990b47ed26a2aab0b", "profile": "http://www.citysearch.com/profile/793361100/kennesaw_ga/vinevera.html", "address": {"city": "Kennesaw", "state": "GA", "street": "400 Ernest W Barrett Pkwy NW", "postal_code": "30144"}, "capProviderId": null, "distance": null, "has_offers": false, "name": "Vinevera", "longitude": -84.564475, "has_menu": false, "awards": null, "user_review_count": 0}, {"business_operation_status": 1, "rating": null, "neighborhood": null, "image": null, "scorecard": null, "featured": false, "sample_categories": "Restaurants, Seafood Markets, Italian Food Products, Italian, American Express", "public_id": "mezza-luna-pasta-seafood-smyrna", "id": 801105940, "votes": null, "tagline": null, "has_video": false, "website": "http://www.citysearch.com/profile/external/801105940/smyrna_ga/mezza_luna_pasta_and_seafood.html", "offers": null, "latitude": 33.882797, "politanName": "Atlanta, GA Metro ", "phone_number": "7703190333", "tags": [{"primary": false, "id": 1719, "name": "Seafood Markets"}, {"primary": false, "id": 11154, "name": "Italian Food Products"}, {"primary": false, "id": 11279, "name": "Italian"}, {"primary": false, "id": 11333, "name": "American Express"}, {"primary": false, "id": 11347, "name": "Debit Card"}, {"primary": false, "id": 11349, "name": "Discover"}, {"primary": false, "id": 11361, "name": "MasterCard"}, {"primary": false, "id": 11382, "name": "Visa"}, {"primary": true, "id": 1722, "name": "Restaurants"}], "fax_number": null, "expansion": {"count": null, "uri": null}, "impression_id": "000b0000002ac88ce0a10d439ebd8ebe169f36ad58", "profile": "http://www.citysearch.com/profile/801105940/smyrna_ga/mezza_luna_pasta_and_seafood.html", "address": {"city": "Smyrna", "state": "GA", "street": "1669 Spring Rd SE", "postal_code": "30080"}, "capProviderId": null, "distance": null, "has_offers": false, "name": "Mezza Luna Pasta and Seafood", "longitude": -84.504883, "has_menu": false, "awards": null, "user_review_count": 0}, {"business_operation_status": 1, "rating": 10.0, "neighborhood": null, "image": null, "scorecard": null, "featured": false, "sample_categories": "Catering, Restaurants", "public_id": "a-delightful-bitefull-catering-marietta", "id": 43855795, "votes": null, "tagline": null, "has_video": false, "website": "http://www.citysearch.com/profile/external/43855795/marietta_ga/a_delightful_bitefull_catering.html", "offers": null, "latitude": 33.973087, "politanName": "Atlanta, GA Metro ", "phone_number": "7705654146", "tags": [{"primary": false, "id": 1705, "name": "Catering"}, {"primary": true, "id": 1722, "name": "Restaurants"}], "fax_number": null, "expansion": {"count": null, "uri": null}, "impression_id": "000b000000d5a97b3b9dd84462be6d77df83f1c31a", "profile": "http://www.citysearch.com/profile/43855795/marietta_ga/a_delightful_bitefull_catering.html", "address": {"city": "Marietta", "state": "GA", "street": "2235 Sewell Mill Rd", "postal_code": "30062"}, "capProviderId": null, "distance": null, "has_offers": false, "name": "A Delightful Bitefull Catering", "longitude": -84.486914, "has_menu": false, "awards": null, "user_review_count": 1}], "histograms": [], "tag_ids": [1722], "uri": "http://api.citygridmedia.com:8080/search/places/v2/search/where?has_offers=false&type=restaurant&format=json&page=31&where=30060&rpp=50&histograms=false&publisher=10000009598&region_type=circle", "did_you_mean": "", "regions": [{"latitude": 33.92521, "default_radius": 3.68, "type": "postal_code", "name": "30060", "longitude": -84.546093}], "call_id": "000b0000005c0f568e733b430e9bcdc9f02030a5a5", "first_hit": 1501, "total_hits": 2103, "geo_ids": [26291], "page": 31, "last_hit": 1550}}