{"results": {"rpp": 50, "locations": [{"business_operation_status": 1, "rating": null, "neighborhood": null, "image": null, "scorecard": null, "featured": false, "sample_categories": "Restaurants, Carry Out, Pizza", "public_id": "little-caesars-pizza-smyrna-3", "id": 787125170, "votes": null, "tagline": null, "has_video": false, "website": "http://www.citysearch.com/profile/external/787125170/smyrna_ga/little_caesars_pizza.html", "offers": null, "latitude": 33.882426, "politanName": "Atlanta, GA Metro ", "phone_number": "7709891088", "tags": [{"primary": false, "id": 11247, "name": "Carry Out"}, {"primary": false, "id": 11299, "name": "Pizza"}, {"primary": true, "id": 1722, "name": "Restaurants"}], "fax_number": null, "expansion": {"count": null, "uri": null}, "impression_id": "000b000000a88a469a3bf24994b8d3e9aee7cabf2e", "profile": "http://www.citysearch.com/profile/787125170/smyrna_ga/little_caesars_pizza.html", "address": {"city": "Smyrna", "state": "GA", "street": "2350 Spring Rd Se", "postal_code": "30080"}, "capProviderId": null, "distance": null, "has_offers": false, "name": "Little Caesars Pizza", "longitude": -84.487375, "has_menu": false, "awards": null, "user_review_count": 0}, {"business_operation_status": 1, "rating": null, "neighborhood": null, "image": null, "scorecard": null, "featured": false, "sample_categories": "Ice Cream Parlors", "public_id": "marble-slab-creamery-kennesaw", "id": 829114200, "votes": null, "tagline": null, "has_video": false, "website": "http://www.citysearch.com/profile/external/829114200/kennesaw_ga/marble_slab_creamery.html", "offers": null, "latitude": 34.012738, "politanName": "Atlanta, GA Metro ", "phone_number": "6783555424", "tags": [{"primary": true, "id": 1730, "name": "Ice Cream Parlors"}], "fax_number": null, "expansion": {"count": null, "uri": null}, "impression_id": "000b0000007fb427dff3724977a4351f258a0be5df", "profile": "http://www.citysearch.com/profile/829114200/kennesaw_ga/marble_slab_creamery.html", "address": {"city": "Kennesaw", "state": "GA", "street": "440 Ernest W Barrett Pkwy NW", "postal_code": "30144"}, "capProviderId": null, "distance": null, "has_offers": false, "name": "Marble Slab Creamery", "longitude": -84.5643, "has_menu": true, "awards": null, "user_review_count": 0}, {"business_operation_status": 1, "rating": null, "neighborhood": null, "image": null, "scorecard": null, "featured": false, "sample_categories": "Restaurants, Pizza", "public_id": "pizza-n-beyond-kennesaw", "id": 798806950, "votes": null, "tagline": null, "has_video": false, "website": "http://www.citysearch.com/profile/external/798806950/kennesaw_ga/pizza_n_beyond.html", "offers": null, "latitude": 34.018008, "politanName": "Atlanta, GA Metro ", "phone_number": "7706756108", "tags": [{"primary": false, "id": 1722, "name": "Restaurants"}, {"primary": true, "id": 11299, "name": "Pizza"}], "fax_number": null, "expansion": {"count": null, "uri": null}, "impression_id": "000b0000007fb46150ec1d410d9f781d45b9b476e7", "profile": "http://www.citysearch.com/profile/798806950/kennesaw_ga/pizza_n_beyond.html", "address": {"city": "Kennesaw", "state": "GA", "street": "2655 Cobb Pkwy NW", "postal_code": "30152"}, "capProviderId": null, "distance": null, "has_offers": false, "name": "Pizza N Beyond", "longitude": -84.619527, "has_menu": true, "awards": null, "user_review_count": 1}, {"business_operation_status": 1, "rating": null, "neighborhood": null, "image": null, "scorecard": null, "featured": false, "sample_categories": "Restaurants, Carry Out, Pizza", "public_id": "jet-pizza-marietta", "id": 757958610, "votes": null, "tagline": null, "has_video": false, "website": "http://www.citysearch.com/profile/external/757958610/marietta_ga/jet_pizza.html", "offers": null, "latitude": 33.92306, "politanName": "Atlanta, GA Metro ", "phone_number": "7709521711", "tags": [{"primary": false, "id": 11247, "name": "Carry Out"}, {"primary": false, "id": 11299, "name": "Pizza"}, {"primary": true, "id": 1722, "name": "Restaurants"}], "fax_number": null, "expansion": {"count": null, "uri": null}, "impression_id": "000b0000003bd8ad602dc04418bee5327f88f074ea", "profile": "http://www.citysearch.com/profile/757958610/marietta_ga/jet_pizza.html", "address": {"city": "Marietta", "state": "GA", "street": "2900 Delk Rd SE", "postal_code": "30067"}, "capProviderId": null, "distance": null, "has_offers": false, "name": "Jet Pizza", "longitude": -84.467405, "has_menu": false, "awards": null, "user_review_count": 0}, {"business_operation_status": 1, "rating": null, "neighborhood": null, "image": null, "scorecard": null, "featured": false, "sample_categories": "Doughnut Shops, Coffeehouses", "public_id": "dunkin-donuts-marietta-6", "id": 627683600, "votes": null, "tagline": null, "has_video": false, "website": "http://www.citysearch.com/profile/external/627683600/marietta_ga/dunkin_donuts.html", "offers": null, "latitude": 34.016918, "politanName": "Atlanta, GA Metro ", "phone_number": "7709772722", "tags": [{"primary": false, "id": 1726, "name": "Coffeehouses"}, {"primary": true, "id": 1734, "name": "Doughnut Shops"}], "fax_number": null, "expansion": {"count": null, "uri": null}, "impression_id": "000b00000005399bea0cad43a080ceae7bf113de35", "profile": "http://www.citysearch.com/profile/627683600/marietta_ga/dunkin_donuts.html", "address": {"city": "Marietta", "state": "GA", "street": "2765 Sandy Plains Rd", "postal_code": "30066"}, "capProviderId": null, "distance": null, "has_offers": false, "name": "Dunkin' Donuts", "longitude": -84.492855, "has_menu": true, "awards": null, "user_review_count": 0}, {"business_operation_status": 1, "rating": null, "neighborhood": null, "image": null, "scorecard": null, "featured": false, "sample_categories": "Restaurants, Barbecue Restaurants", "public_id": "wingstop-kennesaw", "id": 762816620, "votes": null, "tagline": null, "has_video": false, "website": "http://www.citysearch.com/profile/external/762816620/kennesaw_ga/wingstop.html", "offers": null, "latitude": 34.030476, "politanName": "Atlanta, GA Metro ", "phone_number": "7704289464", "tags": [{"primary": false, "id": 1724, "name": "Barbecue Restaurants"}, {"primary": true, "id": 1722, "name": "Restaurants"}], "fax_number": null, "expansion": {"count": null, "uri": null}, "impression_id": "000b000000dc3eb7bb09aa4c1d90031a561c93b0d2", "profile": "http://www.citysearch.com/profile/762816620/kennesaw_ga/wingstop.html", "address": {"city": "Kennesaw", "state": "GA", "street": "1133 Chastain Rd NW # 300", "postal_code": "30144"}, "capProviderId": null, "distance": null, "has_offers": false, "name": "Wingstop", "longitude": -84.58315, "has_menu": false, "awards": null, "user_review_count": 0}, {"business_operation_status": 0, "rating": null, "neighborhood": null, "image": null, "scorecard": null, "featured": false, "sample_categories": "Restaurants, Bars & Clubs, Bars & Pubs, Carry Out", "public_id": "tgi-fridays-atlanta-17", "id": 764862940, "votes": null, "tagline": null, "has_video": false, "website": "http://www.citysearch.com/profile/external/764862940/atlanta_ga/tgi_friday_s.html", "offers": null, "latitude": 33.904204, "politanName": "Atlanta, GA Metro ", "phone_number": "7709510821", "tags": [{"primary": false, "id": 164, "name": "Bars & Clubs"}, {"primary": false, "id": 1686, "name": "Bars & Pubs"}, {"primary": false, "id": 11247, "name": "Carry Out"}, {"primary": true, "id": 1722, "name": "Restaurants"}], "fax_number": null, "expansion": {"count": null, "uri": null}, "impression_id": "000b000000b04d972b91904bf1817a8757b9b49fb3", "profile": "http://www.citysearch.com/profile/764862940/atlanta_ga/tgi_friday_s.html", "address": {"city": "Atlanta", "state": "GA", "street": "1945 Powers Ferry Rd SE", "postal_code": "30339"}, "capProviderId": null, "distance": null, "has_offers": false, "name": "TGI Friday's", "longitude": -84.45989, "has_menu": false, "awards": null, "user_review_count": 0}, {"business_operation_status": 1, "rating": null, "neighborhood": null, "image": null, "scorecard": null, "featured": false, "sample_categories": "Barbecue Restaurants, Restaurants", "public_id": "als-barbeque-marietta", "id": 764865730, "votes": null, "tagline": null, "has_video": false, "website": null, "offers": null, "latitude": 33.951118, "politanName": "Atlanta, GA Metro ", "phone_number": "7704999774", "tags": [{"primary": false, "id": 1722, "name": "Restaurants"}, {"primary": true, "id": 1724, "name": "Barbecue Restaurants"}], "fax_number": null, "expansion": {"count": null, "uri": null}, "impression_id": "000b0000003216beec579b4c988c270fb6dcf95f7b", "profile": "http://www.citysearch.com/profile/764865730/marietta_ga/al_s_barbeque.html", "address": {"city": "Marietta", "state": "GA", "street": "34 Powder Springs St", "postal_code": "30064"}, "capProviderId": null, "distance": null, "has_offers": false, "name": "Al's Barbeque", "longitude": -84.550542, "has_menu": true, "awards": null, "user_review_count": 0}, {"business_operation_status": 1, "rating": null, "neighborhood": null, "image": null, "scorecard": null, "featured": false, "sample_categories": "Restaurants, Barbecue Restaurants", "public_id": "hot-wings-marietta-2", "id": 764883190, "votes": null, "tagline": null, "has_video": false, "website": null, "offers": null, "latitude": 33.922673, "politanName": "Atlanta, GA Metro ", "phone_number": "6784013756", "tags": [{"primary": false, "id": 1724, "name": "Barbecue Restaurants"}, {"primary": true, "id": 1722, "name": "Restaurants"}], "fax_number": null, "expansion": {"count": null, "uri": null}, "impression_id": "000b000000260a08e9621741639e8e6aa55bd85ab8", "profile": "http://www.citysearch.com/profile/764883190/marietta_ga/hot_wings.html", "address": {"city": "Marietta", "state": "GA", "street": "2555 Delk Rd SE # A8", "postal_code": "30067"}, "capProviderId": null, "distance": null, "has_offers": false, "name": "Hot Wings", "longitude": -84.478383, "has_menu": false, "awards": null, "user_review_count": 0}, {"business_operation_status": 1, "rating": null, "neighborhood": null, "image": null, "scorecard": null, "featured": false, "sample_categories": "Restaurants, Mexican", "public_id": "la-paz-restaurant-kennesaw", "id": 775214130, "votes": null, "tagline": null, "has_video": false, "website": null, "offers": null, "latitude": 34.048726, "politanName": "Atlanta, GA Metro ", "phone_number": "7704053220", "tags": [{"primary": false, "id": 11208, "name": "Mexican"}, {"primary": true, "id": 1722, "name": "Restaurants"}], "fax_number": null, "expansion": {"count": null, "uri": null}, "impression_id": "000b000000e7c7c8ccc05f4360b434a70825a66f80", "profile": "http://www.citysearch.com/profile/775214130/kennesaw_ga/la_paz_restaurant.html", "address": {"city": "Kennesaw", "state": "GA", "street": "1275 Shiloh Rd NW # 2950", "postal_code": "30144"}, "capProviderId": null, "distance": null, "has_offers": false, "name": "La Paz Restaurant", "longitude": -84.58852, "has_menu": false, "awards": null, "user_review_count": 0}, {"business_operation_status": 1, "rating": null, "neighborhood": null, "image": null, "scorecard": null, "featured": false, "sample_categories": "Restaurants, Bars & Clubs", "public_id": "highlands-grill-kennesaw-3", "id": 775224210, "votes": null, "tagline": null, "has_video": false, "website": null, "offers": null, "latitude": 34.013172, "politanName": "Atlanta, GA Metro ", "phone_number": "7704261515", "tags": [{"primary": false, "id": 164, "name": "Bars & Clubs"}, {"primary": true, "id": 1722, "name": "Restaurants"}], "fax_number": null, "expansion": {"count": null, "uri": null}, "impression_id": "000b00000034563006478f490196e30432294c8e25", "profile": "http://www.citysearch.com/profile/775224210/kennesaw_ga/highlands_grill.html", "address": {"city": "Kennesaw", "state": "GA", "street": "2615 George Busbee Pky NW # 28", "postal_code": "30144"}, "capProviderId": null, "distance": null, "has_offers": false, "name": "Highlands Grill", "longitude": -84.567215, "has_menu": false, "awards": null, "user_review_count": 0}, {"business_operation_status": 1, "rating": null, "neighborhood": null, "image": null, "scorecard": null, "featured": false, "sample_categories": "Juice & Smoothie Shops, Restaurants, Ice Cream Parlors, Carry Out", "public_id": "orange-julius-kennesaw", "id": 777716120, "votes": null, "tagline": null, "has_video": false, "website": "http://www.citysearch.com/profile/external/777716120/kennesaw_ga/orange_julius.html", "offers": null, "latitude": 34.014009, "politanName": "Atlanta, GA Metro ", "phone_number": "7704281468", "tags": [{"primary": false, "id": 1722, "name": "Restaurants"}, {"primary": false, "id": 1730, "name": "Ice Cream Parlors"}, {"primary": false, "id": 11247, "name": "Carry Out"}, {"primary": true, "id": 1735, "name": "Juice & Smoothie Shops"}], "fax_number": null, "expansion": {"count": null, "uri": null}, "impression_id": "000b00000025f212f2cd9348e889c4cf4572fdc852", "profile": "http://www.citysearch.com/profile/777716120/kennesaw_ga/orange_julius.html", "address": {"city": "Kennesaw", "state": "GA", "street": "400 Ernest W Barrett Pkwy NW", "postal_code": "30144"}, "capProviderId": null, "distance": null, "has_offers": false, "name": "Orange Julius", "longitude": -84.561425, "has_menu": true, "awards": null, "user_review_count": 0}, {"business_operation_status": 0, "rating": null, "neighborhood": null, "image": null, "scorecard": null, "featured": false, "sample_categories": "Restaurants, Delis And Delicatessens, Sandwich Shops, Carry Out", "public_id": "quiznos-kennesaw", "id": 648900450, "votes": null, "tagline": null, "has_video": false, "website": null, "offers": null, "latitude": 34.030476, "politanName": "Atlanta, GA Metro ", "phone_number": "7705147844", "tags": [{"primary": false, "id": 1727, "name": "Delis And Delicatessens"}, {"primary": false, "id": 1736, "name": "Sandwich Shops"}, {"primary": false, "id": 11247, "name": "Carry Out"}, {"primary": true, "id": 1722, "name": "Restaurants"}], "fax_number": null, "expansion": {"count": null, "uri": null}, "impression_id": "000b000000e638e660d50941c4b7bb91629a5f9c58", "profile": "http://www.citysearch.com/profile/648900450/kennesaw_ga/quiznos.html", "address": {"city": "Kennesaw", "state": "GA", "street": "1133 Chastain Rd NW Ste C", "postal_code": "30144"}, "capProviderId": null, "distance": null, "has_offers": false, "name": "Quiznos", "longitude": -84.58315, "has_menu": true, "awards": null, "user_review_count": 0}, {"business_operation_status": 0, "rating": null, "neighborhood": null, "image": null, "scorecard": null, "featured": false, "sample_categories": "Restaurants, Bars & Pubs, Barbecue Restaurants, Traditional American", "public_id": "tilted-kilt-pub-eatery-atlanta-2", "id": 653570530, "votes": null, "tagline": null, "has_video": false, "website": "http://www.citysearch.com/profile/external/653570530/atlanta_ga/tilted_kilt_pub_eatery.html", "offers": null, "latitude": 33.880351, "politanName": "Atlanta, GA Metro ", "phone_number": "6787415292", "tags": [{"primary": false, "id": 1686, "name": "Bars & Pubs"}, {"primary": false, "id": 1724, "name": "Barbecue Restaurants"}, {"primary": false, "id": 11190, "name": "Traditional American"}, {"primary": true, "id": 1722, "name": "Restaurants"}], "fax_number": null, "expansion": {"count": null, "uri": null}, "impression_id": "000b000000b096a4cf1a0f41089b55d2e16a3b443b", "profile": "http://www.citysearch.com/profile/653570530/atlanta_ga/tilted_kilt_pub_eatery.html", "address": {"city": "Atlanta", "state": "GA", "street": "2960 Cobb Pkwy", "postal_code": "30339"}, "capProviderId": null, "distance": null, "has_offers": false, "name": "Tilted Kilt Pub & Eatery", "longitude": -84.462963, "has_menu": false, "awards": null, "user_review_count": 0}, {"business_operation_status": 1, "rating": null, "neighborhood": null, "image": null, "scorecard": null, "featured": false, "sample_categories": "Restaurants, Pizza", "public_id": "johnnys-new-york-style-pizza-smyrna-2", "id": 653590150, "votes": null, "tagline": null, "has_video": false, "website": null, "offers": null, "latitude": 33.887146, "politanName": "Atlanta, GA Metro ", "phone_number": "7704380300", "tags": [{"primary": false, "id": 1722, "name": "Restaurants"}, {"primary": true, "id": 11299, "name": "Pizza"}], "fax_number": null, "expansion": {"count": null, "uri": null}, "impression_id": "000b000000b4f1f59884af42dabc48893b1a143c7d", "profile": "http://www.citysearch.com/profile/653590150/smyrna_ga/johnny_s_new_york_style_pizza.html", "address": {"city": "Smyrna", "state": "GA", "street": "2700 Cobb Pkwy Se", "postal_code": "30080"}, "capProviderId": null, "distance": null, "has_offers": false, "name": "Johnny's New York Style Pizza", "longitude": -84.47315, "has_menu": false, "awards": null, "user_review_count": 0}, {"business_operation_status": 1, "rating": null, "neighborhood": null, "image": null, "scorecard": null, "featured": false, "sample_categories": "Restaurants, Bars & Clubs, Bars & Pubs", "public_id": "kastaways-food-spirits-marietta", "id": 655851930, "votes": null, "tagline": null, "has_video": false, "website": null, "offers": null, "latitude": 33.934059, "politanName": "Atlanta, GA Metro ", "phone_number": "7704294922", "tags": [{"primary": false, "id": 164, "name": "Bars & Clubs"}, {"primary": false, "id": 1686, "name": "Bars & Pubs"}, {"primary": true, "id": 1722, "name": "Restaurants"}], "fax_number": null, "expansion": {"count": null, "uri": null}, "impression_id": "000b0000005714e50cdb54468f92f66a6d831456ec", "profile": "http://www.citysearch.com/profile/655851930/marietta_ga/kastaways_food_spirits.html", "address": {"city": "Marietta", "state": "GA", "street": "795 Powder Springs St", "postal_code": "30064"}, "capProviderId": null, "distance": null, "has_offers": false, "name": "Kastaways Food & Spirits", "longitude": -84.559181, "has_menu": false, "awards": null, "user_review_count": 0}, {"business_operation_status": 1, "rating": null, "neighborhood": null, "image": null, "scorecard": null, "featured": false, "sample_categories": "Restaurants, Jamaican", "public_id": "country-style-jamaican-rstrnt-marietta", "id": 790653840, "votes": null, "tagline": null, "has_video": false, "website": null, "offers": null, "latitude": 34.03261, "politanName": "Atlanta, GA Metro ", "phone_number": "7704258444", "tags": [{"primary": false, "id": 11193, "name": "Jamaican"}, {"primary": true, "id": 1722, "name": "Restaurants"}], "fax_number": null, "expansion": {"count": null, "uri": null}, "impression_id": "000b00000088eb6ea582b64e90b41318eb5e0c4a44", "profile": "http://www.citysearch.com/profile/790653840/marietta_ga/country_style_jamaican_rstrnt.html", "address": {"city": "Marietta", "state": "GA", "street": "3349 Canton Rd # 201", "postal_code": "30066"}, "capProviderId": null, "distance": null, "has_offers": false, "name": "Country Style Jamaican Rstrnt", "longitude": -84.528907, "has_menu": false, "awards": null, "user_review_count": 0}, {"business_operation_status": 1, "rating": null, "neighborhood": null, "image": null, "scorecard": null, "featured": false, "sample_categories": "Restaurants", "public_id": "peppers-grill-bar-marietta", "id": 672240030, "votes": null, "tagline": null, "has_video": false, "website": null, "offers": null, "latitude": 33.865697, "politanName": "Atlanta, GA Metro ", "phone_number": "7704368181", "tags": [{"primary": true, "id": 1722, "name": "Restaurants"}], "fax_number": null, "expansion": {"count": null, "uri": null}, "impression_id": "000b000000bd1496c586684b32b151eead269846a0", "profile": "http://www.citysearch.com/profile/672240030/marietta_ga/pepper_s_grill_bar.html", "address": {"city": "Marietta", "state": "GA", "street": "3565 Austell Road SW", "postal_code": "30008"}, "capProviderId": null, "distance": null, "has_offers": false, "name": "Pepper's Grill & Bar", "longitude": -84.592502, "has_menu": false, "awards": null, "user_review_count": 1}, {"business_operation_status": 1, "rating": null, "neighborhood": null, "image": null, "scorecard": null, "featured": false, "sample_categories": "Restaurants, Bars & Clubs, Bars & Pubs, Carry Out, Steakhouse", "public_id": "applebees-neighborhood-grill-atlanta-5", "id": 682623920, "votes": null, "tagline": null, "has_video": false, "website": "http://www.citysearch.com/profile/external/682623920/atlanta_ga/applebee_s.html", "offers": null, "latitude": 33.884889, "politanName": "Atlanta, GA Metro ", "phone_number": "7704321974", "tags": [{"primary": false, "id": 164, "name": "Bars & Clubs"}, {"primary": false, "id": 1686, "name": "Bars & Pubs"}, {"primary": false, "id": 11247, "name": "Carry Out"}, {"primary": false, "id": 11316, "name": "Steakhouse"}, {"primary": false, "id": 11333, "name": "American Express"}, {"primary": false, "id": 11349, "name": "Discover"}, {"primary": false, "id": 11361, "name": "MasterCard"}, {"primary": false, "id": 11382, "name": "Visa"}, {"primary": true, "id": 1722, "name": "Restaurants"}], "fax_number": null, "expansion": {"count": null, "uri": null}, "impression_id": "000b0000006d87342e89e44a828ae8cabff65d997e", "profile": "http://www.citysearch.com/profile/682623920/atlanta_ga/applebee_s.html", "address": {"city": "Atlanta", "state": "GA", "street": "2728 New Spring Road S.E.", "postal_code": "30339"}, "capProviderId": null, "distance": null, "has_offers": false, "name": "Applebee's", "longitude": -84.473777, "has_menu": false, "awards": null, "user_review_count": 0}, {"business_operation_status": 1, "rating": null, "neighborhood": null, "image": null, "scorecard": null, "featured": false, "sample_categories": "Restaurants", "public_id": "mobile-pit-stop-of-atlanta-smyrna", "id": 754713040, "votes": null, "tagline": null, "has_video": false, "website": null, "offers": null, "latitude": 33.884704, "politanName": "Atlanta, GA Metro ", "phone_number": "7707786349", "tags": [{"primary": true, "id": 1722, "name": "Restaurants"}], "fax_number": null, "expansion": {"count": null, "uri": null}, "impression_id": "000b000000ae89c1154b8140b4916941988571dad6", "profile": "http://www.citysearch.com/profile/754713040/smyrna_ga/mobile_pit_stop_of_atlanta.html", "address": {"city": "Smyrna", "state": "GA", "street": "2051 Glenroy Dr SE", "postal_code": "30080"}, "capProviderId": null, "distance": null, "has_offers": false, "name": "Mobile Pit Stop of Atlanta", "longitude": -84.4941, "has_menu": false, "awards": null, "user_review_count": 0}, {"business_operation_status": 1, "rating": null, "neighborhood": null, "image": null, "scorecard": null, "featured": false, "sample_categories": "Restaurants, Asian, Chinese", "public_id": "chinese-restaurant-marietta", "id": 682576220, "votes": null, "tagline": null, "has_video": false, "website": "http://www.citysearch.com/profile/external/682576220/marietta_ga/chinese_restaurant.html", "offers": null, "latitude": 33.968527, "politanName": "Atlanta, GA Metro ", "phone_number": "7703218202", "tags": [{"primary": false, "id": 11235, "name": "Asian"}, {"primary": false, "id": 11252, "name": "Chinese"}, {"primary": true, "id": 1722, "name": "Restaurants"}], "fax_number": null, "expansion": {"count": null, "uri": null}, "impression_id": "000b000000fa329118885c4b6190848823a5025faa", "profile": "http://www.citysearch.com/profile/682576220/marietta_ga/chinese_restaurant.html", "address": {"city": "Marietta", "state": "GA", "street": "2145 Roswell Rd", "postal_code": "30062"}, "capProviderId": null, "distance": null, "has_offers": false, "name": "Chinese Restaurant", "longitude": -84.491622, "has_menu": false, "awards": null, "user_review_count": 0}, {"business_operation_status": 0, "rating": null, "neighborhood": null, "image": null, "scorecard": null, "featured": false, "sample_categories": "Restaurants", "public_id": "nosjeff-restaurant-sport-ctr-marietta", "id": 682347170, "votes": null, "tagline": null, "has_video": false, "website": null, "offers": null, "latitude": 34.046421, "politanName": "Atlanta, GA Metro ", "phone_number": "6784451836", "tags": [{"primary": true, "id": 1722, "name": "Restaurants"}], "fax_number": null, "expansion": {"count": null, "uri": null}, "impression_id": "000b00000039e2193fef5b4214a31114c4cd33872f", "profile": "http://www.citysearch.com/profile/682347170/marietta_ga/nosjeff_restaurant_sport_ctr.html", "address": {"city": "Marietta", "state": "GA", "street": "3920 Canton Rd", "postal_code": "30066"}, "capProviderId": null, "distance": null, "has_offers": false, "name": "Nosjeff Restaurant Sport Ctr", "longitude": -84.52845, "has_menu": false, "awards": null, "user_review_count": 0}, {"business_operation_status": 1, "rating": null, "neighborhood": null, "image": null, "scorecard": null, "featured": false, "sample_categories": "Restaurants", "public_id": "philly-connection-marietta-4", "id": 805419070, "votes": null, "tagline": null, "has_video": false, "website": null, "offers": null, "latitude": 34.011742, "politanName": "Atlanta, GA Metro ", "phone_number": "7705799288", "tags": [{"primary": true, "id": 1722, "name": "Restaurants"}], "fax_number": null, "expansion": {"count": null, "uri": null}, "impression_id": "000b000000e2eb5e27333a4027a9f48cee223a49f3", "profile": "http://www.citysearch.com/profile/805419070/marietta_ga/philly_connection.html", "address": {"city": "Marietta", "state": "GA", "street": "2550 Sandy Plains Rd # 215", "postal_code": "30066"}, "capProviderId": null, "distance": null, "has_offers": false, "name": "Philly Connection", "longitude": -84.495056, "has_menu": true, "awards": null, "user_review_count": 0}, {"business_operation_status": 1, "rating": null, "neighborhood": null, "image": null, "scorecard": null, "featured": false, "sample_categories": "Restaurants, Cafes", "public_id": "dsc-solutions-llc-marietta", "id": 764892180, "votes": null, "tagline": null, "has_video": false, "website": null, "offers": null, "latitude": 34.014183, "politanName": "Atlanta, GA Metro ", "phone_number": "7709776915", "tags": [{"primary": false, "id": 6190, "name": "Cafes"}, {"primary": true, "id": 1722, "name": "Restaurants"}], "fax_number": null, "expansion": {"count": null, "uri": null}, "impression_id": "000b00000025e6f150de9e4cdf937cb865e38111f9", "profile": "http://www.citysearch.com/profile/764892180/marietta_ga/dsc_solutions_llc.html", "address": {"city": "Marietta", "state": "GA", "street": "2595 Sandy Plains Rd # 1", "postal_code": "30066"}, "capProviderId": null, "distance": null, "has_offers": false, "name": "DSC Solutions Llc", "longitude": -84.495373, "has_menu": false, "awards": null, "user_review_count": 0}, {"business_operation_status": 1, "rating": null, "neighborhood": null, "image": null, "scorecard": null, "featured": false, "sample_categories": "Restaurants, Carry Out", "public_id": "ryans-grill-buffet-bakery-marietta", "id": 764837190, "votes": null, "tagline": null, "has_video": false, "website": null, "offers": null, "latitude": 34.010977, "politanName": "Atlanta, GA Metro ", "phone_number": "7704250277", "tags": [{"primary": false, "id": 11247, "name": "Carry Out"}, {"primary": true, "id": 1722, "name": "Restaurants"}], "fax_number": null, "expansion": {"count": null, "uri": null}, "impression_id": "000b0000008e10d2d61adc42059cd5dd58709c806b", "profile": "http://www.citysearch.com/profile/764837190/marietta_ga/ryan_s_grill_buffet_bakery.html", "address": {"city": "Marietta", "state": "GA", "street": "2418 Canton Rd", "postal_code": "30066"}, "capProviderId": null, "distance": null, "has_offers": false, "name": "Ryan's Grill Buffet & Bakery", "longitude": -84.526734, "has_menu": false, "awards": null, "user_review_count": 0}, {"business_operation_status": 1, "rating": null, "neighborhood": null, "image": null, "scorecard": null, "featured": false, "sample_categories": "Restaurants", "public_id": "kouzina-christos-marietta", "id": 764881650, "votes": null, "tagline": null, "has_video": false, "website": null, "offers": null, "latitude": 33.91616, "politanName": "Atlanta, GA Metro ", "phone_number": "7709521950", "tags": [{"primary": true, "id": 1722, "name": "Restaurants"}], "fax_number": null, "expansion": {"count": null, "uri": null}, "impression_id": "000b00000042b7210deefe4c6aa5760121d88e8e32", "profile": "http://www.citysearch.com/profile/764881650/marietta_ga/kouzina_christos.html", "address": {"city": "Marietta", "state": "GA", "street": "1453 Terrell Mill Rd SE # 113", "postal_code": "30067"}, "capProviderId": null, "distance": null, "has_offers": false, "name": "Kouzina Christos", "longitude": -84.467925, "has_menu": false, "awards": null, "user_review_count": 0}, {"business_operation_status": 1, "rating": null, "neighborhood": null, "image": null, "scorecard": null, "featured": false, "sample_categories": "Restaurants, Luaus, Mexican", "public_id": "taco-mac-kennesaw", "id": 766794950, "votes": null, "tagline": null, "has_video": false, "website": null, "offers": null, "latitude": 34.014045, "politanName": "Atlanta, GA Metro ", "phone_number": "7704261515", "tags": [{"primary": false, "id": 1722, "name": "Restaurants"}, {"primary": false, "id": 11208, "name": "Mexican"}, {"primary": true, "id": 11285, "name": "Luaus"}], "fax_number": null, "expansion": {"count": null, "uri": null}, "impression_id": "000b00000037746bc1d66f4c84a1e38c1919959cfe", "profile": "http://www.citysearch.com/profile/766794950/kennesaw_ga/taco_mac.html", "address": {"city": "Kennesaw", "state": "GA", "street": "2615 Busbee Pkwy NW # 28", "postal_code": "30144"}, "capProviderId": null, "distance": null, "has_offers": false, "name": "Taco Mac", "longitude": -84.56696, "has_menu": false, "awards": null, "user_review_count": 0}, {"business_operation_status": 1, "rating": null, "neighborhood": null, "image": null, "scorecard": null, "featured": false, "sample_categories": "Restaurants", "public_id": "sunrise-biscuit-co-marietta", "id": 808765260, "votes": null, "tagline": null, "has_video": false, "website": null, "offers": null, "latitude": 34.048278, "politanName": "Atlanta, GA Metro ", "phone_number": "7705169556", "tags": [{"primary": true, "id": 1722, "name": "Restaurants"}], "fax_number": null, "expansion": {"count": null, "uri": null}, "impression_id": "000b000000c596be7c1bd246e2af82fcf950a1ca34", "profile": "http://www.citysearch.com/profile/808765260/marietta_ga/sunrise_biscuit_co.html", "address": {"city": "Marietta", "state": "GA", "street": "4017 Canton Rd", "postal_code": "30066"}, "capProviderId": null, "distance": null, "has_offers": false, "name": "Sunrise Biscuit Co", "longitude": -84.52851, "has_menu": false, "awards": null, "user_review_count": 0}, {"business_operation_status": 1, "rating": null, "neighborhood": null, "image": null, "scorecard": null, "featured": false, "sample_categories": "Restaurants, Pizza", "public_id": "gondolier-pizza-1-kennesaw", "id": 809188170, "votes": null, "tagline": null, "has_video": false, "website": null, "offers": null, "latitude": 34.007674, "politanName": "Atlanta, GA Metro ", "phone_number": "7704199979", "tags": [{"primary": false, "id": 1722, "name": "Restaurants"}, {"primary": true, "id": 11299, "name": "Pizza"}], "fax_number": null, "expansion": {"count": null, "uri": null}, "impression_id": "000b000000dc70395b1dab42a6abdc10891e0cee12", "profile": "http://www.citysearch.com/profile/809188170/kennesaw_ga/gondolier_pizza_1.html", "address": {"city": "Kennesaw", "state": "GA", "street": "740 Ernest W Barrett Pkwy NW", "postal_code": "30144"}, "capProviderId": null, "distance": null, "has_offers": false, "name": "Gondolier Pizza 1", "longitude": -84.571702, "has_menu": false, "awards": null, "user_review_count": 0}, {"business_operation_status": 1, "rating": null, "neighborhood": null, "image": null, "scorecard": null, "featured": false, "sample_categories": "Restaurants, Japanese", "public_id": "access-japan-inc-marietta", "id": 775202150, "votes": null, "tagline": null, "has_video": false, "website": null, "offers": null, "latitude": 33.959931, "politanName": "Atlanta, GA Metro ", "phone_number": "7709714847", "tags": [{"primary": false, "id": 11202, "name": "Japanese"}, {"primary": true, "id": 1722, "name": "Restaurants"}], "fax_number": null, "expansion": {"count": null, "uri": null}, "impression_id": "000b00000035dd6e30372e4d2fa438b8fa9e87a9af", "profile": "http://www.citysearch.com/profile/775202150/marietta_ga/access_japan_inc.html", "address": {"city": "Marietta", "state": "GA", "street": "360 Willow Glen Dr", "postal_code": "30068"}, "capProviderId": null, "distance": null, "has_offers": false, "name": "Access Japan Inc", "longitude": -84.485385, "has_menu": false, "awards": null, "user_review_count": 0}, {"business_operation_status": 1, "rating": null, "neighborhood": null, "image": null, "scorecard": null, "featured": false, "sample_categories": "Bakeries, Restaurants, Cafes, Cookies", "public_id": "nestle-toll-house-cafe-by-chip-atlanta", "id": 713629950, "votes": null, "tagline": null, "has_video": false, "website": null, "offers": null, "latitude": 33.881746, "politanName": "Atlanta, GA Metro ", "phone_number": "7704356648", "tags": [{"primary": false, "id": 1722, "name": "Restaurants"}, {"primary": false, "id": 6190, "name": "Cafes"}, {"primary": false, "id": 11050, "name": "Cookies"}, {"primary": true, "id": 1685, "name": "Bakeries"}], "fax_number": null, "expansion": {"count": null, "uri": null}, "impression_id": "000b000000e9cf7dbb57af438285064c2446d2babb", "profile": "http://www.citysearch.com/profile/713629950/atlanta_ga/nestle_toll_house_cafe_by_chip.html", "address": {"city": "Atlanta", "state": "GA", "street": "1000 Cumberland Mall Se", "postal_code": "30339"}, "capProviderId": null, "distance": null, "has_offers": false, "name": "Nestle Toll House Cafe By Chip", "longitude": -84.470079, "has_menu": false, "awards": null, "user_review_count": 0}, {"business_operation_status": 1, "rating": null, "neighborhood": null, "image": null, "scorecard": null, "featured": false, "sample_categories": "Restaurants, Pizza, Carry Out", "public_id": "sals-pizzeria-acworth", "id": 790746800, "votes": null, "tagline": null, "has_video": false, "website": null, "offers": null, "latitude": 34.062771, "politanName": "Atlanta, GA Metro ", "phone_number": "7704275368", "tags": [{"primary": false, "id": 1722, "name": "Restaurants"}, {"primary": false, "id": 11247, "name": "Carry Out"}, {"primary": true, "id": 11299, "name": "Pizza"}], "fax_number": null, "expansion": {"count": null, "uri": null}, "impression_id": "000b000000d703310adc3244e4b90c28a9d0730bb1", "profile": "http://www.citysearch.com/profile/790746800/acworth_ga/sals_pizzeria.html", "address": {"city": "Acworth", "state": "GA", "street": "1361 Hearthstone Way NW", "postal_code": "30102"}, "capProviderId": null, "distance": null, "has_offers": false, "name": "Sals Pizzeria", "longitude": -84.585107, "has_menu": false, "awards": null, "user_review_count": 0}, {"business_operation_status": 1, "rating": null, "neighborhood": null, "image": null, "scorecard": null, "featured": false, "sample_categories": "Ice Cream Parlors", "public_id": "smyrna-old-fashioned-ice-cream-smyrna", "id": 829274170, "votes": null, "tagline": null, "has_video": false, "website": null, "offers": null, "latitude": 33.8824, "politanName": "Atlanta, GA Metro ", "phone_number": "7704345560", "tags": [{"primary": true, "id": 1730, "name": "Ice Cream Parlors"}], "fax_number": null, "expansion": {"count": null, "uri": null}, "impression_id": "000b00000037eb72b664564f47a14cb3faf06c1e24", "profile": "http://www.citysearch.com/profile/829274170/smyrna_ga/smyrna_old_fashioned_ice_cream.html", "address": {"city": "Smyrna", "state": "GA", "street": "885 Flagler Cir SE", "postal_code": "30080"}, "capProviderId": null, "distance": null, "has_offers": false, "name": "Smyrna Old Fashioned Ice Cream", "longitude": -84.527884, "has_menu": false, "awards": null, "user_review_count": 0}, {"business_operation_status": 1, "rating": null, "neighborhood": null, "image": null, "scorecard": null, "featured": false, "sample_categories": "Restaurants", "public_id": "el-tapatio-mableton", "id": 832623600, "votes": null, "tagline": null, "has_video": false, "website": null, "offers": null, "latitude": 33.823999, "politanName": "Atlanta, GA Metro ", "phone_number": "7707458920", "tags": [{"primary": true, "id": 1722, "name": "Restaurants"}], "fax_number": null, "expansion": {"count": null, "uri": null}, "impression_id": "000b0000005662621f7e054cfcb7169412c515522b", "profile": "http://www.citysearch.com/profile/832623600/mableton_ga/el_tapatio.html", "address": {"city": "Mableton", "state": "GA", "street": "5345 Floyd Rd Sw", "postal_code": "30126"}, "capProviderId": null, "distance": null, "has_offers": false, "name": "El Tapatio", "longitude": -84.574687, "has_menu": true, "awards": null, "user_review_count": 0}, {"business_operation_status": 1, "rating": null, "neighborhood": null, "image": null, "scorecard": null, "featured": false, "sample_categories": "Restaurants", "public_id": "brikishani-enterprises-llc-marietta", "id": 732135290, "votes": null, "tagline": null, "has_video": false, "website": null, "offers": null, "latitude": 33.875537, "politanName": "Atlanta, GA Metro ", "phone_number": "6787990175", "tags": [{"primary": true, "id": 1722, "name": "Restaurants"}], "fax_number": null, "expansion": {"count": null, "uri": null}, "impression_id": "000b0000006e41f4e2d2a84c1baf6e1fc03a251334", "profile": "http://www.citysearch.com/profile/732135290/marietta_ga/brikishani_enterprises_llc.html", "address": {"city": "Marietta", "state": "GA", "street": "1727 Silverchase Dr SW", "postal_code": "30008"}, "capProviderId": null, "distance": null, "has_offers": false, "name": "Brikishani Enterprises LLC", "longitude": -84.605105, "has_menu": false, "awards": null, "user_review_count": 0}, {"business_operation_status": 1, "rating": null, "neighborhood": null, "image": null, "scorecard": null, "featured": false, "sample_categories": "Restaurants", "public_id": "underwood-enterprises-inc-mableton", "id": 732242390, "votes": null, "tagline": null, "has_video": false, "website": null, "offers": null, "latitude": 33.835202, "politanName": "Atlanta, GA Metro ", "phone_number": "7708238349", "tags": [{"primary": true, "id": 1722, "name": "Restaurants"}], "fax_number": null, "expansion": {"count": null, "uri": null}, "impression_id": "000b0000003455817183cb484795fac884e7acd168", "profile": "http://www.citysearch.com/profile/732242390/mableton_ga/underwood_enterprises_inc.html", "address": {"city": "Mableton", "state": "GA", "street": "4870 Floyd Rd SW # 30", "postal_code": "30126"}, "capProviderId": null, "distance": null, "has_offers": false, "name": "Underwood Enterprises Inc", "longitude": -84.576887, "has_menu": false, "awards": null, "user_review_count": 0}, {"business_operation_status": 1, "rating": null, "neighborhood": null, "image": null, "scorecard": null, "featured": false, "sample_categories": "Restaurants", "public_id": "pegasus-foods-inc-powder", "id": 732186320, "votes": null, "tagline": null, "has_video": false, "website": null, "offers": null, "latitude": 33.906794, "politanName": "Atlanta, GA Metro ", "phone_number": "7704391489", "tags": [{"primary": true, "id": 1722, "name": "Restaurants"}], "fax_number": null, "expansion": {"count": null, "uri": null}, "impression_id": "000b000000d15ae4e433114969a9fde9b66bc20d3f", "profile": "http://www.citysearch.com/profile/732186320/powder_springs_ga/pegasus_foods_inc.html", "address": {"city": "Powder Springs", "state": "GA", "street": "3640 Velma Dr", "postal_code": "30127"}, "capProviderId": null, "distance": null, "has_offers": false, "name": "Pegasus Foods Inc", "longitude": -84.660285, "has_menu": false, "awards": null, "user_review_count": 0}, {"business_operation_status": 1, "rating": null, "neighborhood": null, "image": null, "scorecard": null, "featured": false, "sample_categories": "Frozen Yogurt Shops, Grocery Stores, Restaurants", "public_id": "oolala-marietta", "id": 732204990, "votes": null, "tagline": null, "has_video": false, "website": "http://www.citysearch.com/profile/external/732204990/marietta_ga/oolala.html", "offers": null, "latitude": 33.950252, "politanName": "Atlanta, GA Metro ", "phone_number": "6783836129", "tags": [{"primary": false, "id": 1713, "name": "Grocery Stores"}, {"primary": false, "id": 1722, "name": "Restaurants"}, {"primary": true, "id": 1729, "name": "Frozen Yogurt Shops"}], "fax_number": null, "expansion": {"count": null, "uri": null}, "impression_id": "000b000000968235dc87d34c928f3378d7d3afc2de", "profile": "http://www.citysearch.com/profile/732204990/marietta_ga/oolala.html", "address": {"city": "Marietta", "state": "GA", "street": "2500 Dallas Hwy SW # 650", "postal_code": "30064"}, "capProviderId": null, "distance": null, "has_offers": false, "name": "Oolala", "longitude": -84.638093, "has_menu": false, "awards": null, "user_review_count": 0}, {"business_operation_status": 1, "rating": null, "neighborhood": null, "image": null, "scorecard": null, "featured": false, "sample_categories": "Coffeehouses", "public_id": "volcanica-coffee-inc-coral", "id": 732048930, "votes": null, "tagline": null, "has_video": false, "website": null, "offers": "Free Shipping", "latitude": 33.988892, "politanName": "Atlanta, GA Metro ", "phone_number": "8774547031", "tags": [{"primary": true, "id": 1726, "name": "Coffeehouses"}], "fax_number": null, "expansion": {"count": null, "uri": null}, "impression_id": "000b0000009b5542b31f524c8ca7cea50b5cb21ed1", "profile": "http://www.citysearch.com/profile/732048930/atlanta_ga/volcanica_coffee_inc.html", "address": {"city": "Atlanta", "state": "GA", "street": "1831-C West Oak Parkway", "postal_code": "30062"}, "capProviderId": null, "distance": null, "has_offers": true, "name": "Volcanica Coffee Inc", "longitude": -84.525273, "has_menu": false, "awards": null, "user_review_count": 0}, {"business_operation_status": 1, "rating": null, "neighborhood": null, "image": null, "scorecard": null, "featured": false, "sample_categories": "Restaurants, Mexican, Carry Out", "public_id": "del-taco-smyrna", "id": 762762470, "votes": null, "tagline": null, "has_video": false, "website": "http://www.citysearch.com/profile/external/762762470/smyrna_ga/del_taco.html", "offers": null, "latitude": 33.891305, "politanName": "Atlanta, GA Metro ", "phone_number": "7709559115", "tags": [{"primary": false, "id": 11208, "name": "Mexican"}, {"primary": false, "id": 11247, "name": "Carry Out"}, {"primary": true, "id": 1722, "name": "Restaurants"}], "fax_number": null, "expansion": {"count": null, "uri": null}, "impression_id": "000b000000d302be585a0647cead102bf7f71c61d2", "profile": "http://www.citysearch.com/profile/762762470/smyrna_ga/del_taco.html", "address": {"city": "Smyrna", "state": "GA", "street": "2521 Cobb Pkwy SE", "postal_code": "30080"}, "capProviderId": null, "distance": null, "has_offers": false, "name": "Del Taco", "longitude": -84.47582, "has_menu": false, "awards": null, "user_review_count": 0}, {"business_operation_status": 1, "rating": null, "neighborhood": null, "image": null, "scorecard": null, "featured": false, "sample_categories": "Health Food Stores, Restaurants", "public_id": "planet-smoothie-marietta", "id": 36642521, "votes": null, "tagline": null, "has_video": false, "website": "http://www.citysearch.com/profile/external/36642521/marietta_ga/planet_smoothie.html", "offers": null, "latitude": 33.969856, "politanName": "Atlanta, GA Metro ", "phone_number": "6785604001", "tags": [{"primary": false, "id": 1722, "name": "Restaurants"}, {"primary": true, "id": 1716, "name": "Health Food Stores"}], "fax_number": null, "expansion": {"count": null, "uri": null}, "impression_id": "000b000000bfc723d3386f407b8e303dccf35bdde1", "profile": "http://www.citysearch.com/profile/36642521/marietta_ga/planet_smoothie.html", "address": {"city": "Marietta", "state": "GA", "street": "2200 Roswell Rd", "postal_code": "30062"}, "capProviderId": null, "distance": null, "has_offers": false, "name": "Planet Smoothie", "longitude": -84.488427, "has_menu": true, "awards": null, "user_review_count": 0}, {"business_operation_status": 1, "rating": null, "neighborhood": null, "image": null, "scorecard": null, "featured": false, "sample_categories": "Restaurants, Ice Cream Parlors", "public_id": "smoothie-express-marietta", "id": 653592070, "votes": null, "tagline": null, "has_video": false, "website": "http://www.citysearch.com/profile/external/653592070/marietta_ga/smoothie_express.html", "offers": null, "latitude": 33.899518, "politanName": "Atlanta, GA Metro ", "phone_number": "7705901900", "tags": [{"primary": false, "id": 1730, "name": "Ice Cream Parlors"}, {"primary": true, "id": 1722, "name": "Restaurants"}], "fax_number": null, "expansion": {"count": null, "uri": null}, "impression_id": "000b00000099413f0a1d824b96b55d98f1ce244241", "profile": "http://www.citysearch.com/profile/653592070/marietta_ga/smoothie_express.html", "address": {"city": "Marietta", "state": "GA", "street": "1812 Powder Springs Rd Sw#1107", "postal_code": "30064"}, "capProviderId": null, "distance": null, "has_offers": false, "name": "Smoothie Express", "longitude": -84.606801, "has_menu": false, "awards": null, "user_review_count": 0}, {"business_operation_status": 1, "rating": null, "neighborhood": null, "image": null, "scorecard": null, "featured": false, "sample_categories": "Restaurants, Chinese, American Express, Discover, MasterCard", "public_id": "one-sixty-eight-dragon-marietta", "id": 747470520, "votes": null, "tagline": null, "has_video": false, "website": null, "offers": null, "latitude": 33.903742, "politanName": "Atlanta, GA Metro ", "phone_number": "7704275599", "tags": [{"primary": false, "id": 11252, "name": "Chinese"}, {"primary": false, "id": 11333, "name": "American Express"}, {"primary": false, "id": 11349, "name": "Discover"}, {"primary": false, "id": 11361, "name": "MasterCard"}, {"primary": false, "id": 11382, "name": "Visa"}, {"primary": true, "id": 1722, "name": "Restaurants"}], "fax_number": null, "expansion": {"count": null, "uri": null}, "impression_id": "000b000000ba5264679e994b4bacbf863056764c0c", "profile": "http://www.citysearch.com/profile/747470520/marietta_ga/one_sixty_eight_dragon.html", "address": {"city": "Marietta", "state": "GA", "street": "1750 Powder Springs Rd # 240", "postal_code": "30064"}, "capProviderId": null, "distance": null, "has_offers": false, "name": "One Sixty Eight Dragon", "longitude": -84.606517, "has_menu": false, "awards": null, "user_review_count": 0}, {"business_operation_status": 1, "rating": null, "neighborhood": null, "image": null, "scorecard": null, "featured": false, "sample_categories": "Restaurants", "public_id": "royal-waffle-king-marietta", "id": 775234230, "votes": null, "tagline": null, "has_video": false, "website": "http://www.citysearch.com/profile/external/775234230/marietta_ga/royal_waffle_king.html", "offers": null, "latitude": 33.987292, "politanName": "Atlanta, GA Metro ", "phone_number": "7704423800", "tags": [{"primary": true, "id": 1722, "name": "Restaurants"}], "fax_number": null, "expansion": {"count": null, "uri": null}, "impression_id": "000b000000e7aaa6d1d2ed4b479ba8ea0dac42900c", "profile": "http://www.citysearch.com/profile/775234230/marietta_ga/royal_waffle_king.html", "address": {"city": "Marietta", "state": "GA", "street": "1459 Field Park Cir", "postal_code": "30066"}, "capProviderId": null, "distance": null, "has_offers": false, "name": "Royal Waffle King", "longitude": -84.563324, "has_menu": true, "awards": null, "user_review_count": 0}, {"business_operation_status": 1, "rating": null, "neighborhood": null, "image": null, "scorecard": null, "featured": false, "sample_categories": "Restaurants, Carry Out", "public_id": "johnny-rockets-marietta", "id": 764929560, "votes": null, "tagline": null, "has_video": false, "website": null, "offers": null, "latitude": 33.971396, "politanName": "Atlanta, GA Metro ", "phone_number": "7709556068", "tags": [{"primary": false, "id": 11247, "name": "Carry Out"}, {"primary": true, "id": 1722, "name": "Restaurants"}], "fax_number": null, "expansion": {"count": null, "uri": null}, "impression_id": "000b0000008f40a6e33163474a8b1a1d03cffd9b5a", "profile": "http://www.citysearch.com/profile/764929560/marietta_ga/johnny_rockets.html", "address": {"city": "Marietta", "state": "GA", "street": "2970 Cobb St", "postal_code": "30068"}, "capProviderId": null, "distance": null, "has_offers": false, "name": "Johnny Rockets", "longitude": -84.466057, "has_menu": false, "awards": null, "user_review_count": 0}, {"business_operation_status": 1, "rating": null, "neighborhood": null, "image": null, "scorecard": null, "featured": false, "sample_categories": "Restaurants, Delis And Delicatessens, Sandwich Shops, Carry Out", "public_id": "subway-marietta-50", "id": 764879610, "votes": null, "tagline": null, "has_video": false, "website": "http://www.citysearch.com/profile/external/764879610/marietta_ga/subway.html", "offers": null, "latitude": 33.925399, "politanName": "Atlanta, GA Metro ", "phone_number": "7704225412", "tags": [{"primary": false, "id": 1727, "name": "Delis And Delicatessens"}, {"primary": false, "id": 1736, "name": "Sandwich Shops"}, {"primary": false, "id": 11247, "name": "Carry Out"}, {"primary": true, "id": 1722, "name": "Restaurants"}], "fax_number": null, "expansion": {"count": null, "uri": null}, "impression_id": "000b000000365487663a094abc836051750fbc229d", "profile": "http://www.citysearch.com/profile/764879610/marietta_ga/subway.html", "address": {"city": "Marietta", "state": "GA", "street": "1135 Powder Springs St", "postal_code": "30064"}, "capProviderId": null, "distance": null, "has_offers": false, "name": "SUBWAY", "longitude": -84.573233, "has_menu": false, "awards": null, "user_review_count": 0}, {"business_operation_status": 1, "rating": null, "neighborhood": null, "image": null, "scorecard": null, "featured": false, "sample_categories": "Restaurants, Mexican", "public_id": "casa-de-oro-mexican-restaurant-smyrna", "id": 777623800, "votes": null, "tagline": null, "has_video": false, "website": null, "offers": null, "latitude": 33.87498, "politanName": "Atlanta, GA Metro ", "phone_number": "7704360333", "tags": [{"primary": false, "id": 11208, "name": "Mexican"}, {"primary": true, "id": 1722, "name": "Restaurants"}], "fax_number": null, "expansion": {"count": null, "uri": null}, "impression_id": "000b000000a48b7596fbb1463cbda942c337da05fe", "profile": "http://www.citysearch.com/profile/777623800/smyrna_ga/casa_de_oro_mexican_restaurant.html", "address": {"city": "Smyrna", "state": "GA", "street": "821 Concord Rd Se", "postal_code": "30080"}, "capProviderId": null, "distance": null, "has_offers": false, "name": "Casa De Oro Mexican Restaurant", "longitude": -84.529694, "has_menu": false, "awards": null, "user_review_count": 0}, {"business_operation_status": 1, "rating": null, "neighborhood": null, "image": null, "scorecard": null, "featured": false, "sample_categories": "Restaurants", "public_id": "rahims-seafood-inc-powder", "id": 806264920, "votes": null, "tagline": null, "has_video": false, "website": null, "offers": null, "latitude": 33.822061, "politanName": "Atlanta, GA Metro ", "phone_number": "7709435544", "tags": [{"primary": true, "id": 1722, "name": "Restaurants"}], "fax_number": null, "expansion": {"count": null, "uri": null}, "impression_id": "000b000000883c00659e7e4dabb524bbefe0214aa6", "profile": "http://www.citysearch.com/profile/806264920/powder_springs_ga/rahim_s_seafood_inc.html", "address": {"city": "Powder Springs", "state": "GA", "street": "4123 Sweetsprings Ter SW", "postal_code": "30127"}, "capProviderId": null, "distance": null, "has_offers": false, "name": "Rahim's Seafood Inc", "longitude": -84.676431, "has_menu": false, "awards": null, "user_review_count": 0}, {"business_operation_status": 1, "rating": null, "neighborhood": null, "image": null, "scorecard": null, "featured": false, "sample_categories": "Restaurants, Pizza, Carry Out", "public_id": "pizza-hut-kennesaw-3", "id": 790675460, "votes": null, "tagline": null, "has_video": false, "website": null, "offers": null, "latitude": 33.99979, "politanName": "Atlanta, GA Metro ", "phone_number": "7704248863", "tags": [{"primary": false, "id": 1722, "name": "Restaurants"}, {"primary": false, "id": 11247, "name": "Carry Out"}, {"primary": true, "id": 11299, "name": "Pizza"}], "fax_number": null, "expansion": {"count": null, "uri": null}, "impression_id": "000b0000005aa4b783b28040cf82344eca8a7376c8", "profile": "http://www.citysearch.com/profile/790675460/kennesaw_ga/pizza_hut.html", "address": {"city": "Kennesaw", "state": "GA", "street": "1906 Cobb Pkwy NW", "postal_code": "30152"}, "capProviderId": null, "distance": null, "has_offers": false, "name": "Pizza Hut", "longitude": -84.588641, "has_menu": false, "awards": null, "user_review_count": 0}, {"business_operation_status": 1, "rating": null, "neighborhood": null, "image": null, "scorecard": null, "featured": false, "sample_categories": "Restaurants", "public_id": "wan-fu-chinese-austell", "id": 814396930, "votes": null, "tagline": null, "has_video": false, "website": null, "offers": null, "latitude": 33.829858, "politanName": "Atlanta, GA Metro ", "phone_number": "7709486668", "tags": [{"primary": true, "id": 1722, "name": "Restaurants"}], "fax_number": null, "expansion": {"count": null, "uri": null}, "impression_id": "000b000000c407fd40b86c4dfc92e684cd7fa9040e", "profile": "http://www.citysearch.com/profile/814396930/austell_ga/wan_fu_chinese.html", "address": {"city": "Austell", "state": "GA", "street": "5055 Austell Rd # 153", "postal_code": "30106"}, "capProviderId": null, "distance": null, "has_offers": false, "name": "Wan Fu Chinese", "longitude": -84.612138, "has_menu": false, "awards": null, "user_review_count": 0}], "histograms": [], "tag_ids": [1722], "uri": "http://api.citygridmedia.com:8080/search/places/v2/search/where?has_offers=false&type=restaurant&format=json&page=29&where=30060&rpp=50&histograms=false&publisher=10000009598&region_type=circle", "did_you_mean": "", "regions": [{"latitude": 33.92521, "default_radius": 3.68, "type": "postal_code", "name": "30060", "longitude": -84.546093}], "call_id": "000b000000ef9db625996c4776b496826202794c56", "first_hit": 1401, "total_hits": 2103, "geo_ids": [26291], "page": 29, "last_hit": 1450}}