{"results": {"rpp": 50, "locations": [{"business_operation_status": 1, "rating": null, "neighborhood": null, "image": null, "scorecard": null, "featured": false, "sample_categories": "Restaurants, Delis And Delicatessens, Sandwich Shops, Carry Out", "public_id": "subway-marietta-36", "id": 655943030, "votes": null, "tagline": null, "has_video": false, "website": "http://www.citysearch.com/profile/external/655943030/marietta_ga/subway.html", "offers": null, "latitude": 33.995879, "politanName": "Atlanta, GA Metro ", "phone_number": "7703212546", "tags": [{"primary": false, "id": 1727, "name": "Delis And Delicatessens"}, {"primary": false, "id": 1736, "name": "Sandwich Shops"}, {"primary": false, "id": 11247, "name": "Carry Out"}, {"primary": true, "id": 1722, "name": "Restaurants"}], "fax_number": null, "expansion": {"count": null, "uri": null}, "impression_id": "000b000000cdedbbac04f641e38e968626e4ce08b1", "profile": "http://www.citysearch.com/profile/655943030/marietta_ga/subway.html", "address": {"city": "Marietta", "state": "GA", "street": "1860 Sandy Plains Rd # 301", "postal_code": "30066"}, "capProviderId": null, "distance": null, "has_offers": false, "name": "Subway", "longitude": -84.507715, "has_menu": false, "awards": null, "user_review_count": 0}, {"business_operation_status": 1, "rating": null, "neighborhood": null, "image": null, "scorecard": null, "featured": false, "sample_categories": "Restaurants", "public_id": "ksun-llc-powder", "id": 768794220, "votes": null, "tagline": null, "has_video": false, "website": null, "offers": null, "latitude": 33.866955, "politanName": "Atlanta, GA Metro ", "phone_number": "7709439399", "tags": [{"primary": true, "id": 1722, "name": "Restaurants"}], "fax_number": null, "expansion": {"count": null, "uri": null}, "impression_id": "000b000000e0bbaa8a56224c589da606fa5d67b3f9", "profile": "http://www.citysearch.com/profile/768794220/powder_springs_ga/ksun_llc.html", "address": {"city": "Powder Springs", "state": "GA", "street": "2860 East-West Connector SW", "postal_code": "30127"}, "capProviderId": null, "distance": null, "has_offers": false, "name": "Ksun Llc", "longitude": -84.626974, "has_menu": false, "awards": null, "user_review_count": 0}, {"business_operation_status": 1, "rating": null, "neighborhood": null, "image": null, "scorecard": null, "featured": false, "sample_categories": "Coffeehouses", "public_id": "lester-office-coffee-hiram", "id": 36287594, "votes": null, "tagline": null, "has_video": false, "website": null, "offers": null, "latitude": 33.87328, "politanName": "Atlanta, GA Metro ", "phone_number": "7709435296", "tags": [{"primary": true, "id": 1726, "name": "Coffeehouses"}], "fax_number": null, "expansion": {"count": null, "uri": null}, "impression_id": "000b0000001b01d5b456cb49389472fef425c46738", "profile": "http://www.citysearch.com/profile/36287594/hiram_ga/lester_office_coffee.html", "address": {"city": "Hiram", "state": "GA", "street": "789 Cleburne Pkwy", "postal_code": "30141"}, "capProviderId": null, "distance": null, "has_offers": false, "name": "Lester Office Coffee", "longitude": -84.730644, "has_menu": false, "awards": null, "user_review_count": 0}, {"business_operation_status": 0, "rating": null, "neighborhood": null, "image": null, "scorecard": null, "featured": false, "sample_categories": "Restaurants", "public_id": "feeder-of-flocks-rib-chips-marietta", "id": 801084460, "votes": null, "tagline": null, "has_video": false, "website": null, "offers": null, "latitude": 33.880532, "politanName": "Atlanta, GA Metro ", "phone_number": "4046689810", "tags": [{"primary": true, "id": 1722, "name": "Restaurants"}], "fax_number": null, "expansion": {"count": null, "uri": null}, "impression_id": "000b000000c37e7c20f6d34498b3e5c9a13ad4a97c", "profile": "http://www.citysearch.com/profile/801084460/marietta_ga/feeder_of_flocks_rib_chips.html", "address": {"city": "Marietta", "state": "GA", "street": "901 Milford Church Rd Sw # G", "postal_code": "30060"}, "capProviderId": null, "distance": null, "has_offers": false, "name": "Feeder of Flocks Rib & Chips", "longitude": -84.580368, "has_menu": false, "awards": null, "user_review_count": 0}, {"business_operation_status": 1, "rating": null, "neighborhood": null, "image": null, "scorecard": null, "featured": false, "sample_categories": "Luaus", "public_id": "el-herradero-kennesaw", "id": 818931270, "votes": null, "tagline": null, "has_video": false, "website": null, "offers": null, "latitude": 34.014345, "politanName": "Atlanta, GA Metro ", "phone_number": "7704231213", "tags": [{"primary": true, "id": 11285, "name": "Luaus"}], "fax_number": null, "expansion": {"count": null, "uri": null}, "impression_id": "000b00000020f8f080646c43de92a199910024bf8a", "profile": "http://www.citysearch.com/profile/818931270/kennesaw_ga/el_herradero.html", "address": {"city": "Kennesaw", "state": "GA", "street": "2479 Cobb Pkwy NW", "postal_code": "30152"}, "capProviderId": null, "distance": null, "has_offers": false, "name": "El Herradero", "longitude": -84.614253, "has_menu": false, "awards": null, "user_review_count": 0}, {"business_operation_status": 1, "rating": null, "neighborhood": null, "image": null, "scorecard": null, "featured": false, "sample_categories": "Restaurants", "public_id": "d-k-wings-marietta", "id": 824095540, "votes": null, "tagline": null, "has_video": false, "website": null, "offers": null, "latitude": 33.902356, "politanName": "Atlanta, GA Metro ", "phone_number": "7708030499", "tags": [{"primary": true, "id": 1722, "name": "Restaurants"}], "fax_number": null, "expansion": {"count": null, "uri": null}, "impression_id": "000b00000016b381e011a1482d8a0fd87c3ee733eb", "profile": "http://www.citysearch.com/profile/824095540/marietta_ga/d_k_wings.html", "address": {"city": "Marietta", "state": "GA", "street": "451 Pat Mell Rd SW", "postal_code": "30060"}, "capProviderId": null, "distance": null, "has_offers": false, "name": "D K Wings", "longitude": -84.566142, "has_menu": false, "awards": null, "user_review_count": 0}, {"business_operation_status": 1, "rating": null, "neighborhood": null, "image": null, "scorecard": null, "featured": false, "sample_categories": "Restaurants", "public_id": "leo-franco-chef-marietta", "id": 824426470, "votes": null, "tagline": null, "has_video": false, "website": null, "offers": null, "latitude": 33.948481, "politanName": "Atlanta, GA Metro ", "phone_number": "7704999439", "tags": [{"primary": true, "id": 1722, "name": "Restaurants"}], "fax_number": null, "expansion": {"count": null, "uri": null}, "impression_id": "000b000000b2e1a3c68afa464e87c7887e7d6c01e4", "profile": "http://www.citysearch.com/profile/824426470/marietta_ga/leo_franco_chef.html", "address": {"city": "Marietta", "state": "GA", "street": "20 Emerson Hill Sq", "postal_code": "30060"}, "capProviderId": null, "distance": null, "has_offers": false, "name": "Leo Franco Chef", "longitude": -84.542181, "has_menu": false, "awards": null, "user_review_count": 0}, {"business_operation_status": 1, "rating": null, "neighborhood": null, "image": null, "scorecard": null, "featured": false, "sample_categories": "Restaurants, Carry Out", "public_id": "jimmy-johns-kennesaw", "id": 612255804, "votes": null, "tagline": null, "has_video": false, "website": "http://www.citysearch.com/profile/external/612255804/kennesaw_ga/jimmy_john_s.html", "offers": null, "latitude": 34.030272, "politanName": "Atlanta, GA Metro ", "phone_number": "6783100766", "tags": [{"primary": false, "id": 11247, "name": "Carry Out"}, {"primary": true, "id": 1722, "name": "Restaurants"}], "fax_number": null, "expansion": {"count": null, "uri": null}, "impression_id": "000b000000438d4ab0c8f948e588bdf4d979b07e08", "profile": "http://www.citysearch.com/profile/612255804/kennesaw_ga/jimmy_john_s.html", "address": {"city": "Kennesaw", "state": "GA", "street": "1133 Chastain Rd NW # 300", "postal_code": "30144"}, "capProviderId": null, "distance": null, "has_offers": false, "name": "Jimmy John's", "longitude": -84.582584, "has_menu": false, "awards": null, "user_review_count": 0}, {"business_operation_status": 1, "rating": null, "neighborhood": null, "image": null, "scorecard": null, "featured": false, "sample_categories": "Restaurants", "public_id": "bridge-smoke-grill-marietta", "id": 838772530, "votes": null, "tagline": null, "has_video": false, "website": null, "offers": null, "latitude": 33.927554, "politanName": "Atlanta, GA Metro ", "phone_number": "6789033043", "tags": [{"primary": true, "id": 1722, "name": "Restaurants"}], "fax_number": null, "expansion": {"count": null, "uri": null}, "impression_id": "000b000000bc4df303f507437aa43b53e78d09353c", "profile": "http://www.citysearch.com/profile/838772530/marietta_ga/bridge_smoke_grill.html", "address": {"city": "Marietta", "state": "GA", "street": "1038 Franklin Rd SE", "postal_code": "30067"}, "capProviderId": null, "distance": null, "has_offers": false, "name": "Bridge Smoke Grill", "longitude": -84.493666, "has_menu": false, "awards": null, "user_review_count": 0}, {"business_operation_status": 1, "rating": null, "neighborhood": null, "image": null, "scorecard": null, "featured": false, "sample_categories": "Restaurants, Carry Out, Chicken", "public_id": "chickfila-kennesaw-2", "id": 627656020, "votes": null, "tagline": null, "has_video": false, "website": null, "offers": null, "latitude": 34.034361, "politanName": "Atlanta, GA Metro ", "phone_number": "7704236448", "tags": [{"primary": false, "id": 11247, "name": "Carry Out"}, {"primary": false, "id": 12839, "name": "Chicken"}, {"primary": true, "id": 1722, "name": "Restaurants"}], "fax_number": null, "expansion": {"count": null, "uri": null}, "impression_id": "000b0000009ce2651a717a4f4d8c4f917979ef19b1", "profile": "http://www.citysearch.com/profile/627656020/kennesaw_ga/chick_fil_a.html", "address": {"city": "Kennesaw", "state": "GA", "street": "1000 Chastain Rd NW", "postal_code": "30144"}, "capProviderId": null, "distance": null, "has_offers": false, "name": "Chick-Fil-A", "longitude": -84.574216, "has_menu": false, "awards": null, "user_review_count": 0}, {"business_operation_status": 1, "rating": null, "neighborhood": null, "image": null, "scorecard": null, "featured": false, "sample_categories": "Ice Cream Parlors, Frozen Yogurt Shops", "public_id": "baskinrobbins-marietta", "id": 627670240, "votes": null, "tagline": null, "has_video": false, "website": "http://www.citysearch.com/profile/external/627670240/marietta_ga/baskin_robbins.html", "offers": null, "latitude": 34.021176, "politanName": "Atlanta, GA Metro ", "phone_number": "7704223375", "tags": [{"primary": false, "id": 1729, "name": "Frozen Yogurt Shops"}, {"primary": true, "id": 1730, "name": "Ice Cream Parlors"}], "fax_number": null, "expansion": {"count": null, "uri": null}, "impression_id": "000b000000ce33ffb5227b4e2c9bf6f75baa88a46c", "profile": "http://www.citysearch.com/profile/627670240/marietta_ga/baskin_robbins.html", "address": {"city": "Marietta", "state": "GA", "street": "2885 Canton Rd", "postal_code": "30066"}, "capProviderId": null, "distance": null, "has_offers": false, "name": "Baskin-Robbins", "longitude": -84.529098, "has_menu": true, "awards": null, "user_review_count": 2}, {"business_operation_status": 1, "rating": null, "neighborhood": null, "image": null, "scorecard": null, "featured": false, "sample_categories": "Restaurants, Grocery Stores", "public_id": "snack-paradise-kennesaw", "id": 655941070, "votes": null, "tagline": null, "has_video": false, "website": null, "offers": null, "latitude": 34.022182, "politanName": "Atlanta, GA Metro ", "phone_number": "6784027506", "tags": [{"primary": false, "id": 1713, "name": "Grocery Stores"}, {"primary": true, "id": 1722, "name": "Restaurants"}], "fax_number": null, "expansion": {"count": null, "uri": null}, "impression_id": "000b0000004382efd124e5461dbf5669265923109c", "profile": "http://www.citysearch.com/profile/655941070/kennesaw_ga/snack_paradise.html", "address": {"city": "Kennesaw", "state": "GA", "street": "2851 Cobb Pkwy Nw", "postal_code": "30152"}, "capProviderId": null, "distance": null, "has_offers": false, "name": "Snack Paradise", "longitude": -84.626291, "has_menu": false, "awards": null, "user_review_count": 0}, {"business_operation_status": 1, "rating": null, "neighborhood": null, "image": null, "scorecard": null, "featured": false, "sample_categories": "Restaurants, Catering, Gourmet Foods", "public_id": "masani-gourmet-southern-c-marietta", "id": 682266220, "votes": null, "tagline": null, "has_video": false, "website": "http://www.citysearch.com/profile/external/682266220/marietta_ga/masani_gourmet_southern_c.html", "offers": null, "latitude": 33.886828, "politanName": "Atlanta, GA Metro ", "phone_number": "6785982121", "tags": [{"primary": false, "id": 1705, "name": "Catering"}, {"primary": false, "id": 11169, "name": "Gourmet Foods"}, {"primary": true, "id": 1722, "name": "Restaurants"}], "fax_number": null, "expansion": {"count": null, "uri": null}, "impression_id": "000b0000000689ba7348ea41e1bee12beffa5bd002", "profile": "http://www.citysearch.com/profile/682266220/marietta_ga/masani_gourmet_southern_c.html", "address": {"city": "Marietta", "state": "GA", "street": "246 Timber Creek Ln Sw", "postal_code": "30060"}, "capProviderId": null, "distance": null, "has_offers": false, "name": "Masani Gourmet Southern C", "longitude": -84.557713, "has_menu": false, "awards": null, "user_review_count": 0}, {"business_operation_status": 1, "rating": null, "neighborhood": null, "image": null, "scorecard": null, "featured": false, "sample_categories": "Delis And Delicatessens, Restaurants, Fast Food", "public_id": "best-wings-deli-douglasville", "id": 682618300, "votes": null, "tagline": null, "has_video": false, "website": null, "offers": null, "latitude": 33.747372, "politanName": "Atlanta, GA Metro ", "phone_number": "7709477880", "tags": [{"primary": false, "id": 1722, "name": "Restaurants"}, {"primary": false, "id": 11199, "name": "Fast Food"}, {"primary": true, "id": 1727, "name": "Delis And Delicatessens"}], "fax_number": null, "expansion": {"count": null, "uri": null}, "impression_id": "000b000000b498b3722da34947a7dd8b9328a3a1b4", "profile": "http://www.citysearch.com/profile/682618300/douglasville_ga/city_s_best_wings_and_deli.html", "address": {"city": "Douglasville", "state": "GA", "street": "2134 Fairburn Rd", "postal_code": "30135"}, "capProviderId": null, "distance": null, "has_offers": false, "name": "City's Best Wings and Deli", "longitude": -84.699929, "has_menu": false, "awards": null, "user_review_count": 0}, {"business_operation_status": 1, "rating": null, "neighborhood": null, "image": null, "scorecard": null, "featured": false, "sample_categories": "Restaurants, Traditional American, Carry Out, American Express, Discover", "public_id": "golden-corral-buffet-grill-marietta", "id": 682491030, "votes": null, "tagline": null, "has_video": false, "website": "http://www.citysearch.com/profile/external/682491030/marietta_ga/golden_corral_buffet_grill.html", "offers": null, "latitude": 33.858906, "politanName": "Atlanta, GA Metro ", "phone_number": "7707328014", "tags": [{"primary": false, "id": 11190, "name": "Traditional American"}, {"primary": false, "id": 11247, "name": "Carry Out"}, {"primary": false, "id": 11333, "name": "American Express"}, {"primary": false, "id": 11349, "name": "Discover"}, {"primary": false, "id": 11361, "name": "MasterCard"}, {"primary": false, "id": 11382, "name": "Visa"}, {"primary": true, "id": 1722, "name": "Restaurants"}], "fax_number": null, "expansion": {"count": null, "uri": null}, "impression_id": "000b0000001c51ec6034bd4a63ba32fd3c9b759112", "profile": "http://www.citysearch.com/profile/682491030/marietta_ga/golden_corral_buffet_grill.html", "address": {"city": "Marietta", "state": "GA", "street": "3845 Austell Rd Sw", "postal_code": "30008"}, "capProviderId": null, "distance": null, "has_offers": false, "name": "Golden Corral Buffet & Grill", "longitude": -84.598385, "has_menu": false, "awards": null, "user_review_count": 0}, {"business_operation_status": 1, "rating": null, "neighborhood": null, "image": null, "scorecard": null, "featured": false, "sample_categories": "Ice Cream Parlors, Restaurants", "public_id": "pino-gelalo-of-marietta-marietta", "id": 713581850, "votes": null, "tagline": null, "has_video": false, "website": null, "offers": null, "latitude": 33.952532, "politanName": "Atlanta, GA Metro ", "phone_number": "7702182525", "tags": [{"primary": false, "id": 1722, "name": "Restaurants"}, {"primary": true, "id": 1730, "name": "Ice Cream Parlors"}], "fax_number": null, "expansion": {"count": null, "uri": null}, "impression_id": "000b00000032157928a5c5437f900428c7920d1d8c", "profile": "http://www.citysearch.com/profile/713581850/marietta_ga/pino_gelalo_of_marietta.html", "address": {"city": "Marietta", "state": "GA", "street": "21 W Park Sq Ne", "postal_code": "30060"}, "capProviderId": null, "distance": null, "has_offers": false, "name": "Pino Gelalo of Marietta", "longitude": -84.550467, "has_menu": false, "awards": null, "user_review_count": 0}, {"business_operation_status": 1, "rating": null, "neighborhood": null, "image": null, "scorecard": null, "featured": false, "sample_categories": "Ice Cream Parlors", "public_id": "haagendazs-shop-kennesaw", "id": 706821520, "votes": null, "tagline": null, "has_video": false, "website": "http://www.citysearch.com/profile/external/706821520/kennesaw_ga/haagen_dazs_shop.html", "offers": null, "latitude": 34.019128, "politanName": "Atlanta, GA Metro ", "phone_number": "7705903120", "tags": [{"primary": true, "id": 1730, "name": "Ice Cream Parlors"}], "fax_number": null, "expansion": {"count": null, "uri": null}, "impression_id": "000b000000a1e15f3c509f440e882ef3db2f71b3b0", "profile": "http://www.citysearch.com/profile/706821520/kennesaw_ga/haagen_dazs_shop.html", "address": {"city": "Kennesaw", "state": "GA", "street": "400 Ernest W Barrett Pkwy NW", "postal_code": "30144"}, "capProviderId": null, "distance": null, "has_offers": false, "name": "Haagen-Dazs Shop", "longitude": -84.563608, "has_menu": true, "awards": null, "user_review_count": 0}, {"business_operation_status": 1, "rating": null, "neighborhood": null, "image": null, "scorecard": null, "featured": false, "sample_categories": "Restaurants", "public_id": "willamsonbros-marietta-2", "id": 609749214, "votes": null, "tagline": null, "has_video": false, "website": null, "offers": null, "latitude": 33.977691, "politanName": "Atlanta, GA Metro ", "phone_number": "7704999797", "tags": [{"primary": true, "id": 1722, "name": "Restaurants"}], "fax_number": null, "expansion": {"count": null, "uri": null}, "impression_id": "000b000000d055423e0c834aeca47ee24ef15c9a91", "profile": "http://www.citysearch.com/profile/609749214/marietta_ga/willamsonbros.html", "address": {"city": "Marietta", "state": "GA", "street": "1160 Hayes Industrial Dr", "postal_code": "30062"}, "capProviderId": null, "distance": null, "has_offers": false, "name": "Willamsonbros", "longitude": -84.542327, "has_menu": false, "awards": null, "user_review_count": 0}, {"business_operation_status": 1, "rating": null, "neighborhood": null, "image": null, "scorecard": null, "featured": false, "sample_categories": "Restaurants, Carry Out", "public_id": "kfc-marietta-10", "id": 713491660, "votes": null, "tagline": null, "has_video": false, "website": "http://www.citysearch.com/profile/external/713491660/marietta_ga/kfc.html", "offers": null, "latitude": 33.999161, "politanName": "Atlanta, GA Metro ", "phone_number": "7704276866", "tags": [{"primary": false, "id": 11247, "name": "Carry Out"}, {"primary": true, "id": 1722, "name": "Restaurants"}], "fax_number": null, "expansion": {"count": null, "uri": null}, "impression_id": "000b000000ebfc89ee1b0a4be7957732427b807c39", "profile": "http://www.citysearch.com/profile/713491660/marietta_ga/kfc.html", "address": {"city": "Marietta", "state": "GA", "street": "2012 Canton Rd", "postal_code": "30066"}, "capProviderId": null, "distance": null, "has_offers": false, "name": "KFC", "longitude": -84.523794, "has_menu": false, "awards": null, "user_review_count": 0}, {"business_operation_status": 1, "rating": null, "neighborhood": null, "image": null, "scorecard": null, "featured": false, "sample_categories": "Restaurants", "public_id": "little-gumbas-acworth", "id": 817697620, "votes": null, "tagline": null, "has_video": false, "website": null, "offers": null, "latitude": 34.030244, "politanName": "Atlanta, GA Metro ", "phone_number": "6785748956", "tags": [{"primary": true, "id": 1722, "name": "Restaurants"}], "fax_number": null, "expansion": {"count": null, "uri": null}, "impression_id": "000b0000005c707646c2d2474b800800b71e2fffb9", "profile": "http://www.citysearch.com/profile/817697620/acworth_ga/little_gumbas.html", "address": {"city": "Acworth", "state": "GA", "street": "22 Old Stilesboro Rd", "postal_code": "30101"}, "capProviderId": null, "distance": null, "has_offers": false, "name": "Little Gumbas", "longitude": -84.741165, "has_menu": false, "awards": null, "user_review_count": 0}, {"business_operation_status": 1, "rating": null, "neighborhood": null, "image": null, "scorecard": null, "featured": false, "sample_categories": "Restaurants", "public_id": "new-china-buffet-kennesaw-2", "id": 830498290, "votes": null, "tagline": null, "has_video": false, "website": null, "offers": null, "latitude": 34.014631, "politanName": "Atlanta, GA Metro ", "phone_number": "7707922262", "tags": [{"primary": true, "id": 1722, "name": "Restaurants"}], "fax_number": null, "expansion": {"count": null, "uri": null}, "impression_id": "000b0000004afbecf408324b9290c09beccde27d26", "profile": "http://www.citysearch.com/profile/830498290/kennesaw_ga/new_china_buffet.html", "address": {"city": "Kennesaw", "state": "GA", "street": "Town Center Plz", "postal_code": "30144"}, "capProviderId": null, "distance": null, "has_offers": false, "name": "New China Buffet", "longitude": -84.562889, "has_menu": false, "awards": null, "user_review_count": 0}, {"business_operation_status": 1, "rating": null, "neighborhood": null, "image": null, "scorecard": null, "featured": false, "sample_categories": "Juice & Smoothie Shops", "public_id": "energy-juice-bar-kennesaw", "id": 836019090, "votes": null, "tagline": null, "has_video": false, "website": null, "offers": null, "latitude": 33.999616, "politanName": "Atlanta, GA Metro ", "phone_number": "8622244594", "tags": [{"primary": true, "id": 1735, "name": "Juice & Smoothie Shops"}], "fax_number": null, "expansion": {"count": null, "uri": null}, "impression_id": "000b000000f7973c07acfa422d810875d329019b42", "profile": "http://www.citysearch.com/profile/836019090/kennesaw_ga/energy_juice_bar.html", "address": {"city": "Kennesaw", "state": "GA", "street": "1185 Ernest W Barrett Pkwy NW", "postal_code": "30144"}, "capProviderId": null, "distance": null, "has_offers": false, "name": "Energy Juice Bar", "longitude": -84.58372, "has_menu": false, "awards": null, "user_review_count": 0}, {"business_operation_status": 1, "rating": null, "neighborhood": null, "image": null, "scorecard": null, "featured": false, "sample_categories": "Restaurants, Delis And Delicatessens, Sandwich Shops, Carry Out, American Express", "public_id": "quiznos-marietta-3", "id": 43840232, "votes": null, "tagline": null, "has_video": false, "website": null, "offers": null, "latitude": 33.917126, "politanName": "Atlanta, GA Metro ", "phone_number": "6785947600", "tags": [{"primary": false, "id": 1727, "name": "Delis And Delicatessens"}, {"primary": false, "id": 1736, "name": "Sandwich Shops"}, {"primary": false, "id": 11247, "name": "Carry Out"}, {"primary": false, "id": 11333, "name": "American Express"}, {"primary": false, "id": 11347, "name": "Debit Card"}, {"primary": false, "id": 11349, "name": "Discover"}, {"primary": false, "id": 11361, "name": "MasterCard"}, {"primary": false, "id": 11382, "name": "Visa"}, {"primary": true, "id": 1722, "name": "Restaurants"}], "fax_number": null, "expansion": {"count": null, "uri": null}, "impression_id": "000b0000002d3ea3e440c04c539684fb5bdd0f531e", "profile": "http://www.citysearch.com/profile/43840232/marietta_ga/quiznos.html", "address": {"city": "Marietta", "state": "GA", "street": "125 Barrett Pkwy Ste 104", "postal_code": "30066"}, "capProviderId": null, "distance": null, "has_offers": false, "name": "Quiznos", "longitude": -84.563854, "has_menu": true, "awards": null, "user_review_count": 0}, {"business_operation_status": 1, "rating": null, "neighborhood": null, "image": null, "scorecard": null, "featured": false, "sample_categories": "Restaurants, Bistros", "public_id": "pearls-southern-bistro-mableton", "id": 787089110, "votes": null, "tagline": null, "has_video": false, "website": null, "offers": null, "latitude": 33.817233, "politanName": "Atlanta, GA Metro ", "phone_number": "7707092666", "tags": [{"primary": false, "id": 13690, "name": "Bistros"}, {"primary": true, "id": 1722, "name": "Restaurants"}], "fax_number": null, "expansion": {"count": null, "uri": null}, "impression_id": "000b00000076bccdecb38944c5859329401e816ca6", "profile": "http://www.citysearch.com/profile/787089110/mableton_ga/pearl_s_southern_bistro.html", "address": {"city": "Mableton", "state": "GA", "street": "1174 Veterans Memorial Hwy Sw", "postal_code": "30126"}, "capProviderId": null, "distance": null, "has_offers": false, "name": "Pearl's Southern Bistro", "longitude": -84.588574, "has_menu": false, "awards": null, "user_review_count": 0}, {"business_operation_status": 1, "rating": null, "neighborhood": null, "image": null, "scorecard": null, "featured": false, "sample_categories": "Restaurants, Pizza", "public_id": "johnnys-pizza-subs-marietta", "id": 2904727, "votes": null, "tagline": null, "has_video": false, "website": null, "offers": null, "latitude": 33.968758, "politanName": "Atlanta, GA Metro ", "phone_number": "7705658665", "tags": [{"primary": false, "id": 11299, "name": "Pizza"}, {"primary": true, "id": 1722, "name": "Restaurants"}], "fax_number": null, "expansion": {"count": null, "uri": null}, "impression_id": "000b0000008e4aa586394d478cbe6bc06fb7e85bbe", "profile": "http://www.citysearch.com/profile/2904727/marietta_ga/johnny_s_pizza_subs.html", "address": {"city": "Marietta", "state": "GA", "street": "2100 Roswell Rd", "postal_code": "30062"}, "capProviderId": null, "distance": null, "has_offers": false, "name": "Johnny's Pizza & Subs", "longitude": -84.488447, "has_menu": true, "awards": null, "user_review_count": 0}, {"business_operation_status": 1, "rating": null, "neighborhood": null, "image": null, "scorecard": null, "featured": false, "sample_categories": "Barbecue Restaurants, Catering, Food Stores, Restaurants", "public_id": "wallace-foods-catering-dallas", "id": 2951275, "votes": null, "tagline": null, "has_video": false, "website": null, "offers": null, "latitude": 33.91823, "politanName": "Atlanta, GA Metro ", "phone_number": "7704458151", "tags": [{"primary": false, "id": 1724, "name": "Barbecue Restaurants"}, {"primary": false, "id": 1705, "name": "Catering"}, {"primary": false, "id": 1706, "name": "Food Stores"}, {"primary": true, "id": 1722, "name": "Restaurants"}], "fax_number": null, "expansion": {"count": null, "uri": null}, "impression_id": "000b000000db1d614c2b224210ba9fb48a643d2340", "profile": "http://www.citysearch.com/profile/2951275/dallas_ga/wallace_foods_catering.html", "address": {"city": "Dallas", "state": "GA", "street": "86 Owens Rd", "postal_code": "30157"}, "capProviderId": null, "distance": null, "has_offers": false, "name": "Wallace Foods & Catering", "longitude": -84.777135, "has_menu": false, "awards": null, "user_review_count": 0}, {"business_operation_status": 1, "rating": null, "neighborhood": null, "image": null, "scorecard": null, "featured": false, "sample_categories": "Restaurants", "public_id": "angels-burrito-on-the-square-marietta", "id": 609728344, "votes": null, "tagline": null, "has_video": false, "website": null, "offers": null, "latitude": 33.952259, "politanName": "Atlanta, GA Metro ", "phone_number": "6785943352", "tags": [{"primary": true, "id": 1722, "name": "Restaurants"}], "fax_number": null, "expansion": {"count": null, "uri": null}, "impression_id": "000b000000a2516119c98542879cca284aa87924b2", "profile": "http://www.citysearch.com/profile/609728344/marietta_ga/angel_s_burrito_on_the_square.html", "address": {"city": "Marietta", "state": "GA", "street": "154 Roswell St SE", "postal_code": "30060"}, "capProviderId": null, "distance": null, "has_offers": false, "name": "Angel's Burrito On The Square", "longitude": -84.548687, "has_menu": false, "awards": null, "user_review_count": 0}, {"business_operation_status": 1, "rating": null, "neighborhood": null, "image": null, "scorecard": null, "featured": false, "sample_categories": "Coffeehouses", "public_id": "gold-cup-coffee-service-inc-smyrna", "id": 817382800, "votes": null, "tagline": null, "has_video": false, "website": null, "offers": null, "latitude": 33.897454, "politanName": "Atlanta, GA Metro ", "phone_number": "7703199067", "tags": [{"primary": true, "id": 1726, "name": "Coffeehouses"}], "fax_number": null, "expansion": {"count": null, "uri": null}, "impression_id": "000b0000005ef72b8ea4e84559b0c3fdff65affb42", "profile": "http://www.citysearch.com/profile/817382800/smyrna_ga/gold_cup_coffee_service_inc.html", "address": {"city": "Smyrna", "state": "GA", "street": "2301 Benson Poole Rd SE", "postal_code": "30082"}, "capProviderId": null, "distance": null, "has_offers": false, "name": "Gold Cup Coffee Service Inc", "longitude": -84.541681, "has_menu": false, "awards": null, "user_review_count": 0}, {"business_operation_status": 1, "rating": null, "neighborhood": null, "image": null, "scorecard": null, "featured": false, "sample_categories": "Restaurants, Pizza", "public_id": "capozzis-ny-pizza-pasta-marietta", "id": 611363274, "votes": null, "tagline": null, "has_video": false, "website": "http://www.citysearch.com/profile/external/611363274/marietta_ga/capozzi_s_ny_pizza_pasta.html", "offers": null, "latitude": 34.034941, "politanName": "Atlanta, GA Metro ", "phone_number": "7703211969", "tags": [{"primary": false, "id": 1722, "name": "Restaurants"}, {"primary": true, "id": 11299, "name": "Pizza"}], "fax_number": null, "expansion": {"count": null, "uri": null}, "impression_id": "000b0000008306f16381a342f98838fe0ec7f4cac3", "profile": "http://www.citysearch.com/profile/611363274/marietta_ga/capozzi_s_ny_pizza_pasta.html", "address": {"city": "Marietta", "state": "GA", "street": "2960 Shallowford Rd # 101", "postal_code": "30066"}, "capProviderId": null, "distance": null, "has_offers": false, "name": "Capozzi's NY Pizza & Pasta", "longitude": -84.466786, "has_menu": false, "awards": null, "user_review_count": 3}, {"business_operation_status": 1, "rating": 8.0, "neighborhood": null, "image": null, "scorecard": null, "featured": false, "sample_categories": "Restaurants, Mexican", "public_id": "el-toro-marietta-2", "id": 2903732, "votes": null, "tagline": null, "has_video": false, "website": null, "offers": null, "latitude": 33.977237, "politanName": "Atlanta, GA Metro ", "phone_number": "7709733173", "tags": [{"primary": false, "id": 1722, "name": "Restaurants"}, {"primary": true, "id": 11208, "name": "Mexican"}], "fax_number": null, "expansion": {"count": null, "uri": null}, "impression_id": "000b0000002c7ea5eede904bea995800a380d6e1ee", "profile": "http://www.citysearch.com/profile/2903732/marietta_ga/el_toro.html", "address": {"city": "Marietta", "state": "GA", "street": "1060 E Piedmont Rd", "postal_code": "30062"}, "capProviderId": null, "distance": null, "has_offers": false, "name": "El Toro", "longitude": -84.479761, "has_menu": true, "awards": null, "user_review_count": 0}, {"business_operation_status": 1, "rating": null, "neighborhood": null, "image": null, "scorecard": null, "featured": false, "sample_categories": "Restaurants, Food Delivery", "public_id": "r-t-restaurant-svc-marietta", "id": 742250660, "votes": null, "tagline": null, "has_video": false, "website": null, "offers": null, "latitude": 33.911149, "politanName": "Atlanta, GA Metro ", "phone_number": "7704273260", "tags": [{"primary": false, "id": 11267, "name": "Food Delivery"}, {"primary": true, "id": 1722, "name": "Restaurants"}], "fax_number": null, "expansion": {"count": null, "uri": null}, "impression_id": "000b000000857ea62e500d4b0b99a83d9933611596", "profile": "http://www.citysearch.com/profile/742250660/marietta_ga/r_t_restaurant_svc.html", "address": {"city": "Marietta", "state": "GA", "street": "1679 Longwood Dr SW", "postal_code": "30008"}, "capProviderId": null, "distance": null, "has_offers": false, "name": "R & T Restaurant Svc", "longitude": -84.56801, "has_menu": false, "awards": null, "user_review_count": 0}, {"business_operation_status": 1, "rating": null, "neighborhood": null, "image": null, "scorecard": null, "featured": false, "sample_categories": "Ice Cream Parlors, Restaurants, Carry Out", "public_id": "dairy-queen-kennesaw-3", "id": 777729670, "votes": null, "tagline": null, "has_video": false, "website": "http://www.citysearch.com/profile/external/777729670/kennesaw_ga/dairy_queen.html", "offers": null, "latitude": 34.014009, "politanName": "Atlanta, GA Metro ", "phone_number": "7704281468", "tags": [{"primary": false, "id": 1722, "name": "Restaurants"}, {"primary": false, "id": 11247, "name": "Carry Out"}, {"primary": true, "id": 1730, "name": "Ice Cream Parlors"}], "fax_number": null, "expansion": {"count": null, "uri": null}, "impression_id": "000b0000003444edaa6bf94791aee8322b21bd1dc3", "profile": "http://www.citysearch.com/profile/777729670/kennesaw_ga/dairy_queen.html", "address": {"city": "Kennesaw", "state": "GA", "street": "400 Ernest W Barrett NW # 205", "postal_code": "30144"}, "capProviderId": null, "distance": null, "has_offers": false, "name": "Dairy Queen", "longitude": -84.561425, "has_menu": true, "awards": null, "user_review_count": 0}, {"business_operation_status": 1, "rating": null, "neighborhood": null, "image": null, "scorecard": null, "featured": false, "sample_categories": "Restaurants, Pizza", "public_id": "pizza-rogizio-marietta", "id": 777749830, "votes": null, "tagline": null, "has_video": false, "website": null, "offers": null, "latitude": 33.951936, "politanName": "Atlanta, GA Metro ", "phone_number": "7705782824", "tags": [{"primary": false, "id": 11299, "name": "Pizza"}, {"primary": true, "id": 1722, "name": "Restaurants"}], "fax_number": null, "expansion": {"count": null, "uri": null}, "impression_id": "000b000000f02967fda06b42b9b0f734e525c24e79", "profile": "http://www.citysearch.com/profile/777749830/marietta_ga/pizza_rogizio.html", "address": {"city": "Marietta", "state": "GA", "street": "1818 Lower Roswell Rd", "postal_code": "30068"}, "capProviderId": null, "distance": null, "has_offers": false, "name": "Pizza Rogizio", "longitude": -84.499113, "has_menu": false, "awards": null, "user_review_count": 0}, {"business_operation_status": 1, "rating": null, "neighborhood": null, "image": null, "scorecard": null, "featured": false, "sample_categories": "Restaurants", "public_id": "city-cafe-dallas-2", "id": 777759730, "votes": null, "tagline": null, "has_video": false, "website": null, "offers": null, "latitude": 34.02964, "politanName": "Atlanta, GA Metro ", "phone_number": "7704432610", "tags": [{"primary": true, "id": 1722, "name": "Restaurants"}], "fax_number": null, "expansion": {"count": null, "uri": null}, "impression_id": "000b000000d7c5935c984344368649b16acc89905f", "profile": "http://www.citysearch.com/profile/777759730/dallas_ga/city_cafe.html", "address": {"city": "Dallas", "state": "GA", "street": "8164 Cartersville Hwy", "postal_code": "30132"}, "capProviderId": null, "distance": null, "has_offers": false, "name": "City Cafe", "longitude": -84.848102, "has_menu": false, "awards": null, "user_review_count": 0}, {"business_operation_status": 1, "rating": null, "neighborhood": null, "image": null, "scorecard": null, "featured": false, "sample_categories": "Restaurants, Seafood", "public_id": "a-js-famous-seafood-poboys-marietta", "id": 793361500, "votes": null, "tagline": null, "has_video": false, "website": null, "offers": null, "latitude": 33.968758, "politanName": "Atlanta, GA Metro ", "phone_number": "6786273971", "tags": [{"primary": false, "id": 11228, "name": "Seafood"}, {"primary": true, "id": 1722, "name": "Restaurants"}], "fax_number": null, "expansion": {"count": null, "uri": null}, "impression_id": "000b0000008d45775069fe4957abc37d35a36c0837", "profile": "http://www.citysearch.com/profile/793361500/marietta_ga/a_j_s_famous_seafood_poboys.html", "address": {"city": "Marietta", "state": "GA", "street": "2100 Roswell Rd", "postal_code": "30062"}, "capProviderId": null, "distance": null, "has_offers": false, "name": "A J's Famous Seafood & Poboys", "longitude": -84.488447, "has_menu": false, "awards": null, "user_review_count": 0}, {"business_operation_status": 1, "rating": null, "neighborhood": null, "image": null, "scorecard": null, "featured": false, "sample_categories": "Restaurants, Cafes", "public_id": "socrates-cafe-marietta", "id": 713427300, "votes": null, "tagline": null, "has_video": false, "website": null, "offers": null, "latitude": 33.930756, "politanName": "Atlanta, GA Metro ", "phone_number": "7707926042", "tags": [{"primary": false, "id": 6190, "name": "Cafes"}, {"primary": true, "id": 1722, "name": "Restaurants"}], "fax_number": null, "expansion": {"count": null, "uri": null}, "impression_id": "000b000000dda30f4162ec48a8afc4522b669c13cf", "profile": "http://www.citysearch.com/profile/713427300/marietta_ga/socrates_cafe.html", "address": {"city": "Marietta", "state": "GA", "street": "1269 Barclay Cir Se", "postal_code": "30060"}, "capProviderId": null, "distance": null, "has_offers": false, "name": "Socrates Cafe", "longitude": -84.514539, "has_menu": false, "awards": null, "user_review_count": 0}, {"business_operation_status": 1, "rating": null, "neighborhood": null, "image": null, "scorecard": null, "featured": false, "sample_categories": "Restaurants", "public_id": "hoof-ale-marietta", "id": 796118290, "votes": null, "tagline": null, "has_video": false, "website": null, "offers": null, "latitude": 33.968758, "politanName": "Atlanta, GA Metro ", "phone_number": "7709710334", "tags": [{"primary": true, "id": 1722, "name": "Restaurants"}], "fax_number": null, "expansion": {"count": null, "uri": null}, "impression_id": "000b000000d130bbb387ba4e579f0e1dbb91cd0b3f", "profile": "http://www.citysearch.com/profile/796118290/marietta_ga/hoof_ale.html", "address": {"city": "Marietta", "state": "GA", "street": "2100 Roswell Rd", "postal_code": "30062"}, "capProviderId": null, "distance": null, "has_offers": false, "name": "Hoof & Ale", "longitude": -84.488447, "has_menu": false, "awards": null, "user_review_count": 0}, {"business_operation_status": 0, "rating": null, "neighborhood": null, "image": null, "scorecard": null, "featured": false, "sample_categories": "Restaurants, Traditional American", "public_id": "shoneys-marietta", "id": 2900905, "votes": null, "tagline": null, "has_video": false, "website": null, "offers": null, "latitude": 33.9485, "politanName": "Atlanta, GA Metro ", "phone_number": "7704225333", "tags": [{"primary": false, "id": 11190, "name": "Traditional American"}, {"primary": true, "id": 1722, "name": "Restaurants"}], "fax_number": null, "expansion": {"count": null, "uri": null}, "impression_id": "000b000000297d004568bd400cb543ace6685ac28a", "profile": "http://www.citysearch.com/profile/2900905/marietta_ga/shoney_s.html", "address": {"city": "Marietta", "state": "GA", "street": "155 Cobb Pkwy S", "postal_code": "30060"}, "capProviderId": null, "distance": null, "has_offers": false, "name": "Shoney's", "longitude": -84.518323, "has_menu": true, "awards": null, "user_review_count": 0}, {"business_operation_status": 1, "rating": null, "neighborhood": null, "image": null, "scorecard": null, "featured": false, "sample_categories": "Restaurants", "public_id": "little-china-smyrna", "id": 805796770, "votes": null, "tagline": null, "has_video": false, "website": null, "offers": null, "latitude": 33.894335, "politanName": "Atlanta, GA Metro ", "phone_number": "6783057377", "tags": [{"primary": true, "id": 1722, "name": "Restaurants"}], "fax_number": null, "expansion": {"count": null, "uri": null}, "impression_id": "000b00000072582ed556e0410b98c4e5d3d369046d", "profile": "http://www.citysearch.com/profile/805796770/smyrna_ga/little_china.html", "address": {"city": "Smyrna", "state": "GA", "street": "1065 Windy Hill Rd SE", "postal_code": "30080"}, "capProviderId": null, "distance": null, "has_offers": false, "name": "Little China", "longitude": -84.522435, "has_menu": false, "awards": null, "user_review_count": 0}, {"business_operation_status": 1, "rating": null, "neighborhood": null, "image": null, "scorecard": null, "featured": false, "sample_categories": "Coffeehouses", "public_id": "ashley-cooper-coffee-marietta", "id": 816560520, "votes": null, "tagline": null, "has_video": false, "website": null, "offers": null, "latitude": 33.970881, "politanName": "Atlanta, GA Metro ", "phone_number": "7704229615", "tags": [{"primary": true, "id": 1726, "name": "Coffeehouses"}], "fax_number": null, "expansion": {"count": null, "uri": null}, "impression_id": "000b0000005bad4d0b238e487ab24910fd6fb0f344", "profile": "http://www.citysearch.com/profile/816560520/marietta_ga/ashley_cooper_coffee.html", "address": {"city": "Marietta", "state": "GA", "street": "829 Pickens Industrial Dr # 11", "postal_code": "30062"}, "capProviderId": null, "distance": null, "has_offers": false, "name": "Ashley Cooper Coffee", "longitude": -84.525365, "has_menu": false, "awards": null, "user_review_count": 0}, {"business_operation_status": 1, "rating": null, "neighborhood": null, "image": null, "scorecard": null, "featured": false, "sample_categories": "Restaurants", "public_id": "el-herradero-mexican-rstrnt-kennesaw", "id": 824483720, "votes": null, "tagline": null, "has_video": false, "website": null, "offers": null, "latitude": 34.014345, "politanName": "Atlanta, GA Metro ", "phone_number": "7704231213", "tags": [{"primary": true, "id": 1722, "name": "Restaurants"}], "fax_number": null, "expansion": {"count": null, "uri": null}, "impression_id": "000b000000854623757e854351a6872fb1ebe76265", "profile": "http://www.citysearch.com/profile/824483720/kennesaw_ga/el_herradero_mexican_rstrnt.html", "address": {"city": "Kennesaw", "state": "GA", "street": "2479 Cobb Pkwy NW", "postal_code": "30152"}, "capProviderId": null, "distance": null, "has_offers": false, "name": "El Herradero Mexican Rstrnt", "longitude": -84.614253, "has_menu": false, "awards": null, "user_review_count": 0}, {"business_operation_status": 1, "rating": null, "neighborhood": null, "image": null, "scorecard": null, "featured": false, "sample_categories": "Restaurants", "public_id": "mrs-winners-chicken-bscts-marietta", "id": 824819280, "votes": null, "tagline": null, "has_video": false, "website": null, "offers": null, "latitude": 33.863233, "politanName": "Atlanta, GA Metro ", "phone_number": "7704386204", "tags": [{"primary": true, "id": 1722, "name": "Restaurants"}], "fax_number": null, "expansion": {"count": null, "uri": null}, "impression_id": "000b0000003cd20af617d047fd8b2dd66c507a5b9a", "profile": "http://www.citysearch.com/profile/824819280/marietta_ga/mrs_winner_s_chicken_bscts.html", "address": {"city": "Marietta", "state": "GA", "street": "3710 Austell Rd SW", "postal_code": "30008"}, "capProviderId": null, "distance": null, "has_offers": false, "name": "Mrs Winner's Chicken & Bscts", "longitude": -84.596738, "has_menu": false, "awards": null, "user_review_count": 0}, {"business_operation_status": 1, "rating": null, "neighborhood": null, "image": null, "scorecard": null, "featured": false, "sample_categories": "Restaurants", "public_id": "deli-planet-kennesaw", "id": 828070300, "votes": null, "tagline": null, "has_video": false, "website": null, "offers": null, "latitude": 34.012738, "politanName": "Atlanta, GA Metro ", "phone_number": "6783035062", "tags": [{"primary": true, "id": 1722, "name": "Restaurants"}], "fax_number": null, "expansion": {"count": null, "uri": null}, "impression_id": "000b000000e5a6dd88c2414b47b7023955ac33c98e", "profile": "http://www.citysearch.com/profile/828070300/kennesaw_ga/deli_planet.html", "address": {"city": "Kennesaw", "state": "GA", "street": "440 Ernest W Barrett Pkwy NW", "postal_code": "30144"}, "capProviderId": null, "distance": null, "has_offers": false, "name": "Deli Planet", "longitude": -84.5643, "has_menu": false, "awards": null, "user_review_count": 0}, {"business_operation_status": 1, "rating": null, "neighborhood": null, "image": null, "scorecard": null, "featured": false, "sample_categories": "Restaurants, Mexican, Carry Out", "public_id": "chipotle-mexican-grill-kennesaw", "id": 766807240, "votes": null, "tagline": null, "has_video": false, "website": "http://www.citysearch.com/profile/external/766807240/kennesaw_ga/chipotle_mexican_grill.html", "offers": null, "latitude": 34.019128, "politanName": "Atlanta, GA Metro ", "phone_number": "6782797996", "tags": [{"primary": false, "id": 11208, "name": "Mexican"}, {"primary": false, "id": 11247, "name": "Carry Out"}, {"primary": true, "id": 1722, "name": "Restaurants"}], "fax_number": null, "expansion": {"count": null, "uri": null}, "impression_id": "000b00000044c2f1dfa1ac4b6fbc82b61f371ce375", "profile": "http://www.citysearch.com/profile/766807240/kennesaw_ga/chipotle_mexican_grill.html", "address": {"city": "Kennesaw", "state": "GA", "street": "964 Ernest W Barrett Pkwy NW", "postal_code": "30144"}, "capProviderId": null, "distance": null, "has_offers": false, "name": "Chipotle Mexican Grill", "longitude": -84.563608, "has_menu": false, "awards": null, "user_review_count": 0}, {"business_operation_status": 0, "rating": null, "neighborhood": null, "image": null, "scorecard": null, "featured": false, "sample_categories": "Restaurants, Convenience Stores", "public_id": "pantry-marietta", "id": 777697380, "votes": null, "tagline": null, "has_video": false, "website": null, "offers": null, "latitude": 33.970591, "politanName": "Atlanta, GA Metro ", "phone_number": "7704198988", "tags": [{"primary": false, "id": 1714, "name": "Convenience Stores"}, {"primary": true, "id": 1722, "name": "Restaurants"}], "fax_number": null, "expansion": {"count": null, "uri": null}, "impression_id": "000b000000fc4f89dac87c4a39868cb508a7186cf4", "profile": "http://www.citysearch.com/profile/777697380/marietta_ga/pantry.html", "address": {"city": "Marietta", "state": "GA", "street": "790 Church St Ne # 210", "postal_code": "30060"}, "capProviderId": null, "distance": null, "has_offers": false, "name": "Pantry", "longitude": -84.550288, "has_menu": false, "awards": null, "user_review_count": 0}, {"business_operation_status": 1, "rating": null, "neighborhood": null, "image": null, "scorecard": null, "featured": false, "sample_categories": "Restaurants, Barbecue Restaurants, Carry Out", "public_id": "gem-city-wings-marietta", "id": 777757950, "votes": null, "tagline": null, "has_video": false, "website": null, "offers": null, "latitude": 33.95115, "politanName": "Atlanta, GA Metro ", "phone_number": "6784027331", "tags": [{"primary": false, "id": 1724, "name": "Barbecue Restaurants"}, {"primary": false, "id": 11247, "name": "Carry Out"}, {"primary": true, "id": 1722, "name": "Restaurants"}], "fax_number": null, "expansion": {"count": null, "uri": null}, "impression_id": "000b0000006c0d6c1e38ae499cb8dfe0c17613d1da", "profile": "http://www.citysearch.com/profile/777757950/marietta_ga/gem_city_wings.html", "address": {"city": "Marietta", "state": "GA", "street": "20 N Fairground St Ne", "postal_code": "30060"}, "capProviderId": null, "distance": null, "has_offers": false, "name": "Gem City Wings", "longitude": -84.535474, "has_menu": false, "awards": null, "user_review_count": 0}, {"business_operation_status": 1, "rating": null, "neighborhood": null, "image": null, "scorecard": null, "featured": false, "sample_categories": "Restaurants, Bars & Clubs", "public_id": "highlands-grill-sports-tvrn-kennesaw", "id": 787112570, "votes": null, "tagline": null, "has_video": false, "website": null, "offers": null, "latitude": 34.013172, "politanName": "Atlanta, GA Metro ", "phone_number": "7704261515", "tags": [{"primary": false, "id": 164, "name": "Bars & Clubs"}, {"primary": true, "id": 1722, "name": "Restaurants"}], "fax_number": null, "expansion": {"count": null, "uri": null}, "impression_id": "000b000000a29ad6bbeeba4681978b4a2b0810561b", "profile": "http://www.citysearch.com/profile/787112570/kennesaw_ga/highlands_grill_sports_tvrn.html", "address": {"city": "Kennesaw", "state": "GA", "street": "2615 George Busbee Pkwy NW # 2", "postal_code": "30144"}, "capProviderId": null, "distance": null, "has_offers": false, "name": "Highlands Grill & Sports Tvrn", "longitude": -84.567215, "has_menu": false, "awards": null, "user_review_count": 0}, {"business_operation_status": 1, "rating": null, "neighborhood": null, "image": null, "scorecard": null, "featured": false, "sample_categories": "Restaurants, Traditional American", "public_id": "buffalos-southwest-cafe-kennesaw", "id": 787114370, "votes": null, "tagline": null, "has_video": false, "website": null, "offers": null, "latitude": 34.004386, "politanName": "Atlanta, GA Metro ", "phone_number": "7704392831", "tags": [{"primary": false, "id": 11190, "name": "Traditional American"}, {"primary": true, "id": 1722, "name": "Restaurants"}], "fax_number": null, "expansion": {"count": null, "uri": null}, "impression_id": "000b000000b68b13935f234d5cbd8c2c41f1c9b68f", "profile": "http://www.citysearch.com/profile/787114370/kennesaw_ga/buffalo_s_southwest_cafe.html", "address": {"city": "Kennesaw", "state": "GA", "street": "4079 Stephanie Ct NW", "postal_code": "30152"}, "capProviderId": null, "distance": null, "has_offers": false, "name": "Buffalo's Southwest Cafe", "longitude": -84.670496, "has_menu": false, "awards": null, "user_review_count": 0}, {"business_operation_status": 1, "rating": null, "neighborhood": null, "image": null, "scorecard": null, "featured": false, "sample_categories": "Grocery Stores, Bakeries, Delis And Delicatessens, Pharmacies, Florists", "public_id": "kroger-dallas-5", "id": 45010075, "votes": null, "tagline": null, "has_video": false, "website": "http://www.citysearch.com/profile/external/45010075/dallas_ga/kroger.html", "offers": null, "latitude": 33.985034, "politanName": "Atlanta, GA Metro ", "phone_number": "6784393372", "tags": [{"primary": false, "id": 1685, "name": "Bakeries"}, {"primary": false, "id": 1727, "name": "Delis And Delicatessens"}, {"primary": false, "id": 1930, "name": "Pharmacies"}, {"primary": false, "id": 3921, "name": "Florists"}, {"primary": false, "id": 3924, "name": "Department Stores"}, {"primary": true, "id": 1713, "name": "Grocery Stores"}], "fax_number": null, "expansion": {"count": null, "uri": null}, "impression_id": "000b000000b3f85d0cadb64061815080f34f5416f1", "profile": "http://www.citysearch.com/profile/45010075/dallas_ga/kroger.html", "address": {"city": "Dallas", "state": "GA", "street": "8876 Dallas Acworth Hwy", "postal_code": "30132"}, "capProviderId": null, "distance": null, "has_offers": false, "name": "Kroger", "longitude": -84.771736, "has_menu": false, "awards": null, "user_review_count": 0}, {"business_operation_status": 1, "rating": null, "neighborhood": null, "image": null, "scorecard": null, "featured": false, "sample_categories": "Restaurants", "public_id": "taqueria-la-villa-marietta", "id": 816057700, "votes": null, "tagline": null, "has_video": false, "website": null, "offers": null, "latitude": 33.969085, "politanName": "Atlanta, GA Metro ", "phone_number": "7705908887", "tags": [{"primary": true, "id": 1722, "name": "Restaurants"}], "fax_number": null, "expansion": {"count": null, "uri": null}, "impression_id": "000b000000a6be5f35248846daa032c8d2dea38f9f", "profile": "http://www.citysearch.com/profile/816057700/marietta_ga/taqueria_la_villa.html", "address": {"city": "Marietta", "state": "GA", "street": "745 Cobb Pkwy N", "postal_code": "30062"}, "capProviderId": null, "distance": null, "has_offers": false, "name": "Taqueria La Villa", "longitude": -84.538349, "has_menu": false, "awards": null, "user_review_count": 0}], "histograms": [], "tag_ids": [1722], "uri": "http://api.citygridmedia.com:8080/search/places/v2/search/where?has_offers=false&type=restaurant&format=json&page=26&where=30064&rpp=50&histograms=false&publisher=10000009598&region_type=circle", "did_you_mean": "", "regions": [{"latitude": 33.938860999999996, "default_radius": 5.31, "type": "postal_code", "name": "30064", "longitude": -84.614086}], "call_id": "000b00000019ab833f05cd4a1790cb4f5c5625f036", "first_hit": 1251, "total_hits": 1588, "geo_ids": [26293], "page": 26, "last_hit": 1300}}