{"results": {"rpp": 50, "locations": [{"business_operation_status": 1, "rating": null, "neighborhood": null, "image": null, "scorecard": null, "featured": false, "sample_categories": "Restaurants", "public_id": "taska-inc-marietta", "id": 748331640, "votes": null, "tagline": null, "has_video": false, "website": null, "offers": null, "latitude": 33.972043, "politanName": "Atlanta, GA Metro ", "phone_number": "7705788488", "tags": [{"primary": true, "id": 1722, "name": "Restaurants"}], "fax_number": null, "expansion": {"count": null, "uri": null}, "impression_id": "000b000000e73a0c7a45854dfab393f073a3ae1a56", "profile": "http://www.citysearch.com/profile/748331640/marietta_ga/taska_inc.html", "address": {"city": "Marietta", "state": "GA", "street": "3602 Robinson Rd NE", "postal_code": "30068"}, "capProviderId": null, "distance": null, "has_offers": false, "name": "Taska Inc", "longitude": -84.446589, "has_menu": false, "awards": null, "user_review_count": 0}, {"business_operation_status": 1, "rating": null, "neighborhood": null, "image": null, "scorecard": null, "featured": false, "sample_categories": "Restaurants", "public_id": "garcia-eduardo-kennesaw", "id": 775190040, "votes": null, "tagline": null, "has_video": false, "website": null, "offers": null, "latitude": 34.050651, "politanName": "Atlanta, GA Metro ", "phone_number": "6783559839", "tags": [{"primary": true, "id": 1722, "name": "Restaurants"}], "fax_number": null, "expansion": {"count": null, "uri": null}, "impression_id": "000b0000000e951d2d64064f409e4c0cd7dd33b3cb", "profile": "http://www.citysearch.com/profile/775190040/kennesaw_ga/garcia_eduardo.html", "address": {"city": "Kennesaw", "state": "GA", "street": "3600 Cherokee St NW", "postal_code": "30144"}, "capProviderId": null, "distance": null, "has_offers": false, "name": "Garcia Eduardo", "longitude": -84.595701, "has_menu": false, "awards": null, "user_review_count": 0}, {"business_operation_status": 1, "rating": null, "neighborhood": null, "image": null, "scorecard": null, "featured": false, "sample_categories": "Restaurants, Delis And Delicatessens, Carry Out, American Express, Debit Card", "public_id": "panera-bread-woodstock", "id": 751363100, "votes": null, "tagline": null, "has_video": false, "website": null, "offers": null, "latitude": 34.104637, "politanName": "Atlanta, GA Metro ", "phone_number": "6788134809", "tags": [{"primary": false, "id": 1727, "name": "Delis And Delicatessens"}, {"primary": false, "id": 11247, "name": "Carry Out"}, {"primary": false, "id": 11333, "name": "American Express"}, {"primary": false, "id": 11347, "name": "Debit Card"}, {"primary": false, "id": 11349, "name": "Discover"}, {"primary": false, "id": 11361, "name": "MasterCard"}, {"primary": false, "id": 11382, "name": "Visa"}, {"primary": true, "id": 1722, "name": "Restaurants"}], "fax_number": null, "expansion": {"count": null, "uri": null}, "impression_id": "000b000000c56dbb32444f4268b3f9641fe3c576a0", "profile": "http://www.citysearch.com/profile/751363100/woodstock_ga/panera_bread.html", "address": {"city": "Woodstock", "state": "GA", "street": "2625 Towne Lake Pkwy", "postal_code": "30189"}, "capProviderId": null, "distance": null, "has_offers": false, "name": "Panera Bread", "longitude": -84.541047, "has_menu": false, "awards": null, "user_review_count": 0}, {"business_operation_status": 1, "rating": null, "neighborhood": null, "image": null, "scorecard": null, "featured": false, "sample_categories": "Restaurants, New American, Carry Out, Cooking, Soul", "public_id": "chads-place-marietta", "id": 753259210, "votes": null, "tagline": null, "has_video": false, "website": null, "offers": null, "latitude": 33.964105, "politanName": "Atlanta, GA Metro ", "phone_number": "7704278226", "tags": [{"primary": false, "id": 11189, "name": "New American"}, {"primary": false, "id": 11247, "name": "Carry Out"}, {"primary": false, "id": 11254, "name": "Cooking"}, {"primary": false, "id": 15140, "name": "Soul"}, {"primary": true, "id": 1722, "name": "Restaurants"}], "fax_number": null, "expansion": {"count": null, "uri": null}, "impression_id": "000b00000056c100126f5f4091b30832c3ee4bb1a8", "profile": "http://www.citysearch.com/profile/753259210/marietta_ga/chad_s_place.html", "address": {"city": "Marietta", "state": "GA", "street": "531 Roselane St NW Suite 520 NW", "postal_code": "30060"}, "capProviderId": null, "distance": null, "has_offers": false, "name": "Chad's Place", "longitude": -84.557337, "has_menu": false, "awards": null, "user_review_count": 0}, {"business_operation_status": 0, "rating": null, "neighborhood": null, "image": null, "scorecard": null, "featured": false, "sample_categories": "Restaurants", "public_id": "sand-trap-inc-alpharetta", "id": 777625700, "votes": null, "tagline": null, "has_video": false, "website": null, "offers": null, "latitude": 34.082954, "politanName": "Atlanta, GA Metro ", "phone_number": "7707729660", "tags": [{"primary": true, "id": 1722, "name": "Restaurants"}], "fax_number": null, "expansion": {"count": null, "uri": null}, "impression_id": "000b000000a3646aaa69514cfda8098c534669ed9c", "profile": "http://www.citysearch.com/profile/777625700/alpharetta_ga/sand_trap_inc.html", "address": {"city": "Alpharetta", "state": "GA", "street": "12390 Arnold Mill Rd", "postal_code": "30004"}, "capProviderId": null, "distance": null, "has_offers": false, "name": "Sand Trap INC", "longitude": -84.359518, "has_menu": false, "awards": null, "user_review_count": 0}, {"business_operation_status": 1, "rating": null, "neighborhood": null, "image": null, "scorecard": null, "featured": false, "sample_categories": "Juice & Smoothie Shops", "public_id": "planet-smoothie-roswell-2", "id": 777823340, "votes": null, "tagline": null, "has_video": false, "website": "http://www.citysearch.com/profile/external/777823340/roswell_ga/planet_smoothie.html", "offers": null, "latitude": 34.059979, "politanName": "Atlanta, GA Metro ", "phone_number": "7709920701", "tags": [{"primary": true, "id": 1735, "name": "Juice & Smoothie Shops"}], "fax_number": null, "expansion": {"count": null, "uri": null}, "impression_id": "000b000000f2d5c05c6430410d8a0a39eb5ac6a022", "profile": "http://www.citysearch.com/profile/777823340/roswell_ga/planet_smoothie.html", "address": {"city": "Roswell", "state": "GA", "street": "855 Woodstock Rd", "postal_code": "30075"}, "capProviderId": null, "distance": null, "has_offers": false, "name": "Planet Smoothie", "longitude": -84.383984, "has_menu": true, "awards": null, "user_review_count": 0}, {"business_operation_status": 1, "rating": null, "neighborhood": null, "image": null, "scorecard": null, "featured": false, "sample_categories": "Restaurants, Traditional American, Carry Out, American Express, Discover", "public_id": "sonic-drivein-woodstock-4", "id": 781239180, "votes": null, "tagline": null, "has_video": false, "website": null, "offers": null, "latitude": 34.087477, "politanName": "Atlanta, GA Metro ", "phone_number": "7705731677", "tags": [{"primary": false, "id": 11190, "name": "Traditional American"}, {"primary": false, "id": 11247, "name": "Carry Out"}, {"primary": false, "id": 11333, "name": "American Express"}, {"primary": false, "id": 11349, "name": "Discover"}, {"primary": false, "id": 11361, "name": "MasterCard"}, {"primary": false, "id": 11382, "name": "Visa"}, {"primary": true, "id": 1722, "name": "Restaurants"}], "fax_number": null, "expansion": {"count": null, "uri": null}, "impression_id": "000b000000999be72bcd474c76bf1a56e736159159", "profile": "http://www.citysearch.com/profile/781239180/woodstock_ga/sonic_drive_in.html", "address": {"city": "Woodstock", "state": "GA", "street": "1960 Georgia Highway 92", "postal_code": "30188"}, "capProviderId": null, "distance": null, "has_offers": false, "name": "Sonic Drive-In", "longitude": -84.480705, "has_menu": false, "awards": null, "user_review_count": 0}, {"business_operation_status": 1, "rating": null, "neighborhood": null, "image": null, "scorecard": null, "featured": false, "sample_categories": "Restaurants, Italian", "public_id": "ippolitos-italian-restaurant-woodstock", "id": 682287800, "votes": null, "tagline": null, "has_video": false, "website": null, "offers": null, "latitude": 34.102444, "politanName": "Atlanta, GA Metro ", "phone_number": "7705166631", "tags": [{"primary": false, "id": 11279, "name": "Italian"}, {"primary": true, "id": 1722, "name": "Restaurants"}], "fax_number": null, "expansion": {"count": null, "uri": null}, "impression_id": "000b0000001dcceff1f5ae4c4d9d091dbe9abbca9e", "profile": "http://www.citysearch.com/profile/682287800/woodstock_ga/ippolito_s_italian_restaurant.html", "address": {"city": "Woodstock", "state": "GA", "street": "8496 Main St", "postal_code": "30188"}, "capProviderId": null, "distance": null, "has_offers": false, "name": "Ippolito's Italian Restaurant", "longitude": -84.519881, "has_menu": false, "awards": null, "user_review_count": 0}, {"business_operation_status": 1, "rating": null, "neighborhood": null, "image": null, "scorecard": null, "featured": false, "sample_categories": "Restaurants, Carry Out", "public_id": "johnny-rockets-marietta", "id": 764929560, "votes": null, "tagline": null, "has_video": false, "website": null, "offers": null, "latitude": 33.971396, "politanName": "Atlanta, GA Metro ", "phone_number": "7709556068", "tags": [{"primary": false, "id": 11247, "name": "Carry Out"}, {"primary": true, "id": 1722, "name": "Restaurants"}], "fax_number": null, "expansion": {"count": null, "uri": null}, "impression_id": "000b00000025d84b2052e348dd899e1fbaa0661f48", "profile": "http://www.citysearch.com/profile/764929560/marietta_ga/johnny_rockets.html", "address": {"city": "Marietta", "state": "GA", "street": "2970 Cobb St", "postal_code": "30068"}, "capProviderId": null, "distance": null, "has_offers": false, "name": "Johnny Rockets", "longitude": -84.466057, "has_menu": false, "awards": null, "user_review_count": 0}, {"business_operation_status": 1, "rating": null, "neighborhood": null, "image": null, "scorecard": null, "featured": false, "sample_categories": "Restaurants, Pizza", "public_id": "riverside-pizza-alpharetta-2", "id": 777650170, "votes": null, "tagline": null, "has_video": false, "website": null, "offers": null, "latitude": 34.077709, "politanName": "Atlanta, GA Metro ", "phone_number": "6783935500", "tags": [{"primary": false, "id": 11299, "name": "Pizza"}, {"primary": true, "id": 1722, "name": "Restaurants"}], "fax_number": null, "expansion": {"count": null, "uri": null}, "impression_id": "000b0000008a40bc6d5dd644d69fa4c2e6cb030ff2", "profile": "http://www.citysearch.com/profile/777650170/alpharetta_ga/riverside_pizza.html", "address": {"city": "Alpharetta", "state": "GA", "street": "295 Rucker Rd", "postal_code": "30004"}, "capProviderId": null, "distance": null, "has_offers": false, "name": "Riverside Pizza", "longitude": -84.35254, "has_menu": false, "awards": null, "user_review_count": 0}, {"business_operation_status": 1, "rating": null, "neighborhood": null, "image": null, "scorecard": null, "featured": false, "sample_categories": "Restaurants, Chicken", "public_id": "chicken-salad-chick-marietta", "id": 803535140, "votes": null, "tagline": null, "has_video": false, "website": null, "offers": null, "latitude": 33.980574, "politanName": "Atlanta, GA Metro ", "phone_number": "7705653985", "tags": [{"primary": false, "id": 12839, "name": "Chicken"}, {"primary": true, "id": 1722, "name": "Restaurants"}], "fax_number": null, "expansion": {"count": null, "uri": null}, "impression_id": "000b00000039cb3cdb51034b6984790d0048dc8b6a", "profile": "http://www.citysearch.com/profile/803535140/marietta_ga/chicken_salad_chick.html", "address": {"city": "Marietta", "state": "GA", "street": "4101 Roswell Rd", "postal_code": "30062"}, "capProviderId": null, "distance": null, "has_offers": false, "name": "Chicken Salad Chick", "longitude": -84.433488, "has_menu": false, "awards": null, "user_review_count": 0}, {"business_operation_status": 1, "rating": null, "neighborhood": null, "image": null, "scorecard": null, "featured": false, "sample_categories": "Restaurants, Carry Out", "public_id": "long-john-silvers-woodstock", "id": 806446900, "votes": null, "tagline": null, "has_video": false, "website": null, "offers": null, "latitude": 34.085185, "politanName": "Atlanta, GA Metro ", "phone_number": "7709281695", "tags": [{"primary": false, "id": 11247, "name": "Carry Out"}, {"primary": true, "id": 1722, "name": "Restaurants"}], "fax_number": null, "expansion": {"count": null, "uri": null}, "impression_id": "000b0000005674eff87add430386a925696870c2ab", "profile": "http://www.citysearch.com/profile/806446900/woodstock_ga/long_john_silver_s.html", "address": {"city": "Woodstock", "state": "GA", "street": "6869 Highway 92", "postal_code": "30189"}, "capProviderId": null, "distance": null, "has_offers": false, "name": "Long John Silver's", "longitude": -84.554494, "has_menu": false, "awards": null, "user_review_count": 0}, {"business_operation_status": 1, "rating": null, "neighborhood": null, "image": null, "scorecard": null, "featured": false, "sample_categories": "Restaurants, Pizza, Carry Out", "public_id": "pizza-hut-kennesaw-3", "id": 790675460, "votes": null, "tagline": null, "has_video": false, "website": null, "offers": null, "latitude": 33.99979, "politanName": "Atlanta, GA Metro ", "phone_number": "7704248863", "tags": [{"primary": false, "id": 1722, "name": "Restaurants"}, {"primary": false, "id": 11247, "name": "Carry Out"}, {"primary": true, "id": 11299, "name": "Pizza"}], "fax_number": null, "expansion": {"count": null, "uri": null}, "impression_id": "000b00000065d2889f35414bdbaab6eb82b53a2a3e", "profile": "http://www.citysearch.com/profile/790675460/kennesaw_ga/pizza_hut.html", "address": {"city": "Kennesaw", "state": "GA", "street": "1906 Cobb Pkwy NW", "postal_code": "30152"}, "capProviderId": null, "distance": null, "has_offers": false, "name": "Pizza Hut", "longitude": -84.588641, "has_menu": false, "awards": null, "user_review_count": 0}, {"business_operation_status": 1, "rating": null, "neighborhood": null, "image": null, "scorecard": null, "featured": false, "sample_categories": "Restaurants, Delis And Delicatessens", "public_id": "jasons-deli-kennesaw", "id": 803500390, "votes": null, "tagline": null, "has_video": false, "website": "http://www.citysearch.com/profile/external/803500390/kennesaw_ga/jason_s_deli.html", "offers": null, "latitude": 34.003304, "politanName": "Atlanta, GA Metro ", "phone_number": "6783984000", "tags": [{"primary": false, "id": 1727, "name": "Delis And Delicatessens"}, {"primary": true, "id": 1722, "name": "Restaurants"}], "fax_number": null, "expansion": {"count": null, "uri": null}, "impression_id": "000b000000e18ae58e689149879db8ed9ee51c0aff", "profile": "http://www.citysearch.com/profile/803500390/kennesaw_ga/jason_s_deli.html", "address": {"city": "Kennesaw", "state": "GA", "street": "945 Ernest W Barrett Pkwy NW", "postal_code": "30144"}, "capProviderId": null, "distance": null, "has_offers": false, "name": "Jason's Deli", "longitude": -84.578858, "has_menu": false, "awards": null, "user_review_count": 0}, {"business_operation_status": 1, "rating": null, "neighborhood": null, "image": null, "scorecard": null, "featured": false, "sample_categories": "Coffeehouses", "public_id": "insomnia-marietta", "id": 37646047, "votes": null, "tagline": null, "has_video": false, "website": null, "offers": null, "latitude": 33.948083, "politanName": "Atlanta, GA Metro ", "phone_number": "7705147442", "tags": [{"primary": true, "id": 1726, "name": "Coffeehouses"}], "fax_number": null, "expansion": {"count": null, "uri": null}, "impression_id": "000b000000469baa4cb98448a3a6ba26027d5f0f1e", "profile": "http://www.citysearch.com/profile/37646047/marietta_ga/insomnia.html", "address": {"city": "Marietta", "state": "GA", "street": "245 Ridgeway Rd", "postal_code": "30064"}, "capProviderId": null, "distance": null, "has_offers": false, "name": "Insomnia", "longitude": -84.626672, "has_menu": false, "awards": null, "user_review_count": 0}, {"business_operation_status": 1, "rating": null, "neighborhood": null, "image": null, "scorecard": null, "featured": false, "sample_categories": "Restaurants", "public_id": "kidz-spot-marietta", "id": 824161410, "votes": null, "tagline": null, "has_video": false, "website": null, "offers": null, "latitude": 33.903812, "politanName": "Atlanta, GA Metro ", "phone_number": "6784494499", "tags": [{"primary": true, "id": 1722, "name": "Restaurants"}], "fax_number": null, "expansion": {"count": null, "uri": null}, "impression_id": "000b000000387c5262f06e480ca3e2c62d3c3a5670", "profile": "http://www.citysearch.com/profile/824161410/marietta_ga/kidz_spot.html", "address": {"city": "Marietta", "state": "GA", "street": "2930 Maple Springs CT", "postal_code": "30064"}, "capProviderId": null, "distance": null, "has_offers": false, "name": "Kidz Spot", "longitude": -84.638869, "has_menu": false, "awards": null, "user_review_count": 0}, {"business_operation_status": 1, "rating": null, "neighborhood": null, "image": null, "scorecard": null, "featured": false, "sample_categories": "Restaurants", "public_id": "tijuana-joes-roswell", "id": 806172750, "votes": null, "tagline": null, "has_video": false, "website": null, "offers": null, "latitude": 34.060624, "politanName": "Atlanta, GA Metro ", "phone_number": "6782779956", "tags": [{"primary": true, "id": 1722, "name": "Restaurants"}], "fax_number": null, "expansion": {"count": null, "uri": null}, "impression_id": "000b0000004a7a7c7e1f68490298c90ae6bd776414", "profile": "http://www.citysearch.com/profile/806172750/roswell_ga/tijuana_joes.html", "address": {"city": "Roswell", "state": "GA", "street": "885 Woodstock Rd", "postal_code": "30075"}, "capProviderId": null, "distance": null, "has_offers": false, "name": "Tijuana Joes", "longitude": -84.385879, "has_menu": false, "awards": null, "user_review_count": 0}, {"business_operation_status": 1, "rating": null, "neighborhood": null, "image": null, "scorecard": null, "featured": false, "sample_categories": "Restaurants", "public_id": "mrs-winners-chicken-bscts-kennesaw", "id": 806276160, "votes": null, "tagline": null, "has_video": false, "website": null, "offers": null, "latitude": 34.059567, "politanName": "Atlanta, GA Metro ", "phone_number": "7704274040", "tags": [{"primary": true, "id": 1722, "name": "Restaurants"}], "fax_number": null, "expansion": {"count": null, "uri": null}, "impression_id": "000b0000004298593e923a42b0b6ceeafd0afa33d2", "profile": "http://www.citysearch.com/profile/806276160/kennesaw_ga/mrs_winner_s_chicken_bscts.html", "address": {"city": "Kennesaw", "state": "GA", "street": "4383 Wade Green Rd NW", "postal_code": "30144"}, "capProviderId": null, "distance": null, "has_offers": false, "name": "Mrs Winner's Chicken & Bscts", "longitude": -84.593135, "has_menu": false, "awards": null, "user_review_count": 0}, {"business_operation_status": 1, "rating": null, "neighborhood": null, "image": null, "scorecard": null, "featured": false, "sample_categories": "Restaurants", "public_id": "mrs-winners-chicken-biscuits-marietta-2", "id": 806356350, "votes": null, "tagline": null, "has_video": false, "website": null, "offers": null, "latitude": 33.982266, "politanName": "Atlanta, GA Metro ", "phone_number": "7709710888", "tags": [{"primary": true, "id": 1722, "name": "Restaurants"}], "fax_number": null, "expansion": {"count": null, "uri": null}, "impression_id": "000b000000978f543a733849a3bcb2d573c6ba2980", "profile": "http://www.citysearch.com/profile/806356350/marietta_ga/mrs_winners_chicken_biscuits.html", "address": {"city": "Marietta", "state": "GA", "street": "1333 Johnson Ferry Rd", "postal_code": "30068"}, "capProviderId": null, "distance": null, "has_offers": false, "name": "Mrs Winners Chicken & Biscuits", "longitude": -84.427409, "has_menu": true, "awards": null, "user_review_count": 0}, {"business_operation_status": 1, "rating": null, "neighborhood": null, "image": null, "scorecard": null, "featured": false, "sample_categories": "Restaurants, Coffeehouses", "public_id": "peace-cafe-kennesaw", "id": 748262240, "votes": null, "tagline": null, "has_video": false, "website": null, "offers": null, "latitude": 34.042632, "politanName": "Atlanta, GA Metro ", "phone_number": "7707927880", "tags": [{"primary": false, "id": 1726, "name": "Coffeehouses"}, {"primary": true, "id": 1722, "name": "Restaurants"}], "fax_number": null, "expansion": {"count": null, "uri": null}, "impression_id": "000b0000005f6951babe9d444b8cc3d527d4d65d5f", "profile": "http://www.citysearch.com/profile/748262240/kennesaw_ga/peace_cafe.html", "address": {"city": "Kennesaw", "state": "GA", "street": "3805 Canton Pl NW", "postal_code": "30144"}, "capProviderId": null, "distance": null, "has_offers": false, "name": "Peace Cafe", "longitude": -84.584447, "has_menu": false, "awards": null, "user_review_count": 0}, {"business_operation_status": 1, "rating": null, "neighborhood": null, "image": null, "scorecard": null, "featured": false, "sample_categories": "Grocery Stores, Restaurants", "public_id": "global-food-nuts-marietta", "id": 748312370, "votes": null, "tagline": null, "has_video": false, "website": null, "offers": null, "latitude": 33.929154, "politanName": "Atlanta, GA Metro ", "phone_number": "7704282222", "tags": [{"primary": false, "id": 1722, "name": "Restaurants"}, {"primary": true, "id": 1713, "name": "Grocery Stores"}], "fax_number": null, "expansion": {"count": null, "uri": null}, "impression_id": "000b0000000da9b9e2291c4839a33e0c3e4ccb3b50", "profile": "http://www.citysearch.com/profile/748312370/marietta_ga/global_food_nuts.html", "address": {"city": "Marietta", "state": "GA", "street": "950 Cobb Pkwy S", "postal_code": "30060"}, "capProviderId": null, "distance": null, "has_offers": false, "name": "Global Food & Nuts", "longitude": -84.510376, "has_menu": false, "awards": null, "user_review_count": 0}, {"business_operation_status": 1, "rating": 8.0, "neighborhood": null, "image": null, "scorecard": null, "featured": false, "sample_categories": "Restaurants, Pizza", "public_id": "uncle-vitos-new-york-pizza-marietta", "id": 37646046, "votes": null, "tagline": null, "has_video": false, "website": null, "offers": null, "latitude": 33.950252, "politanName": "Atlanta, GA Metro ", "phone_number": "6787668486", "tags": [{"primary": false, "id": 1722, "name": "Restaurants"}, {"primary": true, "id": 11299, "name": "Pizza"}], "fax_number": null, "expansion": {"count": null, "uri": null}, "impression_id": "000b00000077823ace874b4adda74c654ae7774cf2", "profile": "http://www.citysearch.com/profile/37646046/marietta_ga/uncle_vitos_new_york_pizza.html", "address": {"city": "Marietta", "state": "GA", "street": "2500 Dallas Hwy SW", "postal_code": "30064"}, "capProviderId": null, "distance": null, "has_offers": false, "name": "Uncle Vitos New York Pizza", "longitude": -84.638093, "has_menu": true, "awards": null, "user_review_count": 2}, {"business_operation_status": 1, "rating": null, "neighborhood": null, "image": null, "scorecard": null, "featured": false, "sample_categories": "Restaurants", "public_id": "specialty-restaurant-group-inc-kennesaw", "id": 648896300, "votes": null, "tagline": null, "has_video": false, "website": "http://www.citysearch.com/profile/external/648896300/kennesaw_ga/specialty_restaurant_group_inc.html", "offers": null, "latitude": 34.015329, "politanName": "Atlanta, GA Metro ", "phone_number": "7704997878", "tags": [{"primary": true, "id": 1722, "name": "Restaurants"}], "fax_number": null, "expansion": {"count": null, "uri": null}, "impression_id": "000b0000008043739e581e4a31a679e362c6926a37", "profile": "http://www.citysearch.com/profile/648896300/kennesaw_ga/specialty_restaurant_group_inc.html", "address": {"city": "Kennesaw", "state": "GA", "street": "2500 Cobb Pkwy NW Ste B7", "postal_code": "30152"}, "capProviderId": null, "distance": null, "has_offers": false, "name": "Specialty Restaurant Group Inc", "longitude": -84.615064, "has_menu": false, "awards": null, "user_review_count": 0}, {"business_operation_status": 1, "rating": null, "neighborhood": null, "image": null, "scorecard": null, "featured": false, "sample_categories": "Restaurants", "public_id": "j-christpher-woodstock", "id": 672604610, "votes": null, "tagline": null, "has_video": false, "website": null, "offers": null, "latitude": 34.098479, "politanName": "Atlanta, GA Metro ", "phone_number": null, "tags": [{"primary": true, "id": 1722, "name": "Restaurants"}], "fax_number": null, "expansion": {"count": null, "uri": null}, "impression_id": "000b000000516bf8e2a325442490f03e7612b1cbd8", "profile": "http://www.citysearch.com/profile/672604610/woodstock_ga/j_christpher.html", "address": {"city": "Woodstock", "state": "GA", "street": "315 Chamber St", "postal_code": "30188"}, "capProviderId": null, "distance": null, "has_offers": false, "name": "J Christpher", "longitude": -84.519579, "has_menu": false, "awards": null, "user_review_count": 0}, {"business_operation_status": 1, "rating": null, "neighborhood": null, "image": null, "scorecard": null, "featured": false, "sample_categories": "Restaurants", "public_id": "seven-bar-grill-hookah-lounge-woodstock", "id": 672641240, "votes": null, "tagline": null, "has_video": false, "website": null, "offers": null, "latitude": 34.087943, "politanName": "Atlanta, GA Metro ", "phone_number": "6783241012", "tags": [{"primary": true, "id": 1722, "name": "Restaurants"}], "fax_number": null, "expansion": {"count": null, "uri": null}, "impression_id": "000b0000007fee64c70cf14758b2f1b1167d59950b", "profile": "http://www.citysearch.com/profile/672641240/woodstock_ga/seven_bar_grill_hookah_lounge.html", "address": {"city": "Woodstock", "state": "GA", "street": "6889 Hwy. 92", "postal_code": "30189"}, "capProviderId": null, "distance": null, "has_offers": false, "name": "Seven Bar & Grill Hookah Lounge", "longitude": -84.573347, "has_menu": false, "awards": null, "user_review_count": 0}, {"business_operation_status": 1, "rating": null, "neighborhood": null, "image": null, "scorecard": null, "featured": false, "sample_categories": "Restaurants", "public_id": "jmc-restaurant-distribution-kennesaw", "id": 601313826, "votes": null, "tagline": null, "has_video": false, "website": "http://www.citysearch.com/profile/external/601313826/kennesaw_ga/jmc_restaurant_distribution.html", "offers": null, "latitude": 34.011176, "politanName": "Atlanta, GA Metro ", "phone_number": "7705281170", "tags": [{"primary": true, "id": 1722, "name": "Restaurants"}], "fax_number": null, "expansion": {"count": null, "uri": null}, "impression_id": "000b000000b2811ba66a5d42059ee808ba3e0f25cc", "profile": "http://www.citysearch.com/profile/601313826/kennesaw_ga/jmc_restaurant_distribution.html", "address": {"city": "Kennesaw", "state": "GA", "street": "980 Cobb Place Blvd Nw # 240", "postal_code": "30144"}, "capProviderId": null, "distance": null, "has_offers": false, "name": "Jmc Restaurant Distribution", "longitude": -84.581645, "has_menu": false, "awards": null, "user_review_count": 0}, {"business_operation_status": 1, "rating": null, "neighborhood": null, "image": null, "scorecard": null, "featured": false, "sample_categories": "Delis And Delicatessens", "public_id": "kroger-deli-roswell-2", "id": 696362330, "votes": null, "tagline": null, "has_video": false, "website": null, "offers": null, "latitude": 34.054243, "politanName": "Atlanta, GA Metro ", "phone_number": "7706402070", "tags": [{"primary": true, "id": 1727, "name": "Delis And Delicatessens"}], "fax_number": null, "expansion": {"count": null, "uri": null}, "impression_id": "000b000000dbdc04cb263743959926401c3d76b38e", "profile": "http://www.citysearch.com/profile/696362330/roswell_ga/kroger_deli.html", "address": {"city": "Roswell", "state": "GA", "street": "570 E Crossville Rd", "postal_code": "30075"}, "capProviderId": null, "distance": null, "has_offers": false, "name": "Kroger Deli", "longitude": -84.378213, "has_menu": false, "awards": null, "user_review_count": 0}, {"business_operation_status": 1, "rating": null, "neighborhood": null, "image": null, "scorecard": null, "featured": false, "sample_categories": "Delis And Delicatessens", "public_id": "kroger-deli-alpharetta-5", "id": 700730470, "votes": null, "tagline": null, "has_video": false, "website": "http://www.citysearch.com/profile/external/700730470/alpharetta_ga/kroger_deli.html", "offers": null, "latitude": 34.085638, "politanName": "Atlanta, GA Metro ", "phone_number": "7707402050", "tags": [{"primary": true, "id": 1727, "name": "Delis And Delicatessens"}], "fax_number": null, "expansion": {"count": null, "uri": null}, "impression_id": "000b000000793b20bb02524d5da7f266bec44a7d36", "profile": "http://www.citysearch.com/profile/700730470/alpharetta_ga/kroger_deli.html", "address": {"city": "Alpharetta", "state": "GA", "street": "12460 Crabapple Rd # 301", "postal_code": "30004"}, "capProviderId": null, "distance": null, "has_offers": false, "name": "Kroger Deli", "longitude": -84.356689, "has_menu": false, "awards": null, "user_review_count": 0}, {"business_operation_status": 1, "rating": null, "neighborhood": null, "image": null, "scorecard": null, "featured": false, "sample_categories": "Restaurants", "public_id": "six-beans-marietta", "id": 672125350, "votes": null, "tagline": null, "has_video": false, "website": null, "offers": null, "latitude": 33.984475, "politanName": "Atlanta, GA Metro ", "phone_number": "7705651001", "tags": [{"primary": true, "id": 1722, "name": "Restaurants"}], "fax_number": null, "expansion": {"count": null, "uri": null}, "impression_id": "000b000000b04f0e47335844d6bbaed8ae802854c1", "profile": "http://www.citysearch.com/profile/672125350/marietta_ga/six_beans.html", "address": {"city": "Marietta", "state": "GA", "street": "1401 Johnson Ferry Road, Suite 140", "postal_code": "30062"}, "capProviderId": null, "distance": null, "has_offers": false, "name": "Six Beans", "longitude": -84.427681, "has_menu": false, "awards": null, "user_review_count": 0}, {"business_operation_status": 1, "rating": null, "neighborhood": null, "image": null, "scorecard": null, "featured": false, "sample_categories": "Restaurants", "public_id": "taco-l-1000000-marietta", "id": 607688524, "votes": null, "tagline": null, "has_video": false, "website": null, "offers": null, "latitude": 33.902769, "politanName": "Atlanta, GA Metro ", "phone_number": "6783090482", "tags": [{"primary": true, "id": 1722, "name": "Restaurants"}], "fax_number": null, "expansion": {"count": null, "uri": null}, "impression_id": "000b0000003d0c12ad2e00412c9ac466b6a368ec3b", "profile": "http://www.citysearch.com/profile/607688524/marietta_ga/taco_l_1000000.html", "address": {"city": "Marietta", "state": "GA", "street": "2080 Favor Rd SW", "postal_code": "30060"}, "capProviderId": null, "distance": null, "has_offers": false, "name": "Taco L 1000000", "longitude": -84.564621, "has_menu": false, "awards": null, "user_review_count": 0}, {"business_operation_status": 1, "rating": null, "neighborhood": null, "image": null, "scorecard": null, "featured": false, "sample_categories": "Restaurants, Delis And Delicatessens, Sandwich Shops, Carry Out", "public_id": "blimpie-subs-salads-kennesaw-2", "id": 713401400, "votes": null, "tagline": null, "has_video": false, "website": "http://www.citysearch.com/profile/external/713401400/kennesaw_ga/blimpie_subs_salads.html", "offers": null, "latitude": 34.00436, "politanName": "Atlanta, GA Metro ", "phone_number": "7704245088", "tags": [{"primary": false, "id": 1727, "name": "Delis And Delicatessens"}, {"primary": false, "id": 1736, "name": "Sandwich Shops"}, {"primary": false, "id": 11247, "name": "Carry Out"}, {"primary": true, "id": 1722, "name": "Restaurants"}], "fax_number": null, "expansion": {"count": null, "uri": null}, "impression_id": "000b0000007baf2131bb484a8287d8dcfbb6bdf3d3", "profile": "http://www.citysearch.com/profile/713401400/kennesaw_ga/blimpie_subs_salads.html", "address": {"city": "Kennesaw", "state": "GA", "street": "667 Ernest W Barrett Pkwy NW", "postal_code": "30144"}, "capProviderId": null, "distance": null, "has_offers": false, "name": "Blimpie Subs & Salads", "longitude": -84.572087, "has_menu": false, "awards": null, "user_review_count": 0}, {"business_operation_status": 1, "rating": null, "neighborhood": null, "image": null, "scorecard": null, "featured": false, "sample_categories": "Restaurants, Pizza, Carry Out", "public_id": "jets-pizza-kennesaw", "id": 713510300, "votes": null, "tagline": null, "has_video": false, "website": "http://www.citysearch.com/profile/external/713510300/kennesaw_ga/jet_s_pizza.html", "offers": null, "latitude": 34.047772, "politanName": "Atlanta, GA Metro ", "phone_number": "7704278788", "tags": [{"primary": false, "id": 1722, "name": "Restaurants"}, {"primary": false, "id": 11247, "name": "Carry Out"}, {"primary": true, "id": 11299, "name": "Pizza"}], "fax_number": null, "expansion": {"count": null, "uri": null}, "impression_id": "000b0000006917e66a383b42a89e78ea6577e6f246", "profile": "http://www.citysearch.com/profile/713510300/kennesaw_ga/jet_s_pizza.html", "address": {"city": "Kennesaw", "state": "GA", "street": "4100 Jiles Rd NW", "postal_code": "30144"}, "capProviderId": null, "distance": null, "has_offers": false, "name": "Jet's Pizza", "longitude": -84.610566, "has_menu": true, "awards": null, "user_review_count": 0}, {"business_operation_status": 1, "rating": null, "neighborhood": null, "image": null, "scorecard": null, "featured": false, "sample_categories": "Frozen Yogurt Shops, Restaurants, Ice Cream Parlors", "public_id": "menchies-frozen-yogurt-roswell", "id": 604584852, "votes": null, "tagline": null, "has_video": false, "website": "http://www.citysearch.com/profile/external/604584852/roswell_ga/menchie_s_frozen_yogurt.html", "offers": null, "latitude": 34.073066, "politanName": "Atlanta, GA Metro ", "phone_number": "7709927992", "tags": [{"primary": false, "id": 1722, "name": "Restaurants"}, {"primary": false, "id": 1730, "name": "Ice Cream Parlors"}, {"primary": true, "id": 1729, "name": "Frozen Yogurt Shops"}], "fax_number": null, "expansion": {"count": null, "uri": null}, "impression_id": "000b0000004192f43740944080a60055806b19f037", "profile": "http://www.citysearch.com/profile/604584852/roswell_ga/menchie_s_frozen_yogurt.html", "address": {"city": "Roswell", "state": "GA", "street": "12030 Etris Rd Ste C120", "postal_code": "30075"}, "capProviderId": null, "distance": null, "has_offers": false, "name": "Menchie's Frozen Yogurt", "longitude": -84.362276, "has_menu": false, "awards": null, "user_review_count": 1}, {"business_operation_status": 1, "rating": null, "neighborhood": null, "image": null, "scorecard": null, "featured": false, "sample_categories": "Restaurants", "public_id": "best-friends-cafe-incorporated-marietta", "id": 37645592, "votes": null, "tagline": null, "has_video": false, "website": null, "offers": null, "latitude": 33.951322, "politanName": "Atlanta, GA Metro ", "phone_number": "7707920506", "tags": [{"primary": true, "id": 1722, "name": "Restaurants"}], "fax_number": null, "expansion": {"count": null, "uri": null}, "impression_id": "000b0000009a881ea69e544f95983768a147df846b", "profile": "http://www.citysearch.com/profile/37645592/marietta_ga/best_friends_cafe_incorporated.html", "address": {"city": "Marietta", "state": "GA", "street": "749 Roswell St NE", "postal_code": "30060"}, "capProviderId": null, "distance": null, "has_offers": false, "name": "Best Friends Cafe Incorporated", "longitude": -84.530069, "has_menu": false, "awards": null, "user_review_count": 0}, {"business_operation_status": 1, "rating": 6.0, "neighborhood": null, "image": null, "scorecard": null, "featured": false, "sample_categories": "Restaurants, Mexican, American Express, Discover, MasterCard", "public_id": "el-taco-azteca-mexican-grille-kennesaw", "id": 43859514, "votes": null, "tagline": null, "has_video": false, "website": "http://www.citysearch.com/profile/external/43859514/kennesaw_ga/el_taco_azteca_mexican_grille.html", "offers": null, "latitude": 34.020557, "politanName": "Atlanta, GA Metro ", "phone_number": "7709191609", "tags": [{"primary": false, "id": 11208, "name": "Mexican"}, {"primary": false, "id": 11333, "name": "American Express"}, {"primary": false, "id": 11349, "name": "Discover"}, {"primary": false, "id": 11361, "name": "MasterCard"}, {"primary": false, "id": 11382, "name": "Visa"}, {"primary": true, "id": 1722, "name": "Restaurants"}], "fax_number": null, "expansion": {"count": null, "uri": null}, "impression_id": "000b0000005065cfc2954549448813c01aa66db228", "profile": "http://www.citysearch.com/profile/43859514/kennesaw_ga/el_taco_azteca_mexican_grille.html", "address": {"city": "Kennesaw", "state": "GA", "street": "2752 S Main St NW", "postal_code": "30144"}, "capProviderId": null, "distance": null, "has_offers": false, "name": "El Taco Azteca Mexican Grille", "longitude": -84.612558, "has_menu": false, "awards": null, "user_review_count": 3}, {"business_operation_status": 1, "rating": null, "neighborhood": null, "image": null, "scorecard": null, "featured": false, "sample_categories": "Restaurants", "public_id": "geordie-boy-inc-woodstock", "id": 632991790, "votes": null, "tagline": null, "has_video": false, "website": null, "offers": null, "latitude": 34.11726, "politanName": "Atlanta, GA Metro ", "phone_number": "7705160737", "tags": [{"primary": true, "id": 1722, "name": "Restaurants"}], "fax_number": null, "expansion": {"count": null, "uri": null}, "impression_id": "000b0000005decaf68ace940a0b0401a99beb5487c", "profile": "http://www.citysearch.com/profile/632991790/woodstock_ga/geordie_boy_inc.html", "address": {"city": "Woodstock", "state": "GA", "street": "3035 Towneside Ln", "postal_code": "30189"}, "capProviderId": null, "distance": null, "has_offers": false, "name": "Geordie Boy Inc", "longitude": -84.547703, "has_menu": false, "awards": null, "user_review_count": 0}, {"business_operation_status": 1, "rating": null, "neighborhood": null, "image": null, "scorecard": null, "featured": false, "sample_categories": "Catering, Restaurants, Pizza", "public_id": "rays-new-york-pizza-kennesaw-2", "id": 653618780, "votes": null, "tagline": null, "has_video": false, "website": "http://www.citysearch.com/profile/external/653618780/kennesaw_ga/ray_s_new_york_pizza.html", "offers": null, "latitude": 34.037182, "politanName": "Atlanta, GA Metro ", "phone_number": "7704249000", "tags": [{"primary": false, "id": 1705, "name": "Catering"}, {"primary": false, "id": 1722, "name": "Restaurants"}, {"primary": true, "id": 11299, "name": "Pizza"}], "fax_number": null, "expansion": {"count": null, "uri": null}, "impression_id": "000b0000000dac0d0359014120af76d1207f6635ab", "profile": "http://www.citysearch.com/profile/653618780/kennesaw_ga/ray_s_new_york_pizza.html", "address": {"city": "Kennesaw", "state": "GA", "street": "600 Chastain Rd Nw", "postal_code": "30144"}, "capProviderId": null, "distance": null, "has_offers": false, "name": "Ray's New York Pizza", "longitude": -84.567518, "has_menu": false, "awards": null, "user_review_count": 0}, {"business_operation_status": 1, "rating": null, "neighborhood": null, "image": null, "scorecard": null, "featured": false, "sample_categories": "Restaurants", "public_id": "sun-rise-cafe-marietta", "id": 811484560, "votes": null, "tagline": null, "has_video": false, "website": null, "offers": null, "latitude": 33.903093, "politanName": "Atlanta, GA Metro ", "phone_number": "7704310203", "tags": [{"primary": true, "id": 1722, "name": "Restaurants"}], "fax_number": null, "expansion": {"count": null, "uri": null}, "impression_id": "000b000000e0f901eda6774d9bad0f27a04bc0e4d6", "profile": "http://www.citysearch.com/profile/811484560/marietta_ga/sun_rise_cafe.html", "address": {"city": "Marietta", "state": "GA", "street": "2052 S Cobb Dr SE", "postal_code": "30060"}, "capProviderId": null, "distance": null, "has_offers": false, "name": "Sun Rise Cafe", "longitude": -84.542386, "has_menu": false, "awards": null, "user_review_count": 0}, {"business_operation_status": 1, "rating": null, "neighborhood": null, "image": null, "scorecard": null, "featured": false, "sample_categories": "Restaurants", "public_id": "blues-brothers-entertainment-woodstock", "id": 37091317, "votes": null, "tagline": null, "has_video": false, "website": null, "offers": null, "latitude": 34.089184, "politanName": "Atlanta, GA Metro ", "phone_number": "7709268006", "tags": [{"primary": true, "id": 1722, "name": "Restaurants"}], "fax_number": null, "expansion": {"count": null, "uri": null}, "impression_id": "000b000000148c48611cd44ca28ff017ad3f1a9ac9", "profile": "http://www.citysearch.com/profile/37091317/woodstock_ga/blues_brothers_entertainment.html", "address": {"city": "Woodstock", "state": "GA", "street": "12195 Hwy 92", "postal_code": "30188"}, "capProviderId": null, "distance": null, "has_offers": false, "name": "Blues Brothers Entertainment", "longitude": -84.483229, "has_menu": false, "awards": null, "user_review_count": 0}, {"business_operation_status": 1, "rating": null, "neighborhood": null, "image": null, "scorecard": null, "featured": false, "sample_categories": "Restaurants, Pizza", "public_id": "atena-pizza-kennesaw", "id": 827581250, "votes": null, "tagline": null, "has_video": false, "website": null, "offers": null, "latitude": 34.020819, "politanName": "Atlanta, GA Metro ", "phone_number": "6787971888", "tags": [{"primary": false, "id": 1722, "name": "Restaurants"}, {"primary": true, "id": 11299, "name": "Pizza"}], "fax_number": null, "expansion": {"count": null, "uri": null}, "impression_id": "000b000000a5b6c9483c254981a11c06507e54e067", "profile": "http://www.citysearch.com/profile/827581250/kennesaw_ga/atena_pizza.html", "address": {"city": "Kennesaw", "state": "GA", "street": "2754 S Main St NW", "postal_code": "30144"}, "capProviderId": null, "distance": null, "has_offers": false, "name": "Atena Pizza", "longitude": -84.613657, "has_menu": false, "awards": null, "user_review_count": 0}, {"business_operation_status": 1, "rating": null, "neighborhood": null, "image": null, "scorecard": null, "featured": false, "sample_categories": "Restaurants, Chinese", "public_id": "mr-wok-woodstock", "id": 745601430, "votes": null, "tagline": null, "has_video": false, "website": null, "offers": null, "latitude": 34.140062, "politanName": "Atlanta, GA Metro ", "phone_number": "7709246608", "tags": [{"primary": false, "id": 11252, "name": "Chinese"}, {"primary": true, "id": 1722, "name": "Restaurants"}], "fax_number": null, "expansion": {"count": null, "uri": null}, "impression_id": "000b0000000a84b35f63a74b078bcb562d7ef42a04", "profile": "http://www.citysearch.com/profile/745601430/woodstock_ga/mr_wok.html", "address": {"city": "Woodstock", "state": "GA", "street": "5335 Old Highway 5", "postal_code": "30188"}, "capProviderId": null, "distance": null, "has_offers": false, "name": "Mr Wok", "longitude": -84.504209, "has_menu": false, "awards": null, "user_review_count": 0}, {"business_operation_status": 1, "rating": null, "neighborhood": null, "image": null, "scorecard": null, "featured": false, "sample_categories": "Delis And Delicatessens, Restaurants", "public_id": "european-deli-specialties-woodstock", "id": 826853500, "votes": null, "tagline": null, "has_video": false, "website": null, "offers": null, "latitude": 34.086211, "politanName": "Atlanta, GA Metro ", "phone_number": "6782380567", "tags": [{"primary": false, "id": 1722, "name": "Restaurants"}, {"primary": true, "id": 1727, "name": "Delis And Delicatessens"}], "fax_number": null, "expansion": {"count": null, "uri": null}, "impression_id": "000b0000001bfe3e7332084bcbbeeebd6b6c58d06f", "profile": "http://www.citysearch.com/profile/826853500/woodstock_ga/european_deli_specialties.html", "address": {"city": "Woodstock", "state": "GA", "street": "9550 Main St # 100", "postal_code": "30188"}, "capProviderId": null, "distance": null, "has_offers": false, "name": "European Deli Specialties", "longitude": -84.519459, "has_menu": true, "awards": null, "user_review_count": 1}, {"business_operation_status": 0, "rating": null, "neighborhood": null, "image": null, "scorecard": null, "featured": false, "sample_categories": "Restaurants", "public_id": "uncle-buds-bbq-marietta", "id": 762801990, "votes": null, "tagline": null, "has_video": false, "website": null, "offers": null, "latitude": 34.022187, "politanName": "Atlanta, GA Metro ", "phone_number": "4042255283", "tags": [{"primary": true, "id": 1722, "name": "Restaurants"}], "fax_number": null, "expansion": {"count": null, "uri": null}, "impression_id": "000b0000000cd8a5c28fc44585b923b05edccb9113", "profile": "http://www.citysearch.com/profile/762801990/marietta_ga/uncle_bud_s_bbq.html", "address": {"city": "Marietta", "state": "GA", "street": "2995 Johnson Ferry Rd", "postal_code": "30062"}, "capProviderId": null, "distance": null, "has_offers": false, "name": "Uncle Bud's BBQ", "longitude": -84.427086, "has_menu": false, "awards": null, "user_review_count": 0}, {"business_operation_status": 1, "rating": null, "neighborhood": null, "image": null, "scorecard": null, "featured": false, "sample_categories": "Restaurants, Delis And Delicatessens, Sandwich Shops, Carry Out", "public_id": "blimpie-subs-salads-woodstock-4", "id": 764855870, "votes": null, "tagline": null, "has_video": false, "website": "http://www.citysearch.com/profile/external/764855870/woodstock_ga/blimpie_subs_salads.html", "offers": null, "latitude": 34.087504, "politanName": "Atlanta, GA Metro ", "phone_number": "7705911121", "tags": [{"primary": false, "id": 1727, "name": "Delis And Delicatessens"}, {"primary": false, "id": 1736, "name": "Sandwich Shops"}, {"primary": false, "id": 11247, "name": "Carry Out"}, {"primary": true, "id": 1722, "name": "Restaurants"}], "fax_number": null, "expansion": {"count": null, "uri": null}, "impression_id": "000b0000008ded0daeca354556a13994188ae07c5a", "profile": "http://www.citysearch.com/profile/764855870/woodstock_ga/blimpie_subs_salads.html", "address": {"city": "Woodstock", "state": "GA", "street": "10029 Highway 92", "postal_code": "30188"}, "capProviderId": null, "distance": null, "has_offers": false, "name": "Blimpie Subs & Salads", "longitude": -84.520678, "has_menu": true, "awards": null, "user_review_count": 0}, {"business_operation_status": 1, "rating": null, "neighborhood": null, "image": null, "scorecard": null, "featured": false, "sample_categories": "Restaurants, Mexican, Carry Out", "public_id": "taco-bell-marietta-10", "id": 775210570, "votes": null, "tagline": null, "has_video": false, "website": "http://www.citysearch.com/profile/external/775210570/marietta_ga/taco_bell.html", "offers": null, "latitude": 33.924583, "politanName": "Atlanta, GA Metro ", "phone_number": "7705907481", "tags": [{"primary": false, "id": 11208, "name": "Mexican"}, {"primary": false, "id": 11247, "name": "Carry Out"}, {"primary": true, "id": 1722, "name": "Restaurants"}], "fax_number": null, "expansion": {"count": null, "uri": null}, "impression_id": "000b0000008f4af540945b48978c87ca9424133733", "profile": "http://www.citysearch.com/profile/775210570/marietta_ga/taco_bell.html", "address": {"city": "Marietta", "state": "GA", "street": "1180 Powder Springs St", "postal_code": "30064"}, "capProviderId": null, "distance": null, "has_offers": false, "name": "Taco Bell", "longitude": -84.575231, "has_menu": false, "awards": null, "user_review_count": 0}, {"business_operation_status": 1, "rating": null, "neighborhood": null, "image": null, "scorecard": null, "featured": false, "sample_categories": "Restaurants", "public_id": "cafe-internet-marietta", "id": 775213360, "votes": null, "tagline": null, "has_video": false, "website": null, "offers": null, "latitude": 33.938913, "politanName": "Atlanta, GA Metro ", "phone_number": "6785940304", "tags": [{"primary": true, "id": 1722, "name": "Restaurants"}], "fax_number": null, "expansion": {"count": null, "uri": null}, "impression_id": "000b000000d497adf690b24e139db64a3b3856d07f", "profile": "http://www.citysearch.com/profile/775213360/marietta_ga/cafe_internet.html", "address": {"city": "Marietta", "state": "GA", "street": "550 Franklin Rd SE", "postal_code": "30067"}, "capProviderId": null, "distance": null, "has_offers": false, "name": "Cafe Internet", "longitude": -84.507658, "has_menu": false, "awards": null, "user_review_count": 0}, {"business_operation_status": 1, "rating": null, "neighborhood": null, "image": null, "scorecard": null, "featured": false, "sample_categories": "Restaurants", "public_id": "pressed-marietta", "id": 787100030, "votes": null, "tagline": null, "has_video": false, "website": null, "offers": null, "latitude": 33.952269, "politanName": "Atlanta, GA Metro ", "phone_number": "7704853759", "tags": [{"primary": true, "id": 1722, "name": "Restaurants"}], "fax_number": null, "expansion": {"count": null, "uri": null}, "impression_id": "000b000000b9d61617cbb6498fa6d18972c1dd9bf4", "profile": "http://www.citysearch.com/profile/787100030/marietta_ga/pressed.html", "address": {"city": "Marietta", "state": "GA", "street": "30 S Park Sq Ne", "postal_code": "30060"}, "capProviderId": null, "distance": null, "has_offers": false, "name": "Pressed", "longitude": -84.550109, "has_menu": false, "awards": null, "user_review_count": 0}, {"business_operation_status": 1, "rating": null, "neighborhood": null, "image": null, "scorecard": null, "featured": false, "sample_categories": "Ice Cream Parlors, Restaurants, Dessert Shops, Frozen Yogurt Shops, Doughnut Shops", "public_id": "baskinrobbins-kennesaw", "id": 43858643, "votes": null, "tagline": null, "has_video": false, "website": "http://www.citysearch.com/profile/external/43858643/kennesaw_ga/baskin_robbins.html", "offers": null, "latitude": 34.03594, "politanName": "Atlanta, GA Metro ", "phone_number": "6783555518", "tags": [{"primary": false, "id": 1722, "name": "Restaurants"}, {"primary": false, "id": 1728, "name": "Dessert Shops"}, {"primary": false, "id": 1729, "name": "Frozen Yogurt Shops"}, {"primary": false, "id": 1734, "name": "Doughnut Shops"}, {"primary": true, "id": 1730, "name": "Ice Cream Parlors"}], "fax_number": null, "expansion": {"count": null, "uri": null}, "impression_id": "000b000000348167c192a94685a5d3e943ab69da9b", "profile": "http://www.citysearch.com/profile/43858643/kennesaw_ga/baskin_robbins.html", "address": {"city": "Kennesaw", "state": "GA", "street": "741 Townpark Ln NW", "postal_code": "30144"}, "capProviderId": null, "distance": null, "has_offers": false, "name": "Baskin-Robbins", "longitude": -84.572269, "has_menu": true, "awards": null, "user_review_count": 0}, {"business_operation_status": 1, "rating": 10.0, "neighborhood": null, "image": null, "scorecard": null, "featured": false, "sample_categories": "Restaurants, Fast Food, Carry Out, Hamburgers, American Express", "public_id": "mc-donalds-woodstock", "id": 43864384, "votes": null, "tagline": null, "has_video": false, "website": "http://www.citysearch.com/profile/external/43864384/woodstock_ga/mc_donald_s.html", "offers": null, "latitude": 34.087494, "politanName": "Atlanta, GA Metro ", "phone_number": "7709246912", "tags": [{"primary": false, "id": 11199, "name": "Fast Food"}, {"primary": false, "id": 11247, "name": "Carry Out"}, {"primary": false, "id": 11270, "name": "Hamburgers"}, {"primary": false, "id": 11333, "name": "American Express"}, {"primary": false, "id": 11349, "name": "Discover"}, {"primary": false, "id": 11361, "name": "MasterCard"}, {"primary": false, "id": 11382, "name": "Visa"}, {"primary": true, "id": 1722, "name": "Restaurants"}], "fax_number": null, "expansion": {"count": null, "uri": null}, "impression_id": "000b0000001daf9ba942274eb7813d9e5d371858ea", "profile": "http://www.citysearch.com/profile/43864384/woodstock_ga/mc_donald_s.html", "address": {"city": "Woodstock", "state": "GA", "street": "12156 Highway 92", "postal_code": "30188"}, "capProviderId": null, "distance": null, "has_offers": false, "name": "Mc Donald's", "longitude": -84.483189, "has_menu": true, "awards": null, "user_review_count": 0}, {"business_operation_status": 1, "rating": null, "neighborhood": null, "image": null, "scorecard": null, "featured": false, "sample_categories": "Restaurants, Pizza", "public_id": "pizzano-s-pizzeria-inc-roswell", "id": 807569560, "votes": null, "tagline": null, "has_video": false, "website": null, "offers": null, "latitude": 34.003826, "politanName": "Atlanta, GA Metro ", "phone_number": "7706401511", "tags": [{"primary": false, "id": 1722, "name": "Restaurants"}, {"primary": true, "id": 11299, "name": "Pizza"}], "fax_number": null, "expansion": {"count": null, "uri": null}, "impression_id": "000b00000061570220113147038a43d3fc8d910c78", "profile": "http://www.citysearch.com/profile/807569560/roswell_ga/pizzano_s_pizzeria_inc.html", "address": {"city": "Roswell", "state": "GA", "street": "880 Marietta Hwy # 600", "postal_code": "30075"}, "capProviderId": null, "distance": null, "has_offers": false, "name": "Pizzano S Pizzeria Inc", "longitude": -84.391437, "has_menu": false, "awards": null, "user_review_count": 0}], "histograms": [], "tag_ids": [1722], "uri": "http://api.citygridmedia.com:8080/search/places/v2/search/where?has_offers=false&type=restaurant&format=json&page=29&where=30066&rpp=50&histograms=false&publisher=10000009598&region_type=circle", "did_you_mean": "", "regions": [{"latitude": 34.034132, "default_radius": 5.28, "type": "postal_code", "name": "30066", "longitude": -84.508332}], "call_id": "000b000000692e448141c1472cb1832d08e46c7662", "first_hit": 1401, "total_hits": 2075, "geo_ids": [26294], "page": 29, "last_hit": 1450}}