{"results": {"rpp": 50, "locations": [{"business_operation_status": 1, "rating": null, "neighborhood": null, "image": null, "scorecard": null, "featured": false, "sample_categories": "Food Stores, Restaurants", "public_id": "halal-meats-marietta", "id": 696523330, "votes": null, "tagline": null, "has_video": false, "website": null, "offers": null, "latitude": 33.937797, "politanName": "Atlanta, GA Metro ", "phone_number": "6782900211", "tags": [{"primary": false, "id": 1722, "name": "Restaurants"}, {"primary": true, "id": 1706, "name": "Food Stores"}], "fax_number": null, "expansion": {"count": null, "uri": null}, "impression_id": "000b0000001efe5c9ceb3a4870be40d8bcc45e6291", "profile": "http://www.citysearch.com/profile/696523330/marietta_ga/halal_meats.html", "address": {"city": "Marietta", "state": "GA", "street": "585 Franklin Rd Se", "postal_code": "30067"}, "capProviderId": null, "distance": null, "has_offers": false, "name": "Halal Meats", "longitude": -84.506993, "has_menu": false, "awards": null, "user_review_count": 0}, {"business_operation_status": 1, "rating": null, "neighborhood": null, "image": null, "scorecard": null, "featured": false, "sample_categories": "Restaurants", "public_id": "nagoya-roswell", "id": 625136094, "votes": null, "tagline": null, "has_video": false, "website": null, "offers": null, "latitude": 34.004732, "politanName": "Atlanta, GA Metro ", "phone_number": "7709988899", "tags": [{"primary": true, "id": 1722, "name": "Restaurants"}], "fax_number": null, "expansion": {"count": null, "uri": null}, "impression_id": "000b000000eff0b487f16a42bfac5ba4fac37591d0", "profile": "http://www.citysearch.com/profile/625136094/roswell_ga/nagoya.html", "address": {"city": "Roswell", "state": "GA", "street": "910 Marietta Hwy", "postal_code": "30075"}, "capProviderId": null, "distance": null, "has_offers": false, "name": "Nagoya", "longitude": -84.389163, "has_menu": false, "awards": null, "user_review_count": 0}, {"business_operation_status": 1, "rating": null, "neighborhood": null, "image": null, "scorecard": null, "featured": false, "sample_categories": "Restaurants, Diners", "public_id": "classic-stainless-steel-diners-atlanta", "id": 739045320, "votes": null, "tagline": null, "has_video": false, "website": null, "offers": null, "latitude": 33.885476, "politanName": "Atlanta, GA Metro ", "phone_number": "4042375170", "tags": [{"primary": false, "id": 1732, "name": "Diners"}, {"primary": true, "id": 1722, "name": "Restaurants"}], "fax_number": null, "expansion": {"count": null, "uri": null}, "impression_id": "000b000000119f2a164ec14a13b5a5a001da16424e", "profile": "http://www.citysearch.com/profile/739045320/atlanta_ga/classic_stainless_steel_diners.html", "address": {"city": "Atlanta", "state": "GA", "street": "600 Galleria Pkwy SE # 995", "postal_code": "30339"}, "capProviderId": null, "distance": null, "has_offers": false, "name": "Classic Stainless Steel Diners", "longitude": -84.461662, "has_menu": false, "awards": null, "user_review_count": 0}, {"business_operation_status": 1, "rating": null, "neighborhood": null, "image": null, "scorecard": null, "featured": false, "sample_categories": "Restaurants, Bars & Clubs, Traditional American", "public_id": "padella-marietta", "id": 748352460, "votes": null, "tagline": null, "has_video": false, "website": null, "offers": null, "latitude": 33.905983, "politanName": "Atlanta, GA Metro ", "phone_number": "7709561234", "tags": [{"primary": false, "id": 164, "name": "Bars & Clubs"}, {"primary": false, "id": 11190, "name": "Traditional American"}, {"primary": true, "id": 1722, "name": "Restaurants"}], "fax_number": null, "expansion": {"count": null, "uri": null}, "impression_id": "000b0000005b7068b61a534c06b1c24efe2e2c92fc", "profile": "http://www.citysearch.com/profile/748352460/marietta_ga/padella.html", "address": {"city": "Marietta", "state": "GA", "street": "2999 Windy Hill Rd SE", "postal_code": "30067"}, "capProviderId": null, "distance": null, "has_offers": false, "name": "Padella", "longitude": -84.466315, "has_menu": true, "awards": null, "user_review_count": 0}, {"business_operation_status": 1, "rating": null, "neighborhood": null, "image": null, "scorecard": null, "featured": false, "sample_categories": "Restaurants", "public_id": "canyon-cafe-marietta", "id": 732199900, "votes": null, "tagline": null, "has_video": false, "website": null, "offers": null, "latitude": 33.949881, "politanName": "Atlanta, GA Metro ", "phone_number": "6784693379", "tags": [{"primary": true, "id": 1722, "name": "Restaurants"}], "fax_number": null, "expansion": {"count": null, "uri": null}, "impression_id": "000b000000654909ee2b7843518afabc048940dd24", "profile": "http://www.citysearch.com/profile/732199900/marietta_ga/canyon_cafe.html", "address": {"city": "Marietta", "state": "GA", "street": "3486 Sheridan Chase SE", "postal_code": "30067"}, "capProviderId": null, "distance": null, "has_offers": false, "name": "Canyon Cafe", "longitude": -84.446848, "has_menu": false, "awards": null, "user_review_count": 0}, {"business_operation_status": 1, "rating": null, "neighborhood": null, "image": null, "scorecard": null, "featured": false, "sample_categories": "Bars & Pubs, Bars & Clubs, Restaurants, Grill Restaurants, Carry Out", "public_id": "philippopolis-tavern-smyrna", "id": 748253380, "votes": null, "tagline": null, "has_video": false, "website": null, "offers": null, "latitude": 33.901006, "politanName": "Atlanta, GA Metro ", "phone_number": "6783836164", "tags": [{"primary": false, "id": 164, "name": "Bars & Clubs"}, {"primary": false, "id": 1722, "name": "Restaurants"}, {"primary": false, "id": 6191, "name": "Grill Restaurants"}, {"primary": false, "id": 11247, "name": "Carry Out"}, {"primary": false, "id": 11289, "name": "Mediterranean"}, {"primary": true, "id": 1686, "name": "Bars & Pubs"}], "fax_number": null, "expansion": {"count": null, "uri": null}, "impression_id": "000b000000a709631b514a45f4b2c0a4e507290cf0", "profile": "http://www.citysearch.com/profile/748253380/smyrna_ga/philippopolis_tavern.html", "address": {"city": "Smyrna", "state": "GA", "street": "1995 Windy Hill Rd SE", "postal_code": "30080"}, "capProviderId": null, "distance": null, "has_offers": false, "name": "Philippopolis Tavern", "longitude": -84.491036, "has_menu": false, "awards": null, "user_review_count": 0}, {"business_operation_status": 1, "rating": null, "neighborhood": null, "image": null, "scorecard": null, "featured": false, "sample_categories": "Restaurants, Eclectic & International", "public_id": "eagle-cafe-intl-marietta", "id": 775215710, "votes": null, "tagline": null, "has_video": false, "website": null, "offers": null, "latitude": 33.924963, "politanName": "Atlanta, GA Metro ", "phone_number": "7704222056", "tags": [{"primary": false, "id": 11259, "name": "Eclectic & International"}, {"primary": true, "id": 1722, "name": "Restaurants"}], "fax_number": null, "expansion": {"count": null, "uri": null}, "impression_id": "000b000000a2cf964fd3dd46c091af99b2ba26f016", "profile": "http://www.citysearch.com/profile/775215710/marietta_ga/eagle_cafe_intl.html", "address": {"city": "Marietta", "state": "GA", "street": "1150 Powder Springs St", "postal_code": "30064"}, "capProviderId": null, "distance": null, "has_offers": false, "name": "Eagle Cafe Intl", "longitude": -84.573919, "has_menu": false, "awards": null, "user_review_count": 0}, {"business_operation_status": 1, "rating": null, "neighborhood": null, "image": null, "scorecard": null, "featured": false, "sample_categories": "Restaurants, Carry Out", "public_id": "burger-king-powder", "id": 764855980, "votes": null, "tagline": null, "has_video": false, "website": null, "offers": null, "latitude": 33.906794, "politanName": "Atlanta, GA Metro ", "phone_number": "7704391489", "tags": [{"primary": false, "id": 11247, "name": "Carry Out"}, {"primary": true, "id": 1722, "name": "Restaurants"}], "fax_number": null, "expansion": {"count": null, "uri": null}, "impression_id": "000b000000544aff0b3a3440cda59f6128a9791698", "profile": "http://www.citysearch.com/profile/764855980/powder_springs_ga/burger_king.html", "address": {"city": "Powder Springs", "state": "GA", "street": "3640 Velma Dr", "postal_code": "30127"}, "capProviderId": null, "distance": null, "has_offers": false, "name": "Burger King", "longitude": -84.660285, "has_menu": false, "awards": null, "user_review_count": 0}, {"business_operation_status": 1, "rating": null, "neighborhood": null, "image": null, "scorecard": null, "featured": false, "sample_categories": "Restaurants", "public_id": "w-k-r-d-the-blaze-power-house-marietta", "id": 779694540, "votes": null, "tagline": null, "has_video": false, "website": null, "offers": null, "latitude": 33.938913, "politanName": "Atlanta, GA Metro ", "phone_number": "6784018567", "tags": [{"primary": true, "id": 1722, "name": "Restaurants"}], "fax_number": null, "expansion": {"count": null, "uri": null}, "impression_id": "000b00000036e87e33f9c44d77be53ba6244161a75", "profile": "http://www.citysearch.com/profile/779694540/marietta_ga/w_k_r_d_the_blaze_power_house.html", "address": {"city": "Marietta", "state": "GA", "street": "550 Franklin Rd Se", "postal_code": "30067"}, "capProviderId": null, "distance": null, "has_offers": false, "name": "W K R D The Blaze Power House", "longitude": -84.507658, "has_menu": false, "awards": null, "user_review_count": 0}, {"business_operation_status": 1, "rating": null, "neighborhood": null, "image": null, "scorecard": null, "featured": false, "sample_categories": "Restaurants", "public_id": "chuys-restaurant-kennesaw", "id": 611300334, "votes": null, "tagline": null, "has_video": false, "website": null, "offers": null, "latitude": 34.007528, "politanName": "Atlanta, GA Metro ", "phone_number": "7707921345", "tags": [{"primary": true, "id": 1722, "name": "Restaurants"}], "fax_number": null, "expansion": {"count": null, "uri": null}, "impression_id": "000b0000004cac62378c344849b91cc79be0e2bade", "profile": "http://www.citysearch.com/profile/611300334/kennesaw_ga/chuy_s_restaurant.html", "address": {"city": "Kennesaw", "state": "GA", "street": "585 Ernest W Barrett Pkwy NW", "postal_code": "30144"}, "capProviderId": null, "distance": null, "has_offers": false, "name": "Chuy's Restaurant", "longitude": -84.571547, "has_menu": false, "awards": null, "user_review_count": 0}, {"business_operation_status": 1, "rating": null, "neighborhood": null, "image": null, "scorecard": null, "featured": false, "sample_categories": "Restaurants", "public_id": "open-door-pediatrics-therapy-marietta", "id": 621872460, "votes": null, "tagline": null, "has_video": false, "website": "http://www.citysearch.com/profile/external/621872460/marietta_ga/open_door_pediatrics_therapy.html", "offers": null, "latitude": 33.950209, "politanName": "Atlanta, GA Metro ", "phone_number": "6782908910", "tags": [{"primary": true, "id": 1722, "name": "Restaurants"}], "fax_number": null, "expansion": {"count": null, "uri": null}, "impression_id": "000b00000075701e842d074ecb820e73d8dfaaab6a", "profile": "http://www.citysearch.com/profile/621872460/marietta_ga/open_door_pediatrics_therapy.html", "address": {"city": "Marietta", "state": "GA", "street": "707 Whitlock Ave Sw # A41", "postal_code": "30064"}, "capProviderId": null, "distance": null, "has_offers": false, "name": "Open Door Pediatrics Therapy", "longitude": -84.573437, "has_menu": false, "awards": null, "user_review_count": 0}, {"business_operation_status": 1, "rating": null, "neighborhood": null, "image": null, "scorecard": null, "featured": false, "sample_categories": "Restaurants, Coffee & Tea Shops, Cafes", "public_id": "parkway-cafe-marietta", "id": 621991080, "votes": null, "tagline": null, "has_video": false, "website": null, "offers": null, "latitude": 33.938367, "politanName": "Atlanta, GA Metro ", "phone_number": "7705908922", "tags": [{"primary": false, "id": 1711, "name": "Coffee & Tea Shops"}, {"primary": false, "id": 6190, "name": "Cafes"}, {"primary": true, "id": 1722, "name": "Restaurants"}], "fax_number": null, "expansion": {"count": null, "uri": null}, "impression_id": "000b000000de2600eab2db4f1f8b58d52104925b33", "profile": "http://www.citysearch.com/profile/621991080/marietta_ga/parkway_cafe.html", "address": {"city": "Marietta", "state": "GA", "street": "1850 Parkway Pl Se # 120", "postal_code": "30067"}, "capProviderId": null, "distance": null, "has_offers": false, "name": "Parkway Cafe", "longitude": -84.501954, "has_menu": false, "awards": null, "user_review_count": 0}, {"business_operation_status": 1, "rating": null, "neighborhood": null, "image": null, "scorecard": null, "featured": false, "sample_categories": "Restaurants, Mexican", "public_id": "don-pedro-mexican-restaurant-marietta", "id": 45556665, "votes": null, "tagline": null, "has_video": false, "website": null, "offers": null, "latitude": 33.944297, "politanName": "Atlanta, GA Metro ", "phone_number": "6782900202", "tags": [{"primary": false, "id": 11208, "name": "Mexican"}, {"primary": true, "id": 1722, "name": "Restaurants"}], "fax_number": null, "expansion": {"count": null, "uri": null}, "impression_id": "000b000000731d850ed3a748c5aca3dd98f1052a5b", "profile": "http://www.citysearch.com/profile/45556665/marietta_ga/don_pedro_mexican_restaurant.html", "address": {"city": "Marietta", "state": "GA", "street": "344 S Fairground St SE", "postal_code": "30060"}, "capProviderId": null, "distance": null, "has_offers": false, "name": "Don Pedro Mexican Restaurant", "longitude": -84.535657, "has_menu": false, "awards": null, "user_review_count": 0}, {"business_operation_status": 1, "rating": null, "neighborhood": null, "image": null, "scorecard": null, "featured": false, "sample_categories": "Restaurants", "public_id": "banquet-hall-de-las-america-marietta", "id": 775210860, "votes": null, "tagline": null, "has_video": false, "website": null, "offers": null, "latitude": 33.951285, "politanName": "Atlanta, GA Metro ", "phone_number": "7707941080", "tags": [{"primary": true, "id": 1722, "name": "Restaurants"}], "fax_number": null, "expansion": {"count": null, "uri": null}, "impression_id": "000b000000512b157011d0483cac6b280dd0443772", "profile": "http://www.citysearch.com/profile/775210860/marietta_ga/banquet_hall_de_las_america.html", "address": {"city": "Marietta", "state": "GA", "street": "737 Roswell St NE", "postal_code": "30060"}, "capProviderId": null, "distance": null, "has_offers": false, "name": "Banquet Hall De Las America", "longitude": -84.530697, "has_menu": false, "awards": null, "user_review_count": 0}, {"business_operation_status": 1, "rating": null, "neighborhood": null, "image": null, "scorecard": null, "featured": false, "sample_categories": "Restaurants, Pizza, Carry Out", "public_id": "johnnys-pizza-marietta", "id": 790893290, "votes": null, "tagline": null, "has_video": false, "website": null, "offers": null, "latitude": 33.968758, "politanName": "Atlanta, GA Metro ", "phone_number": "7705658665", "tags": [{"primary": false, "id": 1722, "name": "Restaurants"}, {"primary": false, "id": 11247, "name": "Carry Out"}, {"primary": true, "id": 11299, "name": "Pizza"}], "fax_number": null, "expansion": {"count": null, "uri": null}, "impression_id": "000b000000f6e52f9d60254085b3ebd29f5004767f", "profile": "http://www.citysearch.com/profile/790893290/marietta_ga/johnnys_pizza.html", "address": {"city": "Marietta", "state": "GA", "street": "2100 Roswell Rd # 1100", "postal_code": "30062"}, "capProviderId": null, "distance": null, "has_offers": false, "name": "Johnnys Pizza", "longitude": -84.488447, "has_menu": false, "awards": null, "user_review_count": 0}, {"business_operation_status": 1, "rating": null, "neighborhood": null, "image": null, "scorecard": null, "featured": false, "sample_categories": "Restaurants, Traditional American, Carry Out", "public_id": "waffle-house-marietta-16", "id": 777819230, "votes": null, "tagline": null, "has_video": false, "website": "http://www.citysearch.com/profile/external/777819230/marietta_ga/waffle_house.html", "offers": null, "latitude": 33.923768, "politanName": "Atlanta, GA Metro ", "phone_number": "7709526638", "tags": [{"primary": false, "id": 11190, "name": "Traditional American"}, {"primary": false, "id": 11247, "name": "Carry Out"}, {"primary": true, "id": 1722, "name": "Restaurants"}], "fax_number": null, "expansion": {"count": null, "uri": null}, "impression_id": "000b0000005227fcdd25824d8d9d5d91fb46a0fefb", "profile": "http://www.citysearch.com/profile/777819230/marietta_ga/waffle_house.html", "address": {"city": "Marietta", "state": "GA", "street": "1185 Franklin Rd Se", "postal_code": "30067"}, "capProviderId": null, "distance": null, "has_offers": false, "name": "Waffle House", "longitude": -84.491678, "has_menu": true, "awards": null, "user_review_count": 0}, {"business_operation_status": 1, "rating": null, "neighborhood": null, "image": null, "scorecard": null, "featured": false, "sample_categories": "Restaurants", "public_id": "inter-cafe-marietta", "id": 777730670, "votes": null, "tagline": null, "has_video": false, "website": null, "offers": null, "latitude": 33.919221, "politanName": "Atlanta, GA Metro ", "phone_number": "6783541225", "tags": [{"primary": true, "id": 1722, "name": "Restaurants"}], "fax_number": null, "expansion": {"count": null, "uri": null}, "impression_id": "000b000000941953db5bfd444abbf7346514e0a910", "profile": "http://www.citysearch.com/profile/777730670/marietta_ga/inter_cafe.html", "address": {"city": "Marietta", "state": "GA", "street": "1368 Atlanta Rd Se", "postal_code": "30060"}, "capProviderId": null, "distance": null, "has_offers": false, "name": "Inter Cafe", "longitude": -84.542534, "has_menu": false, "awards": null, "user_review_count": 0}, {"business_operation_status": 1, "rating": null, "neighborhood": null, "image": null, "scorecard": null, "featured": false, "sample_categories": "Restaurants", "public_id": "puntacana-dominican-bargrill-marietta", "id": 802510780, "votes": null, "tagline": null, "has_video": false, "website": null, "offers": null, "latitude": 33.901077, "politanName": "Atlanta, GA Metro ", "phone_number": "7707954500", "tags": [{"primary": true, "id": 1722, "name": "Restaurants"}], "fax_number": null, "expansion": {"count": null, "uri": null}, "impression_id": "000b0000000c08958f2009486bacb54944fa76f3ef", "profile": "http://www.citysearch.com/profile/802510780/marietta_ga/puntacana_dominican_bar_grill.html", "address": {"city": "Marietta", "state": "GA", "street": "1812 Powder Springs Rd Sw", "postal_code": "30064"}, "capProviderId": null, "distance": null, "has_offers": false, "name": "Puntacana Dominican Bar-Grill", "longitude": -84.606768, "has_menu": false, "awards": null, "user_review_count": 0}, {"business_operation_status": 1, "rating": null, "neighborhood": null, "image": null, "scorecard": null, "featured": false, "sample_categories": "Restaurants, Food Delivery, Pizza", "public_id": "peace-love-pizzawoodstock-woodstock", "id": 802513750, "votes": null, "tagline": null, "has_video": false, "website": "http://www.citysearch.com/profile/external/802513750/woodstock_ga/peace_love_and_pizza.html", "offers": null, "latitude": 34.081949, "politanName": "Atlanta, GA Metro ", "phone_number": "7709248300", "tags": [{"primary": false, "id": 11267, "name": "Food Delivery"}, {"primary": false, "id": 11299, "name": "Pizza"}, {"primary": true, "id": 1722, "name": "Restaurants"}], "fax_number": null, "expansion": {"count": null, "uri": null}, "impression_id": "000b0000002ecc9cdffc144a1ab2fce06ab96932c3", "profile": "http://www.citysearch.com/profile/802513750/woodstock_ga/peace_love_and_pizza.html", "address": {"city": "Woodstock", "state": "GA", "street": "14205 Highway 92 110", "postal_code": "30188"}, "capProviderId": null, "distance": null, "has_offers": false, "name": "Peace Love And Pizza", "longitude": -84.452962, "has_menu": false, "awards": null, "user_review_count": 0}, {"business_operation_status": 1, "rating": null, "neighborhood": null, "image": null, "scorecard": null, "featured": false, "sample_categories": "Restaurants, Catering, Carry Out", "public_id": "joes-crab-shack-marietta-2", "id": 807865760, "votes": null, "tagline": null, "has_video": false, "website": null, "offers": null, "latitude": 33.993933, "politanName": "Atlanta, GA Metro ", "phone_number": "7704228374", "tags": [{"primary": false, "id": 1705, "name": "Catering"}, {"primary": false, "id": 11247, "name": "Carry Out"}, {"primary": true, "id": 1722, "name": "Restaurants"}], "fax_number": null, "expansion": {"count": null, "uri": null}, "impression_id": "000b000000ad696f822c4843c88e521566ef48fa04", "profile": "http://www.citysearch.com/profile/807865760/marietta_ga/joe_s_crab_shack.html", "address": {"city": "Marietta", "state": "GA", "street": "225 Williams Dr", "postal_code": "30066"}, "capProviderId": null, "distance": null, "has_offers": false, "name": "Joe's Crab Shack", "longitude": -84.548113, "has_menu": false, "awards": null, "user_review_count": 0}, {"business_operation_status": 1, "rating": null, "neighborhood": null, "image": null, "scorecard": null, "featured": false, "sample_categories": "Restaurants", "public_id": "provence-french-bistro-marietta", "id": 811548460, "votes": null, "tagline": null, "has_video": false, "website": null, "offers": null, "latitude": 33.965305, "politanName": "Atlanta, GA Metro ", "phone_number": "7703215442", "tags": [{"primary": true, "id": 1722, "name": "Restaurants"}], "fax_number": null, "expansion": {"count": null, "uri": null}, "impression_id": "000b000000930d492348644950b8ec415fa153a963", "profile": "http://www.citysearch.com/profile/811548460/marietta_ga/provence_french_bistro.html", "address": {"city": "Marietta", "state": "GA", "street": "4665 Lower Roswell Rd", "postal_code": "30068"}, "capProviderId": null, "distance": null, "has_offers": false, "name": "Provence French Bistro", "longitude": -84.415723, "has_menu": false, "awards": null, "user_review_count": 0}, {"business_operation_status": 1, "rating": null, "neighborhood": null, "image": null, "scorecard": null, "featured": false, "sample_categories": "Restaurants", "public_id": "grazie-marietta", "id": 818460400, "votes": null, "tagline": null, "has_video": false, "website": null, "offers": null, "latitude": 33.953111, "politanName": "Atlanta, GA Metro ", "phone_number": "7704998585", "tags": [{"primary": true, "id": 1722, "name": "Restaurants"}], "fax_number": null, "expansion": {"count": null, "uri": null}, "impression_id": "000b000000f3573e543a6a46b881ebb69311b68b75", "profile": "http://www.citysearch.com/profile/818460400/marietta_ga/grazie.html", "address": {"city": "Marietta", "state": "GA", "street": "1000 Whitlock Ave NW", "postal_code": "30064"}, "capProviderId": null, "distance": null, "has_offers": false, "name": "Grazie", "longitude": -84.581272, "has_menu": false, "awards": null, "user_review_count": 0}, {"business_operation_status": 1, "rating": null, "neighborhood": null, "image": null, "scorecard": null, "featured": false, "sample_categories": "Restaurants, Pizza, Carry Out", "public_id": "pizza-hut-woodstock-6", "id": 806343970, "votes": null, "tagline": null, "has_video": false, "website": null, "offers": null, "latitude": 34.078551, "politanName": "Atlanta, GA Metro ", "phone_number": "7705925766", "tags": [{"primary": false, "id": 1722, "name": "Restaurants"}, {"primary": false, "id": 11247, "name": "Carry Out"}, {"primary": true, "id": 11299, "name": "Pizza"}], "fax_number": null, "expansion": {"count": null, "uri": null}, "impression_id": "000b000000d8c611d0d7b24f05aee31734248d29a7", "profile": "http://www.citysearch.com/profile/806343970/woodstock_ga/pizza_hut.html", "address": {"city": "Woodstock", "state": "GA", "street": "3024 Ridgepoint Ln", "postal_code": "30188"}, "capProviderId": null, "distance": null, "has_offers": false, "name": "Pizza Hut", "longitude": -84.434682, "has_menu": false, "awards": null, "user_review_count": 0}, {"business_operation_status": 1, "rating": null, "neighborhood": null, "image": null, "scorecard": null, "featured": false, "sample_categories": "Restaurants", "public_id": "chazzs-place-marietta", "id": 732185840, "votes": null, "tagline": null, "has_video": false, "website": null, "offers": null, "latitude": 33.964105, "politanName": "Atlanta, GA Metro ", "phone_number": "7706932334", "tags": [{"primary": true, "id": 1722, "name": "Restaurants"}], "fax_number": null, "expansion": {"count": null, "uri": null}, "impression_id": "000b0000006ff39ee290bb496b8cac995606f9f1f1", "profile": "http://www.citysearch.com/profile/732185840/marietta_ga/chazz_s_place.html", "address": {"city": "Marietta", "state": "GA", "street": "531 Roselane St NW", "postal_code": "30060"}, "capProviderId": null, "distance": null, "has_offers": false, "name": "Chazz's Place", "longitude": -84.557337, "has_menu": false, "awards": null, "user_review_count": 0}, {"business_operation_status": 1, "rating": null, "neighborhood": null, "image": null, "scorecard": null, "featured": false, "sample_categories": "Restaurants", "public_id": "olgas-porch-inc-marietta", "id": 732189800, "votes": null, "tagline": null, "has_video": false, "website": null, "offers": null, "latitude": 33.962903, "politanName": "Atlanta, GA Metro ", "phone_number": "6786374595", "tags": [{"primary": true, "id": 1722, "name": "Restaurants"}], "fax_number": null, "expansion": {"count": null, "uri": null}, "impression_id": "000b000000721d767adb704bfc97590806d6872f69", "profile": "http://www.citysearch.com/profile/732189800/marietta_ga/olgas_porch_inc.html", "address": {"city": "Marietta", "state": "GA", "street": "1591 Gresham Rd", "postal_code": "30062"}, "capProviderId": null, "distance": null, "has_offers": false, "name": "Olgas Porch Inc", "longitude": -84.50563, "has_menu": false, "awards": null, "user_review_count": 0}, {"business_operation_status": 1, "rating": null, "neighborhood": null, "image": null, "scorecard": null, "featured": false, "sample_categories": "Restaurants", "public_id": "quick-n-tasty-cafe-smyrna", "id": 732219770, "votes": null, "tagline": null, "has_video": false, "website": null, "offers": null, "latitude": 33.891129, "politanName": "Atlanta, GA Metro ", "phone_number": "7704386170", "tags": [{"primary": true, "id": 1722, "name": "Restaurants"}], "fax_number": null, "expansion": {"count": null, "uri": null}, "impression_id": "000b0000000ff4341961b4455ca9d87e5f33b17a10", "profile": "http://www.citysearch.com/profile/732219770/smyrna_ga/quick_n_tasty_cafe.html", "address": {"city": "Smyrna", "state": "GA", "street": "1651 Roswell St SE", "postal_code": "30080"}, "capProviderId": null, "distance": null, "has_offers": false, "name": "Quick N Tasty Cafe", "longitude": -84.504659, "has_menu": false, "awards": null, "user_review_count": 0}, {"business_operation_status": 1, "rating": null, "neighborhood": null, "image": null, "scorecard": null, "featured": false, "sample_categories": "Restaurants", "public_id": "ogas-cafeteria-marietta", "id": 812725490, "votes": null, "tagline": null, "has_video": false, "website": null, "offers": null, "latitude": 34.017069, "politanName": "Atlanta, GA Metro ", "phone_number": "7705656700", "tags": [{"primary": true, "id": 1722, "name": "Restaurants"}], "fax_number": null, "expansion": {"count": null, "uri": null}, "impression_id": "000b0000000d3ba92e317446a3b31f177f13cc0306", "profile": "http://www.citysearch.com/profile/812725490/marietta_ga/ogas_cafeteria.html", "address": {"city": "Marietta", "state": "GA", "street": "2778 Sandy Plains Rd", "postal_code": "30066"}, "capProviderId": null, "distance": null, "has_offers": false, "name": "Ogas Cafeteria", "longitude": -84.491613, "has_menu": false, "awards": null, "user_review_count": 0}, {"business_operation_status": 1, "rating": null, "neighborhood": null, "image": null, "scorecard": null, "featured": false, "sample_categories": "Restaurants", "public_id": "wingmaster-roswell", "id": 816795990, "votes": null, "tagline": null, "has_video": false, "website": null, "offers": null, "latitude": 34.011764, "politanName": "Atlanta, GA Metro ", "phone_number": "6784614612", "tags": [{"primary": true, "id": 1722, "name": "Restaurants"}], "fax_number": null, "expansion": {"count": null, "uri": null}, "impression_id": "000b0000008fa0d5b9f0314b08bc8450efab472510", "profile": "http://www.citysearch.com/profile/816795990/roswell_ga/wingmaster.html", "address": {"city": "Roswell", "state": "GA", "street": "48 King St", "postal_code": "30075"}, "capProviderId": null, "distance": null, "has_offers": false, "name": "Wingmaster", "longitude": -84.36332, "has_menu": false, "awards": null, "user_review_count": 0}, {"business_operation_status": 1, "rating": null, "neighborhood": null, "image": null, "scorecard": null, "featured": false, "sample_categories": "Restaurants, Delis And Delicatessens, Carry Out", "public_id": "firehouse-subs-marietta-2", "id": 745603500, "votes": null, "tagline": null, "has_video": false, "website": null, "offers": null, "latitude": 33.95896, "politanName": "Atlanta, GA Metro ", "phone_number": "7707925993", "tags": [{"primary": false, "id": 1727, "name": "Delis And Delicatessens"}, {"primary": false, "id": 11247, "name": "Carry Out"}, {"primary": true, "id": 1722, "name": "Restaurants"}], "fax_number": null, "expansion": {"count": null, "uri": null}, "impression_id": "000b000000dbd3f000b6764131aa82eba70f42566e", "profile": "http://www.citysearch.com/profile/745603500/marietta_ga/firehouse_subs.html", "address": {"city": "Marietta", "state": "GA", "street": "145 N Marietta Pkwy NE", "postal_code": "30060"}, "capProviderId": null, "distance": null, "has_offers": false, "name": "Firehouse Subs", "longitude": -84.546879, "has_menu": false, "awards": null, "user_review_count": 0}, {"business_operation_status": 1, "rating": null, "neighborhood": null, "image": null, "scorecard": null, "featured": false, "sample_categories": "Restaurants", "public_id": "mamafus-smyrna", "id": 828608580, "votes": null, "tagline": null, "has_video": false, "website": null, "offers": null, "latitude": 33.884889, "politanName": "Atlanta, GA Metro ", "phone_number": "6782133663", "tags": [{"primary": true, "id": 1722, "name": "Restaurants"}], "fax_number": null, "expansion": {"count": null, "uri": null}, "impression_id": "000b000000ecef7225e9cb483eb8995038c8c13c2c", "profile": "http://www.citysearch.com/profile/828608580/smyrna_ga/mamafu_s.html", "address": {"city": "Smyrna", "state": "GA", "street": "400 Village Green Cir SE", "postal_code": "30080"}, "capProviderId": null, "distance": null, "has_offers": false, "name": "Mamafu's", "longitude": -84.516415, "has_menu": false, "awards": null, "user_review_count": 0}, {"business_operation_status": 1, "rating": null, "neighborhood": null, "image": null, "scorecard": null, "featured": false, "sample_categories": "Restaurants", "public_id": "beefobradys-marietta-2", "id": 822120610, "votes": null, "tagline": null, "has_video": false, "website": "http://www.citysearch.com/profile/external/822120610/marietta_ga/beef_o_brady_s.html", "offers": null, "latitude": 33.951824, "politanName": "Atlanta, GA Metro ", "phone_number": "7704243001", "tags": [{"primary": true, "id": 1722, "name": "Restaurants"}], "fax_number": null, "expansion": {"count": null, "uri": null}, "impression_id": "000b00000032c1f6ec9dc44dceb9ad06bb5572a78c", "profile": "http://www.citysearch.com/profile/822120610/marietta_ga/beef_o_brady_s.html", "address": {"city": "Marietta", "state": "GA", "street": "3178 Dallas Hwy SW", "postal_code": "30064"}, "capProviderId": null, "distance": null, "has_offers": false, "name": "Beef'O'Brady's", "longitude": -84.644184, "has_menu": false, "awards": null, "user_review_count": 0}, {"business_operation_status": 1, "rating": null, "neighborhood": null, "image": null, "scorecard": null, "featured": false, "sample_categories": "Restaurants", "public_id": "aunt-bs-oyster-house-marietta", "id": 823170090, "votes": null, "tagline": null, "has_video": false, "website": null, "offers": null, "latitude": 34.048139, "politanName": "Atlanta, GA Metro ", "phone_number": "7709242272", "tags": [{"primary": true, "id": 1722, "name": "Restaurants"}], "fax_number": null, "expansion": {"count": null, "uri": null}, "impression_id": "000b0000007dcd80d01d8544e28e0d2595a10f5a15", "profile": "http://www.citysearch.com/profile/823170090/marietta_ga/aunt_b_s_oyster_house.html", "address": {"city": "Marietta", "state": "GA", "street": "3999 Canton Rd", "postal_code": "30066"}, "capProviderId": null, "distance": null, "has_offers": false, "name": "Aunt B's Oyster House", "longitude": -84.529087, "has_menu": false, "awards": null, "user_review_count": 0}, {"business_operation_status": 1, "rating": null, "neighborhood": null, "image": null, "scorecard": null, "featured": false, "sample_categories": "Restaurants", "public_id": "bennigans-corp-atlanta", "id": 825862700, "votes": null, "tagline": null, "has_video": false, "website": null, "offers": null, "latitude": 33.904439, "politanName": "Atlanta, GA Metro ", "phone_number": "7709523004", "tags": [{"primary": true, "id": 1722, "name": "Restaurants"}], "fax_number": null, "expansion": {"count": null, "uri": null}, "impression_id": "000b00000060f6d9b3eb424696a3a4087f5731e2c1", "profile": "http://www.citysearch.com/profile/825862700/atlanta_ga/bennigan_s_corp.html", "address": {"city": "Atlanta", "state": "GA", "street": "5525 Interstate North Pkwy", "postal_code": "30328"}, "capProviderId": null, "distance": null, "has_offers": false, "name": "Bennigan's Corp", "longitude": -84.437055, "has_menu": false, "awards": null, "user_review_count": 0}, {"business_operation_status": 1, "rating": null, "neighborhood": null, "image": null, "scorecard": null, "featured": false, "sample_categories": "Restaurants", "public_id": "anthonys-italian-kitchen-marietta", "id": 826910750, "votes": null, "tagline": null, "has_video": false, "website": null, "offers": null, "latitude": 33.952602, "politanName": "Atlanta, GA Metro ", "phone_number": "7705097757", "tags": [{"primary": true, "id": 1722, "name": "Restaurants"}], "fax_number": null, "expansion": {"count": null, "uri": null}, "impression_id": "000b0000007b0948a6bea241d7a3968ab7fd4cbd30", "profile": "http://www.citysearch.com/profile/826910750/marietta_ga/anthony_s_italian_kitchen.html", "address": {"city": "Marietta", "state": "GA", "street": "1323 Roswell Rd", "postal_code": "30062"}, "capProviderId": null, "distance": null, "has_offers": false, "name": "Anthony's Italian Kitchen", "longitude": -84.549933, "has_menu": true, "awards": null, "user_review_count": 0}, {"business_operation_status": 1, "rating": null, "neighborhood": null, "image": null, "scorecard": null, "featured": false, "sample_categories": "Restaurants, Carry Out", "public_id": "ruby-tuesday-atlanta-6", "id": 833545440, "votes": null, "tagline": null, "has_video": false, "website": null, "offers": null, "latitude": 33.907783, "politanName": "Atlanta, GA Metro ", "phone_number": "6785744550", "tags": [{"primary": false, "id": 11247, "name": "Carry Out"}, {"primary": true, "id": 1722, "name": "Restaurants"}], "fax_number": null, "expansion": {"count": null, "uri": null}, "impression_id": "000b0000005a406cd916fc4ad98a4a5d3ca6b0cdaf", "profile": "http://www.citysearch.com/profile/833545440/atlanta_ga/ruby_tuesday.html", "address": {"city": "Atlanta", "state": "GA", "street": "3318 Cobb Pkwy SE", "postal_code": "30339"}, "capProviderId": null, "distance": null, "has_offers": false, "name": "Ruby Tuesday", "longitude": -84.492298, "has_menu": true, "awards": null, "user_review_count": 0}, {"business_operation_status": 1, "rating": null, "neighborhood": null, "image": null, "scorecard": null, "featured": false, "sample_categories": "Restaurants, Delis And Delicatessens, Sandwich Shops, Carry Out", "public_id": "quiznos-marietta-7", "id": 832339260, "votes": null, "tagline": null, "has_video": false, "website": null, "offers": null, "latitude": 33.905926, "politanName": "Atlanta, GA Metro ", "phone_number": "7709800268", "tags": [{"primary": false, "id": 1727, "name": "Delis And Delicatessens"}, {"primary": false, "id": 1736, "name": "Sandwich Shops"}, {"primary": false, "id": 11247, "name": "Carry Out"}, {"primary": true, "id": 1722, "name": "Restaurants"}], "fax_number": null, "expansion": {"count": null, "uri": null}, "impression_id": "000b00000083da903dee4f41988fd8ca82c2b77e8b", "profile": "http://www.citysearch.com/profile/832339260/marietta_ga/quiznos.html", "address": {"city": "Marietta", "state": "GA", "street": "2000 Powers Ferry Rd SE # 1-11", "postal_code": "30067"}, "capProviderId": null, "distance": null, "has_offers": false, "name": "Quiznos", "longitude": -84.465323, "has_menu": true, "awards": null, "user_review_count": 0}, {"business_operation_status": 1, "rating": null, "neighborhood": null, "image": null, "scorecard": null, "featured": false, "sample_categories": "Restaurants, Bars & Clubs, Nightclubs", "public_id": "illusion-lounge-dance-club-marietta", "id": 775216060, "votes": null, "tagline": null, "has_video": false, "website": null, "offers": null, "latitude": 33.905926, "politanName": "Atlanta, GA Metro ", "phone_number": "7709569909", "tags": [{"primary": false, "id": 164, "name": "Bars & Clubs"}, {"primary": false, "id": 169, "name": "Nightclubs"}, {"primary": true, "id": 1722, "name": "Restaurants"}], "fax_number": null, "expansion": {"count": null, "uri": null}, "impression_id": "000b0000009794b68c81034a2eac2682bff37add59", "profile": "http://www.citysearch.com/profile/775216060/marietta_ga/illusion_lounge_dance_club.html", "address": {"city": "Marietta", "state": "GA", "street": "2000 Powers Ferry Rd SE", "postal_code": "30067"}, "capProviderId": null, "distance": null, "has_offers": false, "name": "Illusion Lounge & Dance Club", "longitude": -84.465323, "has_menu": false, "awards": null, "user_review_count": 0}, {"business_operation_status": 1, "rating": null, "neighborhood": null, "image": null, "scorecard": null, "featured": false, "sample_categories": "Restaurants, Pizza", "public_id": "slice-of-heaven-smyrna", "id": 775222180, "votes": null, "tagline": null, "has_video": false, "website": null, "offers": null, "latitude": 33.873639, "politanName": "Atlanta, GA Metro ", "phone_number": "7704371440", "tags": [{"primary": false, "id": 11299, "name": "Pizza"}, {"primary": true, "id": 1722, "name": "Restaurants"}], "fax_number": null, "expansion": {"count": null, "uri": null}, "impression_id": "000b00000071bd7427917342f8a77d00f58423a8be", "profile": "http://www.citysearch.com/profile/775222180/smyrna_ga/slice_of_heaven.html", "address": {"city": "Smyrna", "state": "GA", "street": "3256 Atlanta Rd SE", "postal_code": "30080"}, "capProviderId": null, "distance": null, "has_offers": false, "name": "Slice of Heaven", "longitude": -84.501033, "has_menu": false, "awards": null, "user_review_count": 0}, {"business_operation_status": 1, "rating": null, "neighborhood": null, "image": null, "scorecard": null, "featured": false, "sample_categories": "Restaurants, Pizza, Carry Out", "public_id": "pizza-hut-marietta-12", "id": 775223530, "votes": null, "tagline": null, "has_video": false, "website": null, "offers": null, "latitude": 33.952602, "politanName": "Atlanta, GA Metro ", "phone_number": "7709716932", "tags": [{"primary": false, "id": 1722, "name": "Restaurants"}, {"primary": false, "id": 11247, "name": "Carry Out"}, {"primary": true, "id": 11299, "name": "Pizza"}], "fax_number": null, "expansion": {"count": null, "uri": null}, "impression_id": "000b000000ca7b6054019e496ab0bc71f4c1895b51", "profile": "http://www.citysearch.com/profile/775223530/marietta_ga/pizza_hut.html", "address": {"city": "Marietta", "state": "GA", "street": "2204 Roswell Rd", "postal_code": "30062"}, "capProviderId": null, "distance": null, "has_offers": false, "name": "Pizza Hut", "longitude": -84.549933, "has_menu": false, "awards": null, "user_review_count": 0}, {"business_operation_status": 1, "rating": null, "neighborhood": null, "image": null, "scorecard": null, "featured": false, "sample_categories": "Restaurants, Ice Cream Parlors", "public_id": "italios-gelato-cafe-inc-smyrna", "id": 777752430, "votes": null, "tagline": null, "has_video": false, "website": null, "offers": null, "latitude": 33.884019, "politanName": "Atlanta, GA Metro ", "phone_number": "7704380941", "tags": [{"primary": false, "id": 1730, "name": "Ice Cream Parlors"}, {"primary": true, "id": 1722, "name": "Restaurants"}], "fax_number": null, "expansion": {"count": null, "uri": null}, "impression_id": "000b000000bdeeb9d037b549a390b382bae2861741", "profile": "http://www.citysearch.com/profile/777752430/smyrna_ga/italio_s_gelato_cafe_inc.html", "address": {"city": "Smyrna", "state": "GA", "street": "1265 W Spring St Se", "postal_code": "30080"}, "capProviderId": null, "distance": null, "has_offers": false, "name": "Italio's Gelato & Cafe INC", "longitude": -84.515924, "has_menu": false, "awards": null, "user_review_count": 2}, {"business_operation_status": 1, "rating": null, "neighborhood": null, "image": null, "scorecard": null, "featured": false, "sample_categories": "Restaurants", "public_id": "san-francisco-banquet-hall-marietta", "id": 839721110, "votes": null, "tagline": null, "has_video": false, "website": null, "offers": null, "latitude": 33.904632, "politanName": "Atlanta, GA Metro ", "phone_number": "6785569759", "tags": [{"primary": true, "id": 1722, "name": "Restaurants"}], "fax_number": null, "expansion": {"count": null, "uri": null}, "impression_id": "000b00000040c5ec47ec4749be89ef0dca7d5b2564", "profile": "http://www.citysearch.com/profile/839721110/marietta_ga/san_francisco_banquet_hall.html", "address": {"city": "Marietta", "state": "GA", "street": "1977 S Cobb Dr SE", "postal_code": "30060"}, "capProviderId": null, "distance": null, "has_offers": false, "name": "San Francisco Banquet Hall", "longitude": -84.540946, "has_menu": false, "awards": null, "user_review_count": 0}, {"business_operation_status": 1, "rating": null, "neighborhood": null, "image": null, "scorecard": null, "featured": false, "sample_categories": "Restaurants", "public_id": "grill-on-the-square-marietta", "id": 827975120, "votes": null, "tagline": null, "has_video": false, "website": null, "offers": null, "latitude": 33.952271, "politanName": "Atlanta, GA Metro ", "phone_number": "7704265161", "tags": [{"primary": true, "id": 1722, "name": "Restaurants"}], "fax_number": null, "expansion": {"count": null, "uri": null}, "impression_id": "000b00000057a0c70c3e984c5f8188cdebe8a9db72", "profile": "http://www.citysearch.com/profile/827975120/marietta_ga/grill_on_the_square.html", "address": {"city": "Marietta", "state": "GA", "street": "70 S Park Sq NE # C", "postal_code": "30060"}, "capProviderId": null, "distance": null, "has_offers": false, "name": "Grill On The Square", "longitude": -84.549833, "has_menu": false, "awards": null, "user_review_count": 0}, {"business_operation_status": 1, "rating": null, "neighborhood": null, "image": null, "scorecard": null, "featured": false, "sample_categories": "Restaurants", "public_id": "cafe-1100-atlanta-2", "id": 805596080, "votes": null, "tagline": null, "has_video": false, "website": null, "offers": null, "latitude": 33.887519, "politanName": "Atlanta, GA Metro ", "phone_number": "7709334141", "tags": [{"primary": true, "id": 1722, "name": "Restaurants"}], "fax_number": null, "expansion": {"count": null, "uri": null}, "impression_id": "000b00000059354af6d56542f1b2a3656a8d928102", "profile": "http://www.citysearch.com/profile/805596080/atlanta_ga/cafe_1100.html", "address": {"city": "Atlanta", "state": "GA", "street": "900 Circle 75 Pkwy SE # 25", "postal_code": "30339"}, "capProviderId": null, "distance": null, "has_offers": false, "name": "Cafe 1100", "longitude": -84.467593, "has_menu": false, "awards": null, "user_review_count": 0}, {"business_operation_status": 1, "rating": null, "neighborhood": null, "image": null, "scorecard": null, "featured": false, "sample_categories": "Restaurants", "public_id": "creative-cafe-marietta", "id": 807599830, "votes": null, "tagline": null, "has_video": false, "website": null, "offers": null, "latitude": 34.032195, "politanName": "Atlanta, GA Metro ", "phone_number": "6782909995", "tags": [{"primary": true, "id": 1722, "name": "Restaurants"}], "fax_number": null, "expansion": {"count": null, "uri": null}, "impression_id": "000b000000304053eb0f1646a59389543cc158db4f", "profile": "http://www.citysearch.com/profile/807599830/marietta_ga/creative_cafe.html", "address": {"city": "Marietta", "state": "GA", "street": "3402 Canton Rd", "postal_code": "30066"}, "capProviderId": null, "distance": null, "has_offers": false, "name": "Creative Cafe", "longitude": -84.527689, "has_menu": false, "awards": null, "user_review_count": 0}, {"business_operation_status": 1, "rating": null, "neighborhood": null, "image": null, "scorecard": null, "featured": false, "sample_categories": "Restaurants", "public_id": "moch-delights-atlanta", "id": 43872739, "votes": null, "tagline": null, "has_video": false, "website": null, "offers": null, "latitude": 33.909943, "politanName": "Atlanta, GA Metro ", "phone_number": "7706128999", "tags": [{"primary": true, "id": 1722, "name": "Restaurants"}], "fax_number": null, "expansion": {"count": null, "uri": null}, "impression_id": "000b000000218618c73ef94c67a7b1ce9bcc2b00ed", "profile": "http://www.citysearch.com/profile/43872739/atlanta_ga/moch_delights.html", "address": {"city": "Atlanta", "state": "GA", "street": "1765 The Exchange SE", "postal_code": "30339"}, "capProviderId": null, "distance": null, "has_offers": false, "name": "Moch Delights", "longitude": -84.482145, "has_menu": false, "awards": null, "user_review_count": 0}, {"business_operation_status": 1, "rating": null, "neighborhood": null, "image": null, "scorecard": null, "featured": false, "sample_categories": "Carry Out", "public_id": "lucyann-s-co-llc-marietta", "id": 810787170, "votes": null, "tagline": null, "has_video": false, "website": null, "offers": null, "latitude": 34.011742, "politanName": "Atlanta, GA Metro ", "phone_number": "6785609088", "tags": [{"primary": true, "id": 11247, "name": "Carry Out"}], "fax_number": null, "expansion": {"count": null, "uri": null}, "impression_id": "000b0000002d70d50586f7488481616e4e2d4e4f12", "profile": "http://www.citysearch.com/profile/810787170/marietta_ga/lucyann_s_co_llc.html", "address": {"city": "Marietta", "state": "GA", "street": "2550 Sandy Plains Rd # 100", "postal_code": "30066"}, "capProviderId": null, "distance": null, "has_offers": false, "name": "Lucyann S Co LLC", "longitude": -84.495056, "has_menu": false, "awards": null, "user_review_count": 0}, {"business_operation_status": 1, "rating": null, "neighborhood": null, "image": null, "scorecard": null, "featured": false, "sample_categories": "Restaurants", "public_id": "dinner-afare-marietta-2", "id": 819840300, "votes": null, "tagline": null, "has_video": false, "website": "http://www.citysearch.com/profile/external/819840300/marietta_ga/dinner_a_fare.html", "offers": null, "latitude": 33.98752, "politanName": "Atlanta, GA Metro ", "phone_number": "7705656551", "tags": [{"primary": true, "id": 1722, "name": "Restaurants"}], "fax_number": null, "expansion": {"count": null, "uri": null}, "impression_id": "000b000000bd5530b7ee0646d9be3712de287c5d23", "profile": "http://www.citysearch.com/profile/819840300/marietta_ga/dinner_a_fare.html", "address": {"city": "Marietta", "state": "GA", "street": "4475 Roswell Rd # 1420", "postal_code": "30062"}, "capProviderId": null, "distance": null, "has_offers": false, "name": "Dinner A'fare", "longitude": -84.42189, "has_menu": true, "awards": null, "user_review_count": 0}, {"business_operation_status": 1, "rating": null, "neighborhood": null, "image": null, "scorecard": null, "featured": false, "sample_categories": "Restaurants, Carry Out", "public_id": "waffle-house-roswell-4", "id": 819242340, "votes": null, "tagline": null, "has_video": false, "website": null, "offers": null, "latitude": 34.067541, "politanName": "Atlanta, GA Metro ", "phone_number": "7705923984", "tags": [{"primary": false, "id": 11247, "name": "Carry Out"}, {"primary": true, "id": 1722, "name": "Restaurants"}], "fax_number": null, "expansion": {"count": null, "uri": null}, "impression_id": "000b000000a72b0300e78e4e8aa1e4d2b28354c31a", "profile": "http://www.citysearch.com/profile/819242340/roswell_ga/waffle_house.html", "address": {"city": "Roswell", "state": "GA", "street": "4875 Alabama Rd NE", "postal_code": "30075"}, "capProviderId": null, "distance": null, "has_offers": false, "name": "Waffle House", "longitude": -84.425685, "has_menu": false, "awards": null, "user_review_count": 0}, {"business_operation_status": 1, "rating": null, "neighborhood": null, "image": null, "scorecard": null, "featured": false, "sample_categories": "Restaurants", "public_id": "jims-catfish-marietta", "id": 824115460, "votes": null, "tagline": null, "has_video": false, "website": null, "offers": null, "latitude": 34.015715, "politanName": "Atlanta, GA Metro ", "phone_number": "7709989459", "tags": [{"primary": true, "id": 1722, "name": "Restaurants"}], "fax_number": null, "expansion": {"count": null, "uri": null}, "impression_id": "000b000000eb7fb5b65d204f1790148485a4a91550", "profile": "http://www.citysearch.com/profile/824115460/marietta_ga/jims_catfish.html", "address": {"city": "Marietta", "state": "GA", "street": "2725 Alpine Trl", "postal_code": "30062"}, "capProviderId": null, "distance": null, "has_offers": false, "name": "Jims Catfish", "longitude": -84.424967, "has_menu": false, "awards": null, "user_review_count": 0}, {"business_operation_status": 1, "rating": null, "neighborhood": null, "image": null, "scorecard": null, "featured": false, "sample_categories": "Restaurants", "public_id": "filimons-smyrna", "id": 825235510, "votes": null, "tagline": null, "has_video": false, "website": null, "offers": null, "latitude": 33.887574, "politanName": "Atlanta, GA Metro ", "phone_number": "6782131556", "tags": [{"primary": true, "id": 1722, "name": "Restaurants"}], "fax_number": null, "expansion": {"count": null, "uri": null}, "impression_id": "000b000000c6c1f9c610cf4cc4bdeaf8df89c4f98c", "profile": "http://www.citysearch.com/profile/825235510/smyrna_ga/filimon_s.html", "address": {"city": "Smyrna", "state": "GA", "street": "601 Powder Springs St SE", "postal_code": "30080"}, "capProviderId": null, "distance": null, "has_offers": false, "name": "Filimon's", "longitude": -84.535901, "has_menu": false, "awards": null, "user_review_count": 0}], "histograms": [], "tag_ids": [1722], "uri": "http://api.citygridmedia.com:8080/search/places/v2/search/where?has_offers=false&type=restaurant&format=json&page=27&where=30069&rpp=50&histograms=false&publisher=10000009598&region_type=circle", "did_you_mean": "", "regions": [{"latitude": 33.911972, "default_radius": 1.53, "type": "postal_code", "name": "30069", "longitude": -84.51369799999999}], "call_id": "000b0000002073eb46d3f4420da69a816122aadfb0", "first_hit": 1301, "total_hits": 1411, "geo_ids": [26297], "page": 27, "last_hit": 1350}}