{"results": {"rpp": 50, "locations": [{"business_operation_status": 1, "rating": 10.0, "neighborhood": null, "image": null, "scorecard": null, "featured": false, "sample_categories": "Catering, Restaurants", "public_id": "williamson-brothers-catering-marietta", "id": 2901685, "votes": null, "tagline": null, "has_video": false, "website": "http://www.citysearch.com/profile/external/2901685/marietta_ga/williamson_brothers_catering.html", "offers": null, "latitude": 33.942617, "politanName": "Atlanta, GA Metro ", "phone_number": "7704251739", "tags": [{"primary": false, "id": 1705, "name": "Catering"}, {"primary": true, "id": 1722, "name": "Restaurants"}], "fax_number": null, "expansion": {"count": null, "uri": null}, "impression_id": "000b0000006f65e980c5be4a2e8dc22d0564bd3701", "profile": "http://www.citysearch.com/profile/2901685/marietta_ga/williamson_brothers_catering.html", "address": {"city": "Marietta", "state": "GA", "street": "403 Sycamore St SE", "postal_code": "30060"}, "capProviderId": null, "distance": null, "has_offers": false, "name": "Williamson Brothers Catering", "longitude": -84.541082, "has_menu": false, "awards": null, "user_review_count": 1}, {"business_operation_status": 1, "rating": null, "neighborhood": null, "image": null, "scorecard": null, "featured": false, "sample_categories": "Restaurants, Mexican", "public_id": "el-toro-marietta", "id": 2912197, "votes": null, "tagline": null, "has_video": false, "website": null, "offers": null, "latitude": 33.979176, "politanName": "Atlanta, GA Metro ", "phone_number": "7709717318", "tags": [{"primary": false, "id": 11208, "name": "Mexican"}, {"primary": true, "id": 1722, "name": "Restaurants"}], "fax_number": null, "expansion": {"count": null, "uri": null}, "impression_id": "000b0000001c8c2679c925457abb5a073d39dde803", "profile": "http://www.citysearch.com/profile/2912197/marietta_ga/el_toro.html", "address": {"city": "Marietta", "state": "GA", "street": "1255 Johnson Ferry Rd Ste 34", "postal_code": "30068"}, "capProviderId": null, "distance": null, "has_offers": false, "name": "El Toro", "longitude": -84.423044, "has_menu": true, "awards": null, "user_review_count": 0}, {"business_operation_status": 1, "rating": null, "neighborhood": null, "image": null, "scorecard": null, "featured": false, "sample_categories": "Restaurants", "public_id": "ajr-inc-marietta", "id": 2912575, "votes": null, "tagline": null, "has_video": false, "website": null, "offers": null, "latitude": 33.978366, "politanName": "Atlanta, GA Metro ", "phone_number": "7705653753", "tags": [{"primary": true, "id": 1722, "name": "Restaurants"}], "fax_number": null, "expansion": {"count": null, "uri": null}, "impression_id": "000b0000001335a0af86de4bc58379e02ba70be3b2", "profile": "http://www.citysearch.com/profile/2912575/marietta_ga/ajr_inc.html", "address": {"city": "Marietta", "state": "GA", "street": "1225 Johnson Ferry Rd", "postal_code": "30068"}, "capProviderId": null, "distance": null, "has_offers": false, "name": "Ajr Inc", "longitude": -84.421438, "has_menu": false, "awards": null, "user_review_count": 0}, {"business_operation_status": 1, "rating": null, "neighborhood": null, "image": null, "scorecard": null, "featured": false, "sample_categories": "Restaurants", "public_id": "drive-time-marrietta", "id": 831886880, "votes": null, "tagline": null, "has_video": false, "website": null, "offers": null, "latitude": 33.939976, "politanName": "Atlanta, GA Metro ", "phone_number": "7705773077", "tags": [{"primary": true, "id": 1722, "name": "Restaurants"}], "fax_number": null, "expansion": {"count": null, "uri": null}, "impression_id": "000b000000ca38899f636c431882d16e969f808f30", "profile": "http://www.citysearch.com/profile/831886880/marrietta_ga/drive_time.html", "address": {"city": "Marrietta", "state": "GA", "street": "502 S Cobb Parkway", "postal_code": "30060"}, "capProviderId": null, "distance": null, "has_offers": false, "name": "Drive Time", "longitude": -84.515396, "has_menu": false, "awards": null, "user_review_count": 0}, {"business_operation_status": 1, "rating": null, "neighborhood": null, "image": null, "scorecard": null, "featured": false, "sample_categories": "Restaurants", "public_id": "xengo-restaurant-marietta", "id": 836195130, "votes": null, "tagline": null, "has_video": false, "website": null, "offers": null, "latitude": 34.027287, "politanName": "Atlanta, GA Metro ", "phone_number": "6787950505", "tags": [{"primary": true, "id": 1722, "name": "Restaurants"}], "fax_number": null, "expansion": {"count": null, "uri": null}, "impression_id": "000b0000008827f4c01f514685bb7af9f3a75058f6", "profile": "http://www.citysearch.com/profile/836195130/marietta_ga/xengo_restaurant.html", "address": {"city": "Marietta", "state": "GA", "street": "3612 Johnson Ferry Rd # 420", "postal_code": "30062"}, "capProviderId": null, "distance": null, "has_offers": false, "name": "Xengo Restaurant", "longitude": -84.423832, "has_menu": false, "awards": null, "user_review_count": 0}, {"business_operation_status": 1, "rating": null, "neighborhood": null, "image": null, "scorecard": null, "featured": false, "sample_categories": "Ice Cream Parlors", "public_id": "little-blue-ice-cream-truck-marietta", "id": 793367130, "votes": null, "tagline": null, "has_video": false, "website": null, "offers": null, "latitude": 33.966843, "politanName": "Atlanta, GA Metro ", "phone_number": "7702897011", "tags": [{"primary": true, "id": 1730, "name": "Ice Cream Parlors"}], "fax_number": null, "expansion": {"count": null, "uri": null}, "impression_id": "000b00000094283e92fb954f199a3ce354c7e9e611", "profile": "http://www.citysearch.com/profile/793367130/marietta_ga/little_blue_ice_cream_truck.html", "address": {"city": "Marietta", "state": "GA", "street": "737 Johnson Ferry Road", "postal_code": "30068"}, "capProviderId": null, "distance": null, "has_offers": false, "name": "Little Blue Ice Cream Truck", "longitude": -84.412484, "has_menu": false, "awards": null, "user_review_count": 0}, {"business_operation_status": 1, "rating": null, "neighborhood": null, "image": null, "scorecard": null, "featured": false, "sample_categories": "Restaurants", "public_id": "eat-fresh-atlanta", "id": 612191784, "votes": null, "tagline": null, "has_video": false, "website": null, "offers": null, "latitude": 33.934777, "politanName": "Atlanta, GA Metro ", "phone_number": "6788861788", "tags": [{"primary": true, "id": 1722, "name": "Restaurants"}], "fax_number": null, "expansion": {"count": null, "uri": null}, "impression_id": "000b00000094f1551c9a164a7b8328f15c2582c9ab", "profile": "http://www.citysearch.com/profile/612191784/atlanta_ga/eat_fresh.html", "address": {"city": "Atlanta", "state": "GA", "street": "1000 Abernathy Rd", "postal_code": "30328"}, "capProviderId": null, "distance": null, "has_offers": false, "name": "Eat Fresh", "longitude": -84.354582, "has_menu": false, "awards": null, "user_review_count": 0}, {"business_operation_status": 1, "rating": 6.0, "neighborhood": null, "image": null, "scorecard": null, "featured": false, "sample_categories": "Food Stores, Restaurants, Dessert Shops", "public_id": "frizbeez-frozen-custard-marietta", "id": 43841514, "votes": null, "tagline": null, "has_video": false, "website": null, "offers": null, "latitude": 34.021599, "politanName": "Atlanta, GA Metro ", "phone_number": "7706499863", "tags": [{"primary": false, "id": 1722, "name": "Restaurants"}, {"primary": false, "id": 1728, "name": "Dessert Shops"}, {"primary": true, "id": 1706, "name": "Food Stores"}], "fax_number": null, "expansion": {"count": null, "uri": null}, "impression_id": "000b00000079a7ef77b11a4430b2768275af6e8b49", "profile": "http://www.citysearch.com/profile/43841514/marietta_ga/frizbeez_frozen_custard.html", "address": {"city": "Marietta", "state": "GA", "street": "2986 Johnson Ferry Rd", "postal_code": "30062"}, "capProviderId": null, "distance": null, "has_offers": false, "name": "Frizbeez Frozen Custard", "longitude": -84.426314, "has_menu": false, "awards": null, "user_review_count": 0}, {"business_operation_status": 1, "rating": null, "neighborhood": null, "image": null, "scorecard": null, "featured": false, "sample_categories": "Restaurants", "public_id": "haas-restaurant-marietta", "id": 655817570, "votes": null, "tagline": null, "has_video": false, "website": null, "offers": null, "latitude": 33.965353, "politanName": "Atlanta, GA Metro ", "phone_number": "7706357662", "tags": [{"primary": true, "id": 1722, "name": "Restaurants"}], "fax_number": null, "expansion": {"count": null, "uri": null}, "impression_id": "000b00000009d998d3a3684e93aea913d621c87453", "profile": "http://www.citysearch.com/profile/655817570/marietta_ga/haas_restaurant.html", "address": {"city": "Marietta", "state": "GA", "street": "4665 Lower Roswell Rd", "postal_code": "30068"}, "capProviderId": null, "distance": null, "has_offers": false, "name": "Haas Restaurant", "longitude": -84.415616, "has_menu": false, "awards": null, "user_review_count": 0}, {"business_operation_status": 1, "rating": null, "neighborhood": null, "image": null, "scorecard": null, "featured": false, "sample_categories": "Restaurants", "public_id": "silver-lodestone-inc-marietta-2", "id": 682289320, "votes": null, "tagline": null, "has_video": false, "website": null, "offers": null, "latitude": 33.938198, "politanName": "Atlanta, GA Metro ", "phone_number": "7705907778", "tags": [{"primary": true, "id": 1722, "name": "Restaurants"}], "fax_number": null, "expansion": {"count": null, "uri": null}, "impression_id": "000b00000046ecdf474803424aa777ec688c697392", "profile": "http://www.citysearch.com/profile/682289320/marietta_ga/silver_lodestone_inc.html", "address": {"city": "Marietta", "state": "GA", "street": "10 Garrison Rd Se", "postal_code": "30008"}, "capProviderId": null, "distance": null, "has_offers": false, "name": "Silver Lodestone INC", "longitude": -84.553364, "has_menu": false, "awards": null, "user_review_count": 0}, {"business_operation_status": 1, "rating": null, "neighborhood": null, "image": null, "scorecard": null, "featured": false, "sample_categories": "Restaurants, Pizza", "public_id": "marcos-pizza-atlanta-3", "id": 618603224, "votes": null, "tagline": null, "has_video": false, "website": "http://www.citysearch.com/profile/external/618603224/atlanta_ga/marco_s_pizza.html", "offers": null, "latitude": 33.919609, "politanName": "Atlanta, GA Metro ", "phone_number": "4702251839", "tags": [{"primary": false, "id": 1722, "name": "Restaurants"}, {"primary": true, "id": 11299, "name": "Pizza"}], "fax_number": null, "expansion": {"count": null, "uri": null}, "impression_id": "000b000000d0e62da64b2f4e55bee4c9d1a9ecb733", "profile": "http://www.citysearch.com/profile/618603224/atlanta_ga/marco_s_pizza.html", "address": {"city": "Atlanta", "state": "GA", "street": "227 Sandy Springs Pl", "postal_code": "30328"}, "capProviderId": null, "distance": null, "has_offers": false, "name": "Marco's Pizza", "longitude": -84.382757, "has_menu": false, "awards": null, "user_review_count": 0}, {"business_operation_status": 1, "rating": null, "neighborhood": null, "image": null, "scorecard": null, "featured": false, "sample_categories": "Restaurants, Delis And Delicatessens, Sandwich Shops, Carry Out", "public_id": "subway-smyrna-8", "id": 621921010, "votes": null, "tagline": null, "has_video": false, "website": "http://www.citysearch.com/profile/external/621921010/smyrna_ga/subway.html", "offers": null, "latitude": 33.883443, "politanName": "Atlanta, GA Metro ", "phone_number": "7708058522", "tags": [{"primary": false, "id": 1727, "name": "Delis And Delicatessens"}, {"primary": false, "id": 1736, "name": "Sandwich Shops"}, {"primary": false, "id": 11247, "name": "Carry Out"}, {"primary": true, "id": 1722, "name": "Restaurants"}], "fax_number": null, "expansion": {"count": null, "uri": null}, "impression_id": "000b0000009d2d994744f54d4794014f03dc49fc1a", "profile": "http://www.citysearch.com/profile/621921010/smyrna_ga/subway.html", "address": {"city": "Smyrna", "state": "GA", "street": "2517 Spring Rd Se", "postal_code": "30080"}, "capProviderId": null, "distance": null, "has_offers": false, "name": "Subway", "longitude": -84.480608, "has_menu": true, "awards": null, "user_review_count": 0}, {"business_operation_status": 1, "rating": null, "neighborhood": null, "image": null, "scorecard": null, "featured": false, "sample_categories": "Restaurants", "public_id": "hammocks-restaurant-atlanta", "id": 622859974, "votes": null, "tagline": null, "has_video": false, "website": null, "offers": null, "latitude": 33.953864, "politanName": "Atlanta, GA Metro ", "phone_number": "7703959592", "tags": [{"primary": true, "id": 1722, "name": "Restaurants"}], "fax_number": null, "expansion": {"count": null, "uri": null}, "impression_id": "000b000000af9fb273dc534cc7bcacaf40246a656a", "profile": "http://www.citysearch.com/profile/622859974/atlanta_ga/hammocks_restaurant.html", "address": {"city": "Atlanta", "state": "GA", "street": "7285 Roswell Rd", "postal_code": "30328"}, "capProviderId": null, "distance": null, "has_offers": false, "name": "Hammocks Restaurant", "longitude": -84.365277, "has_menu": false, "awards": null, "user_review_count": 0}, {"business_operation_status": 1, "rating": null, "neighborhood": null, "image": null, "scorecard": null, "featured": false, "sample_categories": "Restaurants", "public_id": "smoothie-fit-atlanta", "id": 748251070, "votes": null, "tagline": null, "has_video": false, "website": null, "offers": null, "latitude": 33.934532, "politanName": "Atlanta, GA Metro ", "phone_number": "6787319770", "tags": [{"primary": true, "id": 1722, "name": "Restaurants"}], "fax_number": null, "expansion": {"count": null, "uri": null}, "impression_id": "000b0000009cd9e0dcc7f648f5b2b2928dda7c7993", "profile": "http://www.citysearch.com/profile/748251070/atlanta_ga/smoothie_fit.html", "address": {"city": "Atlanta", "state": "GA", "street": "1155 Mount Vernon Hwy", "postal_code": "30338"}, "capProviderId": null, "distance": null, "has_offers": false, "name": "Smoothie Fit", "longitude": -84.349806, "has_menu": false, "awards": null, "user_review_count": 0}, {"business_operation_status": 1, "rating": null, "neighborhood": null, "image": null, "scorecard": null, "featured": false, "sample_categories": "Restaurants", "public_id": "southern-style-cooking-to-go-atlanta", "id": 3037859, "votes": null, "tagline": null, "has_video": false, "website": null, "offers": null, "latitude": 33.909471, "politanName": "Atlanta, GA Metro ", "phone_number": "4042524819", "tags": [{"primary": true, "id": 1722, "name": "Restaurants"}], "fax_number": null, "expansion": {"count": null, "uri": null}, "impression_id": "000b000000d0bb8429189746c4a95c2386ade26f95", "profile": "http://www.citysearch.com/profile/3037859/atlanta_ga/southern_style_cooking_to_go.html", "address": {"city": "Atlanta", "state": "GA", "street": "5674 Roswell Rd NE", "postal_code": "30342"}, "capProviderId": null, "distance": null, "has_offers": false, "name": "Southern Style Cooking To Go", "longitude": -84.378895, "has_menu": false, "awards": null, "user_review_count": 0}, {"business_operation_status": 1, "rating": null, "neighborhood": null, "image": null, "scorecard": null, "featured": false, "sample_categories": "Restaurants", "public_id": "moxie-burger-roswell", "id": 839995050, "votes": null, "tagline": null, "has_video": false, "website": null, "offers": null, "latitude": 34.013259, "politanName": "Atlanta, GA Metro ", "phone_number": "6788784411", "tags": [{"primary": true, "id": 1722, "name": "Restaurants"}], "fax_number": null, "expansion": {"count": null, "uri": null}, "impression_id": "000b000000fc8e7390c013414a930773cdd281492c", "profile": "http://www.citysearch.com/profile/839995050/roswell_ga/moxie_burger.html", "address": {"city": "Roswell", "state": "GA", "street": "555 S Atlanta St", "postal_code": "30075"}, "capProviderId": null, "distance": null, "has_offers": false, "name": "Moxie Burger", "longitude": -84.362854, "has_menu": false, "awards": null, "user_review_count": 0}, {"business_operation_status": 1, "rating": null, "neighborhood": null, "image": null, "scorecard": null, "featured": false, "sample_categories": "Bakeries, Restaurants", "public_id": "lapepite-france-bakery-marietta", "id": 793328380, "votes": null, "tagline": null, "has_video": false, "website": null, "offers": null, "latitude": 33.978482, "politanName": "Atlanta, GA Metro ", "phone_number": "7707904140", "tags": [{"primary": false, "id": 1722, "name": "Restaurants"}, {"primary": true, "id": 1685, "name": "Bakeries"}], "fax_number": null, "expansion": {"count": null, "uri": null}, "impression_id": "000b0000003573a235f0be4d088d2ca332b8cc3360", "profile": "http://www.citysearch.com/profile/793328380/marietta_ga/lapepite_france_bakery.html", "address": {"city": "Marietta", "state": "GA", "street": "1070 Atlanta Industrial Dr", "postal_code": "30066"}, "capProviderId": null, "distance": null, "has_offers": false, "name": "Lapepite France Bakery", "longitude": -84.532674, "has_menu": false, "awards": null, "user_review_count": 0}, {"business_operation_status": 1, "rating": null, "neighborhood": null, "image": null, "scorecard": null, "featured": false, "sample_categories": "Restaurants", "public_id": "lettuce-souprise-you-inc-sandy", "id": 810207430, "votes": null, "tagline": null, "has_video": false, "website": null, "offers": null, "latitude": 33.917883, "politanName": "Atlanta, GA Metro ", "phone_number": "4042500304", "tags": [{"primary": true, "id": 1722, "name": "Restaurants"}], "fax_number": null, "expansion": {"count": null, "uri": null}, "impression_id": "000b00000096965c15d857461a938b10a800f9c29f", "profile": "http://www.citysearch.com/profile/810207430/sandy_springs_ga/lettuce_souprise_you_inc.html", "address": {"city": "Sandy Springs", "state": "GA", "street": "5975 Roswell Rd # 201", "postal_code": "30328"}, "capProviderId": null, "distance": null, "has_offers": false, "name": "Lettuce Souprise You Inc", "longitude": -84.377671, "has_menu": false, "awards": null, "user_review_count": 0}, {"business_operation_status": 1, "rating": null, "neighborhood": null, "image": null, "scorecard": null, "featured": false, "sample_categories": "Restaurants", "public_id": "thg-holdings-atlanta", "id": 813270480, "votes": null, "tagline": null, "has_video": false, "website": null, "offers": null, "latitude": 33.908822, "politanName": "Atlanta, GA Metro ", "phone_number": "7709538334", "tags": [{"primary": true, "id": 1722, "name": "Restaurants"}], "fax_number": null, "expansion": {"count": null, "uri": null}, "impression_id": "000b000000d4c683f4211644bcabd587f34b6cda50", "profile": "http://www.citysearch.com/profile/813270480/atlanta_ga/thg_holdings.html", "address": {"city": "Atlanta", "state": "GA", "street": "1770 The Exchange SE # 220", "postal_code": "30339"}, "capProviderId": null, "distance": null, "has_offers": false, "name": "THG Holdings", "longitude": -84.480468, "has_menu": false, "awards": null, "user_review_count": 0}, {"business_operation_status": 1, "rating": null, "neighborhood": null, "image": null, "scorecard": null, "featured": false, "sample_categories": "Restaurants, Carry Out", "public_id": "churchs-chicken-atlanta-31", "id": 764836400, "votes": null, "tagline": null, "has_video": false, "website": null, "offers": null, "latitude": 33.94293, "politanName": "Atlanta, GA Metro ", "phone_number": "4045034575", "tags": [{"primary": false, "id": 11247, "name": "Carry Out"}, {"primary": true, "id": 1722, "name": "Restaurants"}], "fax_number": null, "expansion": {"count": null, "uri": null}, "impression_id": "000b000000677554c0bd6a475b96257f86d2cc2ac4", "profile": "http://www.citysearch.com/profile/764836400/atlanta_ga/church_s_chicken.html", "address": {"city": "Atlanta", "state": "GA", "street": "100 Marsh Glen Pt NW", "postal_code": "30328"}, "capProviderId": null, "distance": null, "has_offers": false, "name": "Church's Chicken", "longitude": -84.397399, "has_menu": false, "awards": null, "user_review_count": 0}, {"business_operation_status": 1, "rating": null, "neighborhood": null, "image": null, "scorecard": null, "featured": false, "sample_categories": "Restaurants, Carry Out", "public_id": "long-john-silvers-marietta-3", "id": 764851430, "votes": null, "tagline": null, "has_video": false, "website": null, "offers": null, "latitude": 33.950876, "politanName": "Atlanta, GA Metro ", "phone_number": "7704247755", "tags": [{"primary": false, "id": 11247, "name": "Carry Out"}, {"primary": true, "id": 1722, "name": "Restaurants"}], "fax_number": null, "expansion": {"count": null, "uri": null}, "impression_id": "000b0000004f1320654a144e53bde8577b68b9ab04", "profile": "http://www.citysearch.com/profile/764851430/marietta_ga/long_john_silver_s.html", "address": {"city": "Marietta", "state": "GA", "street": "1176 Roswell Rd", "postal_code": "30062"}, "capProviderId": null, "distance": null, "has_offers": false, "name": "Long John Silver's", "longitude": -84.518285, "has_menu": true, "awards": null, "user_review_count": 0}, {"business_operation_status": 1, "rating": null, "neighborhood": null, "image": null, "scorecard": null, "featured": false, "sample_categories": "Restaurants", "public_id": "cafe-210-smyrna", "id": 821687430, "votes": null, "tagline": null, "has_video": false, "website": null, "offers": null, "latitude": 33.89467, "politanName": "Atlanta, GA Metro ", "phone_number": "7704380077", "tags": [{"primary": true, "id": 1722, "name": "Restaurants"}], "fax_number": null, "expansion": {"count": null, "uri": null}, "impression_id": "000b000000aecaa312373c41afb6399d480bf4ff68", "profile": "http://www.citysearch.com/profile/821687430/smyrna_ga/cafe_210.html", "address": {"city": "Smyrna", "state": "GA", "street": "2233 Lake Park Dr SE", "postal_code": "30080"}, "capProviderId": null, "distance": null, "has_offers": false, "name": "Cafe 210", "longitude": -84.484401, "has_menu": false, "awards": null, "user_review_count": 0}, {"business_operation_status": 1, "rating": null, "neighborhood": null, "image": null, "scorecard": null, "featured": false, "sample_categories": "Doughnut Shops, Restaurants", "public_id": "daylight-consulting-group-atlanta", "id": 46008847, "votes": null, "tagline": null, "has_video": false, "website": "http://www.citysearch.com/profile/external/46008847/atlanta_ga/daylight_consulting_group.html", "offers": null, "latitude": 33.863183, "politanName": "Atlanta, GA Metro ", "phone_number": "7708615209", "tags": [{"primary": false, "id": 1734, "name": "Doughnut Shops"}, {"primary": true, "id": 1722, "name": "Restaurants"}], "fax_number": null, "expansion": {"count": null, "uri": null}, "impression_id": "000b0000000127b63997bc452dbf0a2372349e0867", "profile": "http://www.citysearch.com/profile/46008847/atlanta_ga/daylight_consulting_group.html", "address": {"city": "Atlanta", "state": "GA", "street": "2451 Cumberland Pkwy SE", "postal_code": "30339"}, "capProviderId": null, "distance": null, "has_offers": false, "name": "Daylight Consulting Group", "longitude": -84.478702, "has_menu": false, "awards": null, "user_review_count": 0}, {"business_operation_status": 1, "rating": null, "neighborhood": null, "image": null, "scorecard": null, "featured": false, "sample_categories": "Ice Cream Parlors, Restaurants, Carry Out", "public_id": "dairy-queen-smyrna-4", "id": 777697890, "votes": null, "tagline": null, "has_video": false, "website": "http://www.citysearch.com/profile/external/777697890/smyrna_ga/dairy_queen.html", "offers": null, "latitude": 33.882258, "politanName": "Atlanta, GA Metro ", "phone_number": "7704323809", "tags": [{"primary": false, "id": 1722, "name": "Restaurants"}, {"primary": false, "id": 11247, "name": "Carry Out"}, {"primary": true, "id": 1730, "name": "Ice Cream Parlors"}], "fax_number": null, "expansion": {"count": null, "uri": null}, "impression_id": "000b0000003784b2e4ff044aaea13e14a1312c46d7", "profile": "http://www.citysearch.com/profile/777697890/smyrna_ga/dairy_queen.html", "address": {"city": "Smyrna", "state": "GA", "street": "1641 Spring Rd Se", "postal_code": "30080"}, "capProviderId": null, "distance": null, "has_offers": false, "name": "Dairy Queen", "longitude": -84.505572, "has_menu": true, "awards": null, "user_review_count": 0}, {"business_operation_status": 1, "rating": null, "neighborhood": null, "image": null, "scorecard": null, "featured": false, "sample_categories": "Grocery Stores, Health Food Stores, Herbal Medicine, Weight Loss, Herbs", "public_id": "herb-shop-the-smyrna", "id": 604614262, "votes": null, "tagline": null, "has_video": false, "website": null, "offers": null, "latitude": 33.873647, "politanName": "Atlanta, GA Metro ", "phone_number": "7704358567", "tags": [{"primary": false, "id": 1713, "name": "Grocery Stores"}, {"primary": false, "id": 1716, "name": "Health Food Stores"}, {"primary": false, "id": 1800, "name": "Herbal Medicine"}, {"primary": false, "id": 11170, "name": "Herbs"}, {"primary": false, "id": 11200, "name": "Health Food"}, {"primary": true, "id": 1931, "name": "Weight Loss"}], "fax_number": null, "expansion": {"count": null, "uri": null}, "impression_id": "000b0000009f5615cbeb1649fe96da5cbea1e7e803", "profile": "http://www.citysearch.com/profile/604614262/smyrna_ga/herb_shop_the.html", "address": {"city": "Smyrna", "state": "GA", "street": "3240 S Cobb Dr Se Ste D", "postal_code": "30080"}, "capProviderId": null, "distance": null, "has_offers": false, "name": "Herb Shop The", "longitude": -84.530458, "has_menu": false, "awards": null, "user_review_count": 2}, {"business_operation_status": 1, "rating": null, "neighborhood": null, "image": null, "scorecard": null, "featured": false, "sample_categories": "Ice Cream Parlors, Shop Online", "public_id": "cold-stone-creamery-marietta-3", "id": 793255740, "votes": null, "tagline": null, "has_video": false, "website": "http://www.citysearch.com/profile/external/793255740/marietta_ga/cold_stone_creamery.html", "offers": null, "latitude": 33.988744, "politanName": "Atlanta, GA Metro ", "phone_number": "4045836303", "tags": [{"primary": false, "id": 11375, "name": "Shop Online"}, {"primary": true, "id": 1730, "name": "Ice Cream Parlors"}], "fax_number": null, "expansion": {"count": null, "uri": null}, "impression_id": "000b000000a6f6cc270cb9441aa0245b7e9d322813", "profile": "http://www.citysearch.com/profile/793255740/marietta_ga/cold_stone_creamery.html", "address": {"city": "Marietta", "state": "GA", "street": "1573 Asheforde Dr", "postal_code": "30068"}, "capProviderId": null, "distance": null, "has_offers": false, "name": "Cold Stone Creamery", "longitude": -84.386785, "has_menu": true, "awards": null, "user_review_count": 0}, {"business_operation_status": 1, "rating": null, "neighborhood": null, "image": null, "scorecard": null, "featured": false, "sample_categories": "Restaurants", "public_id": "dogfathers-marietta", "id": 793344660, "votes": null, "tagline": null, "has_video": false, "website": null, "offers": null, "latitude": 34.017341, "politanName": "Atlanta, GA Metro ", "phone_number": "6783543223", "tags": [{"primary": true, "id": 1722, "name": "Restaurants"}], "fax_number": null, "expansion": {"count": null, "uri": null}, "impression_id": "000b000000c08808b4f4d447ccb499cdb7dedb2a17", "profile": "http://www.citysearch.com/profile/793344660/marietta_ga/dogfathers.html", "address": {"city": "Marietta", "state": "GA", "street": "2769 Chastain Meadows Pkwy", "postal_code": "30066"}, "capProviderId": null, "distance": null, "has_offers": false, "name": "Dogfathers", "longitude": -84.555709, "has_menu": false, "awards": null, "user_review_count": 0}, {"business_operation_status": 1, "rating": null, "neighborhood": null, "image": null, "scorecard": null, "featured": false, "sample_categories": "Restaurants, Mexican", "public_id": "lunas-taqueria-marietta", "id": 793347450, "votes": null, "tagline": null, "has_video": false, "website": null, "offers": null, "latitude": 33.905061, "politanName": "Atlanta, GA Metro ", "phone_number": "6785569766", "tags": [{"primary": false, "id": 11208, "name": "Mexican"}, {"primary": true, "id": 1722, "name": "Restaurants"}], "fax_number": null, "expansion": {"count": null, "uri": null}, "impression_id": "000b0000005f351e3b40914633a7994793d4084f4c", "profile": "http://www.citysearch.com/profile/793347450/marietta_ga/luna_s_taqueria.html", "address": {"city": "Marietta", "state": "GA", "street": "1977 S Cobb Dr Se", "postal_code": "30060"}, "capProviderId": null, "distance": null, "has_offers": false, "name": "Luna's Taqueria", "longitude": -84.542525, "has_menu": false, "awards": null, "user_review_count": 0}, {"business_operation_status": 1, "rating": null, "neighborhood": null, "image": null, "scorecard": null, "featured": false, "sample_categories": "Restaurants", "public_id": "hollie-guacamole-marietta", "id": 806226200, "votes": null, "tagline": null, "has_video": false, "website": null, "offers": null, "latitude": 33.952258, "politanName": "Atlanta, GA Metro ", "phone_number": "6782732403", "tags": [{"primary": true, "id": 1722, "name": "Restaurants"}], "fax_number": null, "expansion": {"count": null, "uri": null}, "impression_id": "000b0000004d219efcaf4f43c393233805e60fca84", "profile": "http://www.citysearch.com/profile/806226200/marietta_ga/hollie_guacamole_.html", "address": {"city": "Marietta", "state": "GA", "street": "154 Roswell St SE", "postal_code": "30060"}, "capProviderId": null, "distance": null, "has_offers": false, "name": "Hollie Guacamole!", "longitude": -84.54874, "has_menu": false, "awards": null, "user_review_count": 0}, {"business_operation_status": 1, "rating": null, "neighborhood": null, "image": null, "scorecard": null, "featured": false, "sample_categories": "Restaurants", "public_id": "cafe-amazonia-marietta", "id": 808265410, "votes": null, "tagline": null, "has_video": false, "website": null, "offers": null, "latitude": 33.952198, "politanName": "Atlanta, GA Metro ", "phone_number": "7705796773", "tags": [{"primary": true, "id": 1722, "name": "Restaurants"}], "fax_number": null, "expansion": {"count": null, "uri": null}, "impression_id": "000b000000820b679bb7384428b7aafb3813ea6161", "profile": "http://www.citysearch.com/profile/808265410/marietta_ga/cafe_amazonia.html", "address": {"city": "Marietta", "state": "GA", "street": "1355 Roswell Rd # 152", "postal_code": "30062"}, "capProviderId": null, "distance": null, "has_offers": false, "name": "Cafe Amazonia", "longitude": -84.512302, "has_menu": false, "awards": null, "user_review_count": 0}, {"business_operation_status": 1, "rating": null, "neighborhood": null, "image": null, "scorecard": null, "featured": false, "sample_categories": "Restaurants, American Express, Discover, MasterCard, Visa", "public_id": "one-stop-marietta", "id": 43841116, "votes": null, "tagline": null, "has_video": false, "website": null, "offers": null, "latitude": 33.903919, "politanName": "Atlanta, GA Metro ", "phone_number": "7706900083", "tags": [{"primary": false, "id": 11333, "name": "American Express"}, {"primary": false, "id": 11349, "name": "Discover"}, {"primary": false, "id": 11361, "name": "MasterCard"}, {"primary": false, "id": 11382, "name": "Visa"}, {"primary": true, "id": 1722, "name": "Restaurants"}], "fax_number": null, "expansion": {"count": null, "uri": null}, "impression_id": "000b00000071626ce32e414834b763317106e4621b", "profile": "http://www.citysearch.com/profile/43841116/marietta_ga/one_stop.html", "address": {"city": "Marietta", "state": "GA", "street": "3000 Windy Hill Rd SE Ste A2", "postal_code": "30067"}, "capProviderId": null, "distance": null, "has_offers": false, "name": "One Stop", "longitude": -84.4706, "has_menu": false, "awards": null, "user_review_count": 0}, {"business_operation_status": 1, "rating": null, "neighborhood": null, "image": null, "scorecard": null, "featured": false, "sample_categories": "Restaurants", "public_id": "jocks-jills-sports-grill-atlanta-3", "id": 626460694, "votes": null, "tagline": null, "has_video": false, "website": null, "offers": null, "latitude": 33.878815, "politanName": "Atlanta, GA Metro ", "phone_number": "7709528401", "tags": [{"primary": true, "id": 1722, "name": "Restaurants"}], "fax_number": null, "expansion": {"count": null, "uri": null}, "impression_id": "000b000000728bbec96cae4eaf88fe8e64160fcb98", "profile": "http://www.citysearch.com/profile/626460694/atlanta_ga/jocks_jills_sports_grill.html", "address": {"city": "Atlanta", "state": "GA", "street": "1 Galleria Pkwy SE 1D17A", "postal_code": "30339"}, "capProviderId": null, "distance": null, "has_offers": false, "name": "Jocks & Jills Sports Grill", "longitude": -84.464518, "has_menu": false, "awards": null, "user_review_count": 0}, {"business_operation_status": 0, "rating": null, "neighborhood": null, "image": null, "scorecard": null, "featured": false, "sample_categories": "Ice Cream Parlors", "public_id": "ritas-water-ice-marietta-3", "id": 627647380, "votes": null, "tagline": null, "has_video": false, "website": "http://www.citysearch.com/profile/external/627647380/marietta_ga/rita_s_water_ice.html", "offers": null, "latitude": 34.011742, "politanName": "Atlanta, GA Metro ", "phone_number": "7706946029", "tags": [{"primary": true, "id": 1730, "name": "Ice Cream Parlors"}], "fax_number": null, "expansion": {"count": null, "uri": null}, "impression_id": "000b00000070c1d0058eec47ce81bc3c5c485fde53", "profile": "http://www.citysearch.com/profile/627647380/marietta_ga/rita_s_water_ice.html", "address": {"city": "Marietta", "state": "GA", "street": "2550 Sandy Plains Rd", "postal_code": "30066"}, "capProviderId": null, "distance": null, "has_offers": false, "name": "Rita's Water Ice", "longitude": -84.495056, "has_menu": false, "awards": null, "user_review_count": 0}, {"business_operation_status": 1, "rating": null, "neighborhood": null, "image": null, "scorecard": null, "featured": false, "sample_categories": "Restaurants, Sandwich Shops, Soups", "public_id": "cafe-400-atlanta-4", "id": 622054250, "votes": null, "tagline": null, "has_video": false, "website": null, "offers": null, "latitude": 33.894187, "politanName": "Atlanta, GA Metro ", "phone_number": "7702260074", "tags": [{"primary": false, "id": 1736, "name": "Sandwich Shops"}, {"primary": false, "id": 11311, "name": "Soups"}, {"primary": true, "id": 1722, "name": "Restaurants"}], "fax_number": null, "expansion": {"count": null, "uri": null}, "impression_id": "000b00000066c6ac7cf189476b9da52d4a88ab70e9", "profile": "http://www.citysearch.com/profile/622054250/atlanta_ga/cafe_400.html", "address": {"city": "Atlanta", "state": "GA", "street": "400 Interstate North Pkwy Se", "postal_code": "30339"}, "capProviderId": null, "distance": null, "has_offers": false, "name": "Cafe 400", "longitude": -84.456313, "has_menu": false, "awards": null, "user_review_count": 0}, {"business_operation_status": 1, "rating": null, "neighborhood": null, "image": null, "scorecard": null, "featured": false, "sample_categories": "Restaurants", "public_id": "mythos-pizzeria-marietta", "id": 627338904, "votes": null, "tagline": null, "has_video": false, "website": null, "offers": null, "latitude": 33.953414, "politanName": "Atlanta, GA Metro ", "phone_number": "7704255100", "tags": [{"primary": true, "id": 1722, "name": "Restaurants"}], "fax_number": null, "expansion": {"count": null, "uri": null}, "impression_id": "000b0000001bdd15b028e94aa385f2b6c0c3cc4453", "profile": "http://www.citysearch.com/profile/627338904/marietta_ga/mythos_pizzeria.html", "address": {"city": "Marietta", "state": "GA", "street": "1000 Whitlock Ave NW", "postal_code": "30064"}, "capProviderId": null, "distance": null, "has_offers": false, "name": "Mythos Pizzeria", "longitude": -84.581304, "has_menu": false, "awards": null, "user_review_count": 0}, {"business_operation_status": 1, "rating": null, "neighborhood": null, "image": null, "scorecard": null, "featured": false, "sample_categories": "Restaurants", "public_id": "suniece-cafe-marietta", "id": 655897070, "votes": null, "tagline": null, "has_video": false, "website": null, "offers": null, "latitude": 33.972386, "politanName": "Atlanta, GA Metro ", "phone_number": "7704272005", "tags": [{"primary": true, "id": 1722, "name": "Restaurants"}], "fax_number": null, "expansion": {"count": null, "uri": null}, "impression_id": "000b0000001d0ef7e1d5d94b719d4e5cd24f244097", "profile": "http://www.citysearch.com/profile/655897070/marietta_ga/suniece_cafe.html", "address": {"city": "Marietta", "state": "GA", "street": "833 Campbell Hill St Nw", "postal_code": "30060"}, "capProviderId": null, "distance": null, "has_offers": false, "name": "Suniece Cafe", "longitude": -84.552023, "has_menu": false, "awards": null, "user_review_count": 0}, {"business_operation_status": 1, "rating": null, "neighborhood": null, "image": null, "scorecard": null, "featured": false, "sample_categories": "Restaurants", "public_id": "amalfi-roswell", "id": 672143510, "votes": null, "tagline": null, "has_video": false, "website": null, "offers": null, "latitude": 34.008275, "politanName": "Atlanta, GA Metro ", "phone_number": "7706459983", "tags": [{"primary": true, "id": 1722, "name": "Restaurants"}], "fax_number": null, "expansion": {"count": null, "uri": null}, "impression_id": "000b0000004bce703e16a541e98c2fe324aba707b4", "profile": "http://www.citysearch.com/profile/672143510/roswell_ga/amalfi.html", "address": {"city": "Roswell", "state": "GA", "street": "292 S Atlanta St", "postal_code": "30075"}, "capProviderId": null, "distance": null, "has_offers": false, "name": "Amalfi", "longitude": -84.358157, "has_menu": false, "awards": null, "user_review_count": 0}, {"business_operation_status": 1, "rating": null, "neighborhood": null, "image": null, "scorecard": null, "featured": false, "sample_categories": "Restaurants", "public_id": "vaqueros-marietta", "id": 672714020, "votes": null, "tagline": null, "has_video": false, "website": null, "offers": null, "latitude": 33.953033, "politanName": "Atlanta, GA Metro ", "phone_number": "6787385431", "tags": [{"primary": true, "id": 1722, "name": "Restaurants"}], "fax_number": null, "expansion": {"count": null, "uri": null}, "impression_id": "000b00000086a9cf0aef694e13bbe6d42d847ad9e5", "profile": "http://www.citysearch.com/profile/672714020/marietta_ga/vaqueros.html", "address": {"city": "Marietta", "state": "GA", "street": "1000 Whitlock Ave. #400", "postal_code": "30064"}, "capProviderId": null, "distance": null, "has_offers": false, "name": "Vaqueros", "longitude": -84.581202, "has_menu": false, "awards": null, "user_review_count": 0}, {"business_operation_status": 1, "rating": null, "neighborhood": null, "image": null, "scorecard": null, "featured": false, "sample_categories": "Restaurants, Chinese", "public_id": "tasty-china-atlanta", "id": 682728820, "votes": null, "tagline": null, "has_video": false, "website": null, "offers": null, "latitude": 33.903618, "politanName": "Atlanta, GA Metro ", "phone_number": "6787668765", "tags": [{"primary": false, "id": 11252, "name": "Chinese"}, {"primary": true, "id": 1722, "name": "Restaurants"}], "fax_number": null, "expansion": {"count": null, "uri": null}, "impression_id": "000b00000082105c8f757a4a28adf8860d5ef1cef7", "profile": "http://www.citysearch.com/profile/682728820/atlanta_ga/tasty_china.html", "address": {"city": "Atlanta", "state": "GA", "street": "6450 Powers Ferry Rd NW", "postal_code": "30339"}, "capProviderId": null, "distance": null, "has_offers": false, "name": "Tasty China", "longitude": -84.43524, "has_menu": false, "awards": null, "user_review_count": 0}, {"business_operation_status": 1, "rating": null, "neighborhood": null, "image": null, "scorecard": null, "featured": false, "sample_categories": "Restaurants", "public_id": "presto-latin-restaurant-marietta", "id": 672230170, "votes": null, "tagline": null, "has_video": false, "website": null, "offers": null, "latitude": 33.951248, "politanName": "Atlanta, GA Metro ", "phone_number": "7709731282", "tags": [{"primary": true, "id": 1722, "name": "Restaurants"}], "fax_number": null, "expansion": {"count": null, "uri": null}, "impression_id": "000b0000004858a3447f7f4e9789ef767dc57f3cb8", "profile": "http://www.citysearch.com/profile/672230170/marietta_ga/presto_latin_restaurant.html", "address": {"city": "Marietta", "state": "GA", "street": "1392-B Roswell Road", "postal_code": "30062"}, "capProviderId": null, "distance": null, "has_offers": false, "name": "Presto Latin Restaurant", "longitude": -84.508172, "has_menu": false, "awards": null, "user_review_count": 0}, {"business_operation_status": 1, "rating": null, "neighborhood": null, "image": null, "scorecard": null, "featured": false, "sample_categories": "Restaurants, Carry Out, American Express, Discover, MasterCard", "public_id": "churchs-chicken-marietta-4", "id": 682647720, "votes": null, "tagline": null, "has_video": false, "website": "http://www.citysearch.com/profile/external/682647720/marietta_ga/church_s_chicken.html", "offers": null, "latitude": 33.94964, "politanName": "Atlanta, GA Metro ", "phone_number": "7704241193", "tags": [{"primary": false, "id": 11247, "name": "Carry Out"}, {"primary": false, "id": 11333, "name": "American Express"}, {"primary": false, "id": 11349, "name": "Discover"}, {"primary": false, "id": 11361, "name": "MasterCard"}, {"primary": false, "id": 11382, "name": "Visa"}, {"primary": false, "id": 12839, "name": "Chicken"}, {"primary": true, "id": 1722, "name": "Restaurants"}], "fax_number": null, "expansion": {"count": null, "uri": null}, "impression_id": "000b000000a2724b799a8b49aca10b3e1d56733a2d", "profile": "http://www.citysearch.com/profile/682647720/marietta_ga/church_s_chicken.html", "address": {"city": "Marietta", "state": "GA", "street": "75 S Marietta Pkwy Sw", "postal_code": "30064"}, "capProviderId": null, "distance": null, "has_offers": false, "name": "Church's Chicken", "longitude": -84.55079, "has_menu": false, "awards": null, "user_review_count": 0}, {"business_operation_status": 1, "rating": null, "neighborhood": null, "image": null, "scorecard": null, "featured": false, "sample_categories": "Restaurants", "public_id": "niks-place-marietta", "id": 618038054, "votes": null, "tagline": null, "has_video": false, "website": "http://www.citysearch.com/profile/external/618038054/marietta_ga/niks_place.html", "offers": null, "latitude": 33.952096, "politanName": "Atlanta, GA Metro ", "phone_number": "7707926666", "tags": [{"primary": true, "id": 1722, "name": "Restaurants"}], "fax_number": null, "expansion": {"count": null, "uri": null}, "impression_id": "000b000000f8747dcc2eb244dc994817212fbcd092", "profile": "http://www.citysearch.com/profile/618038054/marietta_ga/niks_place.html", "address": {"city": "Marietta", "state": "GA", "street": "Whitlock Ave NW", "postal_code": "30064"}, "capProviderId": null, "distance": null, "has_offers": false, "name": "Niks Place", "longitude": -84.576903, "has_menu": true, "awards": null, "user_review_count": 0}, {"business_operation_status": 1, "rating": null, "neighborhood": null, "image": null, "scorecard": null, "featured": false, "sample_categories": "Restaurants, Pizza, Carry Out", "public_id": "jets-pizza-roswell", "id": 713499590, "votes": null, "tagline": null, "has_video": false, "website": "http://www.citysearch.com/profile/external/713499590/roswell_ga/jet_s_pizza.html", "offers": null, "latitude": 34.027716, "politanName": "Atlanta, GA Metro ", "phone_number": "7706499950", "tags": [{"primary": false, "id": 1722, "name": "Restaurants"}, {"primary": false, "id": 11247, "name": "Carry Out"}, {"primary": true, "id": 11299, "name": "Pizza"}], "fax_number": null, "expansion": {"count": null, "uri": null}, "impression_id": "000b00000037ac84ce86fa4fe69823e0fd1d1c0ab0", "profile": "http://www.citysearch.com/profile/713499590/roswell_ga/jet_s_pizza.html", "address": {"city": "Roswell", "state": "GA", "street": "4401 Shallowford Rd", "postal_code": "30075"}, "capProviderId": null, "distance": null, "has_offers": false, "name": "Jet's Pizza", "longitude": -84.420333, "has_menu": false, "awards": null, "user_review_count": 0}, {"business_operation_status": 1, "rating": null, "neighborhood": null, "image": null, "scorecard": null, "featured": false, "sample_categories": "Delis And Delicatessens", "public_id": "kroger-deli-atlanta-15", "id": 704136830, "votes": null, "tagline": null, "has_video": false, "website": null, "offers": null, "latitude": 33.919103, "politanName": "Atlanta, GA Metro ", "phone_number": "4042563434", "tags": [{"primary": true, "id": 1727, "name": "Delis And Delicatessens"}], "fax_number": null, "expansion": {"count": null, "uri": null}, "impression_id": "000b000000b5149e5e275f49f583d2976ff2ea54bd", "profile": "http://www.citysearch.com/profile/704136830/atlanta_ga/kroger_deli.html", "address": {"city": "Atlanta", "state": "GA", "street": "230 Hammond Dr Ne # K", "postal_code": "30328"}, "capProviderId": null, "distance": null, "has_offers": false, "name": "Kroger Deli", "longitude": -84.382649, "has_menu": false, "awards": null, "user_review_count": 0}, {"business_operation_status": 1, "rating": null, "neighborhood": null, "image": null, "scorecard": null, "featured": false, "sample_categories": "Restaurants, Ice Cream Parlors, Carry Out", "public_id": "churchs-chicken-marietta-6", "id": 812139520, "votes": null, "tagline": null, "has_video": false, "website": null, "offers": null, "latitude": 33.95153, "politanName": "Atlanta, GA Metro ", "phone_number": "7704228166", "tags": [{"primary": false, "id": 1730, "name": "Ice Cream Parlors"}, {"primary": false, "id": 11247, "name": "Carry Out"}, {"primary": true, "id": 1722, "name": "Restaurants"}], "fax_number": null, "expansion": {"count": null, "uri": null}, "impression_id": "000b0000004c859c52e5054cb1953297c172c3d643", "profile": "http://www.citysearch.com/profile/812139520/marietta_ga/church_s_chicken.html", "address": {"city": "Marietta", "state": "GA", "street": "23 Powder Springs St", "postal_code": "30064"}, "capProviderId": null, "distance": null, "has_offers": false, "name": "Church's Chicken", "longitude": -84.550217, "has_menu": false, "awards": null, "user_review_count": 0}, {"business_operation_status": 1, "rating": null, "neighborhood": null, "image": null, "scorecard": null, "featured": false, "sample_categories": "Restaurants", "public_id": "san-luis-marietta-2", "id": 815793680, "votes": null, "tagline": null, "has_video": false, "website": null, "offers": null, "latitude": 33.939122, "politanName": "Atlanta, GA Metro ", "phone_number": "7705147050", "tags": [{"primary": true, "id": 1722, "name": "Restaurants"}], "fax_number": null, "expansion": {"count": null, "uri": null}, "impression_id": "000b00000080db5195d42943ff8c8e127b03bd649b", "profile": "http://www.citysearch.com/profile/815793680/marietta_ga/san_luis.html", "address": {"city": "Marietta", "state": "GA", "street": "971 S Marietta Pkwy SE", "postal_code": "30060"}, "capProviderId": null, "distance": null, "has_offers": false, "name": "San Luis", "longitude": -84.526386, "has_menu": false, "awards": null, "user_review_count": 0}, {"business_operation_status": 1, "rating": 6.0, "neighborhood": null, "image": null, "scorecard": null, "featured": false, "sample_categories": "Restaurants", "public_id": "back-porch-of-marietta-marietta", "id": 37646043, "votes": null, "tagline": null, "has_video": false, "website": "http://www.citysearch.com/profile/external/37646043/marietta_ga/back_porch_of_marietta.html", "offers": null, "latitude": 33.951281, "politanName": "Atlanta, GA Metro ", "phone_number": "7707926666", "tags": [{"primary": true, "id": 1722, "name": "Restaurants"}], "fax_number": null, "expansion": {"count": null, "uri": null}, "impression_id": "000b0000002ae80ee5567f47b79267bb95a4ef2fb8", "profile": "http://www.citysearch.com/profile/37646043/marietta_ga/back_porch_of_marietta.html", "address": {"city": "Marietta", "state": "GA", "street": "645 Whitlock Ave SW", "postal_code": "30064"}, "capProviderId": null, "distance": null, "has_offers": false, "name": "Back Porch Of Marietta", "longitude": -84.571275, "has_menu": false, "awards": null, "user_review_count": 1}, {"business_operation_status": 1, "rating": null, "neighborhood": null, "image": null, "scorecard": null, "featured": false, "sample_categories": "Restaurants", "public_id": "planet-smoothie-marietta-3", "id": 37646124, "votes": null, "tagline": null, "has_video": false, "website": null, "offers": null, "latitude": 34.030276, "politanName": "Atlanta, GA Metro ", "phone_number": "7705786970", "tags": [{"primary": true, "id": 1722, "name": "Restaurants"}], "fax_number": null, "expansion": {"count": null, "uri": null}, "impression_id": "000b00000023c955f3df5944febbaf06c28f8f4b2e", "profile": "http://www.citysearch.com/profile/37646124/marietta_ga/planet_smoothie.html", "address": {"city": "Marietta", "state": "GA", "street": "3300 Lynhurst Dr", "postal_code": "30062"}, "capProviderId": null, "distance": null, "has_offers": false, "name": "Planet Smoothie", "longitude": -84.440104, "has_menu": true, "awards": null, "user_review_count": 0}, {"business_operation_status": 1, "rating": null, "neighborhood": null, "image": null, "scorecard": null, "featured": false, "sample_categories": "Restaurants", "public_id": "k-j-fish-chicken-marietta", "id": 816880880, "votes": null, "tagline": null, "has_video": false, "website": null, "offers": null, "latitude": 33.894433, "politanName": "Atlanta, GA Metro ", "phone_number": "7704058877", "tags": [{"primary": true, "id": 1722, "name": "Restaurants"}], "fax_number": null, "expansion": {"count": null, "uri": null}, "impression_id": "000b0000008400828347ac4738afa57fd8fdf6efce", "profile": "http://www.citysearch.com/profile/816880880/marietta_ga/k_j_fish_chicken.html", "address": {"city": "Marietta", "state": "GA", "street": "234 Windy Hill Rd SE", "postal_code": "30060"}, "capProviderId": null, "distance": null, "has_offers": false, "name": "K J Fish & Chicken", "longitude": -84.552798, "has_menu": false, "awards": null, "user_review_count": 0}, {"business_operation_status": 1, "rating": null, "neighborhood": null, "image": null, "scorecard": null, "featured": false, "sample_categories": "Restaurants, Barbecue Restaurants", "public_id": "seven-star-roswell", "id": 41480280, "votes": null, "tagline": null, "has_video": false, "website": null, "offers": null, "latitude": 34.011764, "politanName": "Atlanta, GA Metro ", "phone_number": "6783521888", "tags": [{"primary": false, "id": 1724, "name": "Barbecue Restaurants"}, {"primary": true, "id": 1722, "name": "Restaurants"}], "fax_number": null, "expansion": {"count": null, "uri": null}, "impression_id": "000b000000608b8dc8e1f749cca94811f601e32e9e", "profile": "http://www.citysearch.com/profile/41480280/roswell_ga/seven_star.html", "address": {"city": "Roswell", "state": "GA", "street": "48 King St", "postal_code": "30075"}, "capProviderId": null, "distance": null, "has_offers": false, "name": "Seven Star", "longitude": -84.36332, "has_menu": true, "awards": null, "user_review_count": 0}], "histograms": [], "tag_ids": [1722], "uri": "http://api.citygridmedia.com:8080/search/places/v2/search/where?has_offers=false&type=restaurant&format=json&page=25&where=30067&rpp=50&histograms=false&publisher=10000009598&region_type=circle", "did_you_mean": "", "regions": [{"latitude": 33.930575, "default_radius": 3.78, "type": "postal_code", "name": "30067", "longitude": -84.463162}], "call_id": "000b000000586811a739b5477690b8a5230de545ce", "first_hit": 1201, "total_hits": 1972, "geo_ids": [26295], "page": 25, "last_hit": 1250}}