{"results": {"rpp": 50, "locations": [{"business_operation_status": 1, "rating": null, "neighborhood": null, "image": null, "scorecard": null, "featured": false, "sample_categories": "Restaurants, Barbecue Restaurants, Carry Out, Pizza", "public_id": "wing-street-marietta", "id": 764937850, "votes": null, "tagline": null, "has_video": false, "website": "http://www.citysearch.com/profile/external/764937850/marietta_ga/wing_street.html", "offers": null, "latitude": 34.012753, "politanName": "Atlanta, GA Metro ", "phone_number": "7705784200", "tags": [{"primary": false, "id": 1724, "name": "Barbecue Restaurants"}, {"primary": false, "id": 11247, "name": "Carry Out"}, {"primary": false, "id": 11299, "name": "Pizza"}, {"primary": true, "id": 1722, "name": "Restaurants"}], "fax_number": null, "expansion": {"count": null, "uri": null}, "impression_id": "000b00000088a60d72df444325a3b5f0427439bb4b", "profile": "http://www.citysearch.com/profile/764937850/marietta_ga/wing_street.html", "address": {"city": "Marietta", "state": "GA", "street": "2565 E Piedmont Rd", "postal_code": "30062"}, "capProviderId": null, "distance": null, "has_offers": false, "name": "Wing Street", "longitude": -84.494027, "has_menu": false, "awards": null, "user_review_count": 0}, {"business_operation_status": 1, "rating": null, "neighborhood": null, "image": null, "scorecard": null, "featured": false, "sample_categories": "Delis And Delicatessens", "public_id": "american-deli-austell", "id": 764886810, "votes": null, "tagline": null, "has_video": false, "website": null, "offers": null, "latitude": 33.856949, "politanName": "Atlanta, GA Metro ", "phone_number": "7708018888", "tags": [{"primary": true, "id": 1727, "name": "Delis And Delicatessens"}], "fax_number": null, "expansion": {"count": null, "uri": null}, "impression_id": "000b000000fb80a0ea8807458793cd37c4fca6b186", "profile": "http://www.citysearch.com/profile/764886810/austell_ga/american_deli.html", "address": {"city": "Austell", "state": "GA", "street": "3961 Floyd Rd", "postal_code": "30106"}, "capProviderId": null, "distance": null, "has_offers": false, "name": "American Deli", "longitude": -84.590442, "has_menu": false, "awards": null, "user_review_count": 0}, {"business_operation_status": 1, "rating": null, "neighborhood": null, "image": null, "scorecard": null, "featured": false, "sample_categories": "Restaurants, MasterCard, Visa", "public_id": "windy-city-grill-marietta", "id": 764935950, "votes": null, "tagline": null, "has_video": false, "website": "http://www.citysearch.com/profile/external/764935950/marietta_ga/windy_city_grill.html", "offers": null, "latitude": 34.048278, "politanName": "Atlanta, GA Metro ", "phone_number": "6784017735", "tags": [{"primary": false, "id": 11361, "name": "MasterCard"}, {"primary": false, "id": 11382, "name": "Visa"}, {"primary": true, "id": 1722, "name": "Restaurants"}], "fax_number": null, "expansion": {"count": null, "uri": null}, "impression_id": "000b000000281ec6a831144b2ea4d2ce99ea133c6c", "profile": "http://www.citysearch.com/profile/764935950/marietta_ga/windy_city_grill.html", "address": {"city": "Marietta", "state": "GA", "street": "4017 Canton Rd", "postal_code": "30066"}, "capProviderId": null, "distance": null, "has_offers": false, "name": "Windy City Grill", "longitude": -84.52851, "has_menu": false, "awards": null, "user_review_count": 0}, {"business_operation_status": 1, "rating": null, "neighborhood": null, "image": null, "scorecard": null, "featured": false, "sample_categories": "Restaurants, Traditional American, Carry Out", "public_id": "ihop-restaurant-atlanta-10", "id": 777628400, "votes": null, "tagline": null, "has_video": false, "website": null, "offers": null, "latitude": 33.857668, "politanName": "Atlanta, GA Metro ", "phone_number": "6786390600", "tags": [{"primary": false, "id": 11190, "name": "Traditional American"}, {"primary": false, "id": 11247, "name": "Carry Out"}, {"primary": true, "id": 1722, "name": "Restaurants"}], "fax_number": null, "expansion": {"count": null, "uri": null}, "impression_id": "000b0000003433e2891b2e414aa29b8e5b12e3ca36", "profile": "http://www.citysearch.com/profile/777628400/atlanta_ga/ihop_restaurant.html", "address": {"city": "Atlanta", "state": "GA", "street": "2255 Cumberland Pkwy Se # 15", "postal_code": "30339"}, "capProviderId": null, "distance": null, "has_offers": false, "name": "IHOP Restaurant", "longitude": -84.480627, "has_menu": false, "awards": null, "user_review_count": 0}, {"business_operation_status": 1, "rating": null, "neighborhood": null, "image": null, "scorecard": null, "featured": false, "sample_categories": "Restaurants", "public_id": "mocha-delites-marietta-2", "id": 777723340, "votes": null, "tagline": null, "has_video": false, "website": null, "offers": null, "latitude": 33.929888, "politanName": "Atlanta, GA Metro ", "phone_number": "7709568835", "tags": [{"primary": true, "id": 1722, "name": "Restaurants"}], "fax_number": null, "expansion": {"count": null, "uri": null}, "impression_id": "000b0000003e399111c23143fe87b21c2402929418", "profile": "http://www.citysearch.com/profile/777723340/marietta_ga/mocha_delites.html", "address": {"city": "Marietta", "state": "GA", "street": "2944 Chipmunk Trl Se", "postal_code": "30067"}, "capProviderId": null, "distance": null, "has_offers": false, "name": "Mocha Delites", "longitude": -84.472516, "has_menu": false, "awards": null, "user_review_count": 0}, {"business_operation_status": 1, "rating": null, "neighborhood": null, "image": null, "scorecard": null, "featured": false, "sample_categories": "Restaurants, Delis And Delicatessens, Sandwich Shops", "public_id": "my-friends-place-deli-marietta", "id": 682445750, "votes": null, "tagline": null, "has_video": false, "website": "http://www.citysearch.com/profile/external/682445750/marietta_ga/my_friend_s_place_deli.html", "offers": null, "latitude": 33.964261, "politanName": "Atlanta, GA Metro ", "phone_number": "7709733300", "tags": [{"primary": false, "id": 1727, "name": "Delis And Delicatessens"}, {"primary": false, "id": 1736, "name": "Sandwich Shops"}, {"primary": true, "id": 1722, "name": "Restaurants"}], "fax_number": null, "expansion": {"count": null, "uri": null}, "impression_id": "000b00000069df7f1accb54cd1864b9764b45b6f85", "profile": "http://www.citysearch.com/profile/682445750/marietta_ga/my_friend_s_place_deli.html", "address": {"city": "Marietta", "state": "GA", "street": "3423 Greenfield Dr", "postal_code": "30068"}, "capProviderId": null, "distance": null, "has_offers": false, "name": "My Friend's Place Deli", "longitude": -84.451189, "has_menu": false, "awards": null, "user_review_count": 0}, {"business_operation_status": 1, "rating": null, "neighborhood": null, "image": null, "scorecard": null, "featured": false, "sample_categories": "Ice Cream Parlors", "public_id": "jimmies-ice-cream-co-marietta", "id": 802518500, "votes": null, "tagline": null, "has_video": false, "website": null, "offers": null, "latitude": 34.013992, "politanName": "Atlanta, GA Metro ", "phone_number": "7706720051", "tags": [{"primary": true, "id": 1730, "name": "Ice Cream Parlors"}], "fax_number": null, "expansion": {"count": null, "uri": null}, "impression_id": "000b000000ba1e95844a034f70a3ddc5deca72caac", "profile": "http://www.citysearch.com/profile/802518500/marietta_ga/jimmie_s_ice_cream_co.html", "address": {"city": "Marietta", "state": "GA", "street": "2595 Sandy Plains Rd", "postal_code": "30066"}, "capProviderId": null, "distance": null, "has_offers": false, "name": "Jimmie's Ice Cream Co", "longitude": -84.495703, "has_menu": false, "awards": null, "user_review_count": 0}, {"business_operation_status": 1, "rating": null, "neighborhood": null, "image": null, "scorecard": null, "featured": false, "sample_categories": "Restaurants, Barbecue Restaurants", "public_id": "a-town-wings-austell", "id": 706970640, "votes": null, "tagline": null, "has_video": false, "website": null, "offers": null, "latitude": 33.856339, "politanName": "Atlanta, GA Metro ", "phone_number": "7709419460", "tags": [{"primary": false, "id": 1724, "name": "Barbecue Restaurants"}, {"primary": true, "id": 1722, "name": "Restaurants"}], "fax_number": null, "expansion": {"count": null, "uri": null}, "impression_id": "000b00000026a035cd3fdb4e378e74fd38e02063ea", "profile": "http://www.citysearch.com/profile/706970640/austell_ga/a_town_wings.html", "address": {"city": "Austell", "state": "GA", "street": "3999 Austell Rd # 1001", "postal_code": "30106"}, "capProviderId": null, "distance": null, "has_offers": false, "name": "A Town Wings", "longitude": -84.599753, "has_menu": false, "awards": null, "user_review_count": 0}, {"business_operation_status": 1, "rating": null, "neighborhood": null, "image": null, "scorecard": null, "featured": false, "sample_categories": "Restaurants", "public_id": "aramark-marietta-2", "id": 805946400, "votes": null, "tagline": null, "has_video": false, "website": null, "offers": null, "latitude": 33.984208, "politanName": "Atlanta, GA Metro ", "phone_number": "7705785577", "tags": [{"primary": true, "id": 1722, "name": "Restaurants"}], "fax_number": null, "expansion": {"count": null, "uri": null}, "impression_id": "000b000000074e954e2c3e4c399bff8f0b57a9ad8d", "profile": "http://www.citysearch.com/profile/805946400/marietta_ga/aramark.html", "address": {"city": "Marietta", "state": "GA", "street": "901 Sawyer Rd", "postal_code": "30062"}, "capProviderId": null, "distance": null, "has_offers": false, "name": "Aramark", "longitude": -84.529003, "has_menu": false, "awards": null, "user_review_count": 0}, {"business_operation_status": 1, "rating": null, "neighborhood": null, "image": null, "scorecard": null, "featured": false, "sample_categories": "Restaurants, Carry Out", "public_id": "zaxbys-smyrna-4", "id": 626121764, "votes": null, "tagline": null, "has_video": false, "website": null, "offers": null, "latitude": 33.879925, "politanName": "Atlanta, GA Metro ", "phone_number": "6788704000", "tags": [{"primary": false, "id": 11247, "name": "Carry Out"}, {"primary": true, "id": 1722, "name": "Restaurants"}], "fax_number": null, "expansion": {"count": null, "uri": null}, "impression_id": "000b000000631921b0d1bf4158a80b96455b10cd99", "profile": "http://www.citysearch.com/profile/626121764/smyrna_ga/zaxby_s.html", "address": {"city": "Smyrna", "state": "GA", "street": "1420 Spring Rd SE", "postal_code": "30080"}, "capProviderId": null, "distance": null, "has_offers": false, "name": "Zaxby's", "longitude": -84.51175, "has_menu": false, "awards": null, "user_review_count": 0}, {"business_operation_status": 1, "rating": null, "neighborhood": null, "image": null, "scorecard": null, "featured": false, "sample_categories": "Restaurants", "public_id": "all-atlanta-catering-marietta", "id": 732174150, "votes": null, "tagline": null, "has_video": false, "website": null, "offers": null, "latitude": 34.019875, "politanName": "Atlanta, GA Metro ", "phone_number": "6789780338", "tags": [{"primary": true, "id": 1722, "name": "Restaurants"}], "fax_number": null, "expansion": {"count": null, "uri": null}, "impression_id": "000b000000b2d1efa42c134dc0b110cbc2aa0ec7a0", "profile": "http://www.citysearch.com/profile/732174150/marietta_ga/all_atlanta_catering.html", "address": {"city": "Marietta", "state": "GA", "street": "2854 Water Wheel Ct NE", "postal_code": "30062"}, "capProviderId": null, "distance": null, "has_offers": false, "name": "All Atlanta Catering", "longitude": -84.471664, "has_menu": false, "awards": null, "user_review_count": 0}, {"business_operation_status": 1, "rating": null, "neighborhood": null, "image": null, "scorecard": null, "featured": false, "sample_categories": "Restaurants, Carry Out", "public_id": "arbys-marietta-16", "id": 764873620, "votes": null, "tagline": null, "has_video": false, "website": null, "offers": null, "latitude": 33.917209, "politanName": "Atlanta, GA Metro ", "phone_number": "7709338090", "tags": [{"primary": false, "id": 11247, "name": "Carry Out"}, {"primary": true, "id": 1722, "name": "Restaurants"}], "fax_number": null, "expansion": {"count": null, "uri": null}, "impression_id": "000b000000d6ea5dbb73554b22958d3c3d427667f7", "profile": "http://www.citysearch.com/profile/764873620/marietta_ga/arby_s.html", "address": {"city": "Marietta", "state": "GA", "street": "1421 Terrell Mill Rd SE", "postal_code": "30067"}, "capProviderId": null, "distance": null, "has_offers": false, "name": "Arby's", "longitude": -84.468004, "has_menu": false, "awards": null, "user_review_count": 0}, {"business_operation_status": 1, "rating": null, "neighborhood": null, "image": null, "scorecard": null, "featured": false, "sample_categories": "Restaurants, Bars & Pubs, Carry Out", "public_id": "chilis-grill-bar-marietta-4", "id": 764886130, "votes": null, "tagline": null, "has_video": false, "website": null, "offers": null, "latitude": 33.939526, "politanName": "Atlanta, GA Metro ", "phone_number": "7704230897", "tags": [{"primary": false, "id": 1686, "name": "Bars & Pubs"}, {"primary": false, "id": 11247, "name": "Carry Out"}, {"primary": true, "id": 1722, "name": "Restaurants"}], "fax_number": null, "expansion": {"count": null, "uri": null}, "impression_id": "000b000000f9cefedc12284b52a416d12fbdf3f01a", "profile": "http://www.citysearch.com/profile/764886130/marietta_ga/chili_s_grill_bar.html", "address": {"city": "Marietta", "state": "GA", "street": "555 Commerce Ave SE", "postal_code": "30067"}, "capProviderId": null, "distance": null, "has_offers": false, "name": "Chili's Grill & Bar", "longitude": -84.506501, "has_menu": false, "awards": null, "user_review_count": 0}, {"business_operation_status": 1, "rating": null, "neighborhood": null, "image": null, "scorecard": null, "featured": false, "sample_categories": "Restaurants, Barbecue Restaurants, Carry Out, Shop Online", "public_id": "famous-daves-smyrna-4", "id": 764909170, "votes": null, "tagline": null, "has_video": false, "website": null, "offers": null, "latitude": 33.864202, "politanName": "Atlanta, GA Metro ", "phone_number": "7709338998", "tags": [{"primary": false, "id": 1724, "name": "Barbecue Restaurants"}, {"primary": false, "id": 11247, "name": "Carry Out"}, {"primary": false, "id": 11375, "name": "Shop Online"}, {"primary": true, "id": 1722, "name": "Restaurants"}], "fax_number": null, "expansion": {"count": null, "uri": null}, "impression_id": "000b000000ab201d906f4d41afbe6284c7fa924b73", "profile": "http://www.citysearch.com/profile/764909170/smyrna_ga/famous_dave_s.html", "address": {"city": "Smyrna", "state": "GA", "street": "1935 Paces Ferry Rd SE", "postal_code": "30080"}, "capProviderId": null, "distance": null, "has_offers": false, "name": "Famous Dave's", "longitude": -84.493295, "has_menu": false, "awards": null, "user_review_count": 0}, {"business_operation_status": 1, "rating": null, "neighborhood": null, "image": null, "scorecard": null, "featured": false, "sample_categories": "Grocery Stores, Restaurants", "public_id": "royal-groceries-rstrnt-llc-marietta", "id": 764910880, "votes": null, "tagline": null, "has_video": false, "website": null, "offers": null, "latitude": 33.95073, "politanName": "Atlanta, GA Metro ", "phone_number": "7709738414", "tags": [{"primary": false, "id": 1722, "name": "Restaurants"}, {"primary": true, "id": 1713, "name": "Grocery Stores"}], "fax_number": null, "expansion": {"count": null, "uri": null}, "impression_id": "000b000000954f50090e2e464cb87d3ae3ae27d5d2", "profile": "http://www.citysearch.com/profile/764910880/marietta_ga/royal_groceries_rstrnt_llc.html", "address": {"city": "Marietta", "state": "GA", "street": "1392 Roswell Rd", "postal_code": "30062"}, "capProviderId": null, "distance": null, "has_offers": false, "name": "Royal Groceries & Rstrnt Llc", "longitude": -84.511253, "has_menu": false, "awards": null, "user_review_count": 0}, {"business_operation_status": 1, "rating": null, "neighborhood": null, "image": null, "scorecard": null, "featured": false, "sample_categories": "Restaurants, Pizza", "public_id": "pisanos-pizzeria-kennesaw", "id": 775204020, "votes": null, "tagline": null, "has_video": false, "website": null, "offers": null, "latitude": 34.02042, "politanName": "Atlanta, GA Metro ", "phone_number": "7709190518", "tags": [{"primary": false, "id": 11299, "name": "Pizza"}, {"primary": true, "id": 1722, "name": "Restaurants"}], "fax_number": null, "expansion": {"count": null, "uri": null}, "impression_id": "000b000000b1d73162f5644e94a7c6f19a7b424ef1", "profile": "http://www.citysearch.com/profile/775204020/kennesaw_ga/pisano_s_pizzeria.html", "address": {"city": "Kennesaw", "state": "GA", "street": "2740 Summers St NW", "postal_code": "30144"}, "capProviderId": null, "distance": null, "has_offers": false, "name": "Pisano's Pizzeria", "longitude": -84.614265, "has_menu": true, "awards": null, "user_review_count": 0}, {"business_operation_status": 1, "rating": null, "neighborhood": null, "image": null, "scorecard": null, "featured": false, "sample_categories": "Restaurants", "public_id": "concunis-restaurant-marietta", "id": 781241730, "votes": null, "tagline": null, "has_video": false, "website": null, "offers": null, "latitude": 33.907327, "politanName": "Atlanta, GA Metro ", "phone_number": "7704858225", "tags": [{"primary": true, "id": 1722, "name": "Restaurants"}], "fax_number": null, "expansion": {"count": null, "uri": null}, "impression_id": "000b0000008354cfb4253f4149be0f28036a338219", "profile": "http://www.citysearch.com/profile/781241730/marietta_ga/concunis_restaurant.html", "address": {"city": "Marietta", "state": "GA", "street": "1651 Powder Springs Rd Sw", "postal_code": "30064"}, "capProviderId": null, "distance": null, "has_offers": false, "name": "Concunis Restaurant", "longitude": -84.601215, "has_menu": false, "awards": null, "user_review_count": 0}, {"business_operation_status": 1, "rating": null, "neighborhood": null, "image": null, "scorecard": null, "featured": false, "sample_categories": "Restaurants, Traditional American", "public_id": "all-american-coney-island-dallas", "id": 781204740, "votes": null, "tagline": null, "has_video": false, "website": null, "offers": null, "latitude": 34.012752, "politanName": "Atlanta, GA Metro ", "phone_number": "6785058920", "tags": [{"primary": false, "id": 11190, "name": "Traditional American"}, {"primary": true, "id": 1722, "name": "Restaurants"}], "fax_number": null, "expansion": {"count": null, "uri": null}, "impression_id": "000b000000eff10febb9234e94afffb99853fc54a6", "profile": "http://www.citysearch.com/profile/781204740/dallas_ga/all_american_coney_island.html", "address": {"city": "Dallas", "state": "GA", "street": "8879 Dallas Acworth Hwy", "postal_code": "30132"}, "capProviderId": null, "distance": null, "has_offers": false, "name": "All American Coney Island", "longitude": -84.754548, "has_menu": false, "awards": null, "user_review_count": 0}, {"business_operation_status": 1, "rating": null, "neighborhood": null, "image": null, "scorecard": null, "featured": false, "sample_categories": "Restaurants, Mexican", "public_id": "el-taco-azteco-bar-grill-marietta", "id": 779707060, "votes": null, "tagline": null, "has_video": false, "website": null, "offers": null, "latitude": 33.976739, "politanName": "Atlanta, GA Metro ", "phone_number": "6782752349", "tags": [{"primary": false, "id": 11208, "name": "Mexican"}, {"primary": true, "id": 1722, "name": "Restaurants"}], "fax_number": null, "expansion": {"count": null, "uri": null}, "impression_id": "000b0000006a240efdbc8f4a3385bf882f4e1760d5", "profile": "http://www.citysearch.com/profile/779707060/marietta_ga/el_taco_azteco_bar_grill.html", "address": {"city": "Marietta", "state": "GA", "street": "1050 E Piedmont Rd", "postal_code": "30062"}, "capProviderId": null, "distance": null, "has_offers": false, "name": "El Taco Azteco Bar & Grill", "longitude": -84.479676, "has_menu": false, "awards": null, "user_review_count": 0}, {"business_operation_status": 1, "rating": null, "neighborhood": null, "image": null, "scorecard": null, "featured": false, "sample_categories": "Restaurants, Seafood", "public_id": "catfish-jims-seafood-chicken-kennesaw", "id": 779708410, "votes": null, "tagline": null, "has_video": false, "website": null, "offers": null, "latitude": 34.00159, "politanName": "Atlanta, GA Metro ", "phone_number": "6782908808", "tags": [{"primary": false, "id": 11228, "name": "Seafood"}, {"primary": true, "id": 1722, "name": "Restaurants"}], "fax_number": null, "expansion": {"count": null, "uri": null}, "impression_id": "000b00000077cd652badf04466a2cf9dfa65812942", "profile": "http://www.citysearch.com/profile/779708410/kennesaw_ga/catfish_jim_s_seafood_chicken.html", "address": {"city": "Kennesaw", "state": "GA", "street": "1997 Cobb Pkwy NW", "postal_code": "30152"}, "capProviderId": null, "distance": null, "has_offers": false, "name": "Catfish Jim's Seafood Chicken", "longitude": -84.597118, "has_menu": false, "awards": null, "user_review_count": 3}, {"business_operation_status": 0, "rating": null, "neighborhood": null, "image": null, "scorecard": null, "featured": false, "sample_categories": "Restaurants, Delis And Delicatessens, Sandwich Shops, Carry Out", "public_id": "quiznos-atlanta-32", "id": 764855160, "votes": null, "tagline": null, "has_video": false, "website": null, "offers": null, "latitude": 33.917033, "politanName": "Atlanta, GA Metro ", "phone_number": "7709534495", "tags": [{"primary": false, "id": 1727, "name": "Delis And Delicatessens"}, {"primary": false, "id": 1736, "name": "Sandwich Shops"}, {"primary": false, "id": 11247, "name": "Carry Out"}, {"primary": true, "id": 1722, "name": "Restaurants"}], "fax_number": null, "expansion": {"count": null, "uri": null}, "impression_id": "000b000000bfe5894770fa404c93537c5c4409b1b1", "profile": "http://www.citysearch.com/profile/764855160/atlanta_ga/quiznos.html", "address": {"city": "Atlanta", "state": "GA", "street": "5890 Winterthur Rdg NW", "postal_code": "30328"}, "capProviderId": null, "distance": null, "has_offers": false, "name": "Quiznos", "longitude": -84.434794, "has_menu": true, "awards": null, "user_review_count": 0}, {"business_operation_status": 1, "rating": null, "neighborhood": null, "image": null, "scorecard": null, "featured": false, "sample_categories": "Restaurants, Delis And Delicatessens, Sandwich Shops, Carry Out, Shop Online", "public_id": "quiznos-smyrna-8", "id": 764861640, "votes": null, "tagline": null, "has_video": false, "website": "http://www.citysearch.com/profile/external/764861640/smyrna_ga/quiznos.html", "offers": null, "latitude": 33.893328, "politanName": "Atlanta, GA Metro ", "phone_number": "7709840033", "tags": [{"primary": false, "id": 1727, "name": "Delis And Delicatessens"}, {"primary": false, "id": 1736, "name": "Sandwich Shops"}, {"primary": false, "id": 11247, "name": "Carry Out"}, {"primary": false, "id": 11375, "name": "Shop Online"}, {"primary": true, "id": 1722, "name": "Restaurants"}], "fax_number": null, "expansion": {"count": null, "uri": null}, "impression_id": "000b000000e99a387fefd44e23abd573461b7d714f", "profile": "http://www.citysearch.com/profile/764861640/smyrna_ga/quiznos.html", "address": {"city": "Smyrna", "state": "GA", "street": "2415 Cobb Pkwy SE", "postal_code": "30080"}, "capProviderId": null, "distance": null, "has_offers": false, "name": "Quiznos", "longitude": -84.478533, "has_menu": true, "awards": null, "user_review_count": 3}, {"business_operation_status": 1, "rating": null, "neighborhood": null, "image": null, "scorecard": null, "featured": false, "sample_categories": "Restaurants, Carry Out, Pizza", "public_id": "papa-johns-pizza-marietta-16", "id": 764880810, "votes": null, "tagline": null, "has_video": false, "website": null, "offers": null, "latitude": 33.922655, "politanName": "Atlanta, GA Metro ", "phone_number": "4049848282", "tags": [{"primary": false, "id": 11247, "name": "Carry Out"}, {"primary": false, "id": 11299, "name": "Pizza"}, {"primary": true, "id": 1722, "name": "Restaurants"}], "fax_number": null, "expansion": {"count": null, "uri": null}, "impression_id": "000b00000020dd4998c929414687ed9d1f253858d5", "profile": "http://www.citysearch.com/profile/764880810/marietta_ga/papa_john_s_pizza.html", "address": {"city": "Marietta", "state": "GA", "street": "2556 Delk Rd SE", "postal_code": "30067"}, "capProviderId": null, "distance": null, "has_offers": false, "name": "Papa John's Pizza", "longitude": -84.480194, "has_menu": false, "awards": null, "user_review_count": 0}, {"business_operation_status": 1, "rating": null, "neighborhood": null, "image": null, "scorecard": null, "featured": false, "sample_categories": "Restaurants", "public_id": "mablton-cafe-mableton", "id": 682238240, "votes": null, "tagline": null, "has_video": false, "website": null, "offers": null, "latitude": 33.817964, "politanName": "Atlanta, GA Metro ", "phone_number": "7709412233", "tags": [{"primary": true, "id": 1722, "name": "Restaurants"}], "fax_number": null, "expansion": {"count": null, "uri": null}, "impression_id": "000b0000002b907444b68d4d05825d1f5276e31fd9", "profile": "http://www.citysearch.com/profile/682238240/mableton_ga/mablton_cafe.html", "address": {"city": "Mableton", "state": "GA", "street": "5590 Mableton Pkwy Sw # 102", "postal_code": "30126"}, "capProviderId": null, "distance": null, "has_offers": false, "name": "Mablton Cafe", "longitude": -84.576041, "has_menu": false, "awards": null, "user_review_count": 0}, {"business_operation_status": 1, "rating": null, "neighborhood": null, "image": null, "scorecard": null, "featured": false, "sample_categories": "Restaurants, Traditional American, Carry Out, American Express, Discover", "public_id": "arbys-austell", "id": 682522910, "votes": null, "tagline": null, "has_video": false, "website": "http://www.citysearch.com/profile/external/682522910/austell_ga/arby_s.html", "offers": null, "latitude": 33.802759, "politanName": "Atlanta, GA Metro ", "phone_number": "7707390339", "tags": [{"primary": false, "id": 11190, "name": "Traditional American"}, {"primary": false, "id": 11247, "name": "Carry Out"}, {"primary": false, "id": 11333, "name": "American Express"}, {"primary": false, "id": 11349, "name": "Discover"}, {"primary": false, "id": 11361, "name": "MasterCard"}, {"primary": false, "id": 11382, "name": "Visa"}, {"primary": true, "id": 1722, "name": "Restaurants"}], "fax_number": null, "expansion": {"count": null, "uri": null}, "impression_id": "000b000000f2d55cea486f45b3b2fdbc77d0af1838", "profile": "http://www.citysearch.com/profile/682522910/austell_ga/arby_s.html", "address": {"city": "Austell", "state": "GA", "street": "3060 Bankhead Hwy", "postal_code": "30168"}, "capProviderId": null, "distance": null, "has_offers": false, "name": "Arby's", "longitude": -84.638393, "has_menu": true, "awards": null, "user_review_count": 0}, {"business_operation_status": 1, "rating": null, "neighborhood": null, "image": null, "scorecard": null, "featured": false, "sample_categories": "Restaurants, Hamburgers, Shop Online", "public_id": "burgerfi-kennesaw-kennesaw", "id": 790773140, "votes": null, "tagline": null, "has_video": false, "website": "http://www.citysearch.com/profile/external/790773140/kennesaw_ga/burgerfi.html", "offers": null, "latitude": 34.023114, "politanName": "Atlanta, GA Metro ", "phone_number": "7706352800", "tags": [{"primary": false, "id": 11270, "name": "Hamburgers"}, {"primary": false, "id": 11375, "name": "Shop Online"}, {"primary": true, "id": 1722, "name": "Restaurants"}], "fax_number": null, "expansion": {"count": null, "uri": null}, "impression_id": "000b0000001f253fb820af4ecba639a4a0667738ea", "profile": "http://www.citysearch.com/profile/790773140/kennesaw_ga/burgerfi.html", "address": {"city": "Kennesaw", "state": "GA", "street": "2844 S Main St NW", "postal_code": "30144"}, "capProviderId": null, "distance": null, "has_offers": false, "name": "BurgerFi", "longitude": -84.615261, "has_menu": false, "awards": null, "user_review_count": 0}, {"business_operation_status": 1, "rating": null, "neighborhood": null, "image": null, "scorecard": null, "featured": false, "sample_categories": "Restaurants", "public_id": "doc-sheys-asian-kitchen-atlanta", "id": 807684150, "votes": null, "tagline": null, "has_video": false, "website": null, "offers": null, "latitude": 33.879591, "politanName": "Atlanta, GA Metro ", "phone_number": "7703339657", "tags": [{"primary": true, "id": 1722, "name": "Restaurants"}], "fax_number": null, "expansion": {"count": null, "uri": null}, "impression_id": "000b000000bc0d799f94714037938dd441411de199", "profile": "http://www.citysearch.com/profile/807684150/atlanta_ga/doc_sheys_asian_kitchen.html", "address": {"city": "Atlanta", "state": "GA", "street": "1675 Cumberland Mall SE", "postal_code": "30339"}, "capProviderId": null, "distance": null, "has_offers": false, "name": "Doc Sheys Asian Kitchen", "longitude": -84.471261, "has_menu": false, "awards": null, "user_review_count": 0}, {"business_operation_status": 1, "rating": null, "neighborhood": null, "image": null, "scorecard": null, "featured": false, "sample_categories": "Barbecue Restaurants", "public_id": "kennesaw-bar-b-que-smyrna", "id": 813263860, "votes": null, "tagline": null, "has_video": false, "website": null, "offers": null, "latitude": 33.871707, "politanName": "Atlanta, GA Metro ", "phone_number": "7704226193", "tags": [{"primary": true, "id": 1724, "name": "Barbecue Restaurants"}], "fax_number": null, "expansion": {"count": null, "uri": null}, "impression_id": "000b000000d0913de1e4fb4c08912592cf0b079624", "profile": "http://www.citysearch.com/profile/813263860/smyrna_ga/kennesaw_bar_b_que.html", "address": {"city": "Smyrna", "state": "GA", "street": "3363 Landrum Dr SE", "postal_code": "30082"}, "capProviderId": null, "distance": null, "has_offers": false, "name": "Kennesaw Bar B Que", "longitude": -84.55291, "has_menu": false, "awards": null, "user_review_count": 0}, {"business_operation_status": 1, "rating": null, "neighborhood": null, "image": null, "scorecard": null, "featured": false, "sample_categories": "Restaurants", "public_id": "international-restaurant-management-kennesaw", "id": 806008710, "votes": null, "tagline": null, "has_video": false, "website": null, "offers": null, "latitude": 33.984991, "politanName": "Atlanta, GA Metro ", "phone_number": "7702180369", "tags": [{"primary": true, "id": 1722, "name": "Restaurants"}], "fax_number": null, "expansion": {"count": null, "uri": null}, "impression_id": "000b0000001861bd916dc84b9a98a1cd339a650ce1", "profile": "http://www.citysearch.com/profile/806008710/kennesaw_ga/international_restaurant_management.html", "address": {"city": "Kennesaw", "state": "GA", "street": "3409 Paisley Trce NW", "postal_code": "30152"}, "capProviderId": null, "distance": null, "has_offers": false, "name": "International Restaurant Management", "longitude": -84.648405, "has_menu": false, "awards": null, "user_review_count": 0}, {"business_operation_status": 1, "rating": null, "neighborhood": null, "image": null, "scorecard": null, "featured": false, "sample_categories": "Restaurants", "public_id": "cafe-1600-atlanta", "id": 805525410, "votes": null, "tagline": null, "has_video": false, "website": null, "offers": null, "latitude": 33.900846, "politanName": "Atlanta, GA Metro ", "phone_number": "7709841680", "tags": [{"primary": true, "id": 1722, "name": "Restaurants"}], "fax_number": null, "expansion": {"count": null, "uri": null}, "impression_id": "000b0000007ebd72b5de794115a7f610166440acfd", "profile": "http://www.citysearch.com/profile/805525410/atlanta_ga/cafe_1600.html", "address": {"city": "Atlanta", "state": "GA", "street": "1600 Parkwood Cir SE # 140", "postal_code": "30339"}, "capProviderId": null, "distance": null, "has_offers": false, "name": "Cafe 1600", "longitude": -84.458903, "has_menu": false, "awards": null, "user_review_count": 0}, {"business_operation_status": 1, "rating": null, "neighborhood": null, "image": null, "scorecard": null, "featured": false, "sample_categories": "Restaurants, Asian, Chinese", "public_id": "hibachi-buffet-marietta", "id": 713488530, "votes": null, "tagline": null, "has_video": false, "website": "http://www.citysearch.com/profile/external/713488530/marietta_ga/hibachi_buffet.html", "offers": null, "latitude": 33.968527, "politanName": "Atlanta, GA Metro ", "phone_number": "7703218202", "tags": [{"primary": false, "id": 11235, "name": "Asian"}, {"primary": false, "id": 11252, "name": "Chinese"}, {"primary": true, "id": 1722, "name": "Restaurants"}], "fax_number": null, "expansion": {"count": null, "uri": null}, "impression_id": "000b000000f3317f007e3d45c2be5115477f86e221", "profile": "http://www.citysearch.com/profile/713488530/marietta_ga/hibachi_buffet.html", "address": {"city": "Marietta", "state": "GA", "street": "2145 Roswell Rd # 260", "postal_code": "30062"}, "capProviderId": null, "distance": null, "has_offers": false, "name": "Hibachi Buffet", "longitude": -84.491622, "has_menu": false, "awards": null, "user_review_count": 0}, {"business_operation_status": 1, "rating": 6.0, "neighborhood": null, "image": null, "scorecard": null, "featured": false, "sample_categories": "Restaurants, Diners", "public_id": "ogas-diners-marietta", "id": 2906488, "votes": null, "tagline": null, "has_video": false, "website": null, "offers": null, "latitude": 33.936031, "politanName": "Atlanta, GA Metro ", "phone_number": "7704230098", "tags": [{"primary": false, "id": 1732, "name": "Diners"}, {"primary": true, "id": 1722, "name": "Restaurants"}], "fax_number": null, "expansion": {"count": null, "uri": null}, "impression_id": "000b0000001115f69ff28d4253ae6cc078936ce638", "profile": "http://www.citysearch.com/profile/2906488/marietta_ga/oga_s_diners.html", "address": {"city": "Marietta", "state": "GA", "street": "690 Powder Springs St SW", "postal_code": "30064"}, "capProviderId": null, "distance": null, "has_offers": false, "name": "Oga's Diners", "longitude": -84.556041, "has_menu": false, "awards": null, "user_review_count": 1}, {"business_operation_status": 1, "rating": 7.0, "neighborhood": null, "image": null, "scorecard": null, "featured": false, "sample_categories": "Restaurants, Chinese", "public_id": "mr-wok-chinese-delivery-marietta", "id": 2908288, "votes": null, "tagline": null, "has_video": false, "website": null, "offers": null, "latitude": 33.993514, "politanName": "Atlanta, GA Metro ", "phone_number": "7705141477", "tags": [{"primary": false, "id": 11252, "name": "Chinese"}, {"primary": true, "id": 1722, "name": "Restaurants"}], "fax_number": null, "expansion": {"count": null, "uri": null}, "impression_id": "000b00000076b88e7c0bfb4c389823be426a6404cc", "profile": "http://www.citysearch.com/profile/2908288/marietta_ga/mr_wok_chinese_delivery.html", "address": {"city": "Marietta", "state": "GA", "street": "1750 Bells Ferry Rd Ste B", "postal_code": "30066"}, "capProviderId": null, "distance": null, "has_offers": false, "name": "Mr Wok Chinese Delivery", "longitude": -84.549161, "has_menu": true, "awards": null, "user_review_count": 4}, {"business_operation_status": 1, "rating": 6.0, "neighborhood": null, "image": null, "scorecard": null, "featured": false, "sample_categories": "Restaurants, Asian", "public_id": "bamboo-garden-smyrna", "id": 2922985, "votes": null, "tagline": null, "has_video": false, "website": null, "offers": null, "latitude": 33.873647, "politanName": "Atlanta, GA Metro ", "phone_number": "7704325832", "tags": [{"primary": false, "id": 11235, "name": "Asian"}, {"primary": true, "id": 1722, "name": "Restaurants"}], "fax_number": null, "expansion": {"count": null, "uri": null}, "impression_id": "000b000000938e7ebc8fc0483287055b4217144ef0", "profile": "http://www.citysearch.com/profile/2922985/smyrna_ga/bamboo_garden.html", "address": {"city": "Smyrna", "state": "GA", "street": "3240 S Cobb Dr SE Ste H", "postal_code": "30080"}, "capProviderId": null, "distance": null, "has_offers": false, "name": "Bamboo Garden", "longitude": -84.530458, "has_menu": true, "awards": null, "user_review_count": 1}, {"business_operation_status": 1, "rating": null, "neighborhood": null, "image": null, "scorecard": null, "featured": false, "sample_categories": "Ice Cream Parlors", "public_id": "brusters-real-ice-cream-smyrna", "id": 811610290, "votes": null, "tagline": null, "has_video": false, "website": "http://www.citysearch.com/profile/external/811610290/smyrna_ga/bruster_s_real_ice_cream.html", "offers": null, "latitude": 33.845826, "politanName": "Atlanta, GA Metro ", "phone_number": "6783050245", "tags": [{"primary": true, "id": 1730, "name": "Ice Cream Parlors"}], "fax_number": null, "expansion": {"count": null, "uri": null}, "impression_id": "000b000000e27c6e442daa4583bfd93a701307c652", "profile": "http://www.citysearch.com/profile/811610290/smyrna_ga/bruster_s_real_ice_cream.html", "address": {"city": "Smyrna", "state": "GA", "street": "4479 S Cobb Dr SE", "postal_code": "30080"}, "capProviderId": null, "distance": null, "has_offers": false, "name": "Bruster's Real Ice Cream", "longitude": -84.502491, "has_menu": true, "awards": null, "user_review_count": 0}, {"business_operation_status": 1, "rating": null, "neighborhood": null, "image": null, "scorecard": null, "featured": false, "sample_categories": "Restaurants", "public_id": "new-china-express-inc-marietta", "id": 812363050, "votes": null, "tagline": null, "has_video": false, "website": null, "offers": null, "latitude": 33.890207, "politanName": "Atlanta, GA Metro ", "phone_number": "7704352211", "tags": [{"primary": true, "id": 1722, "name": "Restaurants"}], "fax_number": null, "expansion": {"count": null, "uri": null}, "impression_id": "000b0000007a53f6c835434f0b9f36859ac94c86b8", "profile": "http://www.citysearch.com/profile/812363050/marietta_ga/new_china_express_inc.html", "address": {"city": "Marietta", "state": "GA", "street": "2561 Austell Rd SW", "postal_code": "30008"}, "capProviderId": null, "distance": null, "has_offers": false, "name": "New China Express Inc", "longitude": -84.579023, "has_menu": true, "awards": null, "user_review_count": 0}, {"business_operation_status": 0, "rating": null, "neighborhood": null, "image": null, "scorecard": null, "featured": false, "sample_categories": "Ice Cream Parlors", "public_id": "clearview-ventures-kennesaw", "id": 732172070, "votes": null, "tagline": null, "has_video": false, "website": null, "offers": null, "latitude": 33.976849, "politanName": "Atlanta, GA Metro ", "phone_number": "7706178112", "tags": [{"primary": true, "id": 1730, "name": "Ice Cream Parlors"}], "fax_number": null, "expansion": {"count": null, "uri": null}, "impression_id": "000b0000007fa296a6e0044acaa280e270d72b3278", "profile": "http://www.citysearch.com/profile/732172070/kennesaw_ga/clearview_ventures.html", "address": {"city": "Kennesaw", "state": "GA", "street": "985 Frog Leap Trl NW", "postal_code": "30152"}, "capProviderId": null, "distance": null, "has_offers": false, "name": "Clearview Ventures", "longitude": -84.607323, "has_menu": false, "awards": null, "user_review_count": 0}, {"business_operation_status": 1, "rating": null, "neighborhood": null, "image": null, "scorecard": null, "featured": false, "sample_categories": "Restaurants", "public_id": "g-a-mex-marietta", "id": 837455650, "votes": null, "tagline": null, "has_video": false, "website": null, "offers": null, "latitude": 33.954748, "politanName": "Atlanta, GA Metro ", "phone_number": "6783540331", "tags": [{"primary": true, "id": 1722, "name": "Restaurants"}], "fax_number": null, "expansion": {"count": null, "uri": null}, "impression_id": "000b00000077b977d4155e423884faba261f412f0c", "profile": "http://www.citysearch.com/profile/837455650/marietta_ga/g_a_mex.html", "address": {"city": "Marietta", "state": "GA", "street": "3636 Dallas Hwy SW", "postal_code": "30064"}, "capProviderId": null, "distance": null, "has_offers": false, "name": "G A Mex", "longitude": -84.657951, "has_menu": false, "awards": null, "user_review_count": 0}, {"business_operation_status": 1, "rating": null, "neighborhood": null, "image": null, "scorecard": null, "featured": false, "sample_categories": "Luaus", "public_id": "po-folks-restaurant-smyrna", "id": 817948960, "votes": null, "tagline": null, "has_video": false, "website": null, "offers": null, "latitude": 33.882766, "politanName": "Atlanta, GA Metro ", "phone_number": "7703197166", "tags": [{"primary": true, "id": 11285, "name": "Luaus"}], "fax_number": null, "expansion": {"count": null, "uri": null}, "impression_id": "000b0000002a6ce4ca2bdf4c0c8bc1d0469be64550", "profile": "http://www.citysearch.com/profile/817948960/smyrna_ga/po_folks_restaurant.html", "address": {"city": "Smyrna", "state": "GA", "street": "2590 Spring Rd SE", "postal_code": "30080"}, "capProviderId": null, "distance": null, "has_offers": false, "name": "PO Folks Restaurant", "longitude": -84.478149, "has_menu": false, "awards": null, "user_review_count": 0}, {"business_operation_status": 1, "rating": null, "neighborhood": null, "image": null, "scorecard": null, "featured": false, "sample_categories": "Restaurants, Pizza, Carry Out", "public_id": "hungry-howies-pizza-smyrna", "id": 838599720, "votes": null, "tagline": null, "has_video": false, "website": "http://www.citysearch.com/profile/external/838599720/smyrna_ga/hungry_howie_s_pizza.html", "offers": null, "latitude": 33.884889, "politanName": "Atlanta, GA Metro ", "phone_number": "6783091112", "tags": [{"primary": false, "id": 1722, "name": "Restaurants"}, {"primary": false, "id": 11247, "name": "Carry Out"}, {"primary": true, "id": 11299, "name": "Pizza"}], "fax_number": null, "expansion": {"count": null, "uri": null}, "impression_id": "000b000000c91521e8b15d4c4e80b2db8b90273ff4", "profile": "http://www.citysearch.com/profile/838599720/smyrna_ga/hungry_howie_s_pizza.html", "address": {"city": "Smyrna", "state": "GA", "street": "400 Village Green Cir SE", "postal_code": "30080"}, "capProviderId": null, "distance": null, "has_offers": false, "name": "Hungry Howie's Pizza", "longitude": -84.516415, "has_menu": false, "awards": null, "user_review_count": 0}, {"business_operation_status": 1, "rating": null, "neighborhood": null, "image": null, "scorecard": null, "featured": false, "sample_categories": "Restaurants, Carry Out", "public_id": "zaxbys-smyrna-4", "id": 625332414, "votes": null, "tagline": null, "has_video": false, "website": null, "offers": null, "latitude": 33.879925, "politanName": "Atlanta, GA Metro ", "phone_number": "6788704000", "tags": [{"primary": false, "id": 11247, "name": "Carry Out"}, {"primary": true, "id": 1722, "name": "Restaurants"}], "fax_number": null, "expansion": {"count": null, "uri": null}, "impression_id": "000b0000009c38b7db41e84f2e8fc8049da4d83b2f", "profile": "http://www.citysearch.com/profile/625332414/smyrna_ga/zaxby_s.html", "address": {"city": "Smyrna", "state": "GA", "street": "1420 Spring Rd SE", "postal_code": "30080"}, "capProviderId": null, "distance": null, "has_offers": false, "name": "Zaxby's", "longitude": -84.51175, "has_menu": false, "awards": null, "user_review_count": 0}, {"business_operation_status": 1, "rating": null, "neighborhood": null, "image": null, "scorecard": null, "featured": false, "sample_categories": "Restaurants", "public_id": "pit-marietta", "id": 751310700, "votes": null, "tagline": null, "has_video": false, "website": null, "offers": null, "latitude": 33.908297, "politanName": "Atlanta, GA Metro ", "phone_number": "7706272634", "tags": [{"primary": true, "id": 1722, "name": "Restaurants"}], "fax_number": null, "expansion": {"count": null, "uri": null}, "impression_id": "000b00000090ed92d7a7a1447381e7073267886128", "profile": "http://www.citysearch.com/profile/751310700/marietta_ga/pit.html", "address": {"city": "Marietta", "state": "GA", "street": "1854 Terrell Mill Rd SE # 105", "postal_code": "30067"}, "capProviderId": null, "distance": null, "has_offers": false, "name": "Pit", "longitude": -84.487916, "has_menu": false, "awards": null, "user_review_count": 0}, {"business_operation_status": 1, "rating": null, "neighborhood": null, "image": null, "scorecard": null, "featured": false, "sample_categories": "Restaurants", "public_id": "farmers-basket-kennesaw", "id": 753236330, "votes": null, "tagline": null, "has_video": false, "website": null, "offers": null, "latitude": 34.019128, "politanName": "Atlanta, GA Metro ", "phone_number": "7707947442", "tags": [{"primary": true, "id": 1722, "name": "Restaurants"}], "fax_number": null, "expansion": {"count": null, "uri": null}, "impression_id": "000b00000066048a0290014946a3ff2ba64e4797eb", "profile": "http://www.citysearch.com/profile/753236330/kennesaw_ga/farmers_basket.html", "address": {"city": "Kennesaw", "state": "GA", "street": "400 Ernest W Barrett Pkwy NW", "postal_code": "30144"}, "capProviderId": null, "distance": null, "has_offers": false, "name": "Farmers Basket", "longitude": -84.563608, "has_menu": false, "awards": null, "user_review_count": 0}, {"business_operation_status": 1, "rating": null, "neighborhood": null, "image": null, "scorecard": null, "featured": false, "sample_categories": "Coffeehouses", "public_id": "ellianos-coffee-co-marietta", "id": 732158430, "votes": null, "tagline": null, "has_video": false, "website": null, "offers": null, "latitude": 33.920792, "politanName": "Atlanta, GA Metro ", "phone_number": "7709567770", "tags": [{"primary": true, "id": 1726, "name": "Coffeehouses"}], "fax_number": null, "expansion": {"count": null, "uri": null}, "impression_id": "000b00000020384dd75ebd45f9a843c39fe3fd9b90", "profile": "http://www.citysearch.com/profile/732158430/marietta_ga/elliano_s_coffee_co.html", "address": {"city": "Marietta", "state": "GA", "street": "1270 Powers Ferry Rd SE", "postal_code": "30067"}, "capProviderId": null, "distance": null, "has_offers": false, "name": "Elliano's Coffee Co", "longitude": -84.467912, "has_menu": false, "awards": null, "user_review_count": 0}, {"business_operation_status": 1, "rating": null, "neighborhood": null, "image": null, "scorecard": null, "featured": false, "sample_categories": "Coffee & Tea Shops, Tea Room", "public_id": "teavana-kennesaw", "id": 762806630, "votes": null, "tagline": null, "has_video": false, "website": "http://www.citysearch.com/profile/external/762806630/kennesaw_ga/teavana.html", "offers": null, "latitude": 34.019128, "politanName": "Atlanta, GA Metro ", "phone_number": "7704208676", "tags": [{"primary": false, "id": 11318, "name": "Tea Room"}, {"primary": true, "id": 1711, "name": "Coffee & Tea Shops"}], "fax_number": null, "expansion": {"count": null, "uri": null}, "impression_id": "000b00000013cce3e003b2446fab1a3182316e134e", "profile": "http://www.citysearch.com/profile/762806630/kennesaw_ga/teavana.html", "address": {"city": "Kennesaw", "state": "GA", "street": "400 Ernest W Barrett Pkwy NW", "postal_code": "30144"}, "capProviderId": null, "distance": null, "has_offers": false, "name": "Teavana", "longitude": -84.563608, "has_menu": false, "awards": null, "user_review_count": 1}, {"business_operation_status": 1, "rating": null, "neighborhood": null, "image": null, "scorecard": null, "featured": false, "sample_categories": "Restaurants, Delis And Delicatessens, Sandwich Shops, Carry Out, American Express", "public_id": "subway-dobbins", "id": 764859160, "votes": null, "tagline": null, "has_video": false, "website": "http://www.citysearch.com/profile/external/764859160/dobbins_afb_ga/subway.html", "offers": null, "latitude": 33.91719, "politanName": "Atlanta, GA Metro ", "phone_number": "7704259031", "tags": [{"primary": false, "id": 1727, "name": "Delis And Delicatessens"}, {"primary": false, "id": 1736, "name": "Sandwich Shops"}, {"primary": false, "id": 11247, "name": "Carry Out"}, {"primary": false, "id": 11333, "name": "American Express"}, {"primary": false, "id": 11349, "name": "Discover"}, {"primary": false, "id": 11361, "name": "MasterCard"}, {"primary": false, "id": 11382, "name": "Visa"}, {"primary": true, "id": 1722, "name": "Restaurants"}], "fax_number": null, "expansion": {"count": null, "uri": null}, "impression_id": "000b00000043135046bf2347dfa22f6ee2979b2ee3", "profile": "http://www.citysearch.com/profile/764859160/dobbins_afb_ga/subway.html", "address": {"city": "Dobbins Afb", "state": "GA", "street": "Industrial Blvd # 530", "postal_code": "30069"}, "capProviderId": null, "distance": null, "has_offers": false, "name": "SUBWAY", "longitude": -84.514354, "has_menu": false, "awards": null, "user_review_count": 0}, {"business_operation_status": 1, "rating": null, "neighborhood": null, "image": null, "scorecard": null, "featured": false, "sample_categories": "Restaurants, Pizza", "public_id": "pizza-plus-smyrna", "id": 764885620, "votes": null, "tagline": null, "has_video": false, "website": null, "offers": null, "latitude": 33.890233, "politanName": "Atlanta, GA Metro ", "phone_number": "7704338006", "tags": [{"primary": false, "id": 11299, "name": "Pizza"}, {"primary": true, "id": 1722, "name": "Restaurants"}], "fax_number": null, "expansion": {"count": null, "uri": null}, "impression_id": "000b00000081f98890735f40619b9d0c677c4b1774", "profile": "http://www.citysearch.com/profile/764885620/smyrna_ga/pizza_plus.html", "address": {"city": "Smyrna", "state": "GA", "street": "2539 Old Concord Rd SE", "postal_code": "30082"}, "capProviderId": null, "distance": null, "has_offers": false, "name": "Pizza Plus", "longitude": -84.540188, "has_menu": true, "awards": null, "user_review_count": 0}, {"business_operation_status": 1, "rating": null, "neighborhood": null, "image": null, "scorecard": null, "featured": false, "sample_categories": "Restaurants, Bakeries", "public_id": "cest-si-bon-pastry-rstrnt-smyrna", "id": 764894530, "votes": null, "tagline": null, "has_video": false, "website": null, "offers": null, "latitude": 33.89429, "politanName": "Atlanta, GA Metro ", "phone_number": "7703198875", "tags": [{"primary": false, "id": 1685, "name": "Bakeries"}, {"primary": true, "id": 1722, "name": "Restaurants"}], "fax_number": null, "expansion": {"count": null, "uri": null}, "impression_id": "000b000000c49e149e1153498b9592bd15a715099a", "profile": "http://www.citysearch.com/profile/764894530/smyrna_ga/c_est_si_bon_pastry_rstrnt.html", "address": {"city": "Smyrna", "state": "GA", "street": "560 Windy Hill Rd SE", "postal_code": "30080"}, "capProviderId": null, "distance": null, "has_offers": false, "name": "C'Est Si Bon Pastry & Rstrnt", "longitude": -84.536945, "has_menu": false, "awards": null, "user_review_count": 0}, {"business_operation_status": 1, "rating": null, "neighborhood": null, "image": null, "scorecard": null, "featured": false, "sample_categories": "Restaurants, Barbecue Restaurants", "public_id": "reds-backwoods-barbecue-kennesaw", "id": 775234200, "votes": null, "tagline": null, "has_video": false, "website": null, "offers": null, "latitude": 33.999345, "politanName": "Atlanta, GA Metro ", "phone_number": "6782909055", "tags": [{"primary": false, "id": 1724, "name": "Barbecue Restaurants"}, {"primary": true, "id": 1722, "name": "Restaurants"}], "fax_number": null, "expansion": {"count": null, "uri": null}, "impression_id": "000b0000000acd8fb8e8114d329eb26a0a55493926", "profile": "http://www.citysearch.com/profile/775234200/kennesaw_ga/reds_backwoods_barbecue.html", "address": {"city": "Kennesaw", "state": "GA", "street": "1200 Ernest W Barrett Pkwy NW", "postal_code": "30144"}, "capProviderId": null, "distance": null, "has_offers": false, "name": "Reds Backwoods Barbecue", "longitude": -84.586888, "has_menu": false, "awards": null, "user_review_count": 0}, {"business_operation_status": 1, "rating": null, "neighborhood": null, "image": null, "scorecard": null, "featured": false, "sample_categories": "Restaurants", "public_id": "southern-flavor-kennesaw", "id": 777652400, "votes": null, "tagline": null, "has_video": false, "website": null, "offers": null, "latitude": 34.014009, "politanName": "Atlanta, GA Metro ", "phone_number": "7704228400", "tags": [{"primary": true, "id": 1722, "name": "Restaurants"}], "fax_number": null, "expansion": {"count": null, "uri": null}, "impression_id": "000b0000009a995170139e4a2e86fa350e06b079c8", "profile": "http://www.citysearch.com/profile/777652400/kennesaw_ga/southern_flavor.html", "address": {"city": "Kennesaw", "state": "GA", "street": "400 Ernest W Barrett NW # 119", "postal_code": "30144"}, "capProviderId": null, "distance": null, "has_offers": false, "name": "Southern Flavor", "longitude": -84.561425, "has_menu": false, "awards": null, "user_review_count": 0}], "histograms": [], "tag_ids": [1722], "uri": "http://api.citygridmedia.com:8080/search/places/v2/search/where?has_offers=false&type=restaurant&format=json&page=38&where=30060&rpp=50&histograms=false&publisher=10000009598&region_type=circle", "did_you_mean": "", "regions": [{"latitude": 33.92521, "default_radius": 3.68, "type": "postal_code", "name": "30060", "longitude": -84.546093}], "call_id": "000b000000253447f9ffb64d628f336bfc3b62ea71", "first_hit": 1851, "total_hits": 2103, "geo_ids": [26291], "page": 38, "last_hit": 1900}}