{"results": {"rpp": 50, "locations": [{"business_operation_status": 1, "rating": null, "neighborhood": null, "image": null, "scorecard": null, "featured": false, "sample_categories": "Restaurants, Barbecue Restaurants", "public_id": "wing-factory-atlanta-3", "id": 802521640, "votes": null, "tagline": null, "has_video": false, "website": null, "offers": null, "latitude": 33.882005, "politanName": "Atlanta, GA Metro ", "phone_number": "7704856950", "tags": [{"primary": false, "id": 1724, "name": "Barbecue Restaurants"}, {"primary": true, "id": 1722, "name": "Restaurants"}], "fax_number": null, "expansion": {"count": null, "uri": null}, "impression_id": "000b00000024f2bde02558429f95efc9b34c164088", "profile": "http://www.citysearch.com/profile/802521640/atlanta_ga/wing_factory.html", "address": {"city": "Atlanta", "state": "GA", "street": "2997 Cumberland Blvd Se", "postal_code": "30339"}, "capProviderId": null, "distance": null, "has_offers": false, "name": "Wing Factory", "longitude": -84.474455, "has_menu": true, "awards": null, "user_review_count": 0}, {"business_operation_status": 1, "rating": null, "neighborhood": null, "image": null, "scorecard": null, "featured": false, "sample_categories": "Restaurants, Delis And Delicatessens", "public_id": "jasons-deli-kennesaw", "id": 803500390, "votes": null, "tagline": null, "has_video": false, "website": "http://www.citysearch.com/profile/external/803500390/kennesaw_ga/jason_s_deli.html", "offers": null, "latitude": 34.003304, "politanName": "Atlanta, GA Metro ", "phone_number": "6783984000", "tags": [{"primary": false, "id": 1727, "name": "Delis And Delicatessens"}, {"primary": true, "id": 1722, "name": "Restaurants"}], "fax_number": null, "expansion": {"count": null, "uri": null}, "impression_id": "000b000000e7af0218ea344b16b6737797e1823b9d", "profile": "http://www.citysearch.com/profile/803500390/kennesaw_ga/jason_s_deli.html", "address": {"city": "Kennesaw", "state": "GA", "street": "945 Ernest W Barrett Pkwy NW", "postal_code": "30144"}, "capProviderId": null, "distance": null, "has_offers": false, "name": "Jason's Deli", "longitude": -84.578858, "has_menu": false, "awards": null, "user_review_count": 0}, {"business_operation_status": 1, "rating": null, "neighborhood": null, "image": null, "scorecard": null, "featured": false, "sample_categories": "Coffeehouses", "public_id": "insomnia-marietta", "id": 37646047, "votes": null, "tagline": null, "has_video": false, "website": null, "offers": null, "latitude": 33.948083, "politanName": "Atlanta, GA Metro ", "phone_number": "7705147442", "tags": [{"primary": true, "id": 1726, "name": "Coffeehouses"}], "fax_number": null, "expansion": {"count": null, "uri": null}, "impression_id": "000b000000ed6044988d304f0f98e76ad1a200c0eb", "profile": "http://www.citysearch.com/profile/37646047/marietta_ga/insomnia.html", "address": {"city": "Marietta", "state": "GA", "street": "245 Ridgeway Rd", "postal_code": "30064"}, "capProviderId": null, "distance": null, "has_offers": false, "name": "Insomnia", "longitude": -84.626672, "has_menu": false, "awards": null, "user_review_count": 0}, {"business_operation_status": 1, "rating": null, "neighborhood": null, "image": null, "scorecard": null, "featured": false, "sample_categories": "Restaurants", "public_id": "kidz-spot-marietta", "id": 824161410, "votes": null, "tagline": null, "has_video": false, "website": null, "offers": null, "latitude": 33.903812, "politanName": "Atlanta, GA Metro ", "phone_number": "6784494499", "tags": [{"primary": true, "id": 1722, "name": "Restaurants"}], "fax_number": null, "expansion": {"count": null, "uri": null}, "impression_id": "000b000000ef24371b78f34554968fbff7dd560d3d", "profile": "http://www.citysearch.com/profile/824161410/marietta_ga/kidz_spot.html", "address": {"city": "Marietta", "state": "GA", "street": "2930 Maple Springs CT", "postal_code": "30064"}, "capProviderId": null, "distance": null, "has_offers": false, "name": "Kidz Spot", "longitude": -84.638869, "has_menu": false, "awards": null, "user_review_count": 0}, {"business_operation_status": 1, "rating": null, "neighborhood": null, "image": null, "scorecard": null, "featured": false, "sample_categories": "Restaurants", "public_id": "mrs-winners-chicken-bscts-kennesaw", "id": 806276160, "votes": null, "tagline": null, "has_video": false, "website": null, "offers": null, "latitude": 34.059567, "politanName": "Atlanta, GA Metro ", "phone_number": "7704274040", "tags": [{"primary": true, "id": 1722, "name": "Restaurants"}], "fax_number": null, "expansion": {"count": null, "uri": null}, "impression_id": "000b00000092c348fb855c4d4a9861cce35f8d419b", "profile": "http://www.citysearch.com/profile/806276160/kennesaw_ga/mrs_winner_s_chicken_bscts.html", "address": {"city": "Kennesaw", "state": "GA", "street": "4383 Wade Green Rd NW", "postal_code": "30144"}, "capProviderId": null, "distance": null, "has_offers": false, "name": "Mrs Winner's Chicken & Bscts", "longitude": -84.593135, "has_menu": false, "awards": null, "user_review_count": 0}, {"business_operation_status": 1, "rating": null, "neighborhood": null, "image": null, "scorecard": null, "featured": false, "sample_categories": "Restaurants", "public_id": "johnnys-jerk-barbeque-mableton", "id": 808729280, "votes": null, "tagline": null, "has_video": false, "website": null, "offers": null, "latitude": 33.835173, "politanName": "Atlanta, GA Metro ", "phone_number": "6788386770", "tags": [{"primary": true, "id": 1722, "name": "Restaurants"}], "fax_number": null, "expansion": {"count": null, "uri": null}, "impression_id": "000b000000252f02f296bb48b6b9f04a6b402d1d26", "profile": "http://www.citysearch.com/profile/808729280/mableton_ga/johnny_s_jerk_barbeque.html", "address": {"city": "Mableton", "state": "GA", "street": "4875 Floyd Rd SW", "postal_code": "30126"}, "capProviderId": null, "distance": null, "has_offers": false, "name": "Johnny's Jerk & Barbeque", "longitude": -84.574622, "has_menu": false, "awards": null, "user_review_count": 0}, {"business_operation_status": 1, "rating": null, "neighborhood": null, "image": null, "scorecard": null, "featured": false, "sample_categories": "Restaurants", "public_id": "gorins-homemade-cafe-atlanta-3", "id": 810267910, "votes": null, "tagline": null, "has_video": false, "website": null, "offers": null, "latitude": 33.901479, "politanName": "Atlanta, GA Metro ", "phone_number": "7707300904", "tags": [{"primary": true, "id": 1722, "name": "Restaurants"}], "fax_number": null, "expansion": {"count": null, "uri": null}, "impression_id": "000b000000834d24207db24b25a14fe3c9ad8b8297", "profile": "http://www.citysearch.com/profile/810267910/atlanta_ga/gorin_s_homemade_cafe.html", "address": {"city": "Atlanta", "state": "GA", "street": "1040 Mount Vernon Hwy NW", "postal_code": "30327"}, "capProviderId": null, "distance": null, "has_offers": false, "name": "Gorin's Homemade Cafe", "longitude": -84.421112, "has_menu": false, "awards": null, "user_review_count": 0}, {"business_operation_status": 1, "rating": null, "neighborhood": null, "image": null, "scorecard": null, "featured": false, "sample_categories": "Restaurants, Coffeehouses", "public_id": "peace-cafe-kennesaw", "id": 748262240, "votes": null, "tagline": null, "has_video": false, "website": null, "offers": null, "latitude": 34.042632, "politanName": "Atlanta, GA Metro ", "phone_number": "7707927880", "tags": [{"primary": false, "id": 1726, "name": "Coffeehouses"}, {"primary": true, "id": 1722, "name": "Restaurants"}], "fax_number": null, "expansion": {"count": null, "uri": null}, "impression_id": "000b000000a99d67aced9d4172b4f6867ae1f227ad", "profile": "http://www.citysearch.com/profile/748262240/kennesaw_ga/peace_cafe.html", "address": {"city": "Kennesaw", "state": "GA", "street": "3805 Canton Pl NW", "postal_code": "30144"}, "capProviderId": null, "distance": null, "has_offers": false, "name": "Peace Cafe", "longitude": -84.584447, "has_menu": false, "awards": null, "user_review_count": 0}, {"business_operation_status": 1, "rating": 8.0, "neighborhood": null, "image": null, "scorecard": null, "featured": false, "sample_categories": "Restaurants, Pizza", "public_id": "uncle-vitos-new-york-pizza-marietta", "id": 37646046, "votes": null, "tagline": null, "has_video": false, "website": null, "offers": null, "latitude": 33.950252, "politanName": "Atlanta, GA Metro ", "phone_number": "6787668486", "tags": [{"primary": false, "id": 1722, "name": "Restaurants"}, {"primary": true, "id": 11299, "name": "Pizza"}], "fax_number": null, "expansion": {"count": null, "uri": null}, "impression_id": "000b000000d43646d8e0444ca5b30c7d00cc6ea249", "profile": "http://www.citysearch.com/profile/37646046/marietta_ga/uncle_vitos_new_york_pizza.html", "address": {"city": "Marietta", "state": "GA", "street": "2500 Dallas Hwy SW", "postal_code": "30064"}, "capProviderId": null, "distance": null, "has_offers": false, "name": "Uncle Vitos New York Pizza", "longitude": -84.638093, "has_menu": true, "awards": null, "user_review_count": 2}, {"business_operation_status": 1, "rating": null, "neighborhood": null, "image": null, "scorecard": null, "featured": false, "sample_categories": "Restaurants", "public_id": "gulf-street-grille-atlanta", "id": 37653138, "votes": null, "tagline": null, "has_video": false, "website": null, "offers": null, "latitude": 33.902397, "politanName": "Atlanta, GA Metro ", "phone_number": "7709539300", "tags": [{"primary": true, "id": 1722, "name": "Restaurants"}], "fax_number": null, "expansion": {"count": null, "uri": null}, "impression_id": "000b000000d219ad58ea7e44869567483a78373e24", "profile": "http://www.citysearch.com/profile/37653138/atlanta_ga/gulf_street_grille.html", "address": {"city": "Atlanta", "state": "GA", "street": "2055 S Park Pl SE", "postal_code": "30339"}, "capProviderId": null, "distance": null, "has_offers": false, "name": "Gulf Street Grille", "longitude": -84.476611, "has_menu": false, "awards": null, "user_review_count": 0}, {"business_operation_status": 1, "rating": 8.0, "neighborhood": null, "image": null, "scorecard": null, "featured": false, "sample_categories": "Restaurants, Bars & Clubs, Bars & Pubs, American Express, Discover", "public_id": "jocks-n-jills-sports-bar-atlanta", "id": 3030533, "votes": null, "tagline": null, "has_video": false, "website": "http://www.citysearch.com/profile/external/3030533/atlanta_ga/jocks_n_jills_sports_bar.html", "offers": null, "latitude": 33.884135, "politanName": "Atlanta, GA Metro ", "phone_number": "7709525609", "tags": [{"primary": false, "id": 164, "name": "Bars & Clubs"}, {"primary": false, "id": 1686, "name": "Bars & Pubs"}, {"primary": false, "id": 11333, "name": "American Express"}, {"primary": false, "id": 11349, "name": "Discover"}, {"primary": false, "id": 11361, "name": "MasterCard"}, {"primary": false, "id": 11382, "name": "Visa"}, {"primary": true, "id": 1722, "name": "Restaurants"}], "fax_number": null, "expansion": {"count": null, "uri": null}, "impression_id": "000b000000f3c30bd9db264fc98f0ed891bdfb6cc3", "profile": "http://www.citysearch.com/profile/3030533/atlanta_ga/jocks_n_jills_sports_bar.html", "address": {"city": "Atlanta", "state": "GA", "street": "1 Galleria Pkwy SE", "postal_code": "30339"}, "capProviderId": null, "distance": null, "has_offers": false, "name": "Jocks N Jills Sports Bar", "longitude": -84.46371, "has_menu": false, "awards": null, "user_review_count": 4}, {"business_operation_status": 1, "rating": null, "neighborhood": null, "image": null, "scorecard": null, "featured": false, "sample_categories": "Restaurants, Delis And Delicatessens, Sandwich Shops, Carry Out", "public_id": "subway-atlanta-47", "id": 627746860, "votes": null, "tagline": null, "has_video": false, "website": "http://www.citysearch.com/profile/external/627746860/atlanta_ga/subway.html", "offers": null, "latitude": 33.865018, "politanName": "Atlanta, GA Metro ", "phone_number": "7704340151", "tags": [{"primary": false, "id": 1727, "name": "Delis And Delicatessens"}, {"primary": false, "id": 1736, "name": "Sandwich Shops"}, {"primary": false, "id": 11247, "name": "Carry Out"}, {"primary": true, "id": 1722, "name": "Restaurants"}], "fax_number": null, "expansion": {"count": null, "uri": null}, "impression_id": "000b0000009834896f7b584e6a8be23967fe6eaacd", "profile": "http://www.citysearch.com/profile/627746860/atlanta_ga/subway.html", "address": {"city": "Atlanta", "state": "GA", "street": "3621 Vinings Slope Se", "postal_code": "30339"}, "capProviderId": null, "distance": null, "has_offers": false, "name": "Subway", "longitude": -84.472683, "has_menu": false, "awards": null, "user_review_count": 0}, {"business_operation_status": 0, "rating": null, "neighborhood": null, "image": null, "scorecard": null, "featured": false, "sample_categories": "Restaurants", "public_id": "zokas-smyrna", "id": 43845390, "votes": null, "tagline": null, "has_video": false, "website": null, "offers": null, "latitude": 33.890523, "politanName": "Atlanta, GA Metro ", "phone_number": "7704314727", "tags": [{"primary": true, "id": 1722, "name": "Restaurants"}], "fax_number": null, "expansion": {"count": null, "uri": null}, "impression_id": "000b00000059c94295ea9f4e508d0a02953bfda415", "profile": "http://www.citysearch.com/profile/43845390/smyrna_ga/zoka_s.html", "address": {"city": "Smyrna", "state": "GA", "street": "2506 Atlanta Rd SE Ste O8", "postal_code": "30080"}, "capProviderId": null, "distance": null, "has_offers": false, "name": "Zoka's", "longitude": -84.51736, "has_menu": true, "awards": null, "user_review_count": 0}, {"business_operation_status": 1, "rating": null, "neighborhood": null, "image": null, "scorecard": null, "featured": false, "sample_categories": "Coffee & Tea Shops, Restaurants, Deordorant, Soap, Glue", "public_id": "southern-tea-llc-marietta-2", "id": 43853814, "votes": null, "tagline": null, "has_video": false, "website": null, "offers": null, "latitude": 33.983317, "politanName": "Atlanta, GA Metro ", "phone_number": "7705901221", "tags": [{"primary": false, "id": 1711, "name": "Coffee & Tea Shops"}, {"primary": false, "id": 1722, "name": "Restaurants"}, {"primary": false, "id": 23400, "name": "Deordorant"}, {"primary": false, "id": 23410, "name": "Soap"}, {"primary": false, "id": 24950, "name": "Glue"}, {"primary": false, "id": 25880, "name": "Air Fresheners"}, {"primary": false, "id": 3922, "name": "General Merchandise Stores"}, {"primary": true, "id": 11147, "name": "Tea"}], "fax_number": null, "expansion": {"count": null, "uri": null}, "impression_id": "000b000000432ff7d7379e49ed85229ed3bed7ae1f", "profile": "http://www.citysearch.com/profile/43853814/marietta_ga/southern_tea_llc.html", "address": {"city": "Marietta", "state": "GA", "street": "1491 Cobb Industrial Dr", "postal_code": "30066"}, "capProviderId": null, "distance": null, "has_offers": false, "name": "Southern Tea Llc", "longitude": -84.534242, "has_menu": false, "awards": null, "user_review_count": 1}, {"business_operation_status": 1, "rating": null, "neighborhood": null, "image": null, "scorecard": null, "featured": false, "sample_categories": "Restaurants", "public_id": "specialty-restaurant-group-inc-kennesaw", "id": 648896300, "votes": null, "tagline": null, "has_video": false, "website": "http://www.citysearch.com/profile/external/648896300/kennesaw_ga/specialty_restaurant_group_inc.html", "offers": null, "latitude": 34.015329, "politanName": "Atlanta, GA Metro ", "phone_number": "7704997878", "tags": [{"primary": true, "id": 1722, "name": "Restaurants"}], "fax_number": null, "expansion": {"count": null, "uri": null}, "impression_id": "000b0000003ef98d0e9ad845289a9d06e54b7c31a5", "profile": "http://www.citysearch.com/profile/648896300/kennesaw_ga/specialty_restaurant_group_inc.html", "address": {"city": "Kennesaw", "state": "GA", "street": "2500 Cobb Pkwy NW Ste B7", "postal_code": "30152"}, "capProviderId": null, "distance": null, "has_offers": false, "name": "Specialty Restaurant Group Inc", "longitude": -84.615064, "has_menu": false, "awards": null, "user_review_count": 0}, {"business_operation_status": 1, "rating": null, "neighborhood": null, "image": null, "scorecard": null, "featured": false, "sample_categories": "Restaurants, Delis And Delicatessens", "public_id": "upstate-sub-house-smyrna", "id": 648920690, "votes": null, "tagline": null, "has_video": false, "website": "http://www.citysearch.com/profile/external/648920690/smyrna_ga/upstate_sub_house.html", "offers": null, "latitude": 33.841827, "politanName": "Atlanta, GA Metro ", "phone_number": "7704369880", "tags": [{"primary": false, "id": 1727, "name": "Delis And Delicatessens"}, {"primary": true, "id": 1722, "name": "Restaurants"}], "fax_number": null, "expansion": {"count": null, "uri": null}, "impression_id": "000b000000d89a7e64d0a3475f9bf00074eff10a09", "profile": "http://www.citysearch.com/profile/648920690/smyrna_ga/upstate_sub_house.html", "address": {"city": "Smyrna", "state": "GA", "street": "4624 Camp Highland Rd SE", "postal_code": "30082"}, "capProviderId": null, "distance": null, "has_offers": false, "name": "Upstate Sub House", "longitude": -84.505595, "has_menu": false, "awards": null, "user_review_count": 0}, {"business_operation_status": 1, "rating": null, "neighborhood": null, "image": null, "scorecard": null, "featured": false, "sample_categories": "Restaurants, Barbecue Restaurants, Food Delivery", "public_id": "j-wings-and-more-smyrna", "id": 45555723, "votes": null, "tagline": null, "has_video": false, "website": null, "offers": null, "latitude": 33.893244, "politanName": "Atlanta, GA Metro ", "phone_number": "7702269977", "tags": [{"primary": false, "id": 1724, "name": "Barbecue Restaurants"}, {"primary": false, "id": 11267, "name": "Food Delivery"}, {"primary": true, "id": 1722, "name": "Restaurants"}], "fax_number": null, "expansion": {"count": null, "uri": null}, "impression_id": "000b0000009d74134efa734e85b80628ef97894f64", "profile": "http://www.citysearch.com/profile/45555723/smyrna_ga/j_wings_and_more.html", "address": {"city": "Smyrna", "state": "GA", "street": "2380 Cobb Pkwy SE", "postal_code": "30080"}, "capProviderId": null, "distance": null, "has_offers": false, "name": "J Wings And More", "longitude": -84.478459, "has_menu": true, "awards": null, "user_review_count": 0}, {"business_operation_status": 1, "rating": null, "neighborhood": null, "image": null, "scorecard": null, "featured": false, "sample_categories": "Restaurants, American Express, Discover, MasterCard, Visa", "public_id": "piezonias-restaurant-marietta", "id": 601298040, "votes": null, "tagline": null, "has_video": false, "website": null, "offers": null, "latitude": 33.967672, "politanName": "Atlanta, GA Metro ", "phone_number": "7704192188", "tags": [{"primary": false, "id": 11333, "name": "American Express"}, {"primary": false, "id": 11349, "name": "Discover"}, {"primary": false, "id": 11361, "name": "MasterCard"}, {"primary": false, "id": 11382, "name": "Visa"}, {"primary": true, "id": 1722, "name": "Restaurants"}], "fax_number": null, "expansion": {"count": null, "uri": null}, "impression_id": "000b0000008feeaff9263542bca61cc0aa9bf8dc6b", "profile": "http://www.citysearch.com/profile/601298040/marietta_ga/piezonia_s_restaurant.html", "address": {"city": "Marietta", "state": "GA", "street": "3960 Mary Eliza Trce Nw", "postal_code": "30064"}, "capProviderId": null, "distance": null, "has_offers": false, "name": "Piezonia's Restaurant", "longitude": -84.667328, "has_menu": false, "awards": null, "user_review_count": 0}, {"business_operation_status": 1, "rating": null, "neighborhood": null, "image": null, "scorecard": null, "featured": false, "sample_categories": "Restaurants", "public_id": "jmc-restaurant-distribution-kennesaw", "id": 601313826, "votes": null, "tagline": null, "has_video": false, "website": "http://www.citysearch.com/profile/external/601313826/kennesaw_ga/jmc_restaurant_distribution.html", "offers": null, "latitude": 34.011176, "politanName": "Atlanta, GA Metro ", "phone_number": "7705281170", "tags": [{"primary": true, "id": 1722, "name": "Restaurants"}], "fax_number": null, "expansion": {"count": null, "uri": null}, "impression_id": "000b00000016942f45332e4178b31a85bdea2cb4f8", "profile": "http://www.citysearch.com/profile/601313826/kennesaw_ga/jmc_restaurant_distribution.html", "address": {"city": "Kennesaw", "state": "GA", "street": "980 Cobb Place Blvd Nw # 240", "postal_code": "30144"}, "capProviderId": null, "distance": null, "has_offers": false, "name": "Jmc Restaurant Distribution", "longitude": -84.581645, "has_menu": false, "awards": null, "user_review_count": 0}, {"business_operation_status": 1, "rating": null, "neighborhood": null, "image": null, "scorecard": null, "featured": false, "sample_categories": "Restaurants", "public_id": "food-court-cobb-international-farmers-mrkt-smyrna", "id": 672343510, "votes": null, "tagline": null, "has_video": false, "website": null, "offers": null, "latitude": 33.88361, "politanName": "Atlanta, GA Metro ", "phone_number": "6783090007", "tags": [{"primary": true, "id": 1722, "name": "Restaurants"}], "fax_number": null, "expansion": {"count": null, "uri": null}, "impression_id": "000b000000e0871317fd2d40c1a4ce6cf068052803", "profile": "http://www.citysearch.com/profile/672343510/smyrna_ga/food_court_cobb_international_farmers_mrkt.html", "address": {"city": "Smyrna", "state": "GA", "street": "2350 Spring Street", "postal_code": "30080"}, "capProviderId": null, "distance": null, "has_offers": false, "name": "Food Court @ Cobb International Farmers Mrkt", "longitude": -84.501858, "has_menu": false, "awards": null, "user_review_count": 0}, {"business_operation_status": 1, "rating": 8.0, "neighborhood": null, "image": null, "scorecard": null, "featured": false, "sample_categories": "Restaurants, Steakhouse, American Express, Discover, MasterCard", "public_id": "olde-mill-atlanta", "id": 3030532, "votes": null, "tagline": null, "has_video": false, "website": "http://www.citysearch.com/profile/external/3030532/atlanta_ga/olde_mill.html", "offers": null, "latitude": 33.880351, "politanName": "Atlanta, GA Metro ", "phone_number": "7709526042", "tags": [{"primary": false, "id": 1722, "name": "Restaurants"}, {"primary": false, "id": 11333, "name": "American Express"}, {"primary": false, "id": 11349, "name": "Discover"}, {"primary": false, "id": 11361, "name": "MasterCard"}, {"primary": false, "id": 11382, "name": "Visa"}, {"primary": true, "id": 11316, "name": "Steakhouse"}], "fax_number": null, "expansion": {"count": null, "uri": null}, "impression_id": "000b000000f42dc3fef5274145bf1868740d80a685", "profile": "http://www.citysearch.com/profile/3030532/atlanta_ga/olde_mill.html", "address": {"city": "Atlanta", "state": "GA", "street": "2960 Cobb Pkwy", "postal_code": "30339"}, "capProviderId": null, "distance": null, "has_offers": false, "name": "Olde Mill", "longitude": -84.462963, "has_menu": true, "awards": null, "user_review_count": 0}, {"business_operation_status": 1, "rating": null, "neighborhood": null, "image": null, "scorecard": null, "featured": false, "sample_categories": "Restaurants, Delis And Delicatessens, Sandwich Shops, Carry Out", "public_id": "blimpie-subs-salads-kennesaw-2", "id": 713401400, "votes": null, "tagline": null, "has_video": false, "website": "http://www.citysearch.com/profile/external/713401400/kennesaw_ga/blimpie_subs_salads.html", "offers": null, "latitude": 34.00436, "politanName": "Atlanta, GA Metro ", "phone_number": "7704245088", "tags": [{"primary": false, "id": 1727, "name": "Delis And Delicatessens"}, {"primary": false, "id": 1736, "name": "Sandwich Shops"}, {"primary": false, "id": 11247, "name": "Carry Out"}, {"primary": true, "id": 1722, "name": "Restaurants"}], "fax_number": null, "expansion": {"count": null, "uri": null}, "impression_id": "000b000000f9a6987c97624f5ab002e9b6059ae9b4", "profile": "http://www.citysearch.com/profile/713401400/kennesaw_ga/blimpie_subs_salads.html", "address": {"city": "Kennesaw", "state": "GA", "street": "667 Ernest W Barrett Pkwy NW", "postal_code": "30144"}, "capProviderId": null, "distance": null, "has_offers": false, "name": "Blimpie Subs & Salads", "longitude": -84.572087, "has_menu": false, "awards": null, "user_review_count": 0}, {"business_operation_status": 1, "rating": null, "neighborhood": null, "image": null, "scorecard": null, "featured": false, "sample_categories": "Restaurants, Pizza", "public_id": "johnnys-pizza-austell", "id": 601307782, "votes": null, "tagline": null, "has_video": false, "website": null, "offers": null, "latitude": 33.866983, "politanName": "Atlanta, GA Metro ", "phone_number": "7709439936", "tags": [{"primary": false, "id": 1722, "name": "Restaurants"}, {"primary": true, "id": 11299, "name": "Pizza"}], "fax_number": null, "expansion": {"count": null, "uri": null}, "impression_id": "000b00000021c74b323bb64b11bb2b7ee42957b006", "profile": "http://www.citysearch.com/profile/601307782/austell_ga/johnny_s_pizza.html", "address": {"city": "Austell", "state": "GA", "street": "2840 E West Connector # 390", "postal_code": "30106"}, "capProviderId": null, "distance": null, "has_offers": false, "name": "Johnny's Pizza", "longitude": -84.624721, "has_menu": true, "awards": null, "user_review_count": 0}, {"business_operation_status": 1, "rating": null, "neighborhood": null, "image": null, "scorecard": null, "featured": false, "sample_categories": "Restaurants", "public_id": "red-restaurant-ventures-atlanta", "id": 601369081, "votes": null, "tagline": null, "has_video": false, "website": null, "offers": null, "latitude": 33.885844, "politanName": "Atlanta, GA Metro ", "phone_number": "6789150320", "tags": [{"primary": true, "id": 1722, "name": "Restaurants"}], "fax_number": null, "expansion": {"count": null, "uri": null}, "impression_id": "000b00000053c8766e75f441efbca1af3fdb1e7d0b", "profile": "http://www.citysearch.com/profile/601369081/atlanta_ga/red_restaurant_ventures.html", "address": {"city": "Atlanta", "state": "GA", "street": "200 Galleria Pkwy Se", "postal_code": "30339"}, "capProviderId": null, "distance": null, "has_offers": false, "name": "Red Restaurant Ventures", "longitude": -84.463997, "has_menu": false, "awards": null, "user_review_count": 0}, {"business_operation_status": 1, "rating": null, "neighborhood": null, "image": null, "scorecard": null, "featured": false, "sample_categories": "Restaurants", "public_id": "stellas-neighborhood-grill-austell", "id": 604719582, "votes": null, "tagline": null, "has_video": false, "website": "http://www.citysearch.com/profile/external/604719582/austell_ga/stella_s_neighborhood_grill.html", "offers": null, "latitude": 33.866421, "politanName": "Atlanta, GA Metro ", "phone_number": "7702221331", "tags": [{"primary": true, "id": 1722, "name": "Restaurants"}], "fax_number": null, "expansion": {"count": null, "uri": null}, "impression_id": "000b000000bf56c25b59d249e6a627d3bc58936b4f", "profile": "http://www.citysearch.com/profile/604719582/austell_ga/stella_s_neighborhood_grill.html", "address": {"city": "Austell", "state": "GA", "street": "2810 E West Connector", "postal_code": "30106"}, "capProviderId": null, "distance": null, "has_offers": false, "name": "Stella's Neighborhood Grill", "longitude": -84.625947, "has_menu": false, "awards": null, "user_review_count": 3}, {"business_operation_status": 1, "rating": 8.0, "neighborhood": null, "image": null, "scorecard": null, "featured": false, "sample_categories": "Juice & Smoothie Shops, Health Food Stores, Restaurants", "public_id": "planet-smoothie-atlanta-4", "id": 2910405, "votes": null, "tagline": null, "has_video": false, "website": null, "offers": null, "latitude": 33.903239, "politanName": "Atlanta, GA Metro ", "phone_number": "7708590080", "tags": [{"primary": false, "id": 1716, "name": "Health Food Stores"}, {"primary": false, "id": 1722, "name": "Restaurants"}, {"primary": true, "id": 1735, "name": "Juice & Smoothie Shops"}], "fax_number": null, "expansion": {"count": null, "uri": null}, "impression_id": "000b00000073accc05c6734e469d50f10898c4a4a5", "profile": "http://www.citysearch.com/profile/2910405/atlanta_ga/planet_smoothie.html", "address": {"city": "Atlanta", "state": "GA", "street": "2014 Powers Ferry Rd SE Ste 350", "postal_code": "30339"}, "capProviderId": null, "distance": null, "has_offers": false, "name": "Planet Smoothie", "longitude": -84.460467, "has_menu": true, "awards": null, "user_review_count": 2}, {"business_operation_status": 1, "rating": null, "neighborhood": null, "image": null, "scorecard": null, "featured": false, "sample_categories": "Restaurants, Bars & Clubs, Bars & Pubs, Traditional American, American Express", "public_id": "ciclon-sports-bar-grll-smyrna", "id": 43853277, "votes": null, "tagline": null, "has_video": false, "website": null, "offers": null, "latitude": 33.886772, "politanName": "Atlanta, GA Metro ", "phone_number": "7704318100", "tags": [{"primary": false, "id": 164, "name": "Bars & Clubs"}, {"primary": false, "id": 1686, "name": "Bars & Pubs"}, {"primary": false, "id": 11190, "name": "Traditional American"}, {"primary": false, "id": 11333, "name": "American Express"}, {"primary": false, "id": 11349, "name": "Discover"}, {"primary": false, "id": 11361, "name": "MasterCard"}, {"primary": false, "id": 11382, "name": "Visa"}, {"primary": true, "id": 1722, "name": "Restaurants"}], "fax_number": null, "expansion": {"count": null, "uri": null}, "impression_id": "000b000000e31c173aae9343a99baf6e869d222a40", "profile": "http://www.citysearch.com/profile/43853277/smyrna_ga/ciclon_sports_bar_grll.html", "address": {"city": "Smyrna", "state": "GA", "street": "2731 S Cobb Dr SE", "postal_code": "30080"}, "capProviderId": null, "distance": null, "has_offers": false, "name": "Ciclon Sports Bar & Grll", "longitude": -84.534827, "has_menu": false, "awards": null, "user_review_count": 0}, {"business_operation_status": 1, "rating": 6.0, "neighborhood": null, "image": null, "scorecard": null, "featured": false, "sample_categories": "Restaurants, Mexican, American Express, Discover, MasterCard", "public_id": "el-taco-azteca-mexican-grille-kennesaw", "id": 43859514, "votes": null, "tagline": null, "has_video": false, "website": "http://www.citysearch.com/profile/external/43859514/kennesaw_ga/el_taco_azteca_mexican_grille.html", "offers": null, "latitude": 34.020557, "politanName": "Atlanta, GA Metro ", "phone_number": "7709191609", "tags": [{"primary": false, "id": 11208, "name": "Mexican"}, {"primary": false, "id": 11333, "name": "American Express"}, {"primary": false, "id": 11349, "name": "Discover"}, {"primary": false, "id": 11361, "name": "MasterCard"}, {"primary": false, "id": 11382, "name": "Visa"}, {"primary": true, "id": 1722, "name": "Restaurants"}], "fax_number": null, "expansion": {"count": null, "uri": null}, "impression_id": "000b000000324281df0016465896143a219c194262", "profile": "http://www.citysearch.com/profile/43859514/kennesaw_ga/el_taco_azteca_mexican_grille.html", "address": {"city": "Kennesaw", "state": "GA", "street": "2752 S Main St NW", "postal_code": "30144"}, "capProviderId": null, "distance": null, "has_offers": false, "name": "El Taco Azteca Mexican Grille", "longitude": -84.612558, "has_menu": false, "awards": null, "user_review_count": 3}, {"business_operation_status": 1, "rating": null, "neighborhood": null, "image": null, "scorecard": null, "featured": false, "sample_categories": "Restaurants, Chicken", "public_id": "mrs-winners-chicken-biscuits-atlanta-10", "id": 3029520, "votes": null, "tagline": null, "has_video": false, "website": null, "offers": null, "latitude": 33.861976, "politanName": "Atlanta, GA Metro ", "phone_number": "7704370991", "tags": [{"primary": false, "id": 12839, "name": "Chicken"}, {"primary": true, "id": 1722, "name": "Restaurants"}], "fax_number": null, "expansion": {"count": null, "uri": null}, "impression_id": "000b0000009a36a56f5529480eaf5a2c871619725f", "profile": "http://www.citysearch.com/profile/3029520/atlanta_ga/mrs_winners_chicken_biscuits.html", "address": {"city": "Atlanta", "state": "GA", "street": "3905 Cumberland Pkwy SE", "postal_code": "30339"}, "capProviderId": null, "distance": null, "has_offers": false, "name": "Mrs Winners Chicken & Biscuits", "longitude": -84.47645, "has_menu": true, "awards": null, "user_review_count": 0}, {"business_operation_status": 1, "rating": null, "neighborhood": null, "image": null, "scorecard": null, "featured": false, "sample_categories": "Restaurants, Delis And Delicatessens, Sandwich Shops, Carry Out, MasterCard", "public_id": "quiznos-smyrna-3", "id": 43843494, "votes": null, "tagline": null, "has_video": false, "website": null, "offers": null, "latitude": 33.842593, "politanName": "Atlanta, GA Metro ", "phone_number": "6782131815", "tags": [{"primary": false, "id": 1727, "name": "Delis And Delicatessens"}, {"primary": false, "id": 1736, "name": "Sandwich Shops"}, {"primary": false, "id": 11247, "name": "Carry Out"}, {"primary": false, "id": 11361, "name": "MasterCard"}, {"primary": false, "id": 11382, "name": "Visa"}, {"primary": true, "id": 1722, "name": "Restaurants"}], "fax_number": null, "expansion": {"count": null, "uri": null}, "impression_id": "000b0000007fe4ecb75ae44bb1aee05654ee8eddbf", "profile": "http://www.citysearch.com/profile/43843494/smyrna_ga/quiznos.html", "address": {"city": "Smyrna", "state": "GA", "street": "4585 S Cobb Dr SE", "postal_code": "30080"}, "capProviderId": null, "distance": null, "has_offers": false, "name": "Quiznos", "longitude": -84.498107, "has_menu": true, "awards": null, "user_review_count": 0}, {"business_operation_status": 1, "rating": null, "neighborhood": null, "image": null, "scorecard": null, "featured": false, "sample_categories": "Restaurants", "public_id": "dresser-search-consulting-marietta", "id": 632998900, "votes": null, "tagline": null, "has_video": false, "website": null, "offers": null, "latitude": 33.953943, "politanName": "Atlanta, GA Metro ", "phone_number": "6785608788", "tags": [{"primary": true, "id": 1722, "name": "Restaurants"}], "fax_number": null, "expansion": {"count": null, "uri": null}, "impression_id": "000b000000482fa18032e14439a1c8266d5e2515fa", "profile": "http://www.citysearch.com/profile/632998900/marietta_ga/dresser_search_consulting.html", "address": {"city": "Marietta", "state": "GA", "street": "3486 Brookview Dr", "postal_code": "30068"}, "capProviderId": null, "distance": null, "has_offers": false, "name": "Dresser Search & Consulting", "longitude": -84.451005, "has_menu": false, "awards": null, "user_review_count": 0}, {"business_operation_status": 1, "rating": null, "neighborhood": null, "image": null, "scorecard": null, "featured": false, "sample_categories": "Catering, Restaurants, Pizza", "public_id": "rays-new-york-pizza-kennesaw-2", "id": 653618780, "votes": null, "tagline": null, "has_video": false, "website": "http://www.citysearch.com/profile/external/653618780/kennesaw_ga/ray_s_new_york_pizza.html", "offers": null, "latitude": 34.037182, "politanName": "Atlanta, GA Metro ", "phone_number": "7704249000", "tags": [{"primary": false, "id": 1705, "name": "Catering"}, {"primary": false, "id": 1722, "name": "Restaurants"}, {"primary": true, "id": 11299, "name": "Pizza"}], "fax_number": null, "expansion": {"count": null, "uri": null}, "impression_id": "000b00000026d3b25eafc449bcaef7781155ad5ff3", "profile": "http://www.citysearch.com/profile/653618780/kennesaw_ga/ray_s_new_york_pizza.html", "address": {"city": "Kennesaw", "state": "GA", "street": "600 Chastain Rd Nw", "postal_code": "30144"}, "capProviderId": null, "distance": null, "has_offers": false, "name": "Ray's New York Pizza", "longitude": -84.567518, "has_menu": false, "awards": null, "user_review_count": 0}, {"business_operation_status": 1, "rating": null, "neighborhood": null, "image": null, "scorecard": null, "featured": false, "sample_categories": "Restaurants, Delis And Delicatessens, Cafes", "public_id": "75-cafe-atlanta", "id": 601370475, "votes": null, "tagline": null, "has_video": false, "website": null, "offers": null, "latitude": 33.898561, "politanName": "Atlanta, GA Metro ", "phone_number": "7709524452", "tags": [{"primary": false, "id": 1727, "name": "Delis And Delicatessens"}, {"primary": false, "id": 6190, "name": "Cafes"}, {"primary": true, "id": 1722, "name": "Restaurants"}], "fax_number": null, "expansion": {"count": null, "uri": null}, "impression_id": "000b000000b71a9e73944042e3a4bd208f75e2a508", "profile": "http://www.citysearch.com/profile/601370475/atlanta_ga/75_cafe.html", "address": {"city": "Atlanta", "state": "GA", "street": "4501 Circle 75 Pkwy Se", "postal_code": "30339"}, "capProviderId": null, "distance": null, "has_offers": false, "name": "75 Cafe", "longitude": -84.475059, "has_menu": false, "awards": null, "user_review_count": 0}, {"business_operation_status": 1, "rating": null, "neighborhood": null, "image": null, "scorecard": null, "featured": false, "sample_categories": "Restaurants, Pizza", "public_id": "atena-pizza-kennesaw", "id": 827581250, "votes": null, "tagline": null, "has_video": false, "website": null, "offers": null, "latitude": 34.020819, "politanName": "Atlanta, GA Metro ", "phone_number": "6787971888", "tags": [{"primary": false, "id": 1722, "name": "Restaurants"}, {"primary": true, "id": 11299, "name": "Pizza"}], "fax_number": null, "expansion": {"count": null, "uri": null}, "impression_id": "000b0000002c0bc623570b411dbf0c640bba364d07", "profile": "http://www.citysearch.com/profile/827581250/kennesaw_ga/atena_pizza.html", "address": {"city": "Kennesaw", "state": "GA", "street": "2754 S Main St NW", "postal_code": "30144"}, "capProviderId": null, "distance": null, "has_offers": false, "name": "Atena Pizza", "longitude": -84.613657, "has_menu": false, "awards": null, "user_review_count": 0}, {"business_operation_status": 1, "rating": null, "neighborhood": null, "image": null, "scorecard": null, "featured": false, "sample_categories": "Restaurants, Barbecue Restaurants, Carry Out, Pizza", "public_id": "wing-street-marietta-2", "id": 764937860, "votes": null, "tagline": null, "has_video": false, "website": "http://www.citysearch.com/profile/external/764937860/marietta_ga/wing_street.html", "offers": null, "latitude": 33.917361, "politanName": "Atlanta, GA Metro ", "phone_number": "7709538900", "tags": [{"primary": false, "id": 1724, "name": "Barbecue Restaurants"}, {"primary": false, "id": 11247, "name": "Carry Out"}, {"primary": false, "id": 11299, "name": "Pizza"}, {"primary": true, "id": 1722, "name": "Restaurants"}], "fax_number": null, "expansion": {"count": null, "uri": null}, "impression_id": "000b000000c00aa4e0bf8d4f3d892952110dbb870d", "profile": "http://www.citysearch.com/profile/764937860/marietta_ga/wing_street.html", "address": {"city": "Marietta", "state": "GA", "street": "1480 Terrell Mill Rd SE", "postal_code": "30067"}, "capProviderId": null, "distance": null, "has_offers": false, "name": "Wing Street", "longitude": -84.46861, "has_menu": false, "awards": null, "user_review_count": 0}, {"business_operation_status": 1, "rating": null, "neighborhood": null, "image": null, "scorecard": null, "featured": false, "sample_categories": "Restaurants", "public_id": "yoland-trade-co-marietta", "id": 766788970, "votes": null, "tagline": null, "has_video": false, "website": null, "offers": null, "latitude": 34.017093, "politanName": "Atlanta, GA Metro ", "phone_number": "7705651995", "tags": [{"primary": true, "id": 1722, "name": "Restaurants"}], "fax_number": null, "expansion": {"count": null, "uri": null}, "impression_id": "000b0000002a076d88dbd447d8ae12cb368dff8a0d", "profile": "http://www.citysearch.com/profile/766788970/marietta_ga/yoland_trade_co.html", "address": {"city": "Marietta", "state": "GA", "street": "2731 Sandy Plains Rd # A", "postal_code": "30066"}, "capProviderId": null, "distance": null, "has_offers": false, "name": "Yoland Trade Co", "longitude": -84.492328, "has_menu": false, "awards": null, "user_review_count": 0}, {"business_operation_status": 1, "rating": null, "neighborhood": null, "image": null, "scorecard": null, "featured": false, "sample_categories": "Restaurants, Mexican, Carry Out", "public_id": "taco-bell-marietta-10", "id": 775210570, "votes": null, "tagline": null, "has_video": false, "website": "http://www.citysearch.com/profile/external/775210570/marietta_ga/taco_bell.html", "offers": null, "latitude": 33.924583, "politanName": "Atlanta, GA Metro ", "phone_number": "7705907481", "tags": [{"primary": false, "id": 11208, "name": "Mexican"}, {"primary": false, "id": 11247, "name": "Carry Out"}, {"primary": true, "id": 1722, "name": "Restaurants"}], "fax_number": null, "expansion": {"count": null, "uri": null}, "impression_id": "000b0000001db3649f6c6148629fda61619e02b146", "profile": "http://www.citysearch.com/profile/775210570/marietta_ga/taco_bell.html", "address": {"city": "Marietta", "state": "GA", "street": "1180 Powder Springs St", "postal_code": "30064"}, "capProviderId": null, "distance": null, "has_offers": false, "name": "Taco Bell", "longitude": -84.575231, "has_menu": false, "awards": null, "user_review_count": 0}, {"business_operation_status": 1, "rating": null, "neighborhood": null, "image": null, "scorecard": null, "featured": false, "sample_categories": "Restaurants", "public_id": "cafe-internet-marietta", "id": 775213360, "votes": null, "tagline": null, "has_video": false, "website": null, "offers": null, "latitude": 33.938913, "politanName": "Atlanta, GA Metro ", "phone_number": "6785940304", "tags": [{"primary": true, "id": 1722, "name": "Restaurants"}], "fax_number": null, "expansion": {"count": null, "uri": null}, "impression_id": "000b000000f96884c043d742e19ff212df7bacab8a", "profile": "http://www.citysearch.com/profile/775213360/marietta_ga/cafe_internet.html", "address": {"city": "Marietta", "state": "GA", "street": "550 Franklin Rd SE", "postal_code": "30067"}, "capProviderId": null, "distance": null, "has_offers": false, "name": "Cafe Internet", "longitude": -84.507658, "has_menu": false, "awards": null, "user_review_count": 0}, {"business_operation_status": 1, "rating": null, "neighborhood": null, "image": null, "scorecard": null, "featured": false, "sample_categories": "Restaurants", "public_id": "ragazzis-marietta", "id": 775214350, "votes": null, "tagline": null, "has_video": false, "website": null, "offers": null, "latitude": 33.863583, "politanName": "Atlanta, GA Metro ", "phone_number": "7704326846", "tags": [{"primary": true, "id": 1722, "name": "Restaurants"}], "fax_number": null, "expansion": {"count": null, "uri": null}, "impression_id": "000b0000002d5d91940daf4f3b881b779d4e9a8fea", "profile": "http://www.citysearch.com/profile/775214350/marietta_ga/ragazzi_s.html", "address": {"city": "Marietta", "state": "GA", "street": "3696 Austell Rd SW", "postal_code": "30008"}, "capProviderId": null, "distance": null, "has_offers": false, "name": "Ragazzi's", "longitude": -84.595971, "has_menu": false, "awards": null, "user_review_count": 0}, {"business_operation_status": 1, "rating": null, "neighborhood": null, "image": null, "scorecard": null, "featured": false, "sample_categories": "Restaurants, Restaurant Management", "public_id": "jimlar-corp-mableton", "id": 37648465, "votes": null, "tagline": null, "has_video": false, "website": null, "offers": null, "latitude": 33.829896, "politanName": "Atlanta, GA Metro ", "phone_number": "7709486558", "tags": [{"primary": false, "id": 1722, "name": "Restaurants"}, {"primary": false, "id": 11122, "name": "Restaurant Management"}], "fax_number": null, "expansion": {"count": null, "uri": null}, "impression_id": "000b00000034f5902fb1fa4536ad5e471b1d065662", "profile": "http://www.citysearch.com/profile/37648465/mableton_ga/jim_lar_corp.html", "address": {"city": "Mableton", "state": "GA", "street": "665 Vinings Estates Dr SE", "postal_code": "30126"}, "capProviderId": null, "distance": null, "has_offers": false, "name": "Jim-Lar Corp", "longitude": -84.534087, "has_menu": false, "awards": null, "user_review_count": 0}, {"business_operation_status": 1, "rating": null, "neighborhood": null, "image": null, "scorecard": null, "featured": false, "sample_categories": "Restaurants, Delis And Delicatessens, Juice & Smoothie Shops", "public_id": "planet-smoothie-atlanta-11", "id": 790675480, "votes": null, "tagline": null, "has_video": false, "website": null, "offers": null, "latitude": 33.881743, "politanName": "Atlanta, GA Metro ", "phone_number": "7704356648", "tags": [{"primary": false, "id": 1727, "name": "Delis And Delicatessens"}, {"primary": false, "id": 1735, "name": "Juice & Smoothie Shops"}, {"primary": true, "id": 1722, "name": "Restaurants"}], "fax_number": null, "expansion": {"count": null, "uri": null}, "impression_id": "000b000000c5dbed6a816e4812a50d1e303c4a0186", "profile": "http://www.citysearch.com/profile/790675480/atlanta_ga/planet_smoothie.html", "address": {"city": "Atlanta", "state": "GA", "street": "1000 Cumberland Mall Se", "postal_code": "30339"}, "capProviderId": null, "distance": null, "has_offers": false, "name": "Planet Smoothie", "longitude": -84.470084, "has_menu": true, "awards": null, "user_review_count": 0}, {"business_operation_status": 1, "rating": null, "neighborhood": null, "image": null, "scorecard": null, "featured": false, "sample_categories": "Restaurants, Pizza", "public_id": "emkay-llc-marietta", "id": 802504650, "votes": null, "tagline": null, "has_video": false, "website": null, "offers": null, "latitude": 34.032174, "politanName": "Atlanta, GA Metro ", "phone_number": "6783248066", "tags": [{"primary": false, "id": 11299, "name": "Pizza"}, {"primary": true, "id": 1722, "name": "Restaurants"}], "fax_number": null, "expansion": {"count": null, "uri": null}, "impression_id": "000b0000009ea17dde05db4605a37be2266c56111b", "profile": "http://www.citysearch.com/profile/802504650/marietta_ga/emkay_llc.html", "address": {"city": "Marietta", "state": "GA", "street": "3372 Canton Rd", "postal_code": "30066"}, "capProviderId": null, "distance": null, "has_offers": false, "name": "Emkay LLC", "longitude": -84.527817, "has_menu": false, "awards": null, "user_review_count": 0}, {"business_operation_status": 1, "rating": null, "neighborhood": null, "image": null, "scorecard": null, "featured": false, "sample_categories": "Ice Cream Parlors, Restaurants, Dessert Shops, Frozen Yogurt Shops, Doughnut Shops", "public_id": "baskinrobbins-kennesaw", "id": 43858643, "votes": null, "tagline": null, "has_video": false, "website": "http://www.citysearch.com/profile/external/43858643/kennesaw_ga/baskin_robbins.html", "offers": null, "latitude": 34.03594, "politanName": "Atlanta, GA Metro ", "phone_number": "6783555518", "tags": [{"primary": false, "id": 1722, "name": "Restaurants"}, {"primary": false, "id": 1728, "name": "Dessert Shops"}, {"primary": false, "id": 1729, "name": "Frozen Yogurt Shops"}, {"primary": false, "id": 1734, "name": "Doughnut Shops"}, {"primary": true, "id": 1730, "name": "Ice Cream Parlors"}], "fax_number": null, "expansion": {"count": null, "uri": null}, "impression_id": "000b000000a49632b299844a1c83f55934adfddd27", "profile": "http://www.citysearch.com/profile/43858643/kennesaw_ga/baskin_robbins.html", "address": {"city": "Kennesaw", "state": "GA", "street": "741 Townpark Ln NW", "postal_code": "30144"}, "capProviderId": null, "distance": null, "has_offers": false, "name": "Baskin-Robbins", "longitude": -84.572269, "has_menu": true, "awards": null, "user_review_count": 0}, {"business_operation_status": 0, "rating": null, "neighborhood": null, "image": null, "scorecard": null, "featured": false, "sample_categories": "Restaurants, Fast Food, American Express, Discover, MasterCard", "public_id": "kfc-marietta-2", "id": 45557267, "votes": null, "tagline": null, "has_video": false, "website": "http://www.citysearch.com/profile/external/45557267/marietta_ga/kfc.html", "offers": null, "latitude": 33.971057, "politanName": "Atlanta, GA Metro ", "phone_number": "7709713374", "tags": [{"primary": false, "id": 11199, "name": "Fast Food"}, {"primary": false, "id": 11333, "name": "American Express"}, {"primary": false, "id": 11349, "name": "Discover"}, {"primary": false, "id": 11361, "name": "MasterCard"}, {"primary": false, "id": 11382, "name": "Visa"}, {"primary": false, "id": 12839, "name": "Chicken"}, {"primary": true, "id": 1722, "name": "Restaurants"}], "fax_number": null, "expansion": {"count": null, "uri": null}, "impression_id": "000b0000007ceac754c5e8477892290aba880f5dba", "profile": "http://www.citysearch.com/profile/45557267/marietta_ga/kfc.html", "address": {"city": "Marietta", "state": "GA", "street": "2220 Roswell Rd", "postal_code": "30062"}, "capProviderId": null, "distance": null, "has_offers": false, "name": "Kfc", "longitude": -84.487359, "has_menu": true, "awards": null, "user_review_count": 0}, {"business_operation_status": 1, "rating": null, "neighborhood": null, "image": null, "scorecard": null, "featured": false, "sample_categories": "Restaurants", "public_id": "houstons-restaurants-del-smyrna", "id": 810805950, "votes": null, "tagline": null, "has_video": false, "website": null, "offers": null, "latitude": 33.852594, "politanName": "Atlanta, GA Metro ", "phone_number": "7703338377", "tags": [{"primary": true, "id": 1722, "name": "Restaurants"}], "fax_number": null, "expansion": {"count": null, "uri": null}, "impression_id": "000b0000009e900c19759d446f81a5eb59692873f5", "profile": "http://www.citysearch.com/profile/810805950/smyrna_ga/houstons_restaurants_del.html", "address": {"city": "Smyrna", "state": "GA", "street": "4112 Oberon Dr SE", "postal_code": "30080"}, "capProviderId": null, "distance": null, "has_offers": false, "name": "Houstons Restaurants Del", "longitude": -84.487327, "has_menu": false, "awards": null, "user_review_count": 0}, {"business_operation_status": 1, "rating": null, "neighborhood": null, "image": null, "scorecard": null, "featured": false, "sample_categories": "Restaurants, Delis And Delicatessens, Sandwich Shops, Carry Out, Soups", "public_id": "subway-smyrna-7", "id": 43839574, "votes": null, "tagline": null, "has_video": false, "website": "http://www.citysearch.com/profile/external/43839574/smyrna_ga/subway.html", "offers": null, "latitude": 33.838117, "politanName": "Atlanta, GA Metro ", "phone_number": "4047991300", "tags": [{"primary": false, "id": 1727, "name": "Delis And Delicatessens"}, {"primary": false, "id": 1736, "name": "Sandwich Shops"}, {"primary": false, "id": 11247, "name": "Carry Out"}, {"primary": false, "id": 11311, "name": "Soups"}, {"primary": false, "id": 11333, "name": "American Express"}, {"primary": false, "id": 11349, "name": "Discover"}, {"primary": false, "id": 11361, "name": "MasterCard"}, {"primary": false, "id": 11382, "name": "Visa"}, {"primary": true, "id": 1722, "name": "Restaurants"}], "fax_number": null, "expansion": {"count": null, "uri": null}, "impression_id": "000b00000092cd48ce920948dd9cf1670cab6e88b9", "profile": "http://www.citysearch.com/profile/43839574/smyrna_ga/subway.html", "address": {"city": "Smyrna", "state": "GA", "street": "4725 S Atlanta Rd SE Ste D", "postal_code": "30080"}, "capProviderId": null, "distance": null, "has_offers": false, "name": "Subway", "longitude": -84.480226, "has_menu": true, "awards": null, "user_review_count": 0}, {"business_operation_status": 1, "rating": null, "neighborhood": null, "image": null, "scorecard": null, "featured": false, "sample_categories": "Restaurants, Delis And Delicatessens, Sandwich Shops, Carry Out, Soups", "public_id": "subway-marietta-35", "id": 43855738, "votes": null, "tagline": null, "has_video": false, "website": "http://www.citysearch.com/profile/external/43855738/marietta_ga/subway.html", "offers": null, "latitude": 33.949315, "politanName": "Atlanta, GA Metro ", "phone_number": "6785603332", "tags": [{"primary": false, "id": 1727, "name": "Delis And Delicatessens"}, {"primary": false, "id": 1736, "name": "Sandwich Shops"}, {"primary": false, "id": 11247, "name": "Carry Out"}, {"primary": false, "id": 11311, "name": "Soups"}, {"primary": false, "id": 11361, "name": "MasterCard"}, {"primary": false, "id": 11382, "name": "Visa"}, {"primary": true, "id": 1722, "name": "Restaurants"}], "fax_number": null, "expansion": {"count": null, "uri": null}, "impression_id": "000b000000669bd0e92bd6492283783fa3c793dece", "profile": "http://www.citysearch.com/profile/43855738/marietta_ga/subway.html", "address": {"city": "Marietta", "state": "GA", "street": "2044 Lower Roswell Rd", "postal_code": "30068"}, "capProviderId": null, "distance": null, "has_offers": false, "name": "Subway", "longitude": -84.49256, "has_menu": true, "awards": null, "user_review_count": 0}, {"business_operation_status": 1, "rating": null, "neighborhood": null, "image": null, "scorecard": null, "featured": false, "sample_categories": "Restaurants, Carry Out, American Express, Discover, MasterCard", "public_id": "zaxbys-kennesaw-2", "id": 43864981, "votes": null, "tagline": null, "has_video": false, "website": "http://www.citysearch.com/profile/external/43864981/kennesaw_ga/zaxby_s.html", "offers": null, "latitude": 34.036091, "politanName": "Atlanta, GA Metro ", "phone_number": "7704295778", "tags": [{"primary": false, "id": 11247, "name": "Carry Out"}, {"primary": false, "id": 11333, "name": "American Express"}, {"primary": false, "id": 11349, "name": "Discover"}, {"primary": false, "id": 11361, "name": "MasterCard"}, {"primary": false, "id": 11382, "name": "Visa"}, {"primary": false, "id": 12839, "name": "Chicken"}, {"primary": true, "id": 1722, "name": "Restaurants"}], "fax_number": null, "expansion": {"count": null, "uri": null}, "impression_id": "000b000000f24c2205316946eca9cc696c03e27aa1", "profile": "http://www.citysearch.com/profile/43864981/kennesaw_ga/zaxby_s.html", "address": {"city": "Kennesaw", "state": "GA", "street": "780 Townpark Ln NW", "postal_code": "30144"}, "capProviderId": null, "distance": null, "has_offers": false, "name": "Zaxby's", "longitude": -84.574531, "has_menu": true, "awards": null, "user_review_count": 0}, {"business_operation_status": 1, "rating": null, "neighborhood": null, "image": null, "scorecard": null, "featured": false, "sample_categories": "Restaurants", "public_id": "the-mad-italian-marietta", "id": 826162680, "votes": null, "tagline": null, "has_video": false, "website": null, "offers": null, "latitude": 33.974656, "politanName": "Atlanta, GA Metro ", "phone_number": "6782130564", "tags": [{"primary": true, "id": 1722, "name": "Restaurants"}], "fax_number": null, "expansion": {"count": null, "uri": null}, "impression_id": "000b000000b513438300524ec18f89aba8d239f7ed", "profile": "http://www.citysearch.com/profile/826162680/marietta_ga/the_mad_italian.html", "address": {"city": "Marietta", "state": "GA", "street": "980 E Piedmont Rd", "postal_code": "30062"}, "capProviderId": null, "distance": null, "has_offers": false, "name": "The Mad Italian", "longitude": -84.479091, "has_menu": true, "awards": null, "user_review_count": 0}, {"business_operation_status": 1, "rating": null, "neighborhood": null, "image": null, "scorecard": null, "featured": false, "sample_categories": "Restaurants, Delis And Delicatessens, Sandwich Shops, Carry Out, Soups", "public_id": "subway-marietta-23", "id": 45988791, "votes": null, "tagline": null, "has_video": false, "website": "http://www.citysearch.com/profile/external/45988791/marietta_ga/subway.html", "offers": null, "latitude": 33.868309, "politanName": "Atlanta, GA Metro ", "phone_number": "6783841428", "tags": [{"primary": false, "id": 1727, "name": "Delis And Delicatessens"}, {"primary": false, "id": 1736, "name": "Sandwich Shops"}, {"primary": false, "id": 11247, "name": "Carry Out"}, {"primary": false, "id": 11311, "name": "Soups"}, {"primary": true, "id": 1722, "name": "Restaurants"}], "fax_number": null, "expansion": {"count": null, "uri": null}, "impression_id": "000b000000684067da3da141b4a225173949fcf3ef", "profile": "http://www.citysearch.com/profile/45988791/marietta_ga/subway.html", "address": {"city": "Marietta", "state": "GA", "street": "6520 Ernest W Barrett Pkwy SW", "postal_code": "30064"}, "capProviderId": null, "distance": null, "has_offers": false, "name": "Subway", "longitude": -84.632278, "has_menu": true, "awards": null, "user_review_count": 0}], "histograms": [], "tag_ids": [1722], "uri": "http://api.citygridmedia.com:8080/search/places/v2/search/where?has_offers=false&type=restaurant&format=json&page=30&where=30060&rpp=50&histograms=false&publisher=10000009598&region_type=circle", "did_you_mean": "", "regions": [{"latitude": 33.92521, "default_radius": 3.68, "type": "postal_code", "name": "30060", "longitude": -84.546093}], "call_id": "000b00000047f8992a5cf14cc7af250e66ead33771", "first_hit": 1451, "total_hits": 2103, "geo_ids": [26291], "page": 30, "last_hit": 1500}}