{"results": {"rpp": 50, "locations": [{"business_operation_status": 1, "rating": null, "neighborhood": null, "image": null, "scorecard": null, "featured": false, "sample_categories": "Restaurants", "public_id": "gulf-street-grille-atlanta", "id": 37653138, "votes": null, "tagline": null, "has_video": false, "website": null, "offers": null, "latitude": 33.902397, "politanName": "Atlanta, GA Metro ", "phone_number": "7709539300", "tags": [{"primary": true, "id": 1722, "name": "Restaurants"}], "fax_number": null, "expansion": {"count": null, "uri": null}, "impression_id": "000b00000016f035b368774bce9db05e8db7216856", "profile": "http://www.citysearch.com/profile/37653138/atlanta_ga/gulf_street_grille.html", "address": {"city": "Atlanta", "state": "GA", "street": "2055 S Park Pl SE", "postal_code": "30339"}, "capProviderId": null, "distance": null, "has_offers": false, "name": "Gulf Street Grille", "longitude": -84.476611, "has_menu": false, "awards": null, "user_review_count": 0}, {"business_operation_status": 0, "rating": null, "neighborhood": null, "image": null, "scorecard": null, "featured": false, "sample_categories": "Restaurants", "public_id": "metanoya-cafe-marietta-2", "id": 621947010, "votes": null, "tagline": null, "has_video": false, "website": null, "offers": null, "latitude": 33.950996, "politanName": "Atlanta, GA Metro ", "phone_number": "7709889262", "tags": [{"primary": true, "id": 1722, "name": "Restaurants"}], "fax_number": null, "expansion": {"count": null, "uri": null}, "impression_id": "000b000000e25c5dbdef164eb09e2b5987a91202de", "profile": "http://www.citysearch.com/profile/621947010/marietta_ga/metanoya_cafe.html", "address": {"city": "Marietta", "state": "GA", "street": "255 Village Pkwy Ne", "postal_code": "30067"}, "capProviderId": null, "distance": null, "has_offers": false, "name": "Metanoya Cafe", "longitude": -84.413999, "has_menu": false, "awards": null, "user_review_count": 3}, {"business_operation_status": 1, "rating": null, "neighborhood": null, "image": null, "scorecard": null, "featured": false, "sample_categories": "Coffee & Tea Shops, Restaurants, Deordorant, Soap, Glue", "public_id": "southern-tea-llc-marietta-2", "id": 43853814, "votes": null, "tagline": null, "has_video": false, "website": null, "offers": null, "latitude": 33.983317, "politanName": "Atlanta, GA Metro ", "phone_number": "7705901221", "tags": [{"primary": false, "id": 1711, "name": "Coffee & Tea Shops"}, {"primary": false, "id": 1722, "name": "Restaurants"}, {"primary": false, "id": 23400, "name": "Deordorant"}, {"primary": false, "id": 23410, "name": "Soap"}, {"primary": false, "id": 24950, "name": "Glue"}, {"primary": false, "id": 25880, "name": "Air Fresheners"}, {"primary": false, "id": 3922, "name": "General Merchandise Stores"}, {"primary": true, "id": 11147, "name": "Tea"}], "fax_number": null, "expansion": {"count": null, "uri": null}, "impression_id": "000b000000eab873e1b1e44e39981852dc28264070", "profile": "http://www.citysearch.com/profile/43853814/marietta_ga/southern_tea_llc.html", "address": {"city": "Marietta", "state": "GA", "street": "1491 Cobb Industrial Dr", "postal_code": "30066"}, "capProviderId": null, "distance": null, "has_offers": false, "name": "Southern Tea Llc", "longitude": -84.534242, "has_menu": false, "awards": null, "user_review_count": 1}, {"business_operation_status": 1, "rating": null, "neighborhood": null, "image": null, "scorecard": null, "featured": false, "sample_categories": "Restaurants", "public_id": "specialty-restaurant-group-inc-kennesaw", "id": 648896300, "votes": null, "tagline": null, "has_video": false, "website": "http://www.citysearch.com/profile/external/648896300/kennesaw_ga/specialty_restaurant_group_inc.html", "offers": null, "latitude": 34.015329, "politanName": "Atlanta, GA Metro ", "phone_number": "7704997878", "tags": [{"primary": true, "id": 1722, "name": "Restaurants"}], "fax_number": null, "expansion": {"count": null, "uri": null}, "impression_id": "000b000000ed0a0503f74140568289d39b34743b31", "profile": "http://www.citysearch.com/profile/648896300/kennesaw_ga/specialty_restaurant_group_inc.html", "address": {"city": "Kennesaw", "state": "GA", "street": "2500 Cobb Pkwy NW Ste B7", "postal_code": "30152"}, "capProviderId": null, "distance": null, "has_offers": false, "name": "Specialty Restaurant Group Inc", "longitude": -84.615064, "has_menu": false, "awards": null, "user_review_count": 0}, {"business_operation_status": 1, "rating": null, "neighborhood": null, "image": null, "scorecard": null, "featured": false, "sample_categories": "Bars & Pubs, Bars & Clubs, Restaurants", "public_id": "all-american-tavern-marietta-2", "id": 653592570, "votes": null, "tagline": null, "has_video": false, "website": null, "offers": null, "latitude": 33.965359, "politanName": "Atlanta, GA Metro ", "phone_number": "7709712292", "tags": [{"primary": false, "id": 164, "name": "Bars & Clubs"}, {"primary": false, "id": 1722, "name": "Restaurants"}, {"primary": true, "id": 1686, "name": "Bars & Pubs"}], "fax_number": null, "expansion": {"count": null, "uri": null}, "impression_id": "000b0000007649559dd90d45ff82559a1d6a35168b", "profile": "http://www.citysearch.com/profile/653592570/marietta_ga/all_american_tavern.html", "address": {"city": "Marietta", "state": "GA", "street": "4930 Davidson Rd Ne", "postal_code": "30068"}, "capProviderId": null, "distance": null, "has_offers": false, "name": "All American Tavern", "longitude": -84.406436, "has_menu": false, "awards": null, "user_review_count": 0}, {"business_operation_status": 1, "rating": null, "neighborhood": null, "image": null, "scorecard": null, "featured": false, "sample_categories": "Restaurants", "public_id": "jmc-restaurant-distribution-kennesaw", "id": 601313826, "votes": null, "tagline": null, "has_video": false, "website": "http://www.citysearch.com/profile/external/601313826/kennesaw_ga/jmc_restaurant_distribution.html", "offers": null, "latitude": 34.011176, "politanName": "Atlanta, GA Metro ", "phone_number": "7705281170", "tags": [{"primary": true, "id": 1722, "name": "Restaurants"}], "fax_number": null, "expansion": {"count": null, "uri": null}, "impression_id": "000b00000065c8ead23ee0408cad5fb86a31dca124", "profile": "http://www.citysearch.com/profile/601313826/kennesaw_ga/jmc_restaurant_distribution.html", "address": {"city": "Kennesaw", "state": "GA", "street": "980 Cobb Place Blvd Nw # 240", "postal_code": "30144"}, "capProviderId": null, "distance": null, "has_offers": false, "name": "Jmc Restaurant Distribution", "longitude": -84.581645, "has_menu": false, "awards": null, "user_review_count": 0}, {"business_operation_status": 1, "rating": null, "neighborhood": null, "image": null, "scorecard": null, "featured": false, "sample_categories": "Delis And Delicatessens", "public_id": "kroger-deli-roswell-2", "id": 696362330, "votes": null, "tagline": null, "has_video": false, "website": null, "offers": null, "latitude": 34.054243, "politanName": "Atlanta, GA Metro ", "phone_number": "7706402070", "tags": [{"primary": true, "id": 1727, "name": "Delis And Delicatessens"}], "fax_number": null, "expansion": {"count": null, "uri": null}, "impression_id": "000b000000d9cc176db186474e82ae19a1062afb99", "profile": "http://www.citysearch.com/profile/696362330/roswell_ga/kroger_deli.html", "address": {"city": "Roswell", "state": "GA", "street": "570 E Crossville Rd", "postal_code": "30075"}, "capProviderId": null, "distance": null, "has_offers": false, "name": "Kroger Deli", "longitude": -84.378213, "has_menu": false, "awards": null, "user_review_count": 0}, {"business_operation_status": 1, "rating": null, "neighborhood": null, "image": null, "scorecard": null, "featured": false, "sample_categories": "Delis And Delicatessens", "public_id": "kroger-deli-alpharetta-5", "id": 700730470, "votes": null, "tagline": null, "has_video": false, "website": "http://www.citysearch.com/profile/external/700730470/alpharetta_ga/kroger_deli.html", "offers": null, "latitude": 34.085638, "politanName": "Atlanta, GA Metro ", "phone_number": "7707402050", "tags": [{"primary": true, "id": 1727, "name": "Delis And Delicatessens"}], "fax_number": null, "expansion": {"count": null, "uri": null}, "impression_id": "000b000000131a2b9ecebc48b19c4b11718b0f4fae", "profile": "http://www.citysearch.com/profile/700730470/alpharetta_ga/kroger_deli.html", "address": {"city": "Alpharetta", "state": "GA", "street": "12460 Crabapple Rd # 301", "postal_code": "30004"}, "capProviderId": null, "distance": null, "has_offers": false, "name": "Kroger Deli", "longitude": -84.356689, "has_menu": false, "awards": null, "user_review_count": 0}, {"business_operation_status": 1, "rating": null, "neighborhood": null, "image": null, "scorecard": null, "featured": false, "sample_categories": "Restaurants", "public_id": "mughals-marietta", "id": 672132640, "votes": null, "tagline": null, "has_video": false, "website": null, "offers": null, "latitude": 33.907587, "politanName": "Atlanta, GA Metro ", "phone_number": "7709553130", "tags": [{"primary": true, "id": 1722, "name": "Restaurants"}], "fax_number": null, "expansion": {"count": null, "uri": null}, "impression_id": "000b000000e47787768291457a93339de9eee7eaec", "profile": "http://www.citysearch.com/profile/672132640/marietta_ga/mughals.html", "address": {"city": "Marietta", "state": "GA", "street": "1869 S Cobb Dr SE", "postal_code": "30060"}, "capProviderId": null, "distance": null, "has_offers": false, "name": "Mughals", "longitude": -84.543502, "has_menu": false, "awards": null, "user_review_count": 0}, {"business_operation_status": 1, "rating": null, "neighborhood": null, "image": null, "scorecard": null, "featured": false, "sample_categories": "Sandwich Shops, Restaurants, Cafes, Soups", "public_id": "cafe-400-atlanta-2", "id": 3045220, "votes": null, "tagline": null, "has_video": false, "website": null, "offers": null, "latitude": 33.983154, "politanName": "Atlanta, GA Metro ", "phone_number": "7709933322", "tags": [{"primary": false, "id": 1722, "name": "Restaurants"}, {"primary": false, "id": 6190, "name": "Cafes"}, {"primary": false, "id": 11311, "name": "Soups"}, {"primary": true, "id": 1736, "name": "Sandwich Shops"}], "fax_number": null, "expansion": {"count": null, "uri": null}, "impression_id": "000b000000989ce2b7c5bc4d5b84666a0675f83d52", "profile": "http://www.citysearch.com/profile/3045220/atlanta_ga/cafe_400.html", "address": {"city": "Atlanta", "state": "GA", "street": "400 Northridge Rd Ste 100", "postal_code": "30350"}, "capProviderId": null, "distance": null, "has_offers": false, "name": "Cafe 400", "longitude": -84.346488, "has_menu": false, "awards": null, "user_review_count": 0}, {"business_operation_status": 1, "rating": null, "neighborhood": null, "image": null, "scorecard": null, "featured": false, "sample_categories": "Restaurants", "public_id": "taco-l-1000000-marietta", "id": 607688524, "votes": null, "tagline": null, "has_video": false, "website": null, "offers": null, "latitude": 33.902769, "politanName": "Atlanta, GA Metro ", "phone_number": "6783090482", "tags": [{"primary": true, "id": 1722, "name": "Restaurants"}], "fax_number": null, "expansion": {"count": null, "uri": null}, "impression_id": "000b0000000ae75310390f4e20828e782935a05fa5", "profile": "http://www.citysearch.com/profile/607688524/marietta_ga/taco_l_1000000.html", "address": {"city": "Marietta", "state": "GA", "street": "2080 Favor Rd SW", "postal_code": "30060"}, "capProviderId": null, "distance": null, "has_offers": false, "name": "Taco L 1000000", "longitude": -84.564621, "has_menu": false, "awards": null, "user_review_count": 0}, {"business_operation_status": 1, "rating": null, "neighborhood": null, "image": null, "scorecard": null, "featured": false, "sample_categories": "Restaurants, Delis And Delicatessens, Sandwich Shops, Carry Out", "public_id": "blimpie-subs-salads-kennesaw-2", "id": 713401400, "votes": null, "tagline": null, "has_video": false, "website": "http://www.citysearch.com/profile/external/713401400/kennesaw_ga/blimpie_subs_salads.html", "offers": null, "latitude": 34.00436, "politanName": "Atlanta, GA Metro ", "phone_number": "7704245088", "tags": [{"primary": false, "id": 1727, "name": "Delis And Delicatessens"}, {"primary": false, "id": 1736, "name": "Sandwich Shops"}, {"primary": false, "id": 11247, "name": "Carry Out"}, {"primary": true, "id": 1722, "name": "Restaurants"}], "fax_number": null, "expansion": {"count": null, "uri": null}, "impression_id": "000b000000eac8940184744aaf9c22588b56981f30", "profile": "http://www.citysearch.com/profile/713401400/kennesaw_ga/blimpie_subs_salads.html", "address": {"city": "Kennesaw", "state": "GA", "street": "667 Ernest W Barrett Pkwy NW", "postal_code": "30144"}, "capProviderId": null, "distance": null, "has_offers": false, "name": "Blimpie Subs & Salads", "longitude": -84.572087, "has_menu": false, "awards": null, "user_review_count": 0}, {"business_operation_status": 1, "rating": null, "neighborhood": null, "image": null, "scorecard": null, "featured": false, "sample_categories": "Frozen Yogurt Shops, Restaurants, Ice Cream Parlors", "public_id": "menchies-frozen-yogurt-roswell", "id": 604584852, "votes": null, "tagline": null, "has_video": false, "website": "http://www.citysearch.com/profile/external/604584852/roswell_ga/menchie_s_frozen_yogurt.html", "offers": null, "latitude": 34.073066, "politanName": "Atlanta, GA Metro ", "phone_number": "7709927992", "tags": [{"primary": false, "id": 1722, "name": "Restaurants"}, {"primary": false, "id": 1730, "name": "Ice Cream Parlors"}, {"primary": true, "id": 1729, "name": "Frozen Yogurt Shops"}], "fax_number": null, "expansion": {"count": null, "uri": null}, "impression_id": "000b000000bb6df10666b544739605ac043ef21597", "profile": "http://www.citysearch.com/profile/604584852/roswell_ga/menchie_s_frozen_yogurt.html", "address": {"city": "Roswell", "state": "GA", "street": "12030 Etris Rd Ste C120", "postal_code": "30075"}, "capProviderId": null, "distance": null, "has_offers": false, "name": "Menchie's Frozen Yogurt", "longitude": -84.362276, "has_menu": false, "awards": null, "user_review_count": 1}, {"business_operation_status": 1, "rating": null, "neighborhood": null, "image": null, "scorecard": null, "featured": false, "sample_categories": "Restaurants", "public_id": "best-friends-cafe-incorporated-marietta", "id": 37645592, "votes": null, "tagline": null, "has_video": false, "website": null, "offers": null, "latitude": 33.951322, "politanName": "Atlanta, GA Metro ", "phone_number": "7707920506", "tags": [{"primary": true, "id": 1722, "name": "Restaurants"}], "fax_number": null, "expansion": {"count": null, "uri": null}, "impression_id": "000b000000357225ce046d4ae9a1f36b4e5c0eeaba", "profile": "http://www.citysearch.com/profile/37645592/marietta_ga/best_friends_cafe_incorporated.html", "address": {"city": "Marietta", "state": "GA", "street": "749 Roswell St NE", "postal_code": "30060"}, "capProviderId": null, "distance": null, "has_offers": false, "name": "Best Friends Cafe Incorporated", "longitude": -84.530069, "has_menu": false, "awards": null, "user_review_count": 0}, {"business_operation_status": 1, "rating": 6.0, "neighborhood": null, "image": null, "scorecard": null, "featured": false, "sample_categories": "Restaurants, Mexican, American Express, Discover, MasterCard", "public_id": "el-taco-azteca-mexican-grille-kennesaw", "id": 43859514, "votes": null, "tagline": null, "has_video": false, "website": "http://www.citysearch.com/profile/external/43859514/kennesaw_ga/el_taco_azteca_mexican_grille.html", "offers": null, "latitude": 34.020557, "politanName": "Atlanta, GA Metro ", "phone_number": "7709191609", "tags": [{"primary": false, "id": 11208, "name": "Mexican"}, {"primary": false, "id": 11333, "name": "American Express"}, {"primary": false, "id": 11349, "name": "Discover"}, {"primary": false, "id": 11361, "name": "MasterCard"}, {"primary": false, "id": 11382, "name": "Visa"}, {"primary": true, "id": 1722, "name": "Restaurants"}], "fax_number": null, "expansion": {"count": null, "uri": null}, "impression_id": "000b0000007a86152ecebb49189b99d8b9d69c6880", "profile": "http://www.citysearch.com/profile/43859514/kennesaw_ga/el_taco_azteca_mexican_grille.html", "address": {"city": "Kennesaw", "state": "GA", "street": "2752 S Main St NW", "postal_code": "30144"}, "capProviderId": null, "distance": null, "has_offers": false, "name": "El Taco Azteca Mexican Grille", "longitude": -84.612558, "has_menu": false, "awards": null, "user_review_count": 3}, {"business_operation_status": 1, "rating": null, "neighborhood": null, "image": null, "scorecard": null, "featured": false, "sample_categories": "Restaurants", "public_id": "dresser-search-consulting-marietta", "id": 632998900, "votes": null, "tagline": null, "has_video": false, "website": null, "offers": null, "latitude": 33.953943, "politanName": "Atlanta, GA Metro ", "phone_number": "6785608788", "tags": [{"primary": true, "id": 1722, "name": "Restaurants"}], "fax_number": null, "expansion": {"count": null, "uri": null}, "impression_id": "000b0000008321018426ca4bbb84f68c5af8fb5b8e", "profile": "http://www.citysearch.com/profile/632998900/marietta_ga/dresser_search_consulting.html", "address": {"city": "Marietta", "state": "GA", "street": "3486 Brookview Dr", "postal_code": "30068"}, "capProviderId": null, "distance": null, "has_offers": false, "name": "Dresser Search & Consulting", "longitude": -84.451005, "has_menu": false, "awards": null, "user_review_count": 0}, {"business_operation_status": 1, "rating": null, "neighborhood": null, "image": null, "scorecard": null, "featured": false, "sample_categories": "Catering, Restaurants, Pizza", "public_id": "rays-new-york-pizza-kennesaw-2", "id": 653618780, "votes": null, "tagline": null, "has_video": false, "website": "http://www.citysearch.com/profile/external/653618780/kennesaw_ga/ray_s_new_york_pizza.html", "offers": null, "latitude": 34.037182, "politanName": "Atlanta, GA Metro ", "phone_number": "7704249000", "tags": [{"primary": false, "id": 1705, "name": "Catering"}, {"primary": false, "id": 1722, "name": "Restaurants"}, {"primary": true, "id": 11299, "name": "Pizza"}], "fax_number": null, "expansion": {"count": null, "uri": null}, "impression_id": "000b00000072af2326dbb74c91a1e796ec371b0ad6", "profile": "http://www.citysearch.com/profile/653618780/kennesaw_ga/ray_s_new_york_pizza.html", "address": {"city": "Kennesaw", "state": "GA", "street": "600 Chastain Rd Nw", "postal_code": "30144"}, "capProviderId": null, "distance": null, "has_offers": false, "name": "Ray's New York Pizza", "longitude": -84.567518, "has_menu": false, "awards": null, "user_review_count": 0}, {"business_operation_status": 1, "rating": null, "neighborhood": null, "image": null, "scorecard": null, "featured": false, "sample_categories": "Restaurants", "public_id": "luckys-shaved-ice-marietta", "id": 673025380, "votes": null, "tagline": null, "has_video": false, "website": null, "offers": null, "latitude": 34.042549, "politanName": "Atlanta, GA Metro ", "phone_number": "7703541975", "tags": [{"primary": true, "id": 1722, "name": "Restaurants"}], "fax_number": null, "expansion": {"count": null, "uri": null}, "impression_id": "000b00000040455d3cc6ff4d82b20bd34a3a53ed73", "profile": "http://www.citysearch.com/profile/673025380/marietta_ga/lucky_s_shaved_ice.html", "address": {"city": "Marietta", "state": "GA", "street": "2323 Shallowford rd", "postal_code": "30066"}, "capProviderId": null, "distance": null, "has_offers": false, "name": "Lucky's Shaved Ice", "longitude": -84.482558, "has_menu": false, "awards": null, "user_review_count": 0}, {"business_operation_status": 1, "rating": null, "neighborhood": null, "image": null, "scorecard": null, "featured": false, "sample_categories": "Restaurants", "public_id": "sun-rise-cafe-marietta", "id": 811484560, "votes": null, "tagline": null, "has_video": false, "website": null, "offers": null, "latitude": 33.903093, "politanName": "Atlanta, GA Metro ", "phone_number": "7704310203", "tags": [{"primary": true, "id": 1722, "name": "Restaurants"}], "fax_number": null, "expansion": {"count": null, "uri": null}, "impression_id": "000b00000060c97a61851548948edb092d931a34a0", "profile": "http://www.citysearch.com/profile/811484560/marietta_ga/sun_rise_cafe.html", "address": {"city": "Marietta", "state": "GA", "street": "2052 S Cobb Dr SE", "postal_code": "30060"}, "capProviderId": null, "distance": null, "has_offers": false, "name": "Sun Rise Cafe", "longitude": -84.542386, "has_menu": false, "awards": null, "user_review_count": 0}, {"business_operation_status": 1, "rating": null, "neighborhood": null, "image": null, "scorecard": null, "featured": false, "sample_categories": "Restaurants", "public_id": "blues-brothers-entertainment-woodstock", "id": 37091317, "votes": null, "tagline": null, "has_video": false, "website": null, "offers": null, "latitude": 34.089184, "politanName": "Atlanta, GA Metro ", "phone_number": "7709268006", "tags": [{"primary": true, "id": 1722, "name": "Restaurants"}], "fax_number": null, "expansion": {"count": null, "uri": null}, "impression_id": "000b0000000431b1bdcd9b4e1789eb1abeeea17fbf", "profile": "http://www.citysearch.com/profile/37091317/woodstock_ga/blues_brothers_entertainment.html", "address": {"city": "Woodstock", "state": "GA", "street": "12195 Hwy 92", "postal_code": "30188"}, "capProviderId": null, "distance": null, "has_offers": false, "name": "Blues Brothers Entertainment", "longitude": -84.483229, "has_menu": false, "awards": null, "user_review_count": 0}, {"business_operation_status": 1, "rating": null, "neighborhood": null, "image": null, "scorecard": null, "featured": false, "sample_categories": "Restaurants", "public_id": "san-miguel-mexican-roswell", "id": 823540700, "votes": null, "tagline": null, "has_video": false, "website": null, "offers": null, "latitude": 34.022969, "politanName": "Atlanta, GA Metro ", "phone_number": "7706418127", "tags": [{"primary": true, "id": 1722, "name": "Restaurants"}], "fax_number": null, "expansion": {"count": null, "uri": null}, "impression_id": "000b0000002d41828ce5d84ff0b58d3774382bc8a6", "profile": "http://www.citysearch.com/profile/823540700/roswell_ga/san_miguel_mexican.html", "address": {"city": "Roswell", "state": "GA", "street": "1085 Holcomb Bridge Rd # 210", "postal_code": "30076"}, "capProviderId": null, "distance": null, "has_offers": false, "name": "San Miguel Mexican", "longitude": -84.329534, "has_menu": false, "awards": null, "user_review_count": 0}, {"business_operation_status": 1, "rating": null, "neighborhood": null, "image": null, "scorecard": null, "featured": false, "sample_categories": "Restaurants", "public_id": "el-bolero-sandy", "id": 831280770, "votes": null, "tagline": null, "has_video": false, "website": null, "offers": null, "latitude": 34.000887, "politanName": "Atlanta, GA Metro ", "phone_number": "7706408824", "tags": [{"primary": true, "id": 1722, "name": "Restaurants"}], "fax_number": null, "expansion": {"count": null, "uri": null}, "impression_id": "000b00000077ec1031b8944e63bd67af8f8a5697eb", "profile": "http://www.citysearch.com/profile/831280770/sandy_springs_ga/el_bolero.html", "address": {"city": "Sandy Springs", "state": "GA", "street": "8849 Roswell Rd", "postal_code": "30350"}, "capProviderId": null, "distance": null, "has_offers": false, "name": "El Bolero", "longitude": -84.350415, "has_menu": true, "awards": null, "user_review_count": 0}, {"business_operation_status": 1, "rating": null, "neighborhood": null, "image": null, "scorecard": null, "featured": false, "sample_categories": "Restaurants, Barbecue Restaurants, Carry Out, Pizza", "public_id": "wing-street-marietta-2", "id": 764937860, "votes": null, "tagline": null, "has_video": false, "website": "http://www.citysearch.com/profile/external/764937860/marietta_ga/wing_street.html", "offers": null, "latitude": 33.917361, "politanName": "Atlanta, GA Metro ", "phone_number": "7709538900", "tags": [{"primary": false, "id": 1724, "name": "Barbecue Restaurants"}, {"primary": false, "id": 11247, "name": "Carry Out"}, {"primary": false, "id": 11299, "name": "Pizza"}, {"primary": true, "id": 1722, "name": "Restaurants"}], "fax_number": null, "expansion": {"count": null, "uri": null}, "impression_id": "000b0000008749eec5698c4b8a8b25c85a32c80dbb", "profile": "http://www.citysearch.com/profile/764937860/marietta_ga/wing_street.html", "address": {"city": "Marietta", "state": "GA", "street": "1480 Terrell Mill Rd SE", "postal_code": "30067"}, "capProviderId": null, "distance": null, "has_offers": false, "name": "Wing Street", "longitude": -84.46861, "has_menu": false, "awards": null, "user_review_count": 0}, {"business_operation_status": 1, "rating": null, "neighborhood": null, "image": null, "scorecard": null, "featured": false, "sample_categories": "Restaurants", "public_id": "yoland-trade-co-marietta", "id": 766788970, "votes": null, "tagline": null, "has_video": false, "website": null, "offers": null, "latitude": 34.017093, "politanName": "Atlanta, GA Metro ", "phone_number": "7705651995", "tags": [{"primary": true, "id": 1722, "name": "Restaurants"}], "fax_number": null, "expansion": {"count": null, "uri": null}, "impression_id": "000b0000008381ea0792fa497babe00ef9a864b5a6", "profile": "http://www.citysearch.com/profile/766788970/marietta_ga/yoland_trade_co.html", "address": {"city": "Marietta", "state": "GA", "street": "2731 Sandy Plains Rd # A", "postal_code": "30066"}, "capProviderId": null, "distance": null, "has_offers": false, "name": "Yoland Trade Co", "longitude": -84.492328, "has_menu": false, "awards": null, "user_review_count": 0}, {"business_operation_status": 1, "rating": null, "neighborhood": null, "image": null, "scorecard": null, "featured": false, "sample_categories": "Restaurants, Mexican, Carry Out", "public_id": "taco-bell-marietta-10", "id": 775210570, "votes": null, "tagline": null, "has_video": false, "website": "http://www.citysearch.com/profile/external/775210570/marietta_ga/taco_bell.html", "offers": null, "latitude": 33.924583, "politanName": "Atlanta, GA Metro ", "phone_number": "7705907481", "tags": [{"primary": false, "id": 11208, "name": "Mexican"}, {"primary": false, "id": 11247, "name": "Carry Out"}, {"primary": true, "id": 1722, "name": "Restaurants"}], "fax_number": null, "expansion": {"count": null, "uri": null}, "impression_id": "000b000000c89f8fce2e22467a8456174f902207fe", "profile": "http://www.citysearch.com/profile/775210570/marietta_ga/taco_bell.html", "address": {"city": "Marietta", "state": "GA", "street": "1180 Powder Springs St", "postal_code": "30064"}, "capProviderId": null, "distance": null, "has_offers": false, "name": "Taco Bell", "longitude": -84.575231, "has_menu": false, "awards": null, "user_review_count": 0}, {"business_operation_status": 1, "rating": null, "neighborhood": null, "image": null, "scorecard": null, "featured": false, "sample_categories": "Restaurants", "public_id": "cafe-internet-marietta", "id": 775213360, "votes": null, "tagline": null, "has_video": false, "website": null, "offers": null, "latitude": 33.938913, "politanName": "Atlanta, GA Metro ", "phone_number": "6785940304", "tags": [{"primary": true, "id": 1722, "name": "Restaurants"}], "fax_number": null, "expansion": {"count": null, "uri": null}, "impression_id": "000b000000c885dc3f087048ae9f08baa80530c3b6", "profile": "http://www.citysearch.com/profile/775213360/marietta_ga/cafe_internet.html", "address": {"city": "Marietta", "state": "GA", "street": "550 Franklin Rd SE", "postal_code": "30067"}, "capProviderId": null, "distance": null, "has_offers": false, "name": "Cafe Internet", "longitude": -84.507658, "has_menu": false, "awards": null, "user_review_count": 0}, {"business_operation_status": 1, "rating": null, "neighborhood": null, "image": null, "scorecard": null, "featured": false, "sample_categories": "Restaurants", "public_id": "pressed-marietta", "id": 787100030, "votes": null, "tagline": null, "has_video": false, "website": null, "offers": null, "latitude": 33.952269, "politanName": "Atlanta, GA Metro ", "phone_number": "7704853759", "tags": [{"primary": true, "id": 1722, "name": "Restaurants"}], "fax_number": null, "expansion": {"count": null, "uri": null}, "impression_id": "000b0000001d80a071721c4e4a81d9babe71ff9506", "profile": "http://www.citysearch.com/profile/787100030/marietta_ga/pressed.html", "address": {"city": "Marietta", "state": "GA", "street": "30 S Park Sq Ne", "postal_code": "30060"}, "capProviderId": null, "distance": null, "has_offers": false, "name": "Pressed", "longitude": -84.550109, "has_menu": false, "awards": null, "user_review_count": 0}, {"business_operation_status": 1, "rating": null, "neighborhood": null, "image": null, "scorecard": null, "featured": false, "sample_categories": "Restaurants, Pizza", "public_id": "emkay-llc-marietta", "id": 802504650, "votes": null, "tagline": null, "has_video": false, "website": null, "offers": null, "latitude": 34.032174, "politanName": "Atlanta, GA Metro ", "phone_number": "6783248066", "tags": [{"primary": false, "id": 11299, "name": "Pizza"}, {"primary": true, "id": 1722, "name": "Restaurants"}], "fax_number": null, "expansion": {"count": null, "uri": null}, "impression_id": "000b00000098b3545cbca04f249f02929c26876bff", "profile": "http://www.citysearch.com/profile/802504650/marietta_ga/emkay_llc.html", "address": {"city": "Marietta", "state": "GA", "street": "3372 Canton Rd", "postal_code": "30066"}, "capProviderId": null, "distance": null, "has_offers": false, "name": "Emkay LLC", "longitude": -84.527817, "has_menu": false, "awards": null, "user_review_count": 0}, {"business_operation_status": 1, "rating": null, "neighborhood": null, "image": null, "scorecard": null, "featured": false, "sample_categories": "Restaurants, Delis And Delicatessens, Sandwich Shops, American Express, Discover", "public_id": "jersey-mikes-subs-marietta", "id": 43853819, "votes": null, "tagline": null, "has_video": false, "website": null, "offers": null, "latitude": 34.03494, "politanName": "Atlanta, GA Metro ", "phone_number": "7705783973", "tags": [{"primary": false, "id": 1727, "name": "Delis And Delicatessens"}, {"primary": false, "id": 1736, "name": "Sandwich Shops"}, {"primary": false, "id": 11333, "name": "American Express"}, {"primary": false, "id": 11349, "name": "Discover"}, {"primary": false, "id": 11361, "name": "MasterCard"}, {"primary": false, "id": 11382, "name": "Visa"}, {"primary": true, "id": 1722, "name": "Restaurants"}], "fax_number": null, "expansion": {"count": null, "uri": null}, "impression_id": "000b0000009d80cfff70c74d4683ebf5666e7b4ea1", "profile": "http://www.citysearch.com/profile/43853819/marietta_ga/jersey_mike_s_subs.html", "address": {"city": "Marietta", "state": "GA", "street": "2960 Shallowford Rd 106", "postal_code": "30066"}, "capProviderId": null, "distance": null, "has_offers": false, "name": "Jersey Mike's Subs", "longitude": -84.466773, "has_menu": true, "awards": null, "user_review_count": 0}, {"business_operation_status": 1, "rating": null, "neighborhood": null, "image": null, "scorecard": null, "featured": false, "sample_categories": "Ice Cream Parlors, Restaurants, Dessert Shops, Frozen Yogurt Shops, Doughnut Shops", "public_id": "baskinrobbins-kennesaw", "id": 43858643, "votes": null, "tagline": null, "has_video": false, "website": "http://www.citysearch.com/profile/external/43858643/kennesaw_ga/baskin_robbins.html", "offers": null, "latitude": 34.03594, "politanName": "Atlanta, GA Metro ", "phone_number": "6783555518", "tags": [{"primary": false, "id": 1722, "name": "Restaurants"}, {"primary": false, "id": 1728, "name": "Dessert Shops"}, {"primary": false, "id": 1729, "name": "Frozen Yogurt Shops"}, {"primary": false, "id": 1734, "name": "Doughnut Shops"}, {"primary": true, "id": 1730, "name": "Ice Cream Parlors"}], "fax_number": null, "expansion": {"count": null, "uri": null}, "impression_id": "000b000000f2632e750c9e41e2aefded8ba9997537", "profile": "http://www.citysearch.com/profile/43858643/kennesaw_ga/baskin_robbins.html", "address": {"city": "Kennesaw", "state": "GA", "street": "741 Townpark Ln NW", "postal_code": "30144"}, "capProviderId": null, "distance": null, "has_offers": false, "name": "Baskin-Robbins", "longitude": -84.572269, "has_menu": true, "awards": null, "user_review_count": 0}, {"business_operation_status": 1, "rating": 10.0, "neighborhood": null, "image": null, "scorecard": null, "featured": false, "sample_categories": "Restaurants, Fast Food, Carry Out, Hamburgers, American Express", "public_id": "mc-donalds-woodstock", "id": 43864384, "votes": null, "tagline": null, "has_video": false, "website": "http://www.citysearch.com/profile/external/43864384/woodstock_ga/mc_donald_s.html", "offers": null, "latitude": 34.087494, "politanName": "Atlanta, GA Metro ", "phone_number": "7709246912", "tags": [{"primary": false, "id": 11199, "name": "Fast Food"}, {"primary": false, "id": 11247, "name": "Carry Out"}, {"primary": false, "id": 11270, "name": "Hamburgers"}, {"primary": false, "id": 11333, "name": "American Express"}, {"primary": false, "id": 11349, "name": "Discover"}, {"primary": false, "id": 11361, "name": "MasterCard"}, {"primary": false, "id": 11382, "name": "Visa"}, {"primary": true, "id": 1722, "name": "Restaurants"}], "fax_number": null, "expansion": {"count": null, "uri": null}, "impression_id": "000b0000002c561fe3dd144ff99d88cafdb108330b", "profile": "http://www.citysearch.com/profile/43864384/woodstock_ga/mc_donald_s.html", "address": {"city": "Woodstock", "state": "GA", "street": "12156 Highway 92", "postal_code": "30188"}, "capProviderId": null, "distance": null, "has_offers": false, "name": "Mc Donald's", "longitude": -84.483189, "has_menu": true, "awards": null, "user_review_count": 0}, {"business_operation_status": 1, "rating": null, "neighborhood": null, "image": null, "scorecard": null, "featured": false, "sample_categories": "Restaurants, Pizza", "public_id": "pizzano-s-pizzeria-inc-roswell", "id": 807569560, "votes": null, "tagline": null, "has_video": false, "website": null, "offers": null, "latitude": 34.003826, "politanName": "Atlanta, GA Metro ", "phone_number": "7706401511", "tags": [{"primary": false, "id": 1722, "name": "Restaurants"}, {"primary": true, "id": 11299, "name": "Pizza"}], "fax_number": null, "expansion": {"count": null, "uri": null}, "impression_id": "000b000000f550815964744f98ba0ab1ce1667235e", "profile": "http://www.citysearch.com/profile/807569560/roswell_ga/pizzano_s_pizzeria_inc.html", "address": {"city": "Roswell", "state": "GA", "street": "880 Marietta Hwy # 600", "postal_code": "30075"}, "capProviderId": null, "distance": null, "has_offers": false, "name": "Pizzano S Pizzeria Inc", "longitude": -84.391437, "has_menu": false, "awards": null, "user_review_count": 0}, {"business_operation_status": 1, "rating": null, "neighborhood": null, "image": null, "scorecard": null, "featured": false, "sample_categories": "Restaurants", "public_id": "burger-house-inc-sandy", "id": 810519840, "votes": null, "tagline": null, "has_video": false, "website": null, "offers": null, "latitude": 33.995409, "politanName": "Atlanta, GA Metro ", "phone_number": "7705870190", "tags": [{"primary": true, "id": 1722, "name": "Restaurants"}], "fax_number": null, "expansion": {"count": null, "uri": null}, "impression_id": "000b0000004a2d4f81143b4dbebe58ddb225a65393", "profile": "http://www.citysearch.com/profile/810519840/sandy_springs_ga/burger_house_inc.html", "address": {"city": "Sandy Springs", "state": "GA", "street": "8725 Roswell Rd # 9", "postal_code": "30350"}, "capProviderId": null, "distance": null, "has_offers": false, "name": "Burger House Inc", "longitude": -84.349807, "has_menu": false, "awards": null, "user_review_count": 1}, {"business_operation_status": 1, "rating": null, "neighborhood": null, "image": null, "scorecard": null, "featured": false, "sample_categories": "Restaurants, Carry Out", "public_id": "checkers-drivein-restaurant-roswell", "id": 824602510, "votes": null, "tagline": null, "has_video": false, "website": null, "offers": null, "latitude": 34.063874, "politanName": "Atlanta, GA Metro ", "phone_number": "7705184419", "tags": [{"primary": false, "id": 11247, "name": "Carry Out"}, {"primary": true, "id": 1722, "name": "Restaurants"}], "fax_number": null, "expansion": {"count": null, "uri": null}, "impression_id": "000b000000afe5ee38ee8a457c8a9603f910d11b1e", "profile": "http://www.citysearch.com/profile/824602510/roswell_ga/checkers_drive_in_restaurant.html", "address": {"city": "Roswell", "state": "GA", "street": "4795 Woodstock Rd", "postal_code": "30075"}, "capProviderId": null, "distance": null, "has_offers": false, "name": "Checkers Drive-In Restaurant", "longitude": -84.423358, "has_menu": false, "awards": null, "user_review_count": 0}, {"business_operation_status": 1, "rating": null, "neighborhood": null, "image": null, "scorecard": null, "featured": false, "sample_categories": "Restaurants", "public_id": "espetinho-brazilian-grill-atlanta", "id": 43876961, "votes": null, "tagline": null, "has_video": false, "website": null, "offers": null, "latitude": 33.982083, "politanName": "Atlanta, GA Metro ", "phone_number": "7709932929", "tags": [{"primary": true, "id": 1722, "name": "Restaurants"}], "fax_number": null, "expansion": {"count": null, "uri": null}, "impression_id": "000b000000c488ba4df4cb44f68f214a0be039659b", "profile": "http://www.citysearch.com/profile/43876961/atlanta_ga/espetinho_brazilian_sports_grill.html", "address": {"city": "Atlanta", "state": "GA", "street": "350 Northridge Rd Ste 1A", "postal_code": "30350"}, "capProviderId": null, "distance": null, "has_offers": false, "name": "Espetinho Brazilian Sports Grill", "longitude": -84.347861, "has_menu": false, "awards": null, "user_review_count": 0}, {"business_operation_status": 1, "rating": null, "neighborhood": null, "image": null, "scorecard": null, "featured": false, "sample_categories": "Restaurants, Delis And Delicatessens, Sandwich Shops, Carry Out, Soups", "public_id": "subway-marietta-35", "id": 43855738, "votes": null, "tagline": null, "has_video": false, "website": "http://www.citysearch.com/profile/external/43855738/marietta_ga/subway.html", "offers": null, "latitude": 33.949315, "politanName": "Atlanta, GA Metro ", "phone_number": "6785603332", "tags": [{"primary": false, "id": 1727, "name": "Delis And Delicatessens"}, {"primary": false, "id": 1736, "name": "Sandwich Shops"}, {"primary": false, "id": 11247, "name": "Carry Out"}, {"primary": false, "id": 11311, "name": "Soups"}, {"primary": false, "id": 11361, "name": "MasterCard"}, {"primary": false, "id": 11382, "name": "Visa"}, {"primary": true, "id": 1722, "name": "Restaurants"}], "fax_number": null, "expansion": {"count": null, "uri": null}, "impression_id": "000b000000a122d21aacfc47a3a5eefd51a1f5a1a7", "profile": "http://www.citysearch.com/profile/43855738/marietta_ga/subway.html", "address": {"city": "Marietta", "state": "GA", "street": "2044 Lower Roswell Rd", "postal_code": "30068"}, "capProviderId": null, "distance": null, "has_offers": false, "name": "Subway", "longitude": -84.49256, "has_menu": true, "awards": null, "user_review_count": 0}, {"business_operation_status": 1, "rating": null, "neighborhood": null, "image": null, "scorecard": null, "featured": false, "sample_categories": "Restaurants, Carry Out, American Express, Discover, MasterCard", "public_id": "zaxbys-kennesaw-2", "id": 43864981, "votes": null, "tagline": null, "has_video": false, "website": "http://www.citysearch.com/profile/external/43864981/kennesaw_ga/zaxby_s.html", "offers": null, "latitude": 34.036091, "politanName": "Atlanta, GA Metro ", "phone_number": "7704295778", "tags": [{"primary": false, "id": 11247, "name": "Carry Out"}, {"primary": false, "id": 11333, "name": "American Express"}, {"primary": false, "id": 11349, "name": "Discover"}, {"primary": false, "id": 11361, "name": "MasterCard"}, {"primary": false, "id": 11382, "name": "Visa"}, {"primary": false, "id": 12839, "name": "Chicken"}, {"primary": true, "id": 1722, "name": "Restaurants"}], "fax_number": null, "expansion": {"count": null, "uri": null}, "impression_id": "000b000000ec71db371cb748d2a86833d9c26d51ad", "profile": "http://www.citysearch.com/profile/43864981/kennesaw_ga/zaxby_s.html", "address": {"city": "Kennesaw", "state": "GA", "street": "780 Townpark Ln NW", "postal_code": "30144"}, "capProviderId": null, "distance": null, "has_offers": false, "name": "Zaxby's", "longitude": -84.574531, "has_menu": true, "awards": null, "user_review_count": 0}, {"business_operation_status": 1, "rating": null, "neighborhood": null, "image": null, "scorecard": null, "featured": false, "sample_categories": "Doughnut Shops", "public_id": "rubina-corp-inc-woodstock", "id": 36462525, "votes": null, "tagline": null, "has_video": false, "website": null, "offers": null, "latitude": 34.122096, "politanName": "Atlanta, GA Metro ", "phone_number": "7709265696", "tags": [{"primary": true, "id": 1734, "name": "Doughnut Shops"}], "fax_number": null, "expansion": {"count": null, "uri": null}, "impression_id": "000b0000006435654bd8e746568e356c038892566a", "profile": "http://www.citysearch.com/profile/36462525/woodstock_ga/rubina_corp_inc.html", "address": {"city": "Woodstock", "state": "GA", "street": "117 Caracas Dr", "postal_code": "30188"}, "capProviderId": null, "distance": null, "has_offers": false, "name": "Rubina Corp Inc", "longitude": -84.487843, "has_menu": false, "awards": null, "user_review_count": 0}, {"business_operation_status": 1, "rating": null, "neighborhood": null, "image": null, "scorecard": null, "featured": false, "sample_categories": "Restaurants", "public_id": "birrierias-tepechi-marietta", "id": 829992440, "votes": null, "tagline": null, "has_video": false, "website": null, "offers": null, "latitude": 33.925388, "politanName": "Atlanta, GA Metro ", "phone_number": "7704990470", "tags": [{"primary": true, "id": 1722, "name": "Restaurants"}], "fax_number": null, "expansion": {"count": null, "uri": null}, "impression_id": "000b000000aa06d67ceb95458d9cbe0018fbad06ea", "profile": "http://www.citysearch.com/profile/829992440/marietta_ga/birrieria_s_tepechi.html", "address": {"city": "Marietta", "state": "GA", "street": "1135 Powder Springs St", "postal_code": "30064"}, "capProviderId": null, "distance": null, "has_offers": false, "name": "Birrieria's Tepechi", "longitude": -84.573222, "has_menu": false, "awards": null, "user_review_count": 0}, {"business_operation_status": 1, "rating": null, "neighborhood": null, "image": null, "scorecard": null, "featured": false, "sample_categories": "Ice Cream Parlors, Restaurants, Dessert Shops", "public_id": "dippin-dots-kennesaw", "id": 36642606, "votes": null, "tagline": null, "has_video": false, "website": "http://www.citysearch.com/profile/external/36642606/kennesaw_ga/dippin_dots.html", "offers": null, "latitude": 34.019128, "politanName": "Atlanta, GA Metro ", "phone_number": "7709191015", "tags": [{"primary": false, "id": 1722, "name": "Restaurants"}, {"primary": false, "id": 1728, "name": "Dessert Shops"}, {"primary": true, "id": 1730, "name": "Ice Cream Parlors"}], "fax_number": null, "expansion": {"count": null, "uri": null}, "impression_id": "000b00000009a6cf51f99142f994b87e6e8c1cff0e", "profile": "http://www.citysearch.com/profile/36642606/kennesaw_ga/dippin_dots.html", "address": {"city": "Kennesaw", "state": "GA", "street": "400 Ernest W Barrett Pkwy NW", "postal_code": "30144"}, "capProviderId": null, "distance": null, "has_offers": false, "name": "Dippin' Dots", "longitude": -84.563608, "has_menu": true, "awards": null, "user_review_count": 0}, {"business_operation_status": 0, "rating": null, "neighborhood": null, "image": null, "scorecard": null, "featured": false, "sample_categories": "Coffeehouses, Restaurants", "public_id": "family-beans-inc-alpharetta-2", "id": 601284907, "votes": null, "tagline": null, "has_video": false, "website": "http://www.citysearch.com/profile/external/601284907/alpharetta_ga/family_beans_inc.html", "offers": null, "latitude": 34.089226, "politanName": "Atlanta, GA Metro ", "phone_number": "7707527188", "tags": [{"primary": false, "id": 1722, "name": "Restaurants"}, {"primary": true, "id": 1726, "name": "Coffeehouses"}], "fax_number": null, "expansion": {"count": null, "uri": null}, "impression_id": "000b000000f8a6523e8f00410e8e2e104582e818a4", "profile": "http://www.citysearch.com/profile/601284907/alpharetta_ga/family_beans_inc.html", "address": {"city": "Alpharetta", "state": "GA", "street": "12635 Crabapple Rd", "postal_code": "30004"}, "capProviderId": null, "distance": null, "has_offers": false, "name": "Family Beans Inc", "longitude": -84.342771, "has_menu": false, "awards": null, "user_review_count": 3}, {"business_operation_status": 1, "rating": null, "neighborhood": null, "image": null, "scorecard": null, "featured": false, "sample_categories": "Ethnic Food Markets, Restaurants, Hispanic Food Products, Mexican", "public_id": "el-maizal-tortilleria-inc-kennesaw", "id": 36715365, "votes": null, "tagline": null, "has_video": false, "website": "http://www.citysearch.com/profile/external/36715365/kennesaw_ga/el_maizal_tortilleria_inc.html", "offers": null, "latitude": 34.056577, "politanName": "Atlanta, GA Metro ", "phone_number": "7709192501", "tags": [{"primary": false, "id": 1712, "name": "Ethnic Food Markets"}, {"primary": false, "id": 11153, "name": "Hispanic Food Products"}, {"primary": false, "id": 11208, "name": "Mexican"}, {"primary": true, "id": 1722, "name": "Restaurants"}], "fax_number": null, "expansion": {"count": null, "uri": null}, "impression_id": "000b000000fa38a814a6284b4aa8595c25828744d9", "profile": "http://www.citysearch.com/profile/36715365/kennesaw_ga/el_maizal_tortilleria_inc.html", "address": {"city": "Kennesaw", "state": "GA", "street": "1920 Shiloh Rd NW", "postal_code": "30144"}, "capProviderId": null, "distance": null, "has_offers": false, "name": "El Maizal Tortilleria Inc", "longitude": -84.606862, "has_menu": false, "awards": null, "user_review_count": 0}, {"business_operation_status": 0, "rating": 9.0, "neighborhood": null, "image": null, "scorecard": null, "featured": false, "sample_categories": "Restaurants, Coffee & Tea Shops", "public_id": "tiffanys-tea-room-marietta", "id": 37645595, "votes": null, "tagline": null, "has_video": false, "website": null, "offers": null, "latitude": 33.952532, "politanName": "Atlanta, GA Metro ", "phone_number": "7702188463", "tags": [{"primary": false, "id": 1711, "name": "Coffee & Tea Shops"}, {"primary": true, "id": 1722, "name": "Restaurants"}], "fax_number": null, "expansion": {"count": null, "uri": null}, "impression_id": "000b000000316f61da3b2246fbb9077833f43959e2", "profile": "http://www.citysearch.com/profile/37645595/marietta_ga/tiffanys_tea_room.html", "address": {"city": "Marietta", "state": "GA", "street": "21 W Park Sq NE", "postal_code": "30060"}, "capProviderId": null, "distance": null, "has_offers": false, "name": "Tiffanys Tea Room", "longitude": -84.550467, "has_menu": false, "awards": null, "user_review_count": 3}, {"business_operation_status": 1, "rating": null, "neighborhood": null, "image": null, "scorecard": null, "featured": false, "sample_categories": "Barbecue Restaurants", "public_id": "apple-two-peach-barbecue-marietta", "id": 614162144, "votes": null, "tagline": null, "has_video": false, "website": null, "offers": null, "latitude": 33.936816, "politanName": "Atlanta, GA Metro ", "phone_number": "7706756411", "tags": [{"primary": true, "id": 1724, "name": "Barbecue Restaurants"}], "fax_number": null, "expansion": {"count": null, "uri": null}, "impression_id": "000b000000f412a49ff0e0444baa0d6c511096484f", "profile": "http://www.citysearch.com/profile/614162144/marietta_ga/apple_two_peach_barbecue.html", "address": {"city": "Marietta", "state": "GA", "street": "680 Powder Springs St", "postal_code": "30064"}, "capProviderId": null, "distance": null, "has_offers": false, "name": "Apple Two Peach Barbecue", "longitude": -84.557309, "has_menu": false, "awards": null, "user_review_count": 0}, {"business_operation_status": 1, "rating": null, "neighborhood": null, "image": null, "scorecard": null, "featured": false, "sample_categories": "Grocery Stores, Bakeries, Delis And Delicatessens, Florists, Department Stores", "public_id": "kroger-deli-marietta", "id": 621968220, "votes": null, "tagline": null, "has_video": false, "website": "http://www.citysearch.com/profile/external/621968220/marietta_ga/kroger_deli.html", "offers": null, "latitude": 34.038928, "politanName": "Atlanta, GA Metro ", "phone_number": "7709247930", "tags": [{"primary": false, "id": 1685, "name": "Bakeries"}, {"primary": false, "id": 1727, "name": "Delis And Delicatessens"}, {"primary": false, "id": 3921, "name": "Florists"}, {"primary": false, "id": 3924, "name": "Department Stores"}, {"primary": true, "id": 1713, "name": "Grocery Stores"}], "fax_number": null, "expansion": {"count": null, "uri": null}, "impression_id": "000b000000abe601d3bd6b47e2910de15bcd634738", "profile": "http://www.citysearch.com/profile/621968220/marietta_ga/kroger_deli.html", "address": {"city": "Marietta", "state": "GA", "street": "3595 Canton Rd # B", "postal_code": "30066"}, "capProviderId": null, "distance": null, "has_offers": false, "name": "Kroger Deli", "longitude": -84.530249, "has_menu": false, "awards": null, "user_review_count": 0}, {"business_operation_status": 1, "rating": null, "neighborhood": null, "image": null, "scorecard": null, "featured": false, "sample_categories": "Coffeehouses, Coffee & Tea Shops, Restaurants, American Express, Discover", "public_id": "starbucks-roswell-5", "id": 43857258, "votes": null, "tagline": null, "has_video": false, "website": "http://www.citysearch.com/profile/external/43857258/roswell_ga/starbucks.html", "offers": null, "latitude": 34.057105, "politanName": "Atlanta, GA Metro ", "phone_number": "7709937573", "tags": [{"primary": false, "id": 1711, "name": "Coffee & Tea Shops"}, {"primary": false, "id": 1722, "name": "Restaurants"}, {"primary": false, "id": 11333, "name": "American Express"}, {"primary": false, "id": 11349, "name": "Discover"}, {"primary": false, "id": 11361, "name": "MasterCard"}, {"primary": false, "id": 11382, "name": "Visa"}, {"primary": true, "id": 1726, "name": "Coffeehouses"}], "fax_number": null, "expansion": {"count": null, "uri": null}, "impression_id": "000b0000000db308a3dd9040128e2c6723451eab22", "profile": "http://www.citysearch.com/profile/43857258/roswell_ga/starbucks.html", "address": {"city": "Roswell", "state": "GA", "street": "680 W Crossville Rd", "postal_code": "30075"}, "capProviderId": null, "distance": null, "has_offers": false, "name": "Starbucks", "longitude": -84.379503, "has_menu": true, "awards": null, "user_review_count": 0}, {"business_operation_status": 0, "rating": null, "neighborhood": null, "image": null, "scorecard": null, "featured": false, "sample_categories": "Restaurants, Fast Food, Carry Out, Hamburgers", "public_id": "a-gold-club-escorts-marietta", "id": 44774196, "votes": null, "tagline": null, "has_video": false, "website": "http://www.citysearch.com/profile/external/44774196/marietta_ga/a_gold_club_escorts.html", "offers": null, "latitude": 33.951502, "politanName": "Atlanta, GA Metro ", "phone_number": "7706507335", "tags": [{"primary": false, "id": 11199, "name": "Fast Food"}, {"primary": false, "id": 11247, "name": "Carry Out"}, {"primary": false, "id": 11270, "name": "Hamburgers"}, {"primary": true, "id": 1722, "name": "Restaurants"}], "fax_number": null, "expansion": {"count": null, "uri": null}, "impression_id": "000b0000002464cdb7ab1a4816b2f34c9bfa0086d9", "profile": "http://www.citysearch.com/profile/44774196/marietta_ga/a_gold_club_escorts.html", "address": {"city": "Marietta", "state": "GA", "street": "600 Village Trce NE", "postal_code": "30067"}, "capProviderId": null, "distance": null, "has_offers": false, "name": "A Gold Club Escorts", "longitude": -84.414411, "has_menu": false, "awards": null, "user_review_count": 0}, {"business_operation_status": 1, "rating": null, "neighborhood": null, "image": null, "scorecard": null, "featured": false, "sample_categories": "Restaurants, Food Service Management", "public_id": "eurest-dining-svc-marietta", "id": 632989390, "votes": null, "tagline": null, "has_video": false, "website": "http://www.citysearch.com/profile/external/632989390/marietta_ga/eurest_dining_svc.html", "offers": null, "latitude": 33.929162, "politanName": "Atlanta, GA Metro ", "phone_number": "7706443211", "tags": [{"primary": false, "id": 11120, "name": "Food Service Management"}, {"primary": true, "id": 1722, "name": "Restaurants"}], "fax_number": null, "expansion": {"count": null, "uri": null}, "impression_id": "000b0000001c112ede0a91488fb1410504862cbbd6", "profile": "http://www.citysearch.com/profile/632989390/marietta_ga/eurest_dining_svc.html", "address": {"city": "Marietta", "state": "GA", "street": "814 Livingston Ct Se", "postal_code": "30067"}, "capProviderId": null, "distance": null, "has_offers": false, "name": "Eurest Dining Svc", "longitude": -84.499949, "has_menu": false, "awards": null, "user_review_count": 0}, {"business_operation_status": 1, "rating": null, "neighborhood": null, "image": null, "scorecard": null, "featured": false, "sample_categories": "Restaurants", "public_id": "reisner-restaurants-inc-marietta", "id": 751332090, "votes": null, "tagline": null, "has_video": false, "website": null, "offers": null, "latitude": 33.9495, "politanName": "Atlanta, GA Metro ", "phone_number": "6782908012", "tags": [{"primary": true, "id": 1722, "name": "Restaurants"}], "fax_number": null, "expansion": {"count": null, "uri": null}, "impression_id": "000b000000d1a4a5bee806465dab08dabb5074a744", "profile": "http://www.citysearch.com/profile/751332090/marietta_ga/reisner_restaurants_inc.html", "address": {"city": "Marietta", "state": "GA", "street": "51 Cobb Pkwy S", "postal_code": "30060"}, "capProviderId": null, "distance": null, "has_offers": false, "name": "Reisner Restaurants Inc", "longitude": -84.519437, "has_menu": false, "awards": null, "user_review_count": 0}, {"business_operation_status": 1, "rating": null, "neighborhood": null, "image": null, "scorecard": null, "featured": false, "sample_categories": "Restaurants", "public_id": "chicken-salad-chick-roswell", "id": 627371594, "votes": null, "tagline": null, "has_video": false, "website": null, "offers": null, "latitude": 34.063122, "politanName": "Atlanta, GA Metro ", "phone_number": "7709980621", "tags": [{"primary": true, "id": 1722, "name": "Restaurants"}], "fax_number": null, "expansion": {"count": null, "uri": null}, "impression_id": "000b000000b81e0ad0e39148989d717e902cc4bf87", "profile": "http://www.citysearch.com/profile/627371594/roswell_ga/chicken_salad_chick.html", "address": {"city": "Roswell", "state": "GA", "street": "1105 Woodstock Rd", "postal_code": "30075"}, "capProviderId": null, "distance": null, "has_offers": false, "name": "Chicken Salad Chick", "longitude": -84.396171, "has_menu": false, "awards": null, "user_review_count": 0}], "histograms": [], "tag_ids": [1722], "uri": "http://api.citygridmedia.com:8080/search/places/v2/search/where?has_offers=false&type=restaurant&format=json&page=31&where=30062&rpp=50&histograms=false&publisher=10000009598&region_type=circle", "did_you_mean": "", "regions": [{"latitude": 34.001368, "default_radius": 5.22, "type": "postal_code", "name": "30062", "longitude": -84.466397}], "call_id": "000b000000312ee09dadd64b499275ee52c5f3af5c", "first_hit": 1501, "total_hits": 2160, "geo_ids": [26292], "page": 31, "last_hit": 1550}}