{"results": {"rpp": 50, "locations": [{"business_operation_status": 1, "rating": null, "neighborhood": null, "image": null, "scorecard": null, "featured": false, "sample_categories": "Restaurants", "public_id": "le-peep-restaurant-marietta", "id": 819290350, "votes": null, "tagline": null, "has_video": false, "website": null, "offers": null, "latitude": 33.952271, "politanName": "Atlanta, GA Metro ", "phone_number": "7704265161", "tags": [{"primary": true, "id": 1722, "name": "Restaurants"}], "fax_number": null, "expansion": {"count": null, "uri": null}, "impression_id": "000b0000000122a77717e04540864ca9b18c4ae1a3", "profile": "http://www.citysearch.com/profile/819290350/marietta_ga/le_peep_restaurant.html", "address": {"city": "Marietta", "state": "GA", "street": "70 S Park Sq NE", "postal_code": "30060"}, "capProviderId": null, "distance": null, "has_offers": false, "name": "Le Peep Restaurant", "longitude": -84.549833, "has_menu": false, "awards": null, "user_review_count": 0}, {"business_operation_status": 1, "rating": null, "neighborhood": null, "image": null, "scorecard": null, "featured": false, "sample_categories": "Restaurants, Pizza", "public_id": "pizza-314-woodstock", "id": 745019550, "votes": null, "tagline": null, "has_video": false, "website": null, "offers": null, "latitude": 34.111794, "politanName": "Atlanta, GA Metro ", "phone_number": "7704855132", "tags": [{"primary": false, "id": 11299, "name": "Pizza"}, {"primary": true, "id": 1722, "name": "Restaurants"}], "fax_number": null, "expansion": {"count": null, "uri": null}, "impression_id": "000b00000061cd2370a78c48dc8a28d69219f17045", "profile": "http://www.citysearch.com/profile/745019550/woodstock_ga/pizza_314.html", "address": {"city": "Woodstock", "state": "GA", "street": "200 Parkbrooke Dr", "postal_code": "30189"}, "capProviderId": null, "distance": null, "has_offers": false, "name": "Pizza 314", "longitude": -84.558668, "has_menu": false, "awards": null, "user_review_count": 0}, {"business_operation_status": 1, "rating": 8.0, "neighborhood": null, "image": null, "scorecard": null, "featured": false, "sample_categories": "Restaurants, Pizza, MasterCard, Visa", "public_id": "n-y-pizza-dept-canton", "id": 33593221, "votes": null, "tagline": null, "has_video": false, "website": null, "offers": null, "latitude": 34.178451, "politanName": "Atlanta, GA Metro ", "phone_number": "7707200983", "tags": [{"primary": false, "id": 1722, "name": "Restaurants"}, {"primary": false, "id": 11361, "name": "MasterCard"}, {"primary": false, "id": 11382, "name": "Visa"}, {"primary": true, "id": 11299, "name": "Pizza"}], "fax_number": null, "expansion": {"count": null, "uri": null}, "impression_id": "000b000000c61e7e258d5c418c96bb7a1847de6303", "profile": "http://www.citysearch.com/profile/33593221/canton_ga/n_y_pizza_dept.html", "address": {"city": "Canton", "state": "GA", "street": "3760 Sixes Rd Ste 3136", "postal_code": "30114"}, "capProviderId": null, "distance": null, "has_offers": false, "name": "N Y Pizza Dept", "longitude": -84.550142, "has_menu": false, "awards": null, "user_review_count": 1}, {"business_operation_status": 1, "rating": null, "neighborhood": null, "image": null, "scorecard": null, "featured": false, "sample_categories": "Restaurants", "public_id": "creative-cafe-marietta-2", "id": 820012610, "votes": null, "tagline": null, "has_video": false, "website": null, "offers": null, "latitude": 33.895694, "politanName": "Atlanta, GA Metro ", "phone_number": "6787702879", "tags": [{"primary": true, "id": 1722, "name": "Restaurants"}], "fax_number": null, "expansion": {"count": null, "uri": null}, "impression_id": "000b0000002eed3e3062e6476b9a06d903f56671b8", "profile": "http://www.citysearch.com/profile/820012610/marietta_ga/creative_cafe.html", "address": {"city": "Marietta", "state": "GA", "street": "1430 Glynn Oaks Cir SW", "postal_code": "30008"}, "capProviderId": null, "distance": null, "has_offers": false, "name": "Creative Cafe", "longitude": -84.599593, "has_menu": false, "awards": null, "user_review_count": 0}, {"business_operation_status": 1, "rating": null, "neighborhood": null, "image": null, "scorecard": null, "featured": false, "sample_categories": "Luaus", "public_id": "bergamo-kennesaw", "id": 827735830, "votes": null, "tagline": null, "has_video": false, "website": null, "offers": null, "latitude": 34.05561, "politanName": "Atlanta, GA Metro ", "phone_number": "6784458585", "tags": [{"primary": true, "id": 11285, "name": "Luaus"}], "fax_number": null, "expansion": {"count": null, "uri": null}, "impression_id": "000b000000ee68a0955b5d47ca95f28bcf2e048ec8", "profile": "http://www.citysearch.com/profile/827735830/kennesaw_ga/bergamo.html", "address": {"city": "Kennesaw", "state": "GA", "street": "4290 Bells Ferry Rd NW # 114", "postal_code": "30144"}, "capProviderId": null, "distance": null, "has_offers": false, "name": "Bergamo", "longitude": -84.554213, "has_menu": false, "awards": null, "user_review_count": 4}, {"business_operation_status": 1, "rating": null, "neighborhood": null, "image": null, "scorecard": null, "featured": false, "sample_categories": "Restaurants", "public_id": "grazie-a-bistro-marietta", "id": 823574700, "votes": null, "tagline": null, "has_video": false, "website": null, "offers": null, "latitude": 33.953111, "politanName": "Atlanta, GA Metro ", "phone_number": "7704998585", "tags": [{"primary": true, "id": 1722, "name": "Restaurants"}], "fax_number": null, "expansion": {"count": null, "uri": null}, "impression_id": "000b000000f853333bdef54772807768d63c9fa7ae", "profile": "http://www.citysearch.com/profile/823574700/marietta_ga/grazie_a_bistro.html", "address": {"city": "Marietta", "state": "GA", "street": "1000 Whitlock Ave NW # 410", "postal_code": "30064"}, "capProviderId": null, "distance": null, "has_offers": false, "name": "Grazie A Bistro", "longitude": -84.581272, "has_menu": false, "awards": null, "user_review_count": 0}, {"business_operation_status": 1, "rating": null, "neighborhood": null, "image": null, "scorecard": null, "featured": false, "sample_categories": "Delis And Delicatessens", "public_id": "beyahs-mobile-deli-smyrna", "id": 824638410, "votes": null, "tagline": null, "has_video": false, "website": null, "offers": null, "latitude": 33.869932, "politanName": "Atlanta, GA Metro ", "phone_number": "7704378084", "tags": [{"primary": true, "id": 1727, "name": "Delis And Delicatessens"}], "fax_number": null, "expansion": {"count": null, "uri": null}, "impression_id": "000b000000dbf86a7872cc498a9528219f7ad87864", "profile": "http://www.citysearch.com/profile/824638410/smyrna_ga/beyahs_mobile_deli.html", "address": {"city": "Smyrna", "state": "GA", "street": "156 Hurt Rd SW", "postal_code": "30082"}, "capProviderId": null, "distance": null, "has_offers": false, "name": "Beyahs Mobile Deli", "longitude": -84.557188, "has_menu": false, "awards": null, "user_review_count": 0}, {"business_operation_status": 1, "rating": null, "neighborhood": null, "image": null, "scorecard": null, "featured": false, "sample_categories": "Restaurants, Mexican", "public_id": "pure-taqueria-roswell", "id": 764878880, "votes": null, "tagline": null, "has_video": false, "website": null, "offers": null, "latitude": 34.029704, "politanName": "Atlanta, GA Metro ", "phone_number": "6787950005", "tags": [{"primary": false, "id": 11208, "name": "Mexican"}, {"primary": true, "id": 1722, "name": "Restaurants"}], "fax_number": null, "expansion": {"count": null, "uri": null}, "impression_id": "000b0000003e590f46a7f5479f9c6d84b3a38ef05c", "profile": "http://www.citysearch.com/profile/764878880/roswell_ga/pure_taqueria.html", "address": {"city": "Roswell", "state": "GA", "street": "1143 Alpharetta St", "postal_code": "30075"}, "capProviderId": null, "distance": null, "has_offers": false, "name": "Pure Taqueria", "longitude": -84.354613, "has_menu": false, "awards": null, "user_review_count": 0}, {"business_operation_status": 1, "rating": null, "neighborhood": null, "image": null, "scorecard": null, "featured": false, "sample_categories": "Restaurants, Pizza", "public_id": "pizza-314-kennesaw", "id": 768811740, "votes": null, "tagline": null, "has_video": false, "website": null, "offers": null, "latitude": 34.014045, "politanName": "Atlanta, GA Metro ", "phone_number": "7706931156", "tags": [{"primary": false, "id": 11299, "name": "Pizza"}, {"primary": true, "id": 1722, "name": "Restaurants"}], "fax_number": null, "expansion": {"count": null, "uri": null}, "impression_id": "000b0000000decbafdfa4d462c985d5daa27871296", "profile": "http://www.citysearch.com/profile/768811740/kennesaw_ga/pizza_314.html", "address": {"city": "Kennesaw", "state": "GA", "street": "2615 George Busbee Pkwy NW", "postal_code": "30144"}, "capProviderId": null, "distance": null, "has_offers": false, "name": "Pizza 314", "longitude": -84.56696, "has_menu": false, "awards": null, "user_review_count": 0}, {"business_operation_status": 1, "rating": null, "neighborhood": null, "image": null, "scorecard": null, "featured": false, "sample_categories": "Restaurants, Bars & Clubs", "public_id": "nosh-table-tap-roswell", "id": 838413810, "votes": null, "tagline": null, "has_video": false, "website": "http://www.citysearch.com/profile/external/838413810/roswell_ga/nosh_table_tap.html", "offers": null, "latitude": 34.058094, "politanName": "Atlanta, GA Metro ", "phone_number": "7706418282", "tags": [{"primary": false, "id": 164, "name": "Bars & Clubs"}, {"primary": true, "id": 1722, "name": "Restaurants"}], "fax_number": null, "expansion": {"count": null, "uri": null}, "impression_id": "000b000000659e15241f734790acca7b7871e162f0", "profile": "http://www.citysearch.com/profile/838413810/roswell_ga/nosh_table_tap.html", "address": {"city": "Roswell", "state": "GA", "street": "11255 Woodstock Rd 500", "postal_code": "30075"}, "capProviderId": null, "distance": null, "has_offers": false, "name": "Nosh Table & Tap", "longitude": -84.382839, "has_menu": false, "awards": null, "user_review_count": 0}, {"business_operation_status": 1, "rating": null, "neighborhood": null, "image": null, "scorecard": null, "featured": false, "sample_categories": "Restaurants", "public_id": "front-porch-southern-dining-kennesaw", "id": 773452750, "votes": null, "tagline": null, "has_video": false, "website": "http://www.citysearch.com/profile/external/773452750/kennesaw_ga/front_porch_southern_dining.html", "offers": null, "latitude": 34.025184, "politanName": "Atlanta, GA Metro ", "phone_number": "7707959455", "tags": [{"primary": true, "id": 1722, "name": "Restaurants"}], "fax_number": null, "expansion": {"count": null, "uri": null}, "impression_id": "000b0000007f748c99b7774e7eadcc19ecc546dfb2", "profile": "http://www.citysearch.com/profile/773452750/kennesaw_ga/front_porch_southern_dining.html", "address": {"city": "Kennesaw", "state": "GA", "street": "2940 Dallas St NW", "postal_code": "30144"}, "capProviderId": null, "distance": null, "has_offers": false, "name": "Front Porch Southern Dining", "longitude": -84.616866, "has_menu": false, "awards": null, "user_review_count": 0}, {"business_operation_status": 1, "rating": null, "neighborhood": null, "image": null, "scorecard": null, "featured": false, "sample_categories": "Restaurants", "public_id": "red-house-marietta", "id": 775207480, "votes": null, "tagline": null, "has_video": false, "website": null, "offers": null, "latitude": 33.951025, "politanName": "Atlanta, GA Metro ", "phone_number": "7704277588", "tags": [{"primary": true, "id": 1722, "name": "Restaurants"}], "fax_number": null, "expansion": {"count": null, "uri": null}, "impression_id": "000b000000d401800933a34891bd3df2e99d63de57", "profile": "http://www.citysearch.com/profile/775207480/marietta_ga/red_house.html", "address": {"city": "Marietta", "state": "GA", "street": "35 S Marietta Pkwy SW", "postal_code": "30064"}, "capProviderId": null, "distance": null, "has_offers": false, "name": "Red House", "longitude": -84.551785, "has_menu": false, "awards": null, "user_review_count": 0}, {"business_operation_status": 1, "rating": null, "neighborhood": null, "image": null, "scorecard": null, "featured": false, "sample_categories": "Restaurants, Barbecue Restaurants", "public_id": "travelers-bar-b-que-ctrng-marietta", "id": 777759510, "votes": null, "tagline": null, "has_video": false, "website": null, "offers": null, "latitude": 33.952909, "politanName": "Atlanta, GA Metro ", "phone_number": "7704234884", "tags": [{"primary": false, "id": 1724, "name": "Barbecue Restaurants"}, {"primary": true, "id": 1722, "name": "Restaurants"}], "fax_number": null, "expansion": {"count": null, "uri": null}, "impression_id": "000b00000076786763d66948e2b0de67a15beeb01e", "profile": "http://www.citysearch.com/profile/777759510/marietta_ga/traveler_s_bar_b_que_ctrng.html", "address": {"city": "Marietta", "state": "GA", "street": "79 N Fairground St Ne", "postal_code": "30060"}, "capProviderId": null, "distance": null, "has_offers": false, "name": "Traveler's Bar B Que & Ctrng", "longitude": -84.53505, "has_menu": false, "awards": null, "user_review_count": 0}, {"business_operation_status": 1, "rating": null, "neighborhood": null, "image": null, "scorecard": null, "featured": false, "sample_categories": "Restaurants, Carry Out, Pizza", "public_id": "johnnys-pizza-kennesaw-kennesaw", "id": 617559314, "votes": null, "tagline": null, "has_video": false, "website": "http://www.citysearch.com/profile/external/617559314/kennesaw_ga/johnny_s_new_york_style_pizza.html", "offers": null, "latitude": 33.993905, "politanName": "Atlanta, GA Metro ", "phone_number": "6789960911", "tags": [{"primary": false, "id": 1722, "name": "Restaurants"}, {"primary": false, "id": 11299, "name": "Pizza"}, {"primary": true, "id": 11247, "name": "Carry Out"}], "fax_number": null, "expansion": {"count": null, "uri": null}, "impression_id": "000b0000009bcd8dd5c975434994ce4e471035d4bf", "profile": "http://www.citysearch.com/profile/617559314/kennesaw_ga/johnny_s_new_york_style_pizza.html", "address": {"city": "Kennesaw", "state": "GA", "street": "1635 Old 41 Hwy NW", "postal_code": "30152"}, "capProviderId": null, "distance": null, "has_offers": false, "name": "Johnny's New York Style Pizza", "longitude": -84.599461, "has_menu": false, "awards": null, "user_review_count": 0}, {"business_operation_status": 1, "rating": null, "neighborhood": null, "image": null, "scorecard": null, "featured": false, "sample_categories": "Restaurants, Pizza", "public_id": "ny-style-pizza-woodstock", "id": 620154904, "votes": null, "tagline": null, "has_video": false, "website": null, "offers": null, "latitude": 34.11317, "politanName": "Atlanta, GA Metro ", "phone_number": "6784267004", "tags": [{"primary": false, "id": 1722, "name": "Restaurants"}, {"primary": true, "id": 11299, "name": "Pizza"}], "fax_number": null, "expansion": {"count": null, "uri": null}, "impression_id": "000b00000056c2158a066847b38e4c01ceb6f09b15", "profile": "http://www.citysearch.com/profile/620154904/woodstock_ga/ny_style_pizza.html", "address": {"city": "Woodstock", "state": "GA", "street": "2340 Towne Lake Pkwy", "postal_code": "30189"}, "capProviderId": null, "distance": null, "has_offers": false, "name": "NY Style Pizza", "longitude": -84.552414, "has_menu": false, "awards": null, "user_review_count": 0}, {"business_operation_status": 1, "rating": null, "neighborhood": null, "image": null, "scorecard": null, "featured": false, "sample_categories": "Ice Cream Parlors", "public_id": "ritas-water-ice-marietta-2", "id": 621872750, "votes": null, "tagline": null, "has_video": false, "website": "http://www.citysearch.com/profile/external/621872750/marietta_ga/rita_s_water_ice.html", "offers": null, "latitude": 33.952594, "politanName": "Atlanta, GA Metro ", "phone_number": "6784026240", "tags": [{"primary": true, "id": 1730, "name": "Ice Cream Parlors"}], "fax_number": null, "expansion": {"count": null, "uri": null}, "impression_id": "000b0000009f985ac6d8524ed7b4bc0752790f7257", "profile": "http://www.citysearch.com/profile/621872750/marietta_ga/rita_s_water_ice.html", "address": {"city": "Marietta", "state": "GA", "street": "800 Whitlock Ave Nw", "postal_code": "30064"}, "capProviderId": null, "distance": null, "has_offers": false, "name": "Rita's Water Ice", "longitude": -84.575881, "has_menu": false, "awards": null, "user_review_count": 1}, {"business_operation_status": 1, "rating": null, "neighborhood": null, "image": null, "scorecard": null, "featured": false, "sample_categories": "Restaurants, Steakhouse", "public_id": "fuji-hana-steak-house-roswell", "id": 621949350, "votes": null, "tagline": null, "has_video": false, "website": null, "offers": null, "latitude": 34.058626, "politanName": "Atlanta, GA Metro ", "phone_number": "7709927474", "tags": [{"primary": false, "id": 11316, "name": "Steakhouse"}, {"primary": true, "id": 1722, "name": "Restaurants"}], "fax_number": null, "expansion": {"count": null, "uri": null}, "impression_id": "000b000000715b85663e4144d3aad7974d99acefe3", "profile": "http://www.citysearch.com/profile/621949350/roswell_ga/fuji_hana_steak_house.html", "address": {"city": "Roswell", "state": "GA", "street": "3162 John Ferry Rd", "postal_code": "30075"}, "capProviderId": null, "distance": null, "has_offers": false, "name": "Fuji Hana Steak House", "longitude": -84.385744, "has_menu": false, "awards": null, "user_review_count": 0}, {"business_operation_status": 1, "rating": null, "neighborhood": null, "image": null, "scorecard": null, "featured": false, "sample_categories": "Restaurants, Mexican", "public_id": "taco-el-paisa-roswell", "id": 621950880, "votes": null, "tagline": null, "has_video": false, "website": null, "offers": null, "latitude": 34.034454, "politanName": "Atlanta, GA Metro ", "phone_number": "7708170207", "tags": [{"primary": false, "id": 11208, "name": "Mexican"}, {"primary": true, "id": 1722, "name": "Restaurants"}], "fax_number": null, "expansion": {"count": null, "uri": null}, "impression_id": "000b0000006cde19a87dc24df4a1c0d37df6b67729", "profile": "http://www.citysearch.com/profile/621950880/roswell_ga/taco_el_paisa.html", "address": {"city": "Roswell", "state": "GA", "street": "10360 Alpharetta St", "postal_code": "30075"}, "capProviderId": null, "distance": null, "has_offers": false, "name": "Taco El Paisa", "longitude": -84.347833, "has_menu": true, "awards": null, "user_review_count": 0}, {"business_operation_status": 1, "rating": null, "neighborhood": null, "image": null, "scorecard": null, "featured": false, "sample_categories": "Restaurants, Japanese, Steakhouse, American Express, Discover", "public_id": "musashi-japanese-steak-house-woodstock", "id": 46003163, "votes": null, "tagline": null, "has_video": false, "website": null, "offers": null, "latitude": 34.087025, "politanName": "Atlanta, GA Metro ", "phone_number": "7708522549", "tags": [{"primary": false, "id": 11202, "name": "Japanese"}, {"primary": false, "id": 11316, "name": "Steakhouse"}, {"primary": false, "id": 11333, "name": "American Express"}, {"primary": false, "id": 11349, "name": "Discover"}, {"primary": false, "id": 11361, "name": "MasterCard"}, {"primary": false, "id": 11382, "name": "Visa"}, {"primary": true, "id": 1722, "name": "Restaurants"}], "fax_number": null, "expansion": {"count": null, "uri": null}, "impression_id": "000b000000667fd5ebd74146a281531d75c081c9bb", "profile": "http://www.citysearch.com/profile/46003163/woodstock_ga/musashi_japanese_steak_house.html", "address": {"city": "Woodstock", "state": "GA", "street": "12926 Highway 92", "postal_code": "30188"}, "capProviderId": null, "distance": null, "has_offers": false, "name": "Musashi Japanese Steak House", "longitude": -84.470603, "has_menu": false, "awards": null, "user_review_count": 1}, {"business_operation_status": 1, "rating": null, "neighborhood": null, "image": null, "scorecard": null, "featured": false, "sample_categories": "Restaurants", "public_id": "nagoya-roswell", "id": 625908764, "votes": null, "tagline": null, "has_video": false, "website": null, "offers": null, "latitude": 34.004732, "politanName": "Atlanta, GA Metro ", "phone_number": "7709988899", "tags": [{"primary": true, "id": 1722, "name": "Restaurants"}], "fax_number": null, "expansion": {"count": null, "uri": null}, "impression_id": "000b000000bb3287422bf04346bfd7bc58038127a8", "profile": "http://www.citysearch.com/profile/625908764/roswell_ga/nagoya.html", "address": {"city": "Roswell", "state": "GA", "street": "910 Marietta Hwy", "postal_code": "30075"}, "capProviderId": null, "distance": null, "has_offers": false, "name": "Nagoya", "longitude": -84.389163, "has_menu": false, "awards": null, "user_review_count": 0}, {"business_operation_status": 1, "rating": null, "neighborhood": null, "image": null, "scorecard": null, "featured": false, "sample_categories": "Restaurants", "public_id": "slate-table-and-tap-opening-soon-roswell", "id": 672366460, "votes": null, "tagline": null, "has_video": false, "website": null, "offers": null, "latitude": 34.029548, "politanName": "Atlanta, GA Metro ", "phone_number": null, "tags": [{"primary": true, "id": 1722, "name": "Restaurants"}], "fax_number": null, "expansion": {"count": null, "uri": null}, "impression_id": "000b000000f4cc291f5cad4a9da55d20da8ec8df22", "profile": "http://www.citysearch.com/profile/672366460/roswell_ga/slate_table_and_tap_opening_soon.html", "address": {"city": "Roswell", "state": "GA", "street": "1132 Canton St", "postal_code": "30075"}, "capProviderId": null, "distance": null, "has_offers": false, "name": "Slate Table and Tap _ Opening Soon", "longitude": -84.361851, "has_menu": false, "awards": null, "user_review_count": 0}, {"business_operation_status": 1, "rating": null, "neighborhood": null, "image": null, "scorecard": null, "featured": false, "sample_categories": "Restaurants", "public_id": "blds-restaurant-woodstock", "id": 672736720, "votes": null, "tagline": null, "has_video": false, "website": null, "offers": null, "latitude": 34.081753, "politanName": "Atlanta, GA Metro ", "phone_number": "6782133393", "tags": [{"primary": true, "id": 1722, "name": "Restaurants"}], "fax_number": null, "expansion": {"count": null, "uri": null}, "impression_id": "000b0000007fc12d48517c4433b6b68a7ce62d0a28", "profile": "http://www.citysearch.com/profile/672736720/woodstock_ga/b_l_d_s_restaurant.html", "address": {"city": "Woodstock", "state": "GA", "street": "295 Molly Lane, Ste 100", "postal_code": "30189"}, "capProviderId": null, "distance": null, "has_offers": false, "name": "B.L.D.'s Restaurant", "longitude": -84.541064, "has_menu": true, "awards": null, "user_review_count": 0}, {"business_operation_status": 1, "rating": null, "neighborhood": null, "image": null, "scorecard": null, "featured": false, "sample_categories": "Restaurants", "public_id": "so-full-grille-barbecue-woodstock", "id": 672585070, "votes": null, "tagline": null, "has_video": false, "website": null, "offers": null, "latitude": 34.087729, "politanName": "Atlanta, GA Metro ", "phone_number": null, "tags": [{"primary": true, "id": 1722, "name": "Restaurants"}], "fax_number": null, "expansion": {"count": null, "uri": null}, "impression_id": "000b000000b7e2f744cb424f0e9db9ce1effbb7b71", "profile": "http://www.citysearch.com/profile/672585070/woodstock_ga/so_full_grille_barbecue.html", "address": {"city": "Woodstock", "state": "GA", "street": "12910 Highway 92", "postal_code": "30188"}, "capProviderId": null, "distance": null, "has_offers": false, "name": "So Full Grille Barbecue", "longitude": -84.47175, "has_menu": false, "awards": null, "user_review_count": 0}, {"business_operation_status": 1, "rating": null, "neighborhood": null, "image": null, "scorecard": null, "featured": false, "sample_categories": "Restaurants, Asian", "public_id": "asian-star-roswell", "id": 694276220, "votes": null, "tagline": null, "has_video": false, "website": null, "offers": null, "latitude": 34.065697, "politanName": "Atlanta, GA Metro ", "phone_number": "6787617669", "tags": [{"primary": false, "id": 11235, "name": "Asian"}, {"primary": true, "id": 1722, "name": "Restaurants"}], "fax_number": null, "expansion": {"count": null, "uri": null}, "impression_id": "000b00000013c4e99bc90a47b885f81e7773508640", "profile": "http://www.citysearch.com/profile/694276220/roswell_ga/asian_star.html", "address": {"city": "Roswell", "state": "GA", "street": "4750 Alabama Rd Ne # 101", "postal_code": "30075"}, "capProviderId": null, "distance": null, "has_offers": false, "name": "Asian Star", "longitude": -84.422792, "has_menu": false, "awards": null, "user_review_count": 0}, {"business_operation_status": 1, "rating": null, "neighborhood": null, "image": null, "scorecard": null, "featured": false, "sample_categories": "Doughnut Shops, Coffeehouses", "public_id": "dunkin-donuts-kennesaw-5", "id": 713313650, "votes": null, "tagline": null, "has_video": false, "website": "http://www.citysearch.com/profile/external/713313650/kennesaw_ga/dunkin_donuts.html", "offers": null, "latitude": 34.047772, "politanName": "Atlanta, GA Metro ", "phone_number": "6782752187", "tags": [{"primary": false, "id": 1726, "name": "Coffeehouses"}, {"primary": true, "id": 1734, "name": "Doughnut Shops"}], "fax_number": null, "expansion": {"count": null, "uri": null}, "impression_id": "000b0000003aeca2b4e0904781b12d063f35dae6de", "profile": "http://www.citysearch.com/profile/713313650/kennesaw_ga/dunkin_donuts.html", "address": {"city": "Kennesaw", "state": "GA", "street": "4100 Jiles Rd NW # 100", "postal_code": "30144"}, "capProviderId": null, "distance": null, "has_offers": false, "name": "Dunkin' Donuts", "longitude": -84.610566, "has_menu": false, "awards": null, "user_review_count": 0}, {"business_operation_status": 1, "rating": null, "neighborhood": null, "image": null, "scorecard": null, "featured": false, "sample_categories": "Restaurants, Mexican", "public_id": "frontera-mex-mex-grill-alpharetta-2", "id": 713624330, "votes": null, "tagline": null, "has_video": false, "website": null, "offers": null, "latitude": 34.085638, "politanName": "Atlanta, GA Metro ", "phone_number": "7706630010", "tags": [{"primary": false, "id": 11208, "name": "Mexican"}, {"primary": true, "id": 1722, "name": "Restaurants"}], "fax_number": null, "expansion": {"count": null, "uri": null}, "impression_id": "000b0000002b4bd07c5dcc47a683d2b3bf574aa540", "profile": "http://www.citysearch.com/profile/713624330/alpharetta_ga/frontera_mex_mex_grill.html", "address": {"city": "Alpharetta", "state": "GA", "street": "12460 Crabapple Rd", "postal_code": "30004"}, "capProviderId": null, "distance": null, "has_offers": false, "name": "Frontera Mex Mex Grill", "longitude": -84.356689, "has_menu": false, "awards": null, "user_review_count": 0}, {"business_operation_status": 1, "rating": null, "neighborhood": null, "image": null, "scorecard": null, "featured": false, "sample_categories": "Restaurants, Delis And Delicatessens, Sandwich Shops, Carry Out", "public_id": "quiznos-roswell-3", "id": 728135020, "votes": null, "tagline": null, "has_video": false, "website": null, "offers": null, "latitude": 34.054622, "politanName": "Atlanta, GA Metro ", "phone_number": "6787950557", "tags": [{"primary": false, "id": 1727, "name": "Delis And Delicatessens"}, {"primary": false, "id": 1736, "name": "Sandwich Shops"}, {"primary": false, "id": 11247, "name": "Carry Out"}, {"primary": true, "id": 1722, "name": "Restaurants"}], "fax_number": null, "expansion": {"count": null, "uri": null}, "impression_id": "000b0000007cc5bc328b4b4decbc10107cb05517cd", "profile": "http://www.citysearch.com/profile/728135020/roswell_ga/quiznos.html", "address": {"city": "Roswell", "state": "GA", "street": "540 W Crossville Rd # 204", "postal_code": "30075"}, "capProviderId": null, "distance": null, "has_offers": false, "name": "Quiznos", "longitude": -84.376724, "has_menu": true, "awards": null, "user_review_count": 0}, {"business_operation_status": 1, "rating": null, "neighborhood": null, "image": null, "scorecard": null, "featured": false, "sample_categories": "Restaurants", "public_id": "tropicanna-billards-grill-smyrna", "id": 614750544, "votes": null, "tagline": null, "has_video": false, "website": null, "offers": null, "latitude": 33.891092, "politanName": "Atlanta, GA Metro ", "phone_number": "7704320051", "tags": [{"primary": true, "id": 1722, "name": "Restaurants"}], "fax_number": null, "expansion": {"count": null, "uri": null}, "impression_id": "000b000000897cf650b9f64660ade68a3f296bd3f4", "profile": "http://www.citysearch.com/profile/614750544/smyrna_ga/tropicanna_billards_grill.html", "address": {"city": "Smyrna", "state": "GA", "street": "2540 Atlanta Rd SE", "postal_code": "30080"}, "capProviderId": null, "distance": null, "has_offers": false, "name": "Tropicanna Billards & Grill", "longitude": -84.519025, "has_menu": false, "awards": null, "user_review_count": 0}, {"business_operation_status": 1, "rating": null, "neighborhood": null, "image": null, "scorecard": null, "featured": false, "sample_categories": "Restaurants, Catering, Delis And Delicatessens, American Express, Discover", "public_id": "mc-alisters-deli-kennesaw", "id": 36940938, "votes": null, "tagline": null, "has_video": false, "website": "http://www.citysearch.com/profile/external/36940938/kennesaw_ga/mc_alister_s_deli.html", "offers": null, "latitude": 34.025429, "politanName": "Atlanta, GA Metro ", "phone_number": "7704991581", "tags": [{"primary": false, "id": 1705, "name": "Catering"}, {"primary": false, "id": 1727, "name": "Delis And Delicatessens"}, {"primary": false, "id": 11333, "name": "American Express"}, {"primary": false, "id": 11349, "name": "Discover"}, {"primary": false, "id": 11361, "name": "MasterCard"}, {"primary": false, "id": 11382, "name": "Visa"}, {"primary": true, "id": 1722, "name": "Restaurants"}], "fax_number": null, "expansion": {"count": null, "uri": null}, "impression_id": "000b000000473b712f885341709904aefcefcd0cd7", "profile": "http://www.citysearch.com/profile/36940938/kennesaw_ga/mc_alister_s_deli.html", "address": {"city": "Kennesaw", "state": "GA", "street": "2950 George Busbee Pkwy NW # 102", "postal_code": "30144"}, "capProviderId": null, "distance": null, "has_offers": false, "name": "Mc Alister's Deli", "longitude": -84.566908, "has_menu": true, "awards": null, "user_review_count": 1}, {"business_operation_status": 1, "rating": null, "neighborhood": null, "image": null, "scorecard": null, "featured": false, "sample_categories": "Restaurants", "public_id": "beef-obradys-roswell", "id": 40942337, "votes": null, "tagline": null, "has_video": false, "website": null, "offers": null, "latitude": 34.06109, "politanName": "Atlanta, GA Metro ", "phone_number": "6783520307", "tags": [{"primary": true, "id": 1722, "name": "Restaurants"}], "fax_number": null, "expansion": {"count": null, "uri": null}, "impression_id": "000b00000079a16ecc807d483c86ec38d80d1d2d3b", "profile": "http://www.citysearch.com/profile/40942337/roswell_ga/beef_o_brady_s.html", "address": {"city": "Roswell", "state": "GA", "street": "910 Woodstock Rd Ste 120", "postal_code": "30075"}, "capProviderId": null, "distance": null, "has_offers": false, "name": "Beef O'Brady's", "longitude": -84.389326, "has_menu": true, "awards": null, "user_review_count": 0}, {"business_operation_status": 1, "rating": null, "neighborhood": null, "image": null, "scorecard": null, "featured": false, "sample_categories": "Restaurants, Carry Out", "public_id": "jimmy-johns-kennesaw-2", "id": 621138804, "votes": null, "tagline": null, "has_video": false, "website": "http://www.citysearch.com/profile/external/621138804/kennesaw_ga/jimmy_john_s.html", "offers": null, "latitude": 34.012833, "politanName": "Atlanta, GA Metro ", "phone_number": "6784264030", "tags": [{"primary": false, "id": 11247, "name": "Carry Out"}, {"primary": true, "id": 1722, "name": "Restaurants"}], "fax_number": null, "expansion": {"count": null, "uri": null}, "impression_id": "000b0000002226757e7bf74a3ebde0803d95091667", "profile": "http://www.citysearch.com/profile/621138804/kennesaw_ga/jimmy_john_s.html", "address": {"city": "Kennesaw", "state": "GA", "street": "440 Ernest W Barrett Pkwy NW", "postal_code": "30144"}, "capProviderId": null, "distance": null, "has_offers": false, "name": "Jimmy John's", "longitude": -84.564302, "has_menu": false, "awards": null, "user_review_count": 0}, {"business_operation_status": 0, "rating": null, "neighborhood": null, "image": null, "scorecard": null, "featured": false, "sample_categories": "Ice Cream Parlors", "public_id": "ritas-water-ice-marietta", "id": 621962960, "votes": null, "tagline": null, "has_video": false, "website": "http://www.citysearch.com/profile/external/621962960/marietta_ga/rita_s_water_ice.html", "offers": null, "latitude": 34.021599, "politanName": "Atlanta, GA Metro ", "phone_number": "7706506705", "tags": [{"primary": true, "id": 1730, "name": "Ice Cream Parlors"}], "fax_number": null, "expansion": {"count": null, "uri": null}, "impression_id": "000b00000072d8e0e101ed43f3b0f24c8d978c4ca3", "profile": "http://www.citysearch.com/profile/621962960/marietta_ga/rita_s_water_ice.html", "address": {"city": "Marietta", "state": "GA", "street": "2986 Johnson Ferry Rd # B", "postal_code": "30062"}, "capProviderId": null, "distance": null, "has_offers": false, "name": "Rita's Water Ice", "longitude": -84.426314, "has_menu": true, "awards": null, "user_review_count": 0}, {"business_operation_status": 1, "rating": null, "neighborhood": null, "image": null, "scorecard": null, "featured": false, "sample_categories": "Restaurants", "public_id": "wings-101-smyrna", "id": 622039784, "votes": null, "tagline": null, "has_video": false, "website": null, "offers": null, "latitude": 33.894038, "politanName": "Atlanta, GA Metro ", "phone_number": "7709891520", "tags": [{"primary": true, "id": 1722, "name": "Restaurants"}], "fax_number": null, "expansion": {"count": null, "uri": null}, "impression_id": "000b000000c39382d41eb949fab90910aba2a592a0", "profile": "http://www.citysearch.com/profile/622039784/smyrna_ga/wings_101.html", "address": {"city": "Smyrna", "state": "GA", "street": "998 Windy Hill Rd SE", "postal_code": "30080"}, "capProviderId": null, "distance": null, "has_offers": false, "name": "Wings 101", "longitude": -84.524382, "has_menu": false, "awards": null, "user_review_count": 0}, {"business_operation_status": 1, "rating": null, "neighborhood": null, "image": null, "scorecard": null, "featured": false, "sample_categories": "Restaurants, Chinese, American Express, Discover, MasterCard", "public_id": "new-china-buffet-woodstock-2", "id": 682411050, "votes": null, "tagline": null, "has_video": false, "website": "http://www.citysearch.com/profile/external/682411050/woodstock_ga/new_china_buffet.html", "offers": null, "latitude": 34.085989, "politanName": "Atlanta, GA Metro ", "phone_number": "7705169238", "tags": [{"primary": false, "id": 11252, "name": "Chinese"}, {"primary": false, "id": 11333, "name": "American Express"}, {"primary": false, "id": 11349, "name": "Discover"}, {"primary": false, "id": 11361, "name": "MasterCard"}, {"primary": false, "id": 11382, "name": "Visa"}, {"primary": true, "id": 1722, "name": "Restaurants"}], "fax_number": null, "expansion": {"count": null, "uri": null}, "impression_id": "000b0000008f26370bb63141d385e014246b32af15", "profile": "http://www.citysearch.com/profile/682411050/woodstock_ga/new_china_buffet.html", "address": {"city": "Woodstock", "state": "GA", "street": "10029 Highway 92 # 138", "postal_code": "30188"}, "capProviderId": null, "distance": null, "has_offers": false, "name": "New China Buffet", "longitude": -84.520452, "has_menu": true, "awards": null, "user_review_count": 5}, {"business_operation_status": 1, "rating": null, "neighborhood": null, "image": null, "scorecard": null, "featured": false, "sample_categories": "Restaurants", "public_id": "tres-agaves-mexican-taqueria-canton", "id": 612400274, "votes": null, "tagline": null, "has_video": false, "website": null, "offers": null, "latitude": 34.201836, "politanName": "Atlanta, GA Metro ", "phone_number": "7707041845", "tags": [{"primary": true, "id": 1722, "name": "Restaurants"}], "fax_number": null, "expansion": {"count": null, "uri": null}, "impression_id": "000b000000e9226c264d15414eb770cb68ba94d740", "profile": "http://www.citysearch.com/profile/612400274/canton_ga/tres_agaves_mexican_taqueria.html", "address": {"city": "Canton", "state": "GA", "street": "11431 Bells Ferry Rd", "postal_code": "30114"}, "capProviderId": null, "distance": null, "has_offers": false, "name": "Tres Agaves Mexican Taqueria", "longitude": -84.523894, "has_menu": false, "awards": null, "user_review_count": 0}, {"business_operation_status": 1, "rating": null, "neighborhood": null, "image": null, "scorecard": null, "featured": false, "sample_categories": "Ice Cream Parlors", "public_id": "tios-mexican-grill-marietta", "id": 830806670, "votes": null, "tagline": null, "has_video": false, "website": null, "offers": null, "latitude": 33.970818, "politanName": "Atlanta, GA Metro ", "phone_number": "7709779727", "tags": [{"primary": true, "id": 1730, "name": "Ice Cream Parlors"}], "fax_number": null, "expansion": {"count": null, "uri": null}, "impression_id": "000b000000e1e18afd159848c6acc18f5f3d299347", "profile": "http://www.citysearch.com/profile/830806670/marietta_ga/tios_mexican_grill.html", "address": {"city": "Marietta", "state": "GA", "street": "821 Woodmont Dr", "postal_code": "30062"}, "capProviderId": null, "distance": null, "has_offers": false, "name": "Tios Mexican Grill", "longitude": -84.49593, "has_menu": true, "awards": null, "user_review_count": 0}, {"business_operation_status": 1, "rating": null, "neighborhood": null, "image": null, "scorecard": null, "featured": false, "sample_categories": "Restaurants", "public_id": "crave-burgers-wings-woodstock", "id": 839310970, "votes": null, "tagline": null, "has_video": false, "website": null, "offers": null, "latitude": 34.087709, "politanName": "Atlanta, GA Metro ", "phone_number": "6789038951", "tags": [{"primary": true, "id": 1722, "name": "Restaurants"}], "fax_number": null, "expansion": {"count": null, "uri": null}, "impression_id": "000b0000001baa169acc1c49de878a52dd5ab41785", "profile": "http://www.citysearch.com/profile/839310970/woodstock_ga/crave_burgers_wings.html", "address": {"city": "Woodstock", "state": "GA", "street": "12165 Highway 92", "postal_code": "30188"}, "capProviderId": null, "distance": null, "has_offers": false, "name": "Crave Burgers & Wings", "longitude": -84.483372, "has_menu": false, "awards": null, "user_review_count": 0}, {"business_operation_status": 1, "rating": null, "neighborhood": null, "image": null, "scorecard": null, "featured": false, "sample_categories": "Restaurants, Carry Out", "public_id": "del-taco-woodstock", "id": 612014754, "votes": null, "tagline": null, "has_video": false, "website": "http://www.citysearch.com/profile/external/612014754/woodstock_ga/del_taco.html", "offers": null, "latitude": 34.086321, "politanName": "Atlanta, GA Metro ", "phone_number": "6784940434", "tags": [{"primary": false, "id": 11247, "name": "Carry Out"}, {"primary": true, "id": 1722, "name": "Restaurants"}], "fax_number": null, "expansion": {"count": null, "uri": null}, "impression_id": "000b0000000caa236a59fc473799199744e3068f9b", "profile": "http://www.citysearch.com/profile/612014754/woodstock_ga/del_taco.html", "address": {"city": "Woodstock", "state": "GA", "street": "9775 Highway 92", "postal_code": "30188"}, "capProviderId": null, "distance": null, "has_offers": false, "name": "Del Taco", "longitude": -84.526755, "has_menu": false, "awards": null, "user_review_count": 0}, {"business_operation_status": 1, "rating": 8.0, "neighborhood": null, "image": null, "scorecard": null, "featured": false, "sample_categories": "Restaurants, Bakeries, Discover, MasterCard, Visa", "public_id": "soho-bagel-co-woodstock", "id": 43863999, "votes": null, "tagline": null, "has_video": false, "website": null, "offers": null, "latitude": 34.107927, "politanName": "Atlanta, GA Metro ", "phone_number": "6783887089", "tags": [{"primary": false, "id": 1685, "name": "Bakeries"}, {"primary": false, "id": 11349, "name": "Discover"}, {"primary": false, "id": 11361, "name": "MasterCard"}, {"primary": false, "id": 11382, "name": "Visa"}, {"primary": true, "id": 1722, "name": "Restaurants"}], "fax_number": null, "expansion": {"count": null, "uri": null}, "impression_id": "000b00000027d810703b0b40eaa1f0aa07dbb92082", "profile": "http://www.citysearch.com/profile/43863999/woodstock_ga/soho_bagel_co.html", "address": {"city": "Woodstock", "state": "GA", "street": "1105 Parkside Ln Ste 1202", "postal_code": "30189"}, "capProviderId": null, "distance": null, "has_offers": false, "name": "Soho Bagel Co", "longitude": -84.553485, "has_menu": false, "awards": null, "user_review_count": 3}, {"business_operation_status": 1, "rating": null, "neighborhood": null, "image": null, "scorecard": null, "featured": false, "sample_categories": "Restaurants", "public_id": "mamas-cafe-acworth", "id": 682266100, "votes": null, "tagline": null, "has_video": false, "website": null, "offers": null, "latitude": 34.081615, "politanName": "Atlanta, GA Metro ", "phone_number": "7708527100", "tags": [{"primary": true, "id": 1722, "name": "Restaurants"}], "fax_number": null, "expansion": {"count": null, "uri": null}, "impression_id": "000b0000000dcd424e18d64d189b25989e760adb6a", "profile": "http://www.citysearch.com/profile/682266100/acworth_ga/mama_s_cafe.html", "address": {"city": "Acworth", "state": "GA", "street": "5399 Bells Ferry Rd", "postal_code": "30102"}, "capProviderId": null, "distance": null, "has_offers": false, "name": "Mama's Cafe", "longitude": -84.575225, "has_menu": false, "awards": null, "user_review_count": 0}, {"business_operation_status": 1, "rating": null, "neighborhood": null, "image": null, "scorecard": null, "featured": false, "sample_categories": "Restaurants, Pizza, Carry Out, American Express, Discover", "public_id": "papa-johns-pizza-marietta-9", "id": 682340070, "votes": null, "tagline": null, "has_video": false, "website": "http://www.citysearch.com/profile/external/682340070/marietta_ga/papa_john_s_pizza.html", "offers": null, "latitude": 34.025761, "politanName": "Atlanta, GA Metro ", "phone_number": "7705879072", "tags": [{"primary": false, "id": 1722, "name": "Restaurants"}, {"primary": false, "id": 11247, "name": "Carry Out"}, {"primary": false, "id": 11333, "name": "American Express"}, {"primary": false, "id": 11349, "name": "Discover"}, {"primary": false, "id": 11361, "name": "MasterCard"}, {"primary": false, "id": 11382, "name": "Visa"}, {"primary": true, "id": 11299, "name": "Pizza"}], "fax_number": null, "expansion": {"count": null, "uri": null}, "impression_id": "000b000000b761eccbad324dc2a82f8dcda48647e5", "profile": "http://www.citysearch.com/profile/682340070/marietta_ga/papa_john_s_pizza.html", "address": {"city": "Marietta", "state": "GA", "street": "3154 Johnson Ferry Rd # 108", "postal_code": "30062"}, "capProviderId": null, "distance": null, "has_offers": false, "name": "Papa John's Pizza", "longitude": -84.424252, "has_menu": true, "awards": null, "user_review_count": 0}, {"business_operation_status": 1, "rating": null, "neighborhood": null, "image": null, "scorecard": null, "featured": false, "sample_categories": "Restaurants, Traditional American, Carry Out", "public_id": "ihop-restaurant-marietta-3", "id": 682450140, "votes": null, "tagline": null, "has_video": false, "website": "http://www.citysearch.com/profile/external/682450140/marietta_ga/ihop.html", "offers": null, "latitude": 33.94651, "politanName": "Atlanta, GA Metro ", "phone_number": "7704851267", "tags": [{"primary": false, "id": 11190, "name": "Traditional American"}, {"primary": false, "id": 11247, "name": "Carry Out"}, {"primary": true, "id": 1722, "name": "Restaurants"}], "fax_number": null, "expansion": {"count": null, "uri": null}, "impression_id": "000b0000001d9553c2b03645f584552e8719731f08", "profile": "http://www.citysearch.com/profile/682450140/marietta_ga/ihop.html", "address": {"city": "Marietta", "state": "GA", "street": "2390 Dallas Hwy SW", "postal_code": "30064"}, "capProviderId": null, "distance": null, "has_offers": false, "name": "IHOP", "longitude": -84.62155, "has_menu": false, "awards": null, "user_review_count": 0}, {"business_operation_status": 1, "rating": null, "neighborhood": null, "image": null, "scorecard": null, "featured": false, "sample_categories": "Restaurants", "public_id": "rossa-italian-cuisine-woodstock", "id": 825539150, "votes": null, "tagline": null, "has_video": false, "website": null, "offers": null, "latitude": 34.089184, "politanName": "Atlanta, GA Metro ", "phone_number": "7709267000", "tags": [{"primary": true, "id": 1722, "name": "Restaurants"}], "fax_number": null, "expansion": {"count": null, "uri": null}, "impression_id": "000b000000696777b36fe44940821be1cafeb0c48e", "profile": "http://www.citysearch.com/profile/825539150/woodstock_ga/rossa_italian_cuisine.html", "address": {"city": "Woodstock", "state": "GA", "street": "12195 Highway 92", "postal_code": "30188"}, "capProviderId": null, "distance": null, "has_offers": false, "name": "Rossa Italian Cuisine", "longitude": -84.483229, "has_menu": true, "awards": null, "user_review_count": 0}, {"business_operation_status": 1, "rating": null, "neighborhood": null, "image": null, "scorecard": null, "featured": false, "sample_categories": "Restaurants", "public_id": "curbside-cafe-marietta", "id": 787133600, "votes": null, "tagline": null, "has_video": false, "website": null, "offers": null, "latitude": 33.996594, "politanName": "Atlanta, GA Metro ", "phone_number": "7709920705", "tags": [{"primary": true, "id": 1722, "name": "Restaurants"}], "fax_number": null, "expansion": {"count": null, "uri": null}, "impression_id": "000b00000091761f5bf2ef417cbedfb3e908be1260", "profile": "http://www.citysearch.com/profile/787133600/marietta_ga/curbside_cafe.html", "address": {"city": "Marietta", "state": "GA", "street": "1907 Denton Walk Ct", "postal_code": "30062"}, "capProviderId": null, "distance": null, "has_offers": false, "name": "Curbside Cafe", "longitude": -84.416995, "has_menu": false, "awards": null, "user_review_count": 0}, {"business_operation_status": 0, "rating": null, "neighborhood": null, "image": null, "scorecard": null, "featured": false, "sample_categories": "Restaurants", "public_id": "feeder-of-flocks-rib-chips-marietta", "id": 801084460, "votes": null, "tagline": null, "has_video": false, "website": null, "offers": null, "latitude": 33.880532, "politanName": "Atlanta, GA Metro ", "phone_number": "4046689810", "tags": [{"primary": true, "id": 1722, "name": "Restaurants"}], "fax_number": null, "expansion": {"count": null, "uri": null}, "impression_id": "000b0000006a2bbe38448b48c3b63923dd75f067eb", "profile": "http://www.citysearch.com/profile/801084460/marietta_ga/feeder_of_flocks_rib_chips.html", "address": {"city": "Marietta", "state": "GA", "street": "901 Milford Church Rd Sw # G", "postal_code": "30060"}, "capProviderId": null, "distance": null, "has_offers": false, "name": "Feeder of Flocks Rib & Chips", "longitude": -84.580368, "has_menu": false, "awards": null, "user_review_count": 0}, {"business_operation_status": 1, "rating": null, "neighborhood": null, "image": null, "scorecard": null, "featured": false, "sample_categories": "Luaus", "public_id": "el-herradero-kennesaw", "id": 818931270, "votes": null, "tagline": null, "has_video": false, "website": null, "offers": null, "latitude": 34.014345, "politanName": "Atlanta, GA Metro ", "phone_number": "7704231213", "tags": [{"primary": true, "id": 11285, "name": "Luaus"}], "fax_number": null, "expansion": {"count": null, "uri": null}, "impression_id": "000b0000008bf9255f18c74d78a1ea23b0c3e48361", "profile": "http://www.citysearch.com/profile/818931270/kennesaw_ga/el_herradero.html", "address": {"city": "Kennesaw", "state": "GA", "street": "2479 Cobb Pkwy NW", "postal_code": "30152"}, "capProviderId": null, "distance": null, "has_offers": false, "name": "El Herradero", "longitude": -84.614253, "has_menu": false, "awards": null, "user_review_count": 0}, {"business_operation_status": 1, "rating": null, "neighborhood": null, "image": null, "scorecard": null, "featured": false, "sample_categories": "Restaurants", "public_id": "daves-kennesaw", "id": 33571129, "votes": null, "tagline": null, "has_video": false, "website": null, "offers": null, "latitude": 34.048639, "politanName": "Atlanta, GA Metro ", "phone_number": "7704251010", "tags": [{"primary": true, "id": 1722, "name": "Restaurants"}], "fax_number": null, "expansion": {"count": null, "uri": null}, "impression_id": "000b00000020495064371b4592b4a56eef64b0116b", "profile": "http://www.citysearch.com/profile/33571129/kennesaw_ga/dave_s.html", "address": {"city": "Kennesaw", "state": "GA", "street": "3900 Legacy Park Blvd NW Ste B100", "postal_code": "30144"}, "capProviderId": null, "distance": null, "has_offers": false, "name": "Dave's", "longitude": -84.622471, "has_menu": true, "awards": null, "user_review_count": 0}, {"business_operation_status": 1, "rating": null, "neighborhood": null, "image": null, "scorecard": null, "featured": false, "sample_categories": "Restaurants", "public_id": "d-k-wings-marietta", "id": 824095540, "votes": null, "tagline": null, "has_video": false, "website": null, "offers": null, "latitude": 33.902356, "politanName": "Atlanta, GA Metro ", "phone_number": "7708030499", "tags": [{"primary": true, "id": 1722, "name": "Restaurants"}], "fax_number": null, "expansion": {"count": null, "uri": null}, "impression_id": "000b00000013c3d458476a438eb072c60d452ed5ec", "profile": "http://www.citysearch.com/profile/824095540/marietta_ga/d_k_wings.html", "address": {"city": "Marietta", "state": "GA", "street": "451 Pat Mell Rd SW", "postal_code": "30060"}, "capProviderId": null, "distance": null, "has_offers": false, "name": "D K Wings", "longitude": -84.566142, "has_menu": false, "awards": null, "user_review_count": 0}, {"business_operation_status": 1, "rating": null, "neighborhood": null, "image": null, "scorecard": null, "featured": false, "sample_categories": "Restaurants", "public_id": "leo-franco-chef-marietta", "id": 824426470, "votes": null, "tagline": null, "has_video": false, "website": null, "offers": null, "latitude": 33.948481, "politanName": "Atlanta, GA Metro ", "phone_number": "7704999439", "tags": [{"primary": true, "id": 1722, "name": "Restaurants"}], "fax_number": null, "expansion": {"count": null, "uri": null}, "impression_id": "000b000000139afd39bdda49d8967f9492da0620f5", "profile": "http://www.citysearch.com/profile/824426470/marietta_ga/leo_franco_chef.html", "address": {"city": "Marietta", "state": "GA", "street": "20 Emerson Hill Sq", "postal_code": "30060"}, "capProviderId": null, "distance": null, "has_offers": false, "name": "Leo Franco Chef", "longitude": -84.542181, "has_menu": false, "awards": null, "user_review_count": 0}, {"business_operation_status": 1, "rating": null, "neighborhood": null, "image": null, "scorecard": null, "featured": false, "sample_categories": "Restaurants, Barbecue Restaurants", "public_id": "barbeque-bills-smyrna", "id": 825550660, "votes": null, "tagline": null, "has_video": false, "website": null, "offers": null, "latitude": 33.877641, "politanName": "Atlanta, GA Metro ", "phone_number": "7703841227", "tags": [{"primary": false, "id": 1724, "name": "Barbecue Restaurants"}, {"primary": true, "id": 1722, "name": "Restaurants"}], "fax_number": null, "expansion": {"count": null, "uri": null}, "impression_id": "000b000000aff9bc925af1407fbeedd1dda7ea9512", "profile": "http://www.citysearch.com/profile/825550660/smyrna_ga/barbeque_bill_s.html", "address": {"city": "Smyrna", "state": "GA", "street": "3120 S Cobb Dr SE", "postal_code": "30080"}, "capProviderId": null, "distance": null, "has_offers": false, "name": "Barbeque Bill's", "longitude": -84.532789, "has_menu": false, "awards": null, "user_review_count": 0}], "histograms": [], "tag_ids": [1722], "uri": "http://api.citygridmedia.com:8080/search/places/v2/search/where?has_offers=false&type=restaurant&format=json&page=32&where=30066&rpp=50&histograms=false&publisher=10000009598&region_type=circle", "did_you_mean": "", "regions": [{"latitude": 34.034132, "default_radius": 5.28, "type": "postal_code", "name": "30066", "longitude": -84.508332}], "call_id": "000b000000aef1676279c04009ae29c74f3391a018", "first_hit": 1551, "total_hits": 2075, "geo_ids": [26294], "page": 32, "last_hit": 1600}}