{"results": {"rpp": 50, "locations": [{"business_operation_status": 1, "rating": null, "neighborhood": null, "image": null, "scorecard": null, "featured": false, "sample_categories": "Restaurants, American Express, Discover, MasterCard, Shop Online", "public_id": "metro-kitchen-marietta", "id": 728110290, "votes": null, "tagline": null, "has_video": false, "website": "http://www.citysearch.com/profile/external/728110290/marietta_ga/metro_kitchen.html", "offers": null, "latitude": 33.926059, "politanName": "Atlanta, GA Metro ", "phone_number": "7709160102", "tags": [{"primary": false, "id": 11333, "name": "American Express"}, {"primary": false, "id": 11349, "name": "Discover"}, {"primary": false, "id": 11361, "name": "MasterCard"}, {"primary": false, "id": 11375, "name": "Shop Online"}, {"primary": false, "id": 11382, "name": "Visa"}, {"primary": true, "id": 1722, "name": "Restaurants"}], "fax_number": null, "expansion": {"count": null, "uri": null}, "impression_id": "000b0000005b13d9d9a3934679ac08885154b1fd00", "profile": "http://www.citysearch.com/profile/728110290/marietta_ga/metro_kitchen.html", "address": {"city": "Marietta", "state": "GA", "street": "4041 Kingston Ct Se # A", "postal_code": "30067"}, "capProviderId": null, "distance": null, "has_offers": false, "name": "Metro Kitchen", "longitude": -84.491207, "has_menu": false, "awards": null, "user_review_count": 0}, {"business_operation_status": 1, "rating": null, "neighborhood": null, "image": null, "scorecard": null, "featured": false, "sample_categories": "Restaurants", "public_id": "peking-express-sandy", "id": 812996590, "votes": null, "tagline": null, "has_video": false, "website": null, "offers": null, "latitude": 33.972659, "politanName": "Atlanta, GA Metro ", "phone_number": "7703960026", "tags": [{"primary": true, "id": 1722, "name": "Restaurants"}], "fax_number": null, "expansion": {"count": null, "uri": null}, "impression_id": "000b00000020d8e6af3e664e9a887f9fc4f3b99972", "profile": "http://www.citysearch.com/profile/812996590/sandy_springs_ga/peking_express.html", "address": {"city": "Sandy Springs", "state": "GA", "street": "7878 Roswell Rd", "postal_code": "30350"}, "capProviderId": null, "distance": null, "has_offers": false, "name": "Peking Express", "longitude": -84.35877, "has_menu": true, "awards": null, "user_review_count": 0}, {"business_operation_status": 1, "rating": null, "neighborhood": null, "image": null, "scorecard": null, "featured": false, "sample_categories": "Restaurants, Bars & Clubs, Carry Out", "public_id": "tgi-fridays-marietta-2", "id": 819157490, "votes": null, "tagline": null, "has_video": false, "website": null, "offers": null, "latitude": 33.931556, "politanName": "Atlanta, GA Metro ", "phone_number": "7709510821", "tags": [{"primary": false, "id": 164, "name": "Bars & Clubs"}, {"primary": false, "id": 11247, "name": "Carry Out"}, {"primary": true, "id": 1722, "name": "Restaurants"}], "fax_number": null, "expansion": {"count": null, "uri": null}, "impression_id": "000b000000111af2826a5c4b21982fc67b581d7a6e", "profile": "http://www.citysearch.com/profile/819157490/marietta_ga/tgi_friday_s.html", "address": {"city": "Marietta", "state": "GA", "street": "1945 Powers Ferry Trce SE", "postal_code": "30067"}, "capProviderId": null, "distance": null, "has_offers": false, "name": "TGI Friday's", "longitude": -84.47837, "has_menu": false, "awards": null, "user_review_count": 0}, {"business_operation_status": 1, "rating": null, "neighborhood": null, "image": null, "scorecard": null, "featured": false, "sample_categories": "Restaurants", "public_id": "philly-connectionsandy-spgs-atlanta", "id": 819444770, "votes": null, "tagline": null, "has_video": false, "website": null, "offers": null, "latitude": 33.916628, "politanName": "Atlanta, GA Metro ", "phone_number": "4042559005", "tags": [{"primary": true, "id": 1722, "name": "Restaurants"}], "fax_number": null, "expansion": {"count": null, "uri": null}, "impression_id": "000b000000187e61bc5dfa42e99fd4472dff85bed8", "profile": "http://www.citysearch.com/profile/819444770/atlanta_ga/philly_connection_sandy_spgs.html", "address": {"city": "Atlanta", "state": "GA", "street": "6309 Roswell Rd # 1b", "postal_code": "30328"}, "capProviderId": null, "distance": null, "has_offers": false, "name": "Philly Connection-Sandy Spgs", "longitude": -84.379177, "has_menu": false, "awards": null, "user_review_count": 0}, {"business_operation_status": 1, "rating": null, "neighborhood": null, "image": null, "scorecard": null, "featured": false, "sample_categories": "Restaurants", "public_id": "take-a-break-deli-atlanta", "id": 815627600, "votes": null, "tagline": null, "has_video": false, "website": null, "offers": null, "latitude": 33.98333, "politanName": "Atlanta, GA Metro ", "phone_number": "7705879744", "tags": [{"primary": true, "id": 1722, "name": "Restaurants"}], "fax_number": null, "expansion": {"count": null, "uri": null}, "impression_id": "000b000000bf9ee21417454b6296d96717c6ddf3c7", "profile": "http://www.citysearch.com/profile/815627600/atlanta_ga/take_a_break_deli.html", "address": {"city": "Atlanta", "state": "GA", "street": "500 Northridge Rd", "postal_code": "30350"}, "capProviderId": null, "distance": null, "has_offers": false, "name": "Take A Break Deli", "longitude": -84.34377, "has_menu": false, "awards": null, "user_review_count": 0}, {"business_operation_status": 1, "rating": null, "neighborhood": null, "image": null, "scorecard": null, "featured": false, "sample_categories": "Restaurants", "public_id": "va-t-i-c-atlanta", "id": 610450354, "votes": null, "tagline": null, "has_video": false, "website": null, "offers": null, "latitude": 33.908517, "politanName": "Atlanta, GA Metro ", "phone_number": "7706934742", "tags": [{"primary": true, "id": 1722, "name": "Restaurants"}], "fax_number": null, "expansion": {"count": null, "uri": null}, "impression_id": "000b0000005f08f68ce09d4e92b99ded514c02e1f2", "profile": "http://www.citysearch.com/profile/610450354/atlanta_ga/va_t_i_c.html", "address": {"city": "Atlanta", "state": "GA", "street": "1827 Powers Ferry Rd SE Ste 3-200 # 3-200", "postal_code": "30339"}, "capProviderId": null, "distance": null, "has_offers": false, "name": "VA T I C", "longitude": -84.463637, "has_menu": false, "awards": null, "user_review_count": 0}, {"business_operation_status": 1, "rating": null, "neighborhood": null, "image": null, "scorecard": null, "featured": false, "sample_categories": "Restaurants", "public_id": "lickskillet-farm-restaurant-roswell", "id": 828711140, "votes": null, "tagline": null, "has_video": false, "website": null, "offers": null, "latitude": 34.02, "politanName": "Atlanta, GA Metro ", "phone_number": "7704756484", "tags": [{"primary": true, "id": 1722, "name": "Restaurants"}], "fax_number": null, "expansion": {"count": null, "uri": null}, "impression_id": "000b000000ef3225f50e72440f8f9df3850344b1d6", "profile": "http://www.citysearch.com/profile/828711140/roswell_ga/lickskillet_farm_restaurant.html", "address": {"city": "Roswell", "state": "GA", "street": "PO Box 665", "postal_code": "30077"}, "capProviderId": null, "distance": null, "has_offers": false, "name": "Lickskillet Farm Restaurant", "longitude": -84.36, "has_menu": false, "awards": null, "user_review_count": 0}, {"business_operation_status": 1, "rating": null, "neighborhood": null, "image": null, "scorecard": null, "featured": false, "sample_categories": "Restaurants", "public_id": "checkers-marietta-3", "id": 836194250, "votes": null, "tagline": null, "has_video": false, "website": null, "offers": null, "latitude": 33.950121, "politanName": "Atlanta, GA Metro ", "phone_number": "7704298398", "tags": [{"primary": true, "id": 1722, "name": "Restaurants"}], "fax_number": null, "expansion": {"count": null, "uri": null}, "impression_id": "000b00000073511241cb1e40639d250a9b2770fa16", "profile": "http://www.citysearch.com/profile/836194250/marietta_ga/checkers.html", "address": {"city": "Marietta", "state": "GA", "street": "41 Cobb Pkwy S", "postal_code": "30060"}, "capProviderId": null, "distance": null, "has_offers": false, "name": "Checkers", "longitude": -84.519571, "has_menu": false, "awards": null, "user_review_count": 0}, {"business_operation_status": 1, "rating": null, "neighborhood": null, "image": null, "scorecard": null, "featured": false, "sample_categories": "Cafes", "public_id": "reveille-cafe-marietta-2", "id": 619600404, "votes": null, "tagline": null, "has_video": false, "website": null, "offers": null, "latitude": 34.023215, "politanName": "Atlanta, GA Metro ", "phone_number": "7709716800", "tags": [{"primary": true, "id": 6190, "name": "Cafes"}], "fax_number": null, "expansion": {"count": null, "uri": null}, "impression_id": "000b0000007c7dc24e9a5d49faafe4f93180f4a99a", "profile": "http://www.citysearch.com/profile/619600404/marietta_ga/reveille_cafe.html", "address": {"city": "Marietta", "state": "GA", "street": "2960 Sandy Plains Rd # 130", "postal_code": "30066"}, "capProviderId": null, "distance": null, "has_offers": false, "name": "Reveille Cafe", "longitude": -84.485512, "has_menu": false, "awards": null, "user_review_count": 0}, {"business_operation_status": 1, "rating": null, "neighborhood": null, "image": null, "scorecard": null, "featured": false, "sample_categories": "Bars & Clubs, Bars & Pubs, Restaurants, Carry Out", "public_id": "hooters-of-america-inc-atlanta", "id": 682344370, "votes": null, "tagline": null, "has_video": false, "website": "http://www.citysearch.com/profile/external/682344370/atlanta_ga/hooters_of_america_inc.html", "offers": null, "latitude": 33.908131, "politanName": "Atlanta, GA Metro ", "phone_number": "7703038124", "tags": [{"primary": false, "id": 164, "name": "Bars & Clubs"}, {"primary": false, "id": 1686, "name": "Bars & Pubs"}, {"primary": false, "id": 11247, "name": "Carry Out"}, {"primary": true, "id": 1722, "name": "Restaurants"}], "fax_number": null, "expansion": {"count": null, "uri": null}, "impression_id": "000b00000025302f9bb41c4bb0a756a07077a27e33", "profile": "http://www.citysearch.com/profile/682344370/atlanta_ga/hooters_of_america_inc.html", "address": {"city": "Atlanta", "state": "GA", "street": "1815 The Exchange Se", "postal_code": "30339"}, "capProviderId": null, "distance": null, "has_offers": false, "name": "Hooters of America INC", "longitude": -84.479005, "has_menu": true, "awards": null, "user_review_count": 0}, {"business_operation_status": 1, "rating": null, "neighborhood": null, "image": null, "scorecard": null, "featured": false, "sample_categories": "Restaurants, Pizza", "public_id": "johnnys-new-york-style-pizza-smyrna-4", "id": 682425730, "votes": null, "tagline": null, "has_video": false, "website": "http://www.citysearch.com/profile/external/682425730/smyrna_ga/johnny_s_new_york_style_pizza.html", "offers": null, "latitude": 33.887838, "politanName": "Atlanta, GA Metro ", "phone_number": "7704380300", "tags": [{"primary": false, "id": 1722, "name": "Restaurants"}, {"primary": true, "id": 11299, "name": "Pizza"}], "fax_number": null, "expansion": {"count": null, "uri": null}, "impression_id": "000b0000007b2e664ee8d04849bae3aef29824228d", "profile": "http://www.citysearch.com/profile/682425730/smyrna_ga/johnny_s_new_york_style_pizza.html", "address": {"city": "Smyrna", "state": "GA", "street": "2651 Cumberland Blvd Se", "postal_code": "30080"}, "capProviderId": null, "distance": null, "has_offers": false, "name": "Johnny's New York Style Pizza", "longitude": -84.475608, "has_menu": true, "awards": null, "user_review_count": 0}, {"business_operation_status": 1, "rating": null, "neighborhood": null, "image": null, "scorecard": null, "featured": false, "sample_categories": "Restaurants, Bars & Clubs, Bars & Pubs", "public_id": "stadium-bar-grill-marietta", "id": 647336140, "votes": null, "tagline": null, "has_video": false, "website": null, "offers": null, "latitude": 34.011742, "politanName": "Atlanta, GA Metro ", "phone_number": "7705092899", "tags": [{"primary": false, "id": 164, "name": "Bars & Clubs"}, {"primary": false, "id": 1686, "name": "Bars & Pubs"}, {"primary": true, "id": 1722, "name": "Restaurants"}], "fax_number": null, "expansion": {"count": null, "uri": null}, "impression_id": "000b00000066298242b83d46b2bb890789a846dc11", "profile": "http://www.citysearch.com/profile/647336140/marietta_ga/stadium_bar_grill.html", "address": {"city": "Marietta", "state": "GA", "street": "2550 Sandy Plains Rd", "postal_code": "30066"}, "capProviderId": null, "distance": null, "has_offers": false, "name": "Stadium Bar & Grill", "longitude": -84.495056, "has_menu": false, "awards": null, "user_review_count": 0}, {"business_operation_status": 1, "rating": null, "neighborhood": null, "image": null, "scorecard": null, "featured": false, "sample_categories": "Restaurants, Bars & Clubs, Bars & Pubs, Traditional American", "public_id": "tilted-kilt-pub-eatery-atlanta", "id": 655809520, "votes": null, "tagline": null, "has_video": false, "website": "http://www.citysearch.com/profile/external/655809520/atlanta_ga/tilted_kilt_pub_eatery.html", "offers": null, "latitude": 33.934532, "politanName": "Atlanta, GA Metro ", "phone_number": "6786724533", "tags": [{"primary": false, "id": 164, "name": "Bars & Clubs"}, {"primary": false, "id": 1686, "name": "Bars & Pubs"}, {"primary": false, "id": 11190, "name": "Traditional American"}, {"primary": true, "id": 1722, "name": "Restaurants"}], "fax_number": null, "expansion": {"count": null, "uri": null}, "impression_id": "000b0000003ab813dba6e74879b6c2417ffb4f96ed", "profile": "http://www.citysearch.com/profile/655809520/atlanta_ga/tilted_kilt_pub_eatery.html", "address": {"city": "Atlanta", "state": "GA", "street": "1155 Mount Vernon Hwy # B", "postal_code": "30338"}, "capProviderId": null, "distance": null, "has_offers": false, "name": "Tilted Kilt Pub & Eatery", "longitude": -84.349806, "has_menu": false, "awards": null, "user_review_count": 0}, {"business_operation_status": 0, "rating": null, "neighborhood": null, "image": null, "scorecard": null, "featured": false, "sample_categories": "Restaurants", "public_id": "la-dona-taqueria-atlanta", "id": 682406640, "votes": null, "tagline": null, "has_video": false, "website": null, "offers": null, "latitude": 33.910461, "politanName": "Atlanta, GA Metro ", "phone_number": "4045315957", "tags": [{"primary": true, "id": 1722, "name": "Restaurants"}], "fax_number": null, "expansion": {"count": null, "uri": null}, "impression_id": "000b0000004a0a7ffc0b0f422da1f231ad2a9b5716", "profile": "http://www.citysearch.com/profile/682406640/atlanta_ga/la_dona_taqueria.html", "address": {"city": "Atlanta", "state": "GA", "street": "215 Northwood Dr Ne # 8", "postal_code": "30342"}, "capProviderId": null, "distance": null, "has_offers": false, "name": "La Dona Taqueria", "longitude": -84.379872, "has_menu": false, "awards": null, "user_review_count": 0}, {"business_operation_status": 1, "rating": null, "neighborhood": null, "image": null, "scorecard": null, "featured": false, "sample_categories": "Restaurants, Carry Out, Hamburgers", "public_id": "mc-donalds-marietta-20", "id": 713574940, "votes": null, "tagline": null, "has_video": false, "website": "http://www.citysearch.com/profile/external/713574940/marietta_ga/mc_donald_s.html", "offers": null, "latitude": 33.924211, "politanName": "Atlanta, GA Metro ", "phone_number": "7708509549", "tags": [{"primary": false, "id": 11247, "name": "Carry Out"}, {"primary": false, "id": 11270, "name": "Hamburgers"}, {"primary": true, "id": 1722, "name": "Restaurants"}], "fax_number": null, "expansion": {"count": null, "uri": null}, "impression_id": "000b000000494707c9f06f4a52a036f411700c25cc", "profile": "http://www.citysearch.com/profile/713574940/marietta_ga/mc_donald_s.html", "address": {"city": "Marietta", "state": "GA", "street": "2375 Delk Rd Se", "postal_code": "30067"}, "capProviderId": null, "distance": null, "has_offers": false, "name": "Mc Donald's", "longitude": -84.483793, "has_menu": false, "awards": null, "user_review_count": 0}, {"business_operation_status": 1, "rating": null, "neighborhood": null, "image": null, "scorecard": null, "featured": false, "sample_categories": "Restaurants, Pizza", "public_id": "manhattan-pizza-marietta", "id": 624064324, "votes": null, "tagline": null, "has_video": false, "website": null, "offers": null, "latitude": 33.944967, "politanName": "Atlanta, GA Metro ", "phone_number": "6789092097", "tags": [{"primary": false, "id": 11299, "name": "Pizza"}, {"primary": true, "id": 1722, "name": "Restaurants"}], "fax_number": null, "expansion": {"count": null, "uri": null}, "impression_id": "000b000000db5ab4fa67144c35b451a8f518047b39", "profile": "http://www.citysearch.com/profile/624064324/marietta_ga/manhattan_pizza.html", "address": {"city": "Marietta", "state": "GA", "street": "279 Powers Ferry Rd SE", "postal_code": "30067"}, "capProviderId": null, "distance": null, "has_offers": false, "name": "Manhattan Pizza", "longitude": -84.497588, "has_menu": false, "awards": null, "user_review_count": 0}, {"business_operation_status": 1, "rating": null, "neighborhood": null, "image": null, "scorecard": null, "featured": false, "sample_categories": "Restaurants", "public_id": "cafe-d-atlanta", "id": 3020321, "votes": null, "tagline": null, "has_video": false, "website": null, "offers": null, "latitude": 33.91273, "politanName": "Atlanta, GA Metro ", "phone_number": "4042550238", "tags": [{"primary": true, "id": 1722, "name": "Restaurants"}], "fax_number": null, "expansion": {"count": null, "uri": null}, "impression_id": "000b0000003fa06f152b6f47cda2a4251afa606ca2", "profile": "http://www.citysearch.com/profile/3020321/atlanta_ga/cafe_d.html", "address": {"city": "Atlanta", "state": "GA", "street": "5775 Glenridge Dr NE", "postal_code": "30328"}, "capProviderId": null, "distance": null, "has_offers": false, "name": "Cafe D", "longitude": -84.360431, "has_menu": true, "awards": null, "user_review_count": 0}, {"business_operation_status": 1, "rating": null, "neighborhood": null, "image": null, "scorecard": null, "featured": false, "sample_categories": "Juice & Smoothie Shops, Health Food Stores, Restaurants", "public_id": "robeks-marietta", "id": 43845240, "votes": null, "tagline": null, "has_video": false, "website": "http://www.citysearch.com/profile/external/43845240/marietta_ga/robeks_juice.html", "offers": null, "latitude": 33.982884, "politanName": "Atlanta, GA Metro ", "phone_number": "7705651932", "tags": [{"primary": false, "id": 1716, "name": "Health Food Stores"}, {"primary": false, "id": 1722, "name": "Restaurants"}, {"primary": true, "id": 1735, "name": "Juice & Smoothie Shops"}], "fax_number": null, "expansion": {"count": null, "uri": null}, "impression_id": "000b000000ac7ebd22fd6e44b381746135f214a76d", "profile": "http://www.citysearch.com/profile/43845240/marietta_ga/robeks_juice.html", "address": {"city": "Marietta", "state": "GA", "street": "4244 Roswell Rd 300", "postal_code": "30062"}, "capProviderId": null, "distance": null, "has_offers": false, "name": "Robeks Juice", "longitude": -84.427528, "has_menu": false, "awards": null, "user_review_count": 0}, {"business_operation_status": 1, "rating": null, "neighborhood": null, "image": null, "scorecard": null, "featured": false, "sample_categories": "Restaurants", "public_id": "belles-a-southern-eatery-roswell", "id": 632939500, "votes": null, "tagline": null, "has_video": false, "website": null, "offers": null, "latitude": 34.023814, "politanName": "Atlanta, GA Metro ", "phone_number": "7709929600", "tags": [{"primary": true, "id": 1722, "name": "Restaurants"}], "fax_number": null, "expansion": {"count": null, "uri": null}, "impression_id": "000b00000062f7b6aa6db144e698ca65e7e0cfa14e", "profile": "http://www.citysearch.com/profile/632939500/roswell_ga/belle_s_a_southern_eatery.html", "address": {"city": "Roswell", "state": "GA", "street": "1075 Holcomb Bridge Rd", "postal_code": "30076"}, "capProviderId": null, "distance": null, "has_offers": false, "name": "Belle's A Southern Eatery", "longitude": -84.329852, "has_menu": false, "awards": null, "user_review_count": 0}, {"business_operation_status": 1, "rating": null, "neighborhood": null, "image": null, "scorecard": null, "featured": false, "sample_categories": "Restaurants", "public_id": "cafe-alice-smyrna", "id": 672226100, "votes": null, "tagline": null, "has_video": false, "website": null, "offers": null, "latitude": 33.901234, "politanName": "Atlanta, GA Metro ", "phone_number": "7709550300", "tags": [{"primary": true, "id": 1722, "name": "Restaurants"}], "fax_number": null, "expansion": {"count": null, "uri": null}, "impression_id": "000b000000d32609631b764bbd9de3cd92d3e87ef4", "profile": "http://www.citysearch.com/profile/672226100/smyrna_ga/cafe_alice.html", "address": {"city": "Smyrna", "state": "GA", "street": "2092 Cobb Pkwy", "postal_code": "30080"}, "capProviderId": null, "distance": null, "has_offers": false, "name": "Cafe Alice", "longitude": -84.488366, "has_menu": false, "awards": null, "user_review_count": 0}, {"business_operation_status": 1, "rating": null, "neighborhood": null, "image": null, "scorecard": null, "featured": false, "sample_categories": "Restaurants", "public_id": "alisons-restaurant-dunwoody", "id": 655870390, "votes": null, "tagline": null, "has_video": false, "website": "http://www.citysearch.com/profile/external/655870390/dunwoody_ga/alison_s_restaurant.html", "offers": null, "latitude": 33.948593, "politanName": "Atlanta, GA Metro ", "phone_number": "7703950707", "tags": [{"primary": true, "id": 1722, "name": "Restaurants"}], "fax_number": null, "expansion": {"count": null, "uri": null}, "impression_id": "000b00000033da92d0117748869014091b487af43b", "profile": "http://www.citysearch.com/profile/655870390/dunwoody_ga/alison_s_restaurant.html", "address": {"city": "Dunwoody", "state": "GA", "street": "5500 Chamblee Dunwoody Rd", "postal_code": "30338"}, "capProviderId": null, "distance": null, "has_offers": false, "name": "Alison's Restaurant", "longitude": -84.337744, "has_menu": false, "awards": null, "user_review_count": 0}, {"business_operation_status": 1, "rating": null, "neighborhood": null, "image": null, "scorecard": null, "featured": false, "sample_categories": "Restaurants, Traditional American, Carry Out, American Express, Discover", "public_id": "arbys-marietta-13", "id": 682479030, "votes": null, "tagline": null, "has_video": false, "website": "http://www.citysearch.com/profile/external/682479030/marietta_ga/arby_s.html", "offers": null, "latitude": 34.01427, "politanName": "Atlanta, GA Metro ", "phone_number": "7709730642", "tags": [{"primary": false, "id": 11190, "name": "Traditional American"}, {"primary": false, "id": 11247, "name": "Carry Out"}, {"primary": false, "id": 11333, "name": "American Express"}, {"primary": false, "id": 11349, "name": "Discover"}, {"primary": false, "id": 11361, "name": "MasterCard"}, {"primary": false, "id": 11382, "name": "Visa"}, {"primary": true, "id": 1722, "name": "Restaurants"}], "fax_number": null, "expansion": {"count": null, "uri": null}, "impression_id": "000b000000b29fa196f3d842c3ac173eb876e28b53", "profile": "http://www.citysearch.com/profile/682479030/marietta_ga/arby_s.html", "address": {"city": "Marietta", "state": "GA", "street": "2626 Sandy Plains Rd", "postal_code": "30066"}, "capProviderId": null, "distance": null, "has_offers": false, "name": "Arby's", "longitude": -84.494182, "has_menu": true, "awards": null, "user_review_count": 0}, {"business_operation_status": 1, "rating": null, "neighborhood": null, "image": null, "scorecard": null, "featured": false, "sample_categories": "Restaurants, Asian", "public_id": "rrice-atlanta", "id": 682352490, "votes": null, "tagline": null, "has_video": false, "website": "http://www.citysearch.com/profile/external/682352490/atlanta_ga/rrice.html", "offers": null, "latitude": 33.920748, "politanName": "Atlanta, GA Metro ", "phone_number": "7708048155", "tags": [{"primary": false, "id": 11235, "name": "Asian"}, {"primary": true, "id": 1722, "name": "Restaurants"}], "fax_number": null, "expansion": {"count": null, "uri": null}, "impression_id": "000b000000e21ad66f2b3d4010b1f16741303eed6d", "profile": "http://www.citysearch.com/profile/682352490/atlanta_ga/rrice.html", "address": {"city": "Atlanta", "state": "GA", "street": "1140 Hammond Dr Ne", "postal_code": "30328"}, "capProviderId": null, "distance": null, "has_offers": false, "name": "Rrice", "longitude": -84.349479, "has_menu": true, "awards": null, "user_review_count": 2}, {"business_operation_status": 1, "rating": null, "neighborhood": null, "image": null, "scorecard": null, "featured": false, "sample_categories": "Restaurants, Italian", "public_id": "mirko-pasta-roswell", "id": 699321270, "votes": null, "tagline": null, "has_video": false, "website": null, "offers": null, "latitude": 34.062507, "politanName": "Atlanta, GA Metro ", "phone_number": "7705525572", "tags": [{"primary": false, "id": 11279, "name": "Italian"}, {"primary": true, "id": 1722, "name": "Restaurants"}], "fax_number": null, "expansion": {"count": null, "uri": null}, "impression_id": "000b0000004cc104bdb8e0493f9298db3d82d3d740", "profile": "http://www.citysearch.com/profile/699321270/roswell_ga/mirko_pasta.html", "address": {"city": "Roswell", "state": "GA", "street": "1105 Woodstock Rd Suite 110", "postal_code": "30075"}, "capProviderId": null, "distance": null, "has_offers": false, "name": "Mirko Pasta", "longitude": -84.396311, "has_menu": false, "awards": null, "user_review_count": 0}, {"business_operation_status": 1, "rating": null, "neighborhood": null, "image": null, "scorecard": null, "featured": false, "sample_categories": "Restaurants, Traditional American, American Express, Discover, MasterCard", "public_id": "j-christophers-atlanta-5", "id": 713497760, "votes": null, "tagline": null, "has_video": false, "website": "http://www.citysearch.com/profile/external/713497760/atlanta_ga/j_christopher_s.html", "offers": null, "latitude": 33.919103, "politanName": "Atlanta, GA Metro ", "phone_number": "4045310242", "tags": [{"primary": false, "id": 11190, "name": "Traditional American"}, {"primary": false, "id": 11333, "name": "American Express"}, {"primary": false, "id": 11349, "name": "Discover"}, {"primary": false, "id": 11361, "name": "MasterCard"}, {"primary": false, "id": 11382, "name": "Visa"}, {"primary": true, "id": 1722, "name": "Restaurants"}], "fax_number": null, "expansion": {"count": null, "uri": null}, "impression_id": "000b000000481bf453c47d46ccabd5c467e2979088", "profile": "http://www.citysearch.com/profile/713497760/atlanta_ga/j_christopher_s.html", "address": {"city": "Atlanta", "state": "GA", "street": "230 Hammond Dr Ne # A", "postal_code": "30328"}, "capProviderId": null, "distance": null, "has_offers": false, "name": "J Christopher's", "longitude": -84.382649, "has_menu": false, "awards": null, "user_review_count": 1}, {"business_operation_status": 1, "rating": null, "neighborhood": null, "image": null, "scorecard": null, "featured": false, "sample_categories": "Restaurants, Bars & Clubs", "public_id": "dr-munchies-sports-bar-grill-atlanta", "id": 821847360, "votes": null, "tagline": null, "has_video": false, "website": null, "offers": null, "latitude": 33.961512, "politanName": "Atlanta, GA Metro ", "phone_number": "7703944446", "tags": [{"primary": false, "id": 164, "name": "Bars & Clubs"}, {"primary": true, "id": 1722, "name": "Restaurants"}], "fax_number": null, "expansion": {"count": null, "uri": null}, "impression_id": "000b000000fd509b2165004b1f868e0fa05d8b2d0b", "profile": "http://www.citysearch.com/profile/821847360/atlanta_ga/dr_munchies_sports_bar_grill.html", "address": {"city": "Atlanta", "state": "GA", "street": "7537 Roswell Rd", "postal_code": "30350"}, "capProviderId": null, "distance": null, "has_offers": false, "name": "Dr Munchies Sports Bar & Grill", "longitude": -84.365719, "has_menu": false, "awards": null, "user_review_count": 0}, {"business_operation_status": 1, "rating": null, "neighborhood": null, "image": null, "scorecard": null, "featured": false, "sample_categories": "Restaurants", "public_id": "savories-bistro-atlanta", "id": 823498670, "votes": null, "tagline": null, "has_video": false, "website": null, "offers": null, "latitude": 33.926376, "politanName": "Atlanta, GA Metro ", "phone_number": "4043890333", "tags": [{"primary": true, "id": 1722, "name": "Restaurants"}], "fax_number": null, "expansion": {"count": null, "uri": null}, "impression_id": "000b00000060ce4fd0f5154dee964daa851a70e913", "profile": "http://www.citysearch.com/profile/823498670/atlanta_ga/savories_bistro.html", "address": {"city": "Atlanta", "state": "GA", "street": "206 Johnson Ferry Rd NE", "postal_code": "30328"}, "capProviderId": null, "distance": null, "has_offers": false, "name": "Savories Bistro", "longitude": -84.381856, "has_menu": false, "awards": null, "user_review_count": 0}, {"business_operation_status": 1, "rating": null, "neighborhood": null, "image": null, "scorecard": null, "featured": false, "sample_categories": "Restaurants", "public_id": "cafe-803-marietta", "id": 838064280, "votes": null, "tagline": null, "has_video": false, "website": null, "offers": null, "latitude": 33.933132, "politanName": "Atlanta, GA Metro ", "phone_number": "7707925579", "tags": [{"primary": true, "id": 1722, "name": "Restaurants"}], "fax_number": null, "expansion": {"count": null, "uri": null}, "impression_id": "000b000000fb0d6e327f744de8b54d65eddfe5768d", "profile": "http://www.citysearch.com/profile/838064280/marietta_ga/cafe_803.html", "address": {"city": "Marietta", "state": "GA", "street": "803 Powder Springs St", "postal_code": "30064"}, "capProviderId": null, "distance": null, "has_offers": false, "name": "Cafe 803", "longitude": -84.559871, "has_menu": false, "awards": null, "user_review_count": 0}, {"business_operation_status": 1, "rating": null, "neighborhood": null, "image": null, "scorecard": null, "featured": false, "sample_categories": "Restaurants, Fast Food, Carry Out, American Express, MasterCard", "public_id": "popeyes-chicken-biscuits-marietta-2", "id": 45112943, "votes": null, "tagline": null, "has_video": false, "website": "http://www.citysearch.com/profile/external/45112943/marietta_ga/popeye_s_chicken_biscuits.html", "offers": null, "latitude": 33.9485, "politanName": "Atlanta, GA Metro ", "phone_number": "7704208800", "tags": [{"primary": false, "id": 11199, "name": "Fast Food"}, {"primary": false, "id": 11247, "name": "Carry Out"}, {"primary": false, "id": 11333, "name": "American Express"}, {"primary": false, "id": 11361, "name": "MasterCard"}, {"primary": false, "id": 11382, "name": "Visa"}, {"primary": false, "id": 12839, "name": "Chicken"}, {"primary": true, "id": 1722, "name": "Restaurants"}], "fax_number": null, "expansion": {"count": null, "uri": null}, "impression_id": "000b00000051f75a7654ed489bb5b6f900bd5febb5", "profile": "http://www.citysearch.com/profile/45112943/marietta_ga/popeye_s_chicken_biscuits.html", "address": {"city": "Marietta", "state": "GA", "street": "155 Cobb Pkwy S", "postal_code": "30060"}, "capProviderId": null, "distance": null, "has_offers": false, "name": "Popeye's Chicken & Biscuits", "longitude": -84.518323, "has_menu": true, "awards": null, "user_review_count": 0}, {"business_operation_status": 1, "rating": null, "neighborhood": null, "image": null, "scorecard": null, "featured": false, "sample_categories": "Restaurants", "public_id": "carlyles-restaurant-atlanta", "id": 43881121, "votes": null, "tagline": null, "has_video": false, "website": null, "offers": null, "latitude": 33.934076, "politanName": "Atlanta, GA Metro ", "phone_number": "4046682202", "tags": [{"primary": true, "id": 1722, "name": "Restaurants"}], "fax_number": null, "expansion": {"count": null, "uri": null}, "impression_id": "000b000000231e199434d5418fb9b9f1b0d256827f", "profile": "http://www.citysearch.com/profile/43881121/atlanta_ga/carlyle_s_restaurant.html", "address": {"city": "Atlanta", "state": "GA", "street": "1000 Abernathy Rd NE", "postal_code": "30328"}, "capProviderId": null, "distance": null, "has_offers": false, "name": "Carlyle's Restaurant", "longitude": -84.354444, "has_menu": false, "awards": null, "user_review_count": 0}, {"business_operation_status": 1, "rating": null, "neighborhood": null, "image": null, "scorecard": null, "featured": false, "sample_categories": "Restaurants", "public_id": "tme-enterprises-i-ltd-marietta-3", "id": 793319820, "votes": null, "tagline": null, "has_video": false, "website": null, "offers": null, "latitude": 33.924583, "politanName": "Atlanta, GA Metro ", "phone_number": "7704198081", "tags": [{"primary": true, "id": 1722, "name": "Restaurants"}], "fax_number": null, "expansion": {"count": null, "uri": null}, "impression_id": "000b000000fc2a7bedaacc4b569da6b6e2840553be", "profile": "http://www.citysearch.com/profile/793319820/marietta_ga/tme_enterprises_i_ltd.html", "address": {"city": "Marietta", "state": "GA", "street": "1180 Powder Springs St", "postal_code": "30064"}, "capProviderId": null, "distance": null, "has_offers": false, "name": "Tme Enterprises I LTD", "longitude": -84.575231, "has_menu": false, "awards": null, "user_review_count": 0}, {"business_operation_status": 1, "rating": null, "neighborhood": null, "image": null, "scorecard": null, "featured": false, "sample_categories": "Ice Cream Parlors", "public_id": "carvel-express-roswell", "id": 793257090, "votes": null, "tagline": null, "has_video": false, "website": "http://www.citysearch.com/profile/external/793257090/roswell_ga/carvel_express.html", "offers": null, "latitude": 34.056728, "politanName": "Atlanta, GA Metro ", "phone_number": "6782051655", "tags": [{"primary": true, "id": 1730, "name": "Ice Cream Parlors"}], "fax_number": null, "expansion": {"count": null, "uri": null}, "impression_id": "000b000000197086aee44048619af76168672d3dd5", "profile": "http://www.citysearch.com/profile/793257090/roswell_ga/carvel_express.html", "address": {"city": "Roswell", "state": "GA", "street": "660 W Crossville Rd # 130", "postal_code": "30075"}, "capProviderId": null, "distance": null, "has_offers": false, "name": "Carvel Express", "longitude": -84.379083, "has_menu": false, "awards": null, "user_review_count": 0}, {"business_operation_status": 1, "rating": null, "neighborhood": null, "image": null, "scorecard": null, "featured": false, "sample_categories": "Restaurants, Catering, Delis And Delicatessens, American Express, Discover", "public_id": "mcalisters-deli-roswell", "id": 603493402, "votes": null, "tagline": null, "has_video": false, "website": "http://www.citysearch.com/profile/external/603493402/roswell_ga/mcalister_s_deli.html", "offers": null, "latitude": 34.019199, "politanName": "Atlanta, GA Metro ", "phone_number": "7705943220", "tags": [{"primary": false, "id": 1705, "name": "Catering"}, {"primary": false, "id": 1727, "name": "Delis And Delicatessens"}, {"primary": false, "id": 11333, "name": "American Express"}, {"primary": false, "id": 11349, "name": "Discover"}, {"primary": false, "id": 11361, "name": "MasterCard"}, {"primary": false, "id": 11382, "name": "Visa"}, {"primary": true, "id": 1722, "name": "Restaurants"}], "fax_number": null, "expansion": {"count": null, "uri": null}, "impression_id": "000b00000061769a7b35c4480b9248aef888636947", "profile": "http://www.citysearch.com/profile/603493402/roswell_ga/mcalister_s_deli.html", "address": {"city": "Roswell", "state": "GA", "street": "1425 Market Blvd Ste 1370", "postal_code": "30076"}, "capProviderId": null, "distance": null, "has_offers": false, "name": "Mcalister's Deli", "longitude": -84.318853, "has_menu": true, "awards": null, "user_review_count": 1}, {"business_operation_status": 1, "rating": null, "neighborhood": null, "image": null, "scorecard": null, "featured": false, "sample_categories": "Restaurants, Carry Out", "public_id": "atlanta-bread-co-smyrna-2", "id": 805222070, "votes": null, "tagline": null, "has_video": false, "website": null, "offers": null, "latitude": 33.923686, "politanName": "Atlanta, GA Metro ", "phone_number": "6785030710", "tags": [{"primary": false, "id": 11247, "name": "Carry Out"}, {"primary": true, "id": 1722, "name": "Restaurants"}], "fax_number": null, "expansion": {"count": null, "uri": null}, "impression_id": "000b0000000bc5eab8ba9841a0a98a9a2425309c84", "profile": "http://www.citysearch.com/profile/805222070/smyrna_ga/atlanta_bread_co.html", "address": {"city": "Smyrna", "state": "GA", "street": "2160 Kingston CT SE", "postal_code": "30080"}, "capProviderId": null, "distance": null, "has_offers": false, "name": "Atlanta Bread Co", "longitude": -84.488921, "has_menu": false, "awards": null, "user_review_count": 0}, {"business_operation_status": 1, "rating": null, "neighborhood": null, "image": null, "scorecard": null, "featured": false, "sample_categories": "Restaurants", "public_id": "soba-asian-bistro-marietta-2", "id": 809491560, "votes": null, "tagline": null, "has_video": false, "website": null, "offers": null, "latitude": 33.977233, "politanName": "Atlanta, GA Metro ", "phone_number": "7709711888", "tags": [{"primary": true, "id": 1722, "name": "Restaurants"}], "fax_number": null, "expansion": {"count": null, "uri": null}, "impression_id": "000b000000bef4cca2728c4352bae3cb2a21c34c44", "profile": "http://www.citysearch.com/profile/809491560/marietta_ga/soba_asian_bistro.html", "address": {"city": "Marietta", "state": "GA", "street": "1060 E Piedmont Rd", "postal_code": "30062"}, "capProviderId": null, "distance": null, "has_offers": false, "name": "Soba Asian Bistro", "longitude": -84.479764, "has_menu": false, "awards": null, "user_review_count": 0}, {"business_operation_status": 1, "rating": null, "neighborhood": null, "image": null, "scorecard": null, "featured": false, "sample_categories": "Restaurants, Fast Food, Carry Out, American Express, Discover", "public_id": "mcdonalds-roswell-2", "id": 601300705, "votes": null, "tagline": null, "has_video": false, "website": "http://www.citysearch.com/profile/external/601300705/roswell_ga/mcdonald_s.html", "offers": null, "latitude": 34.06255, "politanName": "Atlanta, GA Metro ", "phone_number": "7709926117", "tags": [{"primary": false, "id": 11199, "name": "Fast Food"}, {"primary": false, "id": 11247, "name": "Carry Out"}, {"primary": false, "id": 11333, "name": "American Express"}, {"primary": false, "id": 11349, "name": "Discover"}, {"primary": false, "id": 11361, "name": "MasterCard"}, {"primary": false, "id": 11382, "name": "Visa"}, {"primary": true, "id": 1722, "name": "Restaurants"}], "fax_number": null, "expansion": {"count": null, "uri": null}, "impression_id": "000b0000006312008b709b40d0b703f2bce806096f", "profile": "http://www.citysearch.com/profile/601300705/roswell_ga/mcdonald_s.html", "address": {"city": "Roswell", "state": "GA", "street": "4661 Woodstock Rd", "postal_code": "30075"}, "capProviderId": null, "distance": null, "has_offers": false, "name": "McDonald's", "longitude": -84.422056, "has_menu": true, "awards": null, "user_review_count": 0}, {"business_operation_status": 1, "rating": null, "neighborhood": null, "image": null, "scorecard": null, "featured": false, "sample_categories": "Luaus", "public_id": "osaka-restaurant-marietta", "id": 811134240, "votes": null, "tagline": null, "has_video": false, "website": null, "offers": null, "latitude": 34.03695, "politanName": "Atlanta, GA Metro ", "phone_number": "7705161416", "tags": [{"primary": true, "id": 11285, "name": "Luaus"}], "fax_number": null, "expansion": {"count": null, "uri": null}, "impression_id": "000b000000d896227ef4524525810f607e081b4ed9", "profile": "http://www.citysearch.com/profile/811134240/marietta_ga/osaka_restaurant.html", "address": {"city": "Marietta", "state": "GA", "street": "2652 Thornberry Pl", "postal_code": "30066"}, "capProviderId": null, "distance": null, "has_offers": false, "name": "Osaka Restaurant", "longitude": -84.476707, "has_menu": false, "awards": null, "user_review_count": 0}, {"business_operation_status": 1, "rating": null, "neighborhood": null, "image": null, "scorecard": null, "featured": false, "sample_categories": "Restaurants", "public_id": "julien-holding-sandy", "id": 815516860, "votes": null, "tagline": null, "has_video": false, "website": null, "offers": null, "latitude": 33.995409, "politanName": "Atlanta, GA Metro ", "phone_number": "6782402220", "tags": [{"primary": true, "id": 1722, "name": "Restaurants"}], "fax_number": null, "expansion": {"count": null, "uri": null}, "impression_id": "000b000000c782cb58cc354f048d8bd6e6feddd173", "profile": "http://www.citysearch.com/profile/815516860/sandy_springs_ga/julien_holding.html", "address": {"city": "Sandy Springs", "state": "GA", "street": "8725 Roswell Rd", "postal_code": "30350"}, "capProviderId": null, "distance": null, "has_offers": false, "name": "Julien Holding", "longitude": -84.349807, "has_menu": false, "awards": null, "user_review_count": 0}, {"business_operation_status": 1, "rating": null, "neighborhood": null, "image": null, "scorecard": null, "featured": false, "sample_categories": "Restaurants", "public_id": "barkers-hot-charcaol-broiled-marietta", "id": 817747590, "votes": null, "tagline": null, "has_video": false, "website": null, "offers": null, "latitude": 33.964344, "politanName": "Atlanta, GA Metro ", "phone_number": "7705140806", "tags": [{"primary": true, "id": 1722, "name": "Restaurants"}], "fax_number": null, "expansion": {"count": null, "uri": null}, "impression_id": "000b000000ee10fcca466340beb8ad5975cb28c0a0", "profile": "http://www.citysearch.com/profile/817747590/marietta_ga/barkers_hot_charcaol_broiled.html", "address": {"city": "Marietta", "state": "GA", "street": "84 Radium St NW", "postal_code": "30060"}, "capProviderId": null, "distance": null, "has_offers": false, "name": "Barkers Hot Charcaol Broiled", "longitude": -84.554127, "has_menu": false, "awards": null, "user_review_count": 0}, {"business_operation_status": 1, "rating": null, "neighborhood": null, "image": null, "scorecard": null, "featured": false, "sample_categories": "Restaurants", "public_id": "johnnys-new-york-style-roswell", "id": 822128780, "votes": null, "tagline": null, "has_video": false, "website": null, "offers": null, "latitude": 34.054243, "politanName": "Atlanta, GA Metro ", "phone_number": "7705520505", "tags": [{"primary": true, "id": 1722, "name": "Restaurants"}], "fax_number": null, "expansion": {"count": null, "uri": null}, "impression_id": "000b000000cb7bc37de8dc45148b01e2449c41f477", "profile": "http://www.citysearch.com/profile/822128780/roswell_ga/johnny_s_new_york_style.html", "address": {"city": "Roswell", "state": "GA", "street": "580 W Crossville Rd", "postal_code": "30075"}, "capProviderId": null, "distance": null, "has_offers": false, "name": "Johnny's New York Style", "longitude": -84.378213, "has_menu": false, "awards": null, "user_review_count": 0}, {"business_operation_status": 1, "rating": null, "neighborhood": null, "image": null, "scorecard": null, "featured": false, "sample_categories": "Restaurants, Bars & Pubs", "public_id": "montego-cafe-lounge-sandy", "id": 764913830, "votes": null, "tagline": null, "has_video": false, "website": null, "offers": null, "latitude": 34.002099, "politanName": "Atlanta, GA Metro ", "phone_number": "7709928188", "tags": [{"primary": false, "id": 1686, "name": "Bars & Pubs"}, {"primary": true, "id": 1722, "name": "Restaurants"}], "fax_number": null, "expansion": {"count": null, "uri": null}, "impression_id": "000b000000645145b309714b25a51a6750d571452a", "profile": "http://www.citysearch.com/profile/764913830/sandy_springs_ga/montego_cafe_lounge.html", "address": {"city": "Sandy Springs", "state": "GA", "street": "8883 Roswell Rd", "postal_code": "30350"}, "capProviderId": null, "distance": null, "has_offers": false, "name": "Montego Cafe & Lounge", "longitude": -84.350438, "has_menu": false, "awards": null, "user_review_count": 0}, {"business_operation_status": 1, "rating": null, "neighborhood": null, "image": null, "scorecard": null, "featured": false, "sample_categories": "Restaurants, Delis And Delicatessens, Sandwich Shops, Carry Out", "public_id": "firehouse-subs-marietta-3", "id": 764915450, "votes": null, "tagline": null, "has_video": false, "website": null, "offers": null, "latitude": 33.92306, "politanName": "Atlanta, GA Metro ", "phone_number": "7706908103", "tags": [{"primary": false, "id": 1727, "name": "Delis And Delicatessens"}, {"primary": false, "id": 1736, "name": "Sandwich Shops"}, {"primary": false, "id": 11247, "name": "Carry Out"}, {"primary": true, "id": 1722, "name": "Restaurants"}], "fax_number": null, "expansion": {"count": null, "uri": null}, "impression_id": "000b000000ac5b40fc9208428f8747138c7c889181", "profile": "http://www.citysearch.com/profile/764915450/marietta_ga/firehouse_subs.html", "address": {"city": "Marietta", "state": "GA", "street": "2900 Delk Rd SE", "postal_code": "30067"}, "capProviderId": null, "distance": null, "has_offers": false, "name": "Firehouse Subs", "longitude": -84.467405, "has_menu": true, "awards": null, "user_review_count": 0}, {"business_operation_status": 1, "rating": null, "neighborhood": null, "image": null, "scorecard": null, "featured": false, "sample_categories": "Grocery Stores, Convenience Stores, Pizza", "public_id": "muhamed-firoj-roswell", "id": 764835080, "votes": null, "tagline": null, "has_video": false, "website": "http://www.citysearch.com/profile/external/764835080/roswell_ga/muhamed_firoj.html", "offers": null, "latitude": 34.005292, "politanName": "Atlanta, GA Metro ", "phone_number": "7705186000", "tags": [{"primary": false, "id": 1714, "name": "Convenience Stores"}, {"primary": false, "id": 11299, "name": "Pizza"}, {"primary": true, "id": 1713, "name": "Grocery Stores"}], "fax_number": null, "expansion": {"count": null, "uri": null}, "impression_id": "000b000000c6a7eafa004145d09a916081b7656cd6", "profile": "http://www.citysearch.com/profile/764835080/roswell_ga/muhamed_firoj.html", "address": {"city": "Roswell", "state": "GA", "street": "1000 Marietta Hwy", "postal_code": "30075"}, "capProviderId": null, "distance": null, "has_offers": false, "name": "Muhamed Firoj", "longitude": -84.390859, "has_menu": false, "awards": null, "user_review_count": 0}, {"business_operation_status": 1, "rating": null, "neighborhood": null, "image": null, "scorecard": null, "featured": false, "sample_categories": "Ice Cream Parlors", "public_id": "talenti-gelato-marietta", "id": 766766740, "votes": null, "tagline": null, "has_video": false, "website": null, "offers": null, "latitude": 33.977334, "politanName": "Atlanta, GA Metro ", "phone_number": "7704990442", "tags": [{"primary": true, "id": 1730, "name": "Ice Cream Parlors"}], "fax_number": null, "expansion": {"count": null, "uri": null}, "impression_id": "000b00000010abaec035784e7c977a0d6959827e73", "profile": "http://www.citysearch.com/profile/766766740/marietta_ga/talenti_gelato.html", "address": {"city": "Marietta", "state": "GA", "street": "1058 King Industrial Dr", "postal_code": "30062"}, "capProviderId": null, "distance": null, "has_offers": false, "name": "Talenti Gelato", "longitude": -84.539884, "has_menu": false, "awards": null, "user_review_count": 0}, {"business_operation_status": 1, "rating": null, "neighborhood": null, "image": null, "scorecard": null, "featured": false, "sample_categories": "Restaurants, Delis And Delicatessens", "public_id": "planet-sub-marietta", "id": 770774340, "votes": null, "tagline": null, "has_video": false, "website": null, "offers": null, "latitude": 34.013859, "politanName": "Atlanta, GA Metro ", "phone_number": "7705750206", "tags": [{"primary": false, "id": 1727, "name": "Delis And Delicatessens"}, {"primary": true, "id": 1722, "name": "Restaurants"}], "fax_number": null, "expansion": {"count": null, "uri": null}, "impression_id": "000b000000413a64e36c4a4b2b934e8b00f635bfe0", "profile": "http://www.citysearch.com/profile/770774340/marietta_ga/planet_sub.html", "address": {"city": "Marietta", "state": "GA", "street": "125 Barrett Pkwy", "postal_code": "30066"}, "capProviderId": null, "distance": null, "has_offers": false, "name": "Planet Sub", "longitude": -84.554543, "has_menu": false, "awards": null, "user_review_count": 0}, {"business_operation_status": 1, "rating": null, "neighborhood": null, "image": null, "scorecard": null, "featured": false, "sample_categories": "Restaurants, Pizza", "public_id": "pizza-k-atlanta-2", "id": 43872017, "votes": null, "tagline": null, "has_video": false, "website": null, "offers": null, "latitude": 33.911481, "politanName": "Atlanta, GA Metro ", "phone_number": "4048479130", "tags": [{"primary": false, "id": 11299, "name": "Pizza"}, {"primary": true, "id": 1722, "name": "Restaurants"}], "fax_number": null, "expansion": {"count": null, "uri": null}, "impression_id": "000b000000f31b08efc84e41f79a4e991240ab6342", "profile": "http://www.citysearch.com/profile/43872017/atlanta_ga/pizza_k.html", "address": {"city": "Atlanta", "state": "GA", "street": "120 Northwood Dr NE", "postal_code": "30342"}, "capProviderId": null, "distance": null, "has_offers": false, "name": "Pizza K", "longitude": -84.382763, "has_menu": true, "awards": null, "user_review_count": 0}, {"business_operation_status": 1, "rating": null, "neighborhood": null, "image": null, "scorecard": null, "featured": false, "sample_categories": "Restaurants, Fast Food", "public_id": "svi-burger-king-atlanta", "id": 45567311, "votes": null, "tagline": null, "has_video": false, "website": null, "offers": null, "latitude": 33.948434, "politanName": "Atlanta, GA Metro ", "phone_number": "7705127004", "tags": [{"primary": false, "id": 11199, "name": "Fast Food"}, {"primary": true, "id": 1722, "name": "Restaurants"}], "fax_number": null, "expansion": {"count": null, "uri": null}, "impression_id": "000b000000028b36d92e194d6ab686f8561c38d9ea", "profile": "http://www.citysearch.com/profile/45567311/atlanta_ga/svi_burger_king.html", "address": {"city": "Atlanta", "state": "GA", "street": "1532 Dunwoody Village Pkwy Ste 2", "postal_code": "30338"}, "capProviderId": null, "distance": null, "has_offers": false, "name": "Svi Burger King", "longitude": -84.331813, "has_menu": false, "awards": null, "user_review_count": 0}, {"business_operation_status": 1, "rating": null, "neighborhood": null, "image": null, "scorecard": null, "featured": false, "sample_categories": "Ice Cream Parlors, Debit Card, Discover, MasterCard, Visa", "public_id": "frozyogo-frozen-yogurt-sandy", "id": 790606540, "votes": null, "tagline": null, "has_video": false, "website": null, "offers": null, "latitude": 33.918169, "politanName": "Atlanta, GA Metro ", "phone_number": "4049635367", "tags": [{"primary": false, "id": 11347, "name": "Debit Card"}, {"primary": false, "id": 11349, "name": "Discover"}, {"primary": false, "id": 11361, "name": "MasterCard"}, {"primary": false, "id": 11382, "name": "Visa"}, {"primary": true, "id": 1730, "name": "Ice Cream Parlors"}], "fax_number": null, "expansion": {"count": null, "uri": null}, "impression_id": "000b00000023920c419eb14bde88c58d5f113dd727", "profile": "http://www.citysearch.com/profile/790606540/sandy_springs_ga/frozyogo_frozen_yogurt.html", "address": {"city": "Sandy Springs", "state": "GA", "street": "5980 Roswell Rd", "postal_code": "30328"}, "capProviderId": null, "distance": null, "has_offers": false, "name": "Frozyogo Frozen Yogurt", "longitude": -84.379098, "has_menu": false, "awards": null, "user_review_count": 0}, {"business_operation_status": 1, "rating": null, "neighborhood": null, "image": null, "scorecard": null, "featured": false, "sample_categories": "Restaurants, Pizza", "public_id": "uncle-maddios-pizza-joint-marietta", "id": 793238760, "votes": null, "tagline": null, "has_video": false, "website": "http://www.citysearch.com/profile/external/793238760/marietta_ga/uncle_maddio_s_pizza_joint.html", "offers": null, "latitude": 33.980574, "politanName": "Atlanta, GA Metro ", "phone_number": "6783243590", "tags": [{"primary": false, "id": 1722, "name": "Restaurants"}, {"primary": true, "id": 11299, "name": "Pizza"}], "fax_number": null, "expansion": {"count": null, "uri": null}, "impression_id": "000b0000004a4801421b7d4b59a6653220935b8e72", "profile": "http://www.citysearch.com/profile/793238760/marietta_ga/uncle_maddio_s_pizza_joint.html", "address": {"city": "Marietta", "state": "GA", "street": "4101 Roswell Rd # 1100", "postal_code": "30062"}, "capProviderId": null, "distance": null, "has_offers": false, "name": "Uncle Maddio's Pizza Joint", "longitude": -84.433488, "has_menu": false, "awards": null, "user_review_count": 0}, {"business_operation_status": 1, "rating": null, "neighborhood": null, "image": null, "scorecard": null, "featured": false, "sample_categories": "Restaurants", "public_id": "chiquitas-cafe-marietta", "id": 805405700, "votes": null, "tagline": null, "has_video": false, "website": null, "offers": null, "latitude": 33.957696, "politanName": "Atlanta, GA Metro ", "phone_number": "7704997349", "tags": [{"primary": true, "id": 1722, "name": "Restaurants"}], "fax_number": null, "expansion": {"count": null, "uri": null}, "impression_id": "000b000000d314cffca96648d39bb53bb3580e54ed", "profile": "http://www.citysearch.com/profile/805405700/marietta_ga/chiquitas_cafe.html", "address": {"city": "Marietta", "state": "GA", "street": "270 Cobb Pkwy N", "postal_code": "30062"}, "capProviderId": null, "distance": null, "has_offers": false, "name": "Chiquitas Cafe", "longitude": -84.525109, "has_menu": false, "awards": null, "user_review_count": 0}], "histograms": [], "tag_ids": [1722], "uri": "http://api.citygridmedia.com:8080/search/places/v2/search/where?has_offers=false&type=restaurant&format=json&page=34&where=30068&rpp=50&histograms=false&publisher=10000009598&region_type=circle", "did_you_mean": "", "regions": [{"latitude": 33.967813, "default_radius": 3.91, "type": "postal_code", "name": "30068", "longitude": -84.433422}], "call_id": "000b00000042c1bfcd879a4183bbb6a82495393b4d", "first_hit": 1651, "total_hits": 2028, "geo_ids": [26296], "page": 34, "last_hit": 1700}}