{"results": {"rpp": 50, "locations": [{"business_operation_status": 1, "rating": null, "neighborhood": null, "image": null, "scorecard": null, "featured": false, "sample_categories": "Coffeehouses", "public_id": "java-distributors-llc-marietta", "id": 601298470, "votes": null, "tagline": null, "has_video": false, "website": null, "offers": null, "latitude": 34.0347, "politanName": "Atlanta, GA Metro ", "phone_number": "7703218353", "tags": [{"primary": true, "id": 1726, "name": "Coffeehouses"}], "fax_number": null, "expansion": {"count": null, "uri": null}, "impression_id": "000b00000019257eb4a422463db5cbe80c6a003828", "profile": "http://www.citysearch.com/profile/601298470/marietta_ga/java_distributors_llc.html", "address": {"city": "Marietta", "state": "GA", "street": "3322 Cranmore Chase", "postal_code": "30066"}, "capProviderId": null, "distance": null, "has_offers": false, "name": "Java Distributors Llc", "longitude": -84.473964, "has_menu": false, "awards": null, "user_review_count": 1}, {"business_operation_status": 1, "rating": null, "neighborhood": null, "image": null, "scorecard": null, "featured": false, "sample_categories": "Restaurants", "public_id": "chuys-restaurant-kennesaw", "id": 611300334, "votes": null, "tagline": null, "has_video": false, "website": null, "offers": null, "latitude": 34.007528, "politanName": "Atlanta, GA Metro ", "phone_number": "7707921345", "tags": [{"primary": true, "id": 1722, "name": "Restaurants"}], "fax_number": null, "expansion": {"count": null, "uri": null}, "impression_id": "000b000000762ba2a89cdb43fc8980695a019ae189", "profile": "http://www.citysearch.com/profile/611300334/kennesaw_ga/chuy_s_restaurant.html", "address": {"city": "Kennesaw", "state": "GA", "street": "585 Ernest W Barrett Pkwy NW", "postal_code": "30144"}, "capProviderId": null, "distance": null, "has_offers": false, "name": "Chuy's Restaurant", "longitude": -84.571547, "has_menu": false, "awards": null, "user_review_count": 0}, {"business_operation_status": 1, "rating": null, "neighborhood": null, "image": null, "scorecard": null, "featured": false, "sample_categories": "Restaurants, Mexican", "public_id": "taco-mas-roswell", "id": 36940644, "votes": null, "tagline": null, "has_video": false, "website": null, "offers": null, "latitude": 34.034238, "politanName": "Atlanta, GA Metro ", "phone_number": "7706401017", "tags": [{"primary": false, "id": 11208, "name": "Mexican"}, {"primary": true, "id": 1722, "name": "Restaurants"}], "fax_number": null, "expansion": {"count": null, "uri": null}, "impression_id": "000b0000007c2ccc772fe34a0e872cbff2f962c2ba", "profile": "http://www.citysearch.com/profile/36940644/roswell_ga/taco_mas.html", "address": {"city": "Roswell", "state": "GA", "street": "10479 Alpharetta St", "postal_code": "30075"}, "capProviderId": null, "distance": null, "has_offers": false, "name": "Taco Mas", "longitude": -84.345527, "has_menu": true, "awards": null, "user_review_count": 1}, {"business_operation_status": 1, "rating": null, "neighborhood": null, "image": null, "scorecard": null, "featured": false, "sample_categories": "Restaurants", "public_id": "rare-hospitality-international-atlanta", "id": 619936074, "votes": null, "tagline": null, "has_video": false, "website": null, "offers": null, "latitude": 33.978989, "politanName": "Atlanta, GA Metro ", "phone_number": "7705510444", "tags": [{"primary": true, "id": 1722, "name": "Restaurants"}], "fax_number": null, "expansion": {"count": null, "uri": null}, "impression_id": "000b00000092634303b3a140e3b5f6dd3595135084", "profile": "http://www.citysearch.com/profile/619936074/atlanta_ga/rare_hospitality_international.html", "address": {"city": "Atlanta", "state": "GA", "street": "8215 Roswell Rd 600", "postal_code": "30350"}, "capProviderId": null, "distance": null, "has_offers": false, "name": "Rare Hospitality International", "longitude": -84.348938, "has_menu": false, "awards": null, "user_review_count": 0}, {"business_operation_status": 1, "rating": null, "neighborhood": null, "image": null, "scorecard": null, "featured": false, "sample_categories": "Restaurants", "public_id": "open-door-pediatrics-therapy-marietta", "id": 621872460, "votes": null, "tagline": null, "has_video": false, "website": "http://www.citysearch.com/profile/external/621872460/marietta_ga/open_door_pediatrics_therapy.html", "offers": null, "latitude": 33.950209, "politanName": "Atlanta, GA Metro ", "phone_number": "6782908910", "tags": [{"primary": true, "id": 1722, "name": "Restaurants"}], "fax_number": null, "expansion": {"count": null, "uri": null}, "impression_id": "000b0000000b7fab66d28143949dec778206e3a147", "profile": "http://www.citysearch.com/profile/621872460/marietta_ga/open_door_pediatrics_therapy.html", "address": {"city": "Marietta", "state": "GA", "street": "707 Whitlock Ave Sw # A41", "postal_code": "30064"}, "capProviderId": null, "distance": null, "has_offers": false, "name": "Open Door Pediatrics Therapy", "longitude": -84.573437, "has_menu": false, "awards": null, "user_review_count": 0}, {"business_operation_status": 1, "rating": null, "neighborhood": null, "image": null, "scorecard": null, "featured": false, "sample_categories": "Restaurants, Coffee & Tea Shops, Cafes", "public_id": "parkway-cafe-marietta", "id": 621991080, "votes": null, "tagline": null, "has_video": false, "website": null, "offers": null, "latitude": 33.938367, "politanName": "Atlanta, GA Metro ", "phone_number": "7705908922", "tags": [{"primary": false, "id": 1711, "name": "Coffee & Tea Shops"}, {"primary": false, "id": 6190, "name": "Cafes"}, {"primary": true, "id": 1722, "name": "Restaurants"}], "fax_number": null, "expansion": {"count": null, "uri": null}, "impression_id": "000b000000a725f3f17cef4bfbb52d6407e155e809", "profile": "http://www.citysearch.com/profile/621991080/marietta_ga/parkway_cafe.html", "address": {"city": "Marietta", "state": "GA", "street": "1850 Parkway Pl Se # 120", "postal_code": "30067"}, "capProviderId": null, "distance": null, "has_offers": false, "name": "Parkway Cafe", "longitude": -84.501954, "has_menu": false, "awards": null, "user_review_count": 0}, {"business_operation_status": 1, "rating": null, "neighborhood": null, "image": null, "scorecard": null, "featured": false, "sample_categories": "Restaurants, Mexican", "public_id": "don-pedro-mexican-restaurant-marietta", "id": 45556665, "votes": null, "tagline": null, "has_video": false, "website": null, "offers": null, "latitude": 33.944297, "politanName": "Atlanta, GA Metro ", "phone_number": "6782900202", "tags": [{"primary": false, "id": 11208, "name": "Mexican"}, {"primary": true, "id": 1722, "name": "Restaurants"}], "fax_number": null, "expansion": {"count": null, "uri": null}, "impression_id": "000b000000d9c3b9b8bd9f4fc69b4c0fda389027c5", "profile": "http://www.citysearch.com/profile/45556665/marietta_ga/don_pedro_mexican_restaurant.html", "address": {"city": "Marietta", "state": "GA", "street": "344 S Fairground St SE", "postal_code": "30060"}, "capProviderId": null, "distance": null, "has_offers": false, "name": "Don Pedro Mexican Restaurant", "longitude": -84.535657, "has_menu": false, "awards": null, "user_review_count": 0}, {"business_operation_status": 1, "rating": 8.0, "neighborhood": null, "image": null, "scorecard": null, "featured": false, "sample_categories": "Restaurants, American Express, Discover, MasterCard, Visa", "public_id": "kaysons-grille-canton-3", "id": 45558465, "votes": null, "tagline": null, "has_video": false, "website": "http://www.citysearch.com/profile/external/45558465/canton_ga/kaysons_grille.html", "offers": null, "latitude": 34.178198, "politanName": "Atlanta, GA Metro ", "phone_number": "7704794449", "tags": [{"primary": false, "id": 11333, "name": "American Express"}, {"primary": false, "id": 11349, "name": "Discover"}, {"primary": false, "id": 11361, "name": "MasterCard"}, {"primary": false, "id": 11382, "name": "Visa"}, {"primary": true, "id": 1722, "name": "Restaurants"}], "fax_number": null, "expansion": {"count": null, "uri": null}, "impression_id": "000b000000fbbb6749090d4e3184580da70b5680ef", "profile": "http://www.citysearch.com/profile/45558465/canton_ga/kaysons_grille.html", "address": {"city": "Canton", "state": "GA", "street": "6115 Hickory Flat Hwy Ste 101", "postal_code": "30115"}, "capProviderId": null, "distance": null, "has_offers": false, "name": "Kaysons Grille", "longitude": -84.421721, "has_menu": false, "awards": null, "user_review_count": 4}, {"business_operation_status": 1, "rating": null, "neighborhood": null, "image": null, "scorecard": null, "featured": false, "sample_categories": "Restaurants", "public_id": "banquet-hall-de-las-america-marietta", "id": 775210860, "votes": null, "tagline": null, "has_video": false, "website": null, "offers": null, "latitude": 33.951285, "politanName": "Atlanta, GA Metro ", "phone_number": "7707941080", "tags": [{"primary": true, "id": 1722, "name": "Restaurants"}], "fax_number": null, "expansion": {"count": null, "uri": null}, "impression_id": "000b000000d553f45a725042bd94c3df683e68d907", "profile": "http://www.citysearch.com/profile/775210860/marietta_ga/banquet_hall_de_las_america.html", "address": {"city": "Marietta", "state": "GA", "street": "737 Roswell St NE", "postal_code": "30060"}, "capProviderId": null, "distance": null, "has_offers": false, "name": "Banquet Hall De Las America", "longitude": -84.530697, "has_menu": false, "awards": null, "user_review_count": 0}, {"business_operation_status": 1, "rating": null, "neighborhood": null, "image": null, "scorecard": null, "featured": false, "sample_categories": "Restaurants, Mexican", "public_id": "taco-prisa-roswell", "id": 777761720, "votes": null, "tagline": null, "has_video": false, "website": null, "offers": null, "latitude": 34.058626, "politanName": "Atlanta, GA Metro ", "phone_number": "7709932621", "tags": [{"primary": false, "id": 11208, "name": "Mexican"}, {"primary": true, "id": 1722, "name": "Restaurants"}], "fax_number": null, "expansion": {"count": null, "uri": null}, "impression_id": "000b000000aab4beedb6514255a063f1c31db6caa6", "profile": "http://www.citysearch.com/profile/777761720/roswell_ga/taco_prisa.html", "address": {"city": "Roswell", "state": "GA", "street": "10495 Alpharetta St", "postal_code": "30075"}, "capProviderId": null, "distance": null, "has_offers": false, "name": "Taco Prisa", "longitude": -84.385744, "has_menu": false, "awards": null, "user_review_count": 0}, {"business_operation_status": 1, "rating": null, "neighborhood": null, "image": null, "scorecard": null, "featured": false, "sample_categories": "Restaurants, Traditional American, Carry Out", "public_id": "waffle-house-marietta-16", "id": 777819230, "votes": null, "tagline": null, "has_video": false, "website": "http://www.citysearch.com/profile/external/777819230/marietta_ga/waffle_house.html", "offers": null, "latitude": 33.923768, "politanName": "Atlanta, GA Metro ", "phone_number": "7709526638", "tags": [{"primary": false, "id": 11190, "name": "Traditional American"}, {"primary": false, "id": 11247, "name": "Carry Out"}, {"primary": true, "id": 1722, "name": "Restaurants"}], "fax_number": null, "expansion": {"count": null, "uri": null}, "impression_id": "000b00000065021a813221486783c5aa0a4c7caf53", "profile": "http://www.citysearch.com/profile/777819230/marietta_ga/waffle_house.html", "address": {"city": "Marietta", "state": "GA", "street": "1185 Franklin Rd Se", "postal_code": "30067"}, "capProviderId": null, "distance": null, "has_offers": false, "name": "Waffle House", "longitude": -84.491678, "has_menu": true, "awards": null, "user_review_count": 0}, {"business_operation_status": 1, "rating": null, "neighborhood": null, "image": null, "scorecard": null, "featured": false, "sample_categories": "Restaurants, Mexican", "public_id": "yum-brands-inc-roswell", "id": 36642532, "votes": null, "tagline": null, "has_video": false, "website": "http://www.citysearch.com/profile/external/36642532/roswell_ga/yum_brands_inc.html", "offers": null, "latitude": 34.04192, "politanName": "Atlanta, GA Metro ", "phone_number": "7709904000", "tags": [{"primary": false, "id": 11208, "name": "Mexican"}, {"primary": true, "id": 1722, "name": "Restaurants"}], "fax_number": null, "expansion": {"count": null, "uri": null}, "impression_id": "000b0000005f4a43d6091040f698b72bee8ecbddee", "profile": "http://www.citysearch.com/profile/36642532/roswell_ga/yum_brands_inc.html", "address": {"city": "Roswell", "state": "GA", "street": "675 Mansell Rd", "postal_code": "30076"}, "capProviderId": null, "distance": null, "has_offers": false, "name": "Yum! Brands Inc", "longitude": -84.344642, "has_menu": false, "awards": null, "user_review_count": 1}, {"business_operation_status": 1, "rating": null, "neighborhood": null, "image": null, "scorecard": null, "featured": false, "sample_categories": "Restaurants", "public_id": "puntacana-dominican-bargrill-marietta", "id": 802510780, "votes": null, "tagline": null, "has_video": false, "website": null, "offers": null, "latitude": 33.901077, "politanName": "Atlanta, GA Metro ", "phone_number": "7707954500", "tags": [{"primary": true, "id": 1722, "name": "Restaurants"}], "fax_number": null, "expansion": {"count": null, "uri": null}, "impression_id": "000b000000cdc2304af06a4cba84ad078232d675dd", "profile": "http://www.citysearch.com/profile/802510780/marietta_ga/puntacana_dominican_bar_grill.html", "address": {"city": "Marietta", "state": "GA", "street": "1812 Powder Springs Rd Sw", "postal_code": "30064"}, "capProviderId": null, "distance": null, "has_offers": false, "name": "Puntacana Dominican Bar-Grill", "longitude": -84.606768, "has_menu": false, "awards": null, "user_review_count": 0}, {"business_operation_status": 1, "rating": null, "neighborhood": null, "image": null, "scorecard": null, "featured": false, "sample_categories": "Restaurants, Food Delivery, Pizza", "public_id": "peace-love-pizzawoodstock-woodstock", "id": 802513750, "votes": null, "tagline": null, "has_video": false, "website": "http://www.citysearch.com/profile/external/802513750/woodstock_ga/peace_love_and_pizza.html", "offers": null, "latitude": 34.081949, "politanName": "Atlanta, GA Metro ", "phone_number": "7709248300", "tags": [{"primary": false, "id": 11267, "name": "Food Delivery"}, {"primary": false, "id": 11299, "name": "Pizza"}, {"primary": true, "id": 1722, "name": "Restaurants"}], "fax_number": null, "expansion": {"count": null, "uri": null}, "impression_id": "000b000000e20f8bbdd9be4bb9a903bc962240c835", "profile": "http://www.citysearch.com/profile/802513750/woodstock_ga/peace_love_and_pizza.html", "address": {"city": "Woodstock", "state": "GA", "street": "14205 Highway 92 110", "postal_code": "30188"}, "capProviderId": null, "distance": null, "has_offers": false, "name": "Peace Love And Pizza", "longitude": -84.452962, "has_menu": false, "awards": null, "user_review_count": 0}, {"business_operation_status": 1, "rating": null, "neighborhood": null, "image": null, "scorecard": null, "featured": false, "sample_categories": "Restaurants, Catering, Carry Out", "public_id": "joes-crab-shack-marietta-2", "id": 807865760, "votes": null, "tagline": null, "has_video": false, "website": null, "offers": null, "latitude": 33.993933, "politanName": "Atlanta, GA Metro ", "phone_number": "7704228374", "tags": [{"primary": false, "id": 1705, "name": "Catering"}, {"primary": false, "id": 11247, "name": "Carry Out"}, {"primary": true, "id": 1722, "name": "Restaurants"}], "fax_number": null, "expansion": {"count": null, "uri": null}, "impression_id": "000b000000ecd10279d40a4affaed08164579e979c", "profile": "http://www.citysearch.com/profile/807865760/marietta_ga/joe_s_crab_shack.html", "address": {"city": "Marietta", "state": "GA", "street": "225 Williams Dr", "postal_code": "30066"}, "capProviderId": null, "distance": null, "has_offers": false, "name": "Joe's Crab Shack", "longitude": -84.548113, "has_menu": false, "awards": null, "user_review_count": 0}, {"business_operation_status": 1, "rating": null, "neighborhood": null, "image": null, "scorecard": null, "featured": false, "sample_categories": "Restaurants", "public_id": "provence-french-bistro-marietta", "id": 811548460, "votes": null, "tagline": null, "has_video": false, "website": null, "offers": null, "latitude": 33.965305, "politanName": "Atlanta, GA Metro ", "phone_number": "7703215442", "tags": [{"primary": true, "id": 1722, "name": "Restaurants"}], "fax_number": null, "expansion": {"count": null, "uri": null}, "impression_id": "000b00000056f649ed594346b8921c2bf07f57278a", "profile": "http://www.citysearch.com/profile/811548460/marietta_ga/provence_french_bistro.html", "address": {"city": "Marietta", "state": "GA", "street": "4665 Lower Roswell Rd", "postal_code": "30068"}, "capProviderId": null, "distance": null, "has_offers": false, "name": "Provence French Bistro", "longitude": -84.415723, "has_menu": false, "awards": null, "user_review_count": 0}, {"business_operation_status": 1, "rating": null, "neighborhood": null, "image": null, "scorecard": null, "featured": false, "sample_categories": "Restaurants, Mexican, South American", "public_id": "pollo-campero-roswell-2", "id": 37090435, "votes": null, "tagline": null, "has_video": false, "website": null, "offers": null, "latitude": 34.027872, "politanName": "Atlanta, GA Metro ", "phone_number": "7706505522", "tags": [{"primary": false, "id": 11208, "name": "Mexican"}, {"primary": false, "id": 15490, "name": "South American"}, {"primary": true, "id": 1722, "name": "Restaurants"}], "fax_number": null, "expansion": {"count": null, "uri": null}, "impression_id": "000b0000000cc63798c5474c46bf213cb07c78ebb5", "profile": "http://www.citysearch.com/profile/37090435/roswell_ga/pollo_campero.html", "address": {"city": "Roswell", "state": "GA", "street": "920 Holcomb Bridge Rd", "postal_code": "30076"}, "capProviderId": null, "distance": null, "has_offers": false, "name": "Pollo Campero", "longitude": -84.333995, "has_menu": false, "awards": null, "user_review_count": 0}, {"business_operation_status": 1, "rating": null, "neighborhood": null, "image": null, "scorecard": null, "featured": false, "sample_categories": "Restaurants", "public_id": "fish-n-mix-alpharetta", "id": 812900980, "votes": null, "tagline": null, "has_video": false, "website": null, "offers": null, "latitude": 34.085638, "politanName": "Atlanta, GA Metro ", "phone_number": "7704751160", "tags": [{"primary": true, "id": 1722, "name": "Restaurants"}], "fax_number": null, "expansion": {"count": null, "uri": null}, "impression_id": "000b00000003b5694c1b174e5695b36954fa898998", "profile": "http://www.citysearch.com/profile/812900980/alpharetta_ga/fish_n_mix.html", "address": {"city": "Alpharetta", "state": "GA", "street": "12460 Crabapple Rd # 204", "postal_code": "30004"}, "capProviderId": null, "distance": null, "has_offers": false, "name": "Fish N Mix", "longitude": -84.356689, "has_menu": false, "awards": null, "user_review_count": 0}, {"business_operation_status": 1, "rating": null, "neighborhood": null, "image": null, "scorecard": null, "featured": false, "sample_categories": "Restaurants", "public_id": "grazie-marietta", "id": 818460400, "votes": null, "tagline": null, "has_video": false, "website": null, "offers": null, "latitude": 33.953111, "politanName": "Atlanta, GA Metro ", "phone_number": "7704998585", "tags": [{"primary": true, "id": 1722, "name": "Restaurants"}], "fax_number": null, "expansion": {"count": null, "uri": null}, "impression_id": "000b00000073a904e4e1534de4b87aaa3b9c6ace8e", "profile": "http://www.citysearch.com/profile/818460400/marietta_ga/grazie.html", "address": {"city": "Marietta", "state": "GA", "street": "1000 Whitlock Ave NW", "postal_code": "30064"}, "capProviderId": null, "distance": null, "has_offers": false, "name": "Grazie", "longitude": -84.581272, "has_menu": false, "awards": null, "user_review_count": 0}, {"business_operation_status": 1, "rating": null, "neighborhood": null, "image": null, "scorecard": null, "featured": false, "sample_categories": "Restaurants, Pizza, Carry Out", "public_id": "pizza-hut-woodstock-6", "id": 806343970, "votes": null, "tagline": null, "has_video": false, "website": null, "offers": null, "latitude": 34.078551, "politanName": "Atlanta, GA Metro ", "phone_number": "7705925766", "tags": [{"primary": false, "id": 1722, "name": "Restaurants"}, {"primary": false, "id": 11247, "name": "Carry Out"}, {"primary": true, "id": 11299, "name": "Pizza"}], "fax_number": null, "expansion": {"count": null, "uri": null}, "impression_id": "000b000000e1d44c3cdb024948b54cb908259ac357", "profile": "http://www.citysearch.com/profile/806343970/woodstock_ga/pizza_hut.html", "address": {"city": "Woodstock", "state": "GA", "street": "3024 Ridgepoint Ln", "postal_code": "30188"}, "capProviderId": null, "distance": null, "has_offers": false, "name": "Pizza Hut", "longitude": -84.434682, "has_menu": false, "awards": null, "user_review_count": 0}, {"business_operation_status": 1, "rating": null, "neighborhood": null, "image": null, "scorecard": null, "featured": false, "sample_categories": "Restaurants", "public_id": "chazzs-place-marietta", "id": 732185840, "votes": null, "tagline": null, "has_video": false, "website": null, "offers": null, "latitude": 33.964105, "politanName": "Atlanta, GA Metro ", "phone_number": "7706932334", "tags": [{"primary": true, "id": 1722, "name": "Restaurants"}], "fax_number": null, "expansion": {"count": null, "uri": null}, "impression_id": "000b00000027346e2cac014136843de579f46ae13d", "profile": "http://www.citysearch.com/profile/732185840/marietta_ga/chazz_s_place.html", "address": {"city": "Marietta", "state": "GA", "street": "531 Roselane St NW", "postal_code": "30060"}, "capProviderId": null, "distance": null, "has_offers": false, "name": "Chazz's Place", "longitude": -84.557337, "has_menu": false, "awards": null, "user_review_count": 0}, {"business_operation_status": 1, "rating": null, "neighborhood": null, "image": null, "scorecard": null, "featured": false, "sample_categories": "Restaurants", "public_id": "wingmaster-roswell", "id": 816795990, "votes": null, "tagline": null, "has_video": false, "website": null, "offers": null, "latitude": 34.011764, "politanName": "Atlanta, GA Metro ", "phone_number": "6784614612", "tags": [{"primary": true, "id": 1722, "name": "Restaurants"}], "fax_number": null, "expansion": {"count": null, "uri": null}, "impression_id": "000b000000d570b683027c4054aaafa91cacc740d0", "profile": "http://www.citysearch.com/profile/816795990/roswell_ga/wingmaster.html", "address": {"city": "Roswell", "state": "GA", "street": "48 King St", "postal_code": "30075"}, "capProviderId": null, "distance": null, "has_offers": false, "name": "Wingmaster", "longitude": -84.36332, "has_menu": false, "awards": null, "user_review_count": 0}, {"business_operation_status": 1, "rating": null, "neighborhood": null, "image": null, "scorecard": null, "featured": false, "sample_categories": "Restaurants, Delis And Delicatessens, Carry Out", "public_id": "firehouse-subs-marietta-2", "id": 745603500, "votes": null, "tagline": null, "has_video": false, "website": null, "offers": null, "latitude": 33.95896, "politanName": "Atlanta, GA Metro ", "phone_number": "7707925993", "tags": [{"primary": false, "id": 1727, "name": "Delis And Delicatessens"}, {"primary": false, "id": 11247, "name": "Carry Out"}, {"primary": true, "id": 1722, "name": "Restaurants"}], "fax_number": null, "expansion": {"count": null, "uri": null}, "impression_id": "000b0000005908957d13a746e6952af763cc144bf2", "profile": "http://www.citysearch.com/profile/745603500/marietta_ga/firehouse_subs.html", "address": {"city": "Marietta", "state": "GA", "street": "145 N Marietta Pkwy NE", "postal_code": "30060"}, "capProviderId": null, "distance": null, "has_offers": false, "name": "Firehouse Subs", "longitude": -84.546879, "has_menu": false, "awards": null, "user_review_count": 0}, {"business_operation_status": 1, "rating": null, "neighborhood": null, "image": null, "scorecard": null, "featured": false, "sample_categories": "Restaurants", "public_id": "mamafus-smyrna", "id": 828608580, "votes": null, "tagline": null, "has_video": false, "website": null, "offers": null, "latitude": 33.884889, "politanName": "Atlanta, GA Metro ", "phone_number": "6782133663", "tags": [{"primary": true, "id": 1722, "name": "Restaurants"}], "fax_number": null, "expansion": {"count": null, "uri": null}, "impression_id": "000b000000e1523233e8fa4f289f7a7a80665aa72e", "profile": "http://www.citysearch.com/profile/828608580/smyrna_ga/mamafu_s.html", "address": {"city": "Smyrna", "state": "GA", "street": "400 Village Green Cir SE", "postal_code": "30080"}, "capProviderId": null, "distance": null, "has_offers": false, "name": "Mamafu's", "longitude": -84.516415, "has_menu": false, "awards": null, "user_review_count": 0}, {"business_operation_status": 1, "rating": null, "neighborhood": null, "image": null, "scorecard": null, "featured": false, "sample_categories": "Restaurants", "public_id": "aunt-bs-oyster-house-marietta", "id": 823170090, "votes": null, "tagline": null, "has_video": false, "website": null, "offers": null, "latitude": 34.048139, "politanName": "Atlanta, GA Metro ", "phone_number": "7709242272", "tags": [{"primary": true, "id": 1722, "name": "Restaurants"}], "fax_number": null, "expansion": {"count": null, "uri": null}, "impression_id": "000b000000ba42e13b88a947ea855526bf5ca85c6d", "profile": "http://www.citysearch.com/profile/823170090/marietta_ga/aunt_b_s_oyster_house.html", "address": {"city": "Marietta", "state": "GA", "street": "3999 Canton Rd", "postal_code": "30066"}, "capProviderId": null, "distance": null, "has_offers": false, "name": "Aunt B's Oyster House", "longitude": -84.529087, "has_menu": false, "awards": null, "user_review_count": 0}, {"business_operation_status": 1, "rating": null, "neighborhood": null, "image": null, "scorecard": null, "featured": false, "sample_categories": "Restaurants", "public_id": "bennigans-corp-atlanta", "id": 825862700, "votes": null, "tagline": null, "has_video": false, "website": null, "offers": null, "latitude": 33.904439, "politanName": "Atlanta, GA Metro ", "phone_number": "7709523004", "tags": [{"primary": true, "id": 1722, "name": "Restaurants"}], "fax_number": null, "expansion": {"count": null, "uri": null}, "impression_id": "000b000000827bb0d436de4e16a396b400577d1e61", "profile": "http://www.citysearch.com/profile/825862700/atlanta_ga/bennigan_s_corp.html", "address": {"city": "Atlanta", "state": "GA", "street": "5525 Interstate North Pkwy", "postal_code": "30328"}, "capProviderId": null, "distance": null, "has_offers": false, "name": "Bennigan's Corp", "longitude": -84.437055, "has_menu": false, "awards": null, "user_review_count": 0}, {"business_operation_status": 0, "rating": 9.0, "neighborhood": null, "image": null, "scorecard": null, "featured": false, "sample_categories": "Delis And Delicatessens", "public_id": "petra-mediterranean-grocery-deli-marietta", "id": 36940541, "votes": null, "tagline": null, "has_video": false, "website": null, "offers": null, "latitude": 34.048554, "politanName": "Atlanta, GA Metro ", "phone_number": "6784940711", "tags": [{"primary": true, "id": 1727, "name": "Delis And Delicatessens"}], "fax_number": null, "expansion": {"count": null, "uri": null}, "impression_id": "000b000000f12cc971543c40149d9280aa8a54369d", "profile": "http://www.citysearch.com/profile/36940541/marietta_ga/petra_mediterranean_grocery_deli.html", "address": {"city": "Marietta", "state": "GA", "street": "4035 Canton Rd", "postal_code": "30066"}, "capProviderId": null, "distance": null, "has_offers": false, "name": "Petra Mediterranean Grocery & Deli", "longitude": -84.528338, "has_menu": false, "awards": null, "user_review_count": 0}, {"business_operation_status": 1, "rating": null, "neighborhood": null, "image": null, "scorecard": null, "featured": false, "sample_categories": "Restaurants", "public_id": "le-peep-restaurant-roswell", "id": 826607090, "votes": null, "tagline": null, "has_video": false, "website": null, "offers": null, "latitude": 34.043752, "politanName": "Atlanta, GA Metro ", "phone_number": "7709988625", "tags": [{"primary": true, "id": 1722, "name": "Restaurants"}], "fax_number": null, "expansion": {"count": null, "uri": null}, "impression_id": "000b00000040b04cc5d9a3420caf291e257a8d10dd", "profile": "http://www.citysearch.com/profile/826607090/roswell_ga/le_peep_restaurant.html", "address": {"city": "Roswell", "state": "GA", "street": "10800 Alpharetta Hwy", "postal_code": "30076"}, "capProviderId": null, "distance": null, "has_offers": false, "name": "Le Peep Restaurant", "longitude": -84.341978, "has_menu": false, "awards": null, "user_review_count": 0}, {"business_operation_status": 1, "rating": null, "neighborhood": null, "image": null, "scorecard": null, "featured": false, "sample_categories": "Restaurants, Carry Out", "public_id": "ruby-tuesday-atlanta-6", "id": 833545440, "votes": null, "tagline": null, "has_video": false, "website": null, "offers": null, "latitude": 33.907783, "politanName": "Atlanta, GA Metro ", "phone_number": "6785744550", "tags": [{"primary": false, "id": 11247, "name": "Carry Out"}, {"primary": true, "id": 1722, "name": "Restaurants"}], "fax_number": null, "expansion": {"count": null, "uri": null}, "impression_id": "000b000000eeac29ab14e44a319758e748ce511bd4", "profile": "http://www.citysearch.com/profile/833545440/atlanta_ga/ruby_tuesday.html", "address": {"city": "Atlanta", "state": "GA", "street": "3318 Cobb Pkwy SE", "postal_code": "30339"}, "capProviderId": null, "distance": null, "has_offers": false, "name": "Ruby Tuesday", "longitude": -84.492298, "has_menu": true, "awards": null, "user_review_count": 0}, {"business_operation_status": 1, "rating": null, "neighborhood": null, "image": null, "scorecard": null, "featured": false, "sample_categories": "Restaurants, Delis And Delicatessens, Sandwich Shops, Carry Out", "public_id": "quiznos-marietta-7", "id": 832339260, "votes": null, "tagline": null, "has_video": false, "website": null, "offers": null, "latitude": 33.905926, "politanName": "Atlanta, GA Metro ", "phone_number": "7709800268", "tags": [{"primary": false, "id": 1727, "name": "Delis And Delicatessens"}, {"primary": false, "id": 1736, "name": "Sandwich Shops"}, {"primary": false, "id": 11247, "name": "Carry Out"}, {"primary": true, "id": 1722, "name": "Restaurants"}], "fax_number": null, "expansion": {"count": null, "uri": null}, "impression_id": "000b000000b44ce8034a374fce9dc1cd3f35bc1365", "profile": "http://www.citysearch.com/profile/832339260/marietta_ga/quiznos.html", "address": {"city": "Marietta", "state": "GA", "street": "2000 Powers Ferry Rd SE # 1-11", "postal_code": "30067"}, "capProviderId": null, "distance": null, "has_offers": false, "name": "Quiznos", "longitude": -84.465323, "has_menu": true, "awards": null, "user_review_count": 0}, {"business_operation_status": 1, "rating": null, "neighborhood": null, "image": null, "scorecard": null, "featured": false, "sample_categories": "Restaurants, Chinese, American Express, Discover, MasterCard", "public_id": "hong-kong-chinese-restaurant-marietta", "id": 775206160, "votes": null, "tagline": null, "has_video": false, "website": null, "offers": null, "latitude": 33.993754, "politanName": "Atlanta, GA Metro ", "phone_number": "7704256212", "tags": [{"primary": false, "id": 11252, "name": "Chinese"}, {"primary": false, "id": 11333, "name": "American Express"}, {"primary": false, "id": 11349, "name": "Discover"}, {"primary": false, "id": 11361, "name": "MasterCard"}, {"primary": false, "id": 11382, "name": "Visa"}, {"primary": true, "id": 1722, "name": "Restaurants"}], "fax_number": null, "expansion": {"count": null, "uri": null}, "impression_id": "000b0000005e4aeb3c843b44acb827a21def4e5bb1", "profile": "http://www.citysearch.com/profile/775206160/marietta_ga/hong_kong_chinese_restaurant.html", "address": {"city": "Marietta", "state": "GA", "street": "2774 Cobb Pkwy NW", "postal_code": "30060"}, "capProviderId": null, "distance": null, "has_offers": false, "name": "Hong Kong Chinese Restaurant", "longitude": -84.581248, "has_menu": false, "awards": null, "user_review_count": 0}, {"business_operation_status": 1, "rating": 8.0, "neighborhood": null, "image": null, "scorecard": null, "featured": false, "sample_categories": "Restaurants, Barbecue Restaurants, American Express, Discover, MasterCard", "public_id": "wingstop-atlanta", "id": 37653747, "votes": null, "tagline": null, "has_video": false, "website": "http://www.citysearch.com/profile/external/37653747/atlanta_ga/wingstop.html", "offers": null, "latitude": 33.994607, "politanName": "Atlanta, GA Metro ", "phone_number": "7706406000", "tags": [{"primary": false, "id": 1724, "name": "Barbecue Restaurants"}, {"primary": false, "id": 11333, "name": "American Express"}, {"primary": false, "id": 11349, "name": "Discover"}, {"primary": false, "id": 11361, "name": "MasterCard"}, {"primary": false, "id": 11382, "name": "Visa"}, {"primary": true, "id": 1722, "name": "Restaurants"}], "fax_number": null, "expansion": {"count": null, "uri": null}, "impression_id": "000b000000ff2792913fbe45ccae2943050e6bbef2", "profile": "http://www.citysearch.com/profile/37653747/atlanta_ga/wingstop.html", "address": {"city": "Atlanta", "state": "GA", "street": "8725 Roswell Rd Ste M", "postal_code": "30350"}, "capProviderId": null, "distance": null, "has_offers": false, "name": "Wingstop", "longitude": -84.349559, "has_menu": true, "awards": null, "user_review_count": 1}, {"business_operation_status": 1, "rating": null, "neighborhood": null, "image": null, "scorecard": null, "featured": false, "sample_categories": "Restaurants", "public_id": "karachi-broast-grill-roswell", "id": 748333850, "votes": null, "tagline": null, "has_video": false, "website": null, "offers": null, "latitude": 34.046856, "politanName": "Atlanta, GA Metro ", "phone_number": "7706439553", "tags": [{"primary": true, "id": 1722, "name": "Restaurants"}], "fax_number": null, "expansion": {"count": null, "uri": null}, "impression_id": "000b000000f0850f1256b642aab1785a97dc69d5be", "profile": "http://www.citysearch.com/profile/748333850/roswell_ga/karachi_broast_grill.html", "address": {"city": "Roswell", "state": "GA", "street": "10971 Crabapple Rd", "postal_code": "30075"}, "capProviderId": null, "distance": null, "has_offers": false, "name": "Karachi Broast & Grill", "longitude": -84.360541, "has_menu": false, "awards": null, "user_review_count": 0}, {"business_operation_status": 1, "rating": null, "neighborhood": null, "image": null, "scorecard": null, "featured": false, "sample_categories": "Restaurants, Italian, Pizza", "public_id": "coliseum-italian-restaurant-roswell", "id": 36285820, "votes": null, "tagline": null, "has_video": false, "website": null, "offers": null, "latitude": 34.003826, "politanName": "Atlanta, GA Metro ", "phone_number": "7706401511", "tags": [{"primary": false, "id": 11279, "name": "Italian"}, {"primary": false, "id": 11299, "name": "Pizza"}, {"primary": true, "id": 1722, "name": "Restaurants"}], "fax_number": null, "expansion": {"count": null, "uri": null}, "impression_id": "000b0000001429e6a6835f443da9183e54ec336096", "profile": "http://www.citysearch.com/profile/36285820/roswell_ga/coliseum_italian_restaurant.html", "address": {"city": "Roswell", "state": "GA", "street": "880 Marietta Hwy", "postal_code": "30075"}, "capProviderId": null, "distance": null, "has_offers": false, "name": "Coliseum Italian Restaurant", "longitude": -84.391437, "has_menu": false, "awards": null, "user_review_count": 0}, {"business_operation_status": 1, "rating": null, "neighborhood": null, "image": null, "scorecard": null, "featured": false, "sample_categories": "Restaurants", "public_id": "grill-on-the-square-marietta", "id": 827975120, "votes": null, "tagline": null, "has_video": false, "website": null, "offers": null, "latitude": 33.952271, "politanName": "Atlanta, GA Metro ", "phone_number": "7704265161", "tags": [{"primary": true, "id": 1722, "name": "Restaurants"}], "fax_number": null, "expansion": {"count": null, "uri": null}, "impression_id": "000b0000000666dea4992b420899a4e45fa11025b4", "profile": "http://www.citysearch.com/profile/827975120/marietta_ga/grill_on_the_square.html", "address": {"city": "Marietta", "state": "GA", "street": "70 S Park Sq NE # C", "postal_code": "30060"}, "capProviderId": null, "distance": null, "has_offers": false, "name": "Grill On The Square", "longitude": -84.549833, "has_menu": false, "awards": null, "user_review_count": 0}, {"business_operation_status": 1, "rating": null, "neighborhood": null, "image": null, "scorecard": null, "featured": false, "sample_categories": "Restaurants, Pizza", "public_id": "pizza-world-roswell", "id": 777753360, "votes": null, "tagline": null, "has_video": false, "website": null, "offers": null, "latitude": 34.046856, "politanName": "Atlanta, GA Metro ", "phone_number": "7709925292", "tags": [{"primary": false, "id": 11299, "name": "Pizza"}, {"primary": true, "id": 1722, "name": "Restaurants"}], "fax_number": null, "expansion": {"count": null, "uri": null}, "impression_id": "000b00000041402aa211134977a98f143c26f0ea6c", "profile": "http://www.citysearch.com/profile/777753360/roswell_ga/pizza_world.html", "address": {"city": "Roswell", "state": "GA", "street": "10971 Crabapple Rd # 1500", "postal_code": "30075"}, "capProviderId": null, "distance": null, "has_offers": false, "name": "Pizza World", "longitude": -84.360541, "has_menu": false, "awards": null, "user_review_count": 0}, {"business_operation_status": 1, "rating": null, "neighborhood": null, "image": null, "scorecard": null, "featured": false, "sample_categories": "Restaurants, Chinese", "public_id": "china-garden-canton", "id": 36286292, "votes": null, "tagline": null, "has_video": false, "website": "http://www.citysearch.com/profile/external/36286292/canton_ga/china_garden.html", "offers": null, "latitude": 34.176274, "politanName": "Atlanta, GA Metro ", "phone_number": "7703451178", "tags": [{"primary": false, "id": 11252, "name": "Chinese"}, {"primary": true, "id": 1722, "name": "Restaurants"}], "fax_number": null, "expansion": {"count": null, "uri": null}, "impression_id": "000b000000b76cf2286ad14099959cde141ecf1027", "profile": "http://www.citysearch.com/profile/36286292/canton_ga/china_garden.html", "address": {"city": "Canton", "state": "GA", "street": "6199 Hickory Flat Hwy", "postal_code": "30115"}, "capProviderId": null, "distance": null, "has_offers": false, "name": "China Garden", "longitude": -84.419399, "has_menu": true, "awards": null, "user_review_count": 3}, {"business_operation_status": 1, "rating": null, "neighborhood": null, "image": null, "scorecard": null, "featured": false, "sample_categories": "Restaurants", "public_id": "surak-kennesaw", "id": 37648990, "votes": null, "tagline": null, "has_video": false, "website": null, "offers": null, "latitude": 34.025304, "politanName": "Atlanta, GA Metro ", "phone_number": "6785811888", "tags": [{"primary": true, "id": 1722, "name": "Restaurants"}], "fax_number": null, "expansion": {"count": null, "uri": null}, "impression_id": "000b00000076798deb79f5470bbdf49679a69a9b70", "profile": "http://www.citysearch.com/profile/37648990/kennesaw_ga/surak.html", "address": {"city": "Kennesaw", "state": "GA", "street": "2950 George Busbee Pkwy NW", "postal_code": "30144"}, "capProviderId": null, "distance": null, "has_offers": false, "name": "Surak", "longitude": -84.5671, "has_menu": false, "awards": null, "user_review_count": 0}, {"business_operation_status": 1, "rating": null, "neighborhood": null, "image": null, "scorecard": null, "featured": false, "sample_categories": "Restaurants", "public_id": "cafe-1100-atlanta-2", "id": 805596080, "votes": null, "tagline": null, "has_video": false, "website": null, "offers": null, "latitude": 33.887519, "politanName": "Atlanta, GA Metro ", "phone_number": "7709334141", "tags": [{"primary": true, "id": 1722, "name": "Restaurants"}], "fax_number": null, "expansion": {"count": null, "uri": null}, "impression_id": "000b00000097cd0a8dd5394e488dad70eaef6aca34", "profile": "http://www.citysearch.com/profile/805596080/atlanta_ga/cafe_1100.html", "address": {"city": "Atlanta", "state": "GA", "street": "900 Circle 75 Pkwy SE # 25", "postal_code": "30339"}, "capProviderId": null, "distance": null, "has_offers": false, "name": "Cafe 1100", "longitude": -84.467593, "has_menu": false, "awards": null, "user_review_count": 0}, {"business_operation_status": 1, "rating": null, "neighborhood": null, "image": null, "scorecard": null, "featured": false, "sample_categories": "Restaurants", "public_id": "creative-cafe-marietta", "id": 807599830, "votes": null, "tagline": null, "has_video": false, "website": null, "offers": null, "latitude": 34.032195, "politanName": "Atlanta, GA Metro ", "phone_number": "6782909995", "tags": [{"primary": true, "id": 1722, "name": "Restaurants"}], "fax_number": null, "expansion": {"count": null, "uri": null}, "impression_id": "000b000000648814cfa0e54f36823bf0fe0463f796", "profile": "http://www.citysearch.com/profile/807599830/marietta_ga/creative_cafe.html", "address": {"city": "Marietta", "state": "GA", "street": "3402 Canton Rd", "postal_code": "30066"}, "capProviderId": null, "distance": null, "has_offers": false, "name": "Creative Cafe", "longitude": -84.527689, "has_menu": false, "awards": null, "user_review_count": 0}, {"business_operation_status": 1, "rating": null, "neighborhood": null, "image": null, "scorecard": null, "featured": false, "sample_categories": "Restaurants, Carry Out", "public_id": "waffle-house-roswell-4", "id": 819242340, "votes": null, "tagline": null, "has_video": false, "website": null, "offers": null, "latitude": 34.067541, "politanName": "Atlanta, GA Metro ", "phone_number": "7705923984", "tags": [{"primary": false, "id": 11247, "name": "Carry Out"}, {"primary": true, "id": 1722, "name": "Restaurants"}], "fax_number": null, "expansion": {"count": null, "uri": null}, "impression_id": "000b000000ac8f03d4daf44ce184d19c211df3141b", "profile": "http://www.citysearch.com/profile/819242340/roswell_ga/waffle_house.html", "address": {"city": "Roswell", "state": "GA", "street": "4875 Alabama Rd NE", "postal_code": "30075"}, "capProviderId": null, "distance": null, "has_offers": false, "name": "Waffle House", "longitude": -84.425685, "has_menu": false, "awards": null, "user_review_count": 0}, {"business_operation_status": 1, "rating": null, "neighborhood": null, "image": null, "scorecard": null, "featured": false, "sample_categories": "Restaurants", "public_id": "filimons-smyrna", "id": 825235510, "votes": null, "tagline": null, "has_video": false, "website": null, "offers": null, "latitude": 33.887574, "politanName": "Atlanta, GA Metro ", "phone_number": "6782131556", "tags": [{"primary": true, "id": 1722, "name": "Restaurants"}], "fax_number": null, "expansion": {"count": null, "uri": null}, "impression_id": "000b0000002c6213f417954de1ae4ed2584ef7ab7d", "profile": "http://www.citysearch.com/profile/825235510/smyrna_ga/filimon_s.html", "address": {"city": "Smyrna", "state": "GA", "street": "601 Powder Springs St SE", "postal_code": "30080"}, "capProviderId": null, "distance": null, "has_offers": false, "name": "Filimon's", "longitude": -84.535901, "has_menu": false, "awards": null, "user_review_count": 0}, {"business_operation_status": 1, "rating": null, "neighborhood": null, "image": null, "scorecard": null, "featured": false, "sample_categories": "Restaurants, Pizza, Carry Out, MasterCard, Visa", "public_id": "dominos-pizza-kennesaw-2", "id": 2903801, "votes": null, "tagline": null, "has_video": false, "website": "http://www.citysearch.com/profile/external/2903801/kennesaw_ga/domino_s_pizza.html", "offers": null, "latitude": 34.051943, "politanName": "Atlanta, GA Metro ", "phone_number": "7704225545", "tags": [{"primary": false, "id": 1722, "name": "Restaurants"}, {"primary": false, "id": 11247, "name": "Carry Out"}, {"primary": false, "id": 11361, "name": "MasterCard"}, {"primary": false, "id": 11382, "name": "Visa"}, {"primary": true, "id": 11299, "name": "Pizza"}], "fax_number": null, "expansion": {"count": null, "uri": null}, "impression_id": "000b00000033ab194e300e4d078ddbf920c4454a7b", "profile": "http://www.citysearch.com/profile/2903801/kennesaw_ga/domino_s_pizza.html", "address": {"city": "Kennesaw", "state": "GA", "street": "4055 Royal Dr NW", "postal_code": "30144"}, "capProviderId": null, "distance": null, "has_offers": false, "name": "Domino's Pizza", "longitude": -84.607333, "has_menu": true, "awards": null, "user_review_count": 0}, {"business_operation_status": 1, "rating": null, "neighborhood": null, "image": null, "scorecard": null, "featured": false, "sample_categories": "Restaurants", "public_id": "blue-olive-marietta", "id": 672107680, "votes": null, "tagline": null, "has_video": false, "website": null, "offers": null, "latitude": 33.965353, "politanName": "Atlanta, GA Metro ", "phone_number": "7705795949", "tags": [{"primary": true, "id": 1722, "name": "Restaurants"}], "fax_number": null, "expansion": {"count": null, "uri": null}, "impression_id": "000b0000008582efe0e81c4fd08d3ea38226426c3e", "profile": "http://www.citysearch.com/profile/672107680/marietta_ga/blue_olive.html", "address": {"city": "Marietta", "state": "GA", "street": "4665 Lower Roswell Rd", "postal_code": "30068"}, "capProviderId": null, "distance": null, "has_offers": false, "name": "Blue Olive", "longitude": -84.415616, "has_menu": false, "awards": null, "user_review_count": 1}, {"business_operation_status": 0, "rating": null, "neighborhood": null, "image": null, "scorecard": null, "featured": false, "sample_categories": "Restaurants", "public_id": "the-party-q-bbq-restaurant-marietta", "id": 672617170, "votes": null, "tagline": null, "has_video": false, "website": null, "offers": null, "latitude": 34.016708, "politanName": "Atlanta, GA Metro ", "phone_number": "7704242225", "tags": [{"primary": true, "id": 1722, "name": "Restaurants"}], "fax_number": null, "expansion": {"count": null, "uri": null}, "impression_id": "000b0000006accb2f4924947cdad494a4cbf8541cc", "profile": "http://www.citysearch.com/profile/672617170/marietta_ga/the_party_q_bbq_restaurant.html", "address": {"city": "Marietta", "state": "GA", "street": "2821 Chastain Meadows Pkwy", "postal_code": "30066"}, "capProviderId": null, "distance": null, "has_offers": false, "name": "The Party Q! BBQ Restaurant", "longitude": -84.556251, "has_menu": false, "awards": null, "user_review_count": 0}, {"business_operation_status": 1, "rating": null, "neighborhood": null, "image": null, "scorecard": null, "featured": false, "sample_categories": "Restaurants, Bars & Clubs", "public_id": "cave-tapas-bar-and-lounge-kennesaw", "id": 672692320, "votes": null, "tagline": null, "has_video": false, "website": null, "offers": null, "latitude": 33.991946, "politanName": "Atlanta, GA Metro ", "phone_number": "6783917011", "tags": [{"primary": false, "id": 164, "name": "Bars & Clubs"}, {"primary": true, "id": 1722, "name": "Restaurants"}], "fax_number": null, "expansion": {"count": null, "uri": null}, "impression_id": "000b000000af252aca935149a09fbfdd396cb0dc8b", "profile": "http://www.citysearch.com/profile/672692320/kennesaw_ga/cave_tapas_bar_and_lounge.html", "address": {"city": "Kennesaw", "state": "GA", "street": "1619 Collins Rd NW", "postal_code": "30152"}, "capProviderId": null, "distance": null, "has_offers": false, "name": "Cave Tapas Bar and Lounge", "longitude": -84.59912, "has_menu": false, "awards": null, "user_review_count": 0}, {"business_operation_status": 1, "rating": null, "neighborhood": null, "image": null, "scorecard": null, "featured": false, "sample_categories": "Restaurants, Food Service Management", "public_id": "eurest-dining-svc-kennesaw", "id": 713450320, "votes": null, "tagline": null, "has_video": false, "website": "http://www.citysearch.com/profile/external/713450320/kennesaw_ga/eurest_dining_svc.html", "offers": null, "latitude": 34.042682, "politanName": "Atlanta, GA Metro ", "phone_number": "7704204166", "tags": [{"primary": false, "id": 11120, "name": "Food Service Management"}, {"primary": true, "id": 1722, "name": "Restaurants"}], "fax_number": null, "expansion": {"count": null, "uri": null}, "impression_id": "000b00000084976391a19f41dda53a3e8ab21b1c16", "profile": "http://www.citysearch.com/profile/713450320/kennesaw_ga/eurest_dining_svc.html", "address": {"city": "Kennesaw", "state": "GA", "street": "210 Townpark Dr NW", "postal_code": "30144"}, "capProviderId": null, "distance": null, "has_offers": false, "name": "Eurest Dining SVC", "longitude": -84.569868, "has_menu": false, "awards": null, "user_review_count": 0}, {"business_operation_status": 1, "rating": null, "neighborhood": null, "image": null, "scorecard": null, "featured": false, "sample_categories": "Restaurants, Diners", "public_id": "entrees-cafe-catering-atlanta", "id": 3045219, "votes": null, "tagline": null, "has_video": false, "website": null, "offers": null, "latitude": 33.982725, "politanName": "Atlanta, GA Metro ", "phone_number": "7705873402", "tags": [{"primary": false, "id": 1732, "name": "Diners"}, {"primary": true, "id": 1722, "name": "Restaurants"}], "fax_number": null, "expansion": {"count": null, "uri": null}, "impression_id": "000b0000004add79b678414d87b2cc1d3bca4837ff", "profile": "http://www.citysearch.com/profile/3045219/atlanta_ga/entree_s_cafe.html", "address": {"city": "Atlanta", "state": "GA", "street": "8329 Roswell Rd", "postal_code": "30350"}, "capProviderId": null, "distance": null, "has_offers": false, "name": "Entree's Cafe", "longitude": -84.348711, "has_menu": false, "awards": null, "user_review_count": 0}, {"business_operation_status": 1, "rating": null, "neighborhood": null, "image": null, "scorecard": null, "featured": false, "sample_categories": "Restaurants, Catering, Carry Out, Italian, Pizza", "public_id": "marietta-pizza-hdk-inc-marietta", "id": 739063740, "votes": null, "tagline": null, "has_video": false, "website": null, "offers": null, "latitude": 33.967002, "politanName": "Atlanta, GA Metro ", "phone_number": "6783240028", "tags": [{"primary": false, "id": 1705, "name": "Catering"}, {"primary": false, "id": 11247, "name": "Carry Out"}, {"primary": false, "id": 11279, "name": "Italian"}, {"primary": false, "id": 11299, "name": "Pizza"}, {"primary": true, "id": 1722, "name": "Restaurants"}], "fax_number": null, "expansion": {"count": null, "uri": null}, "impression_id": "000b000000e1ed91f762a449b6b2f7493630f0da7a", "profile": "http://www.citysearch.com/profile/739063740/marietta_ga/marietta_pizza_hdk_inc.html", "address": {"city": "Marietta", "state": "GA", "street": "3901 Mary Eliza Trce NW", "postal_code": "30064"}, "capProviderId": null, "distance": null, "has_offers": false, "name": "Marietta Pizza Hdk INC", "longitude": -84.665443, "has_menu": true, "awards": null, "user_review_count": 0}, {"business_operation_status": 1, "rating": null, "neighborhood": null, "image": null, "scorecard": null, "featured": false, "sample_categories": "Restaurants", "public_id": "phish-phood-cafe-roswell", "id": 732189880, "votes": null, "tagline": null, "has_video": false, "website": "http://www.citysearch.com/profile/external/732189880/roswell_ga/phish_phood_cafe.html", "offers": null, "latitude": 34.058016, "politanName": "Atlanta, GA Metro ", "phone_number": "7705874474", "tags": [{"primary": true, "id": 1722, "name": "Restaurants"}], "fax_number": null, "expansion": {"count": null, "uri": null}, "impression_id": "000b000000428869c0a6c94bb39da905876c9cd890", "profile": "http://www.citysearch.com/profile/732189880/roswell_ga/phish_phood_cafe.html", "address": {"city": "Roswell", "state": "GA", "street": "11255 Woodstock Rd", "postal_code": "30075"}, "capProviderId": null, "distance": null, "has_offers": false, "name": "Phish Phood Cafe", "longitude": -84.382952, "has_menu": false, "awards": null, "user_review_count": 0}], "histograms": [], "tag_ids": [1722], "uri": "http://api.citygridmedia.com:8080/search/places/v2/search/where?has_offers=false&type=restaurant&format=json&page=42&where=30062&rpp=50&histograms=false&publisher=10000009598&region_type=circle", "did_you_mean": "", "regions": [{"latitude": 34.001368, "default_radius": 5.22, "type": "postal_code", "name": "30062", "longitude": -84.466397}], "call_id": "000b000000c121efa0c1cf47b487b2e54cafd8f737", "first_hit": 2051, "total_hits": 2160, "geo_ids": [26292], "page": 42, "last_hit": 2100}}