{"results": {"rpp": 50, "locations": [{"business_operation_status": 1, "rating": null, "neighborhood": null, "image": null, "scorecard": null, "featured": false, "sample_categories": "Restaurants", "public_id": "el-barco-mexican-restaurant-marietta-3", "id": 822028770, "votes": null, "tagline": null, "has_video": false, "website": null, "offers": null, "latitude": 33.883313, "politanName": "Atlanta, GA Metro ", "phone_number": "6783555007", "tags": [{"primary": true, "id": 1722, "name": "Restaurants"}], "fax_number": null, "expansion": {"count": null, "uri": null}, "impression_id": "000b000000e9ba6591fb26433597199379a234442d", "profile": "http://www.citysearch.com/profile/822028770/marietta_ga/el_barco_mexican_restaurant.html", "address": {"city": "Marietta", "state": "GA", "street": "2200 Powder Springs Rd SW #100", "postal_code": "30064"}, "capProviderId": null, "distance": null, "has_offers": false, "name": "El Barco Mexican Restaurant", "longitude": -84.620092, "has_menu": false, "awards": null, "user_review_count": 0}, {"business_operation_status": 1, "rating": null, "neighborhood": null, "image": null, "scorecard": null, "featured": false, "sample_categories": "Coffeehouses, Coffee & Tea Shops, Restaurants", "public_id": "starbucks-coffee-marietta", "id": 839436920, "votes": null, "tagline": null, "has_video": false, "website": "http://www.citysearch.com/profile/external/839436920/marietta_ga/starbucks_coffee.html", "offers": null, "latitude": 33.905379, "politanName": "Atlanta, GA Metro ", "phone_number": "7704991251", "tags": [{"primary": false, "id": 1711, "name": "Coffee & Tea Shops"}, {"primary": false, "id": 1722, "name": "Restaurants"}, {"primary": true, "id": 1726, "name": "Coffeehouses"}], "fax_number": null, "expansion": {"count": null, "uri": null}, "impression_id": "000b00000090a126603b8849328a4667b225603393", "profile": "http://www.citysearch.com/profile/839436920/marietta_ga/starbucks_coffee.html", "address": {"city": "Marietta", "state": "GA", "street": "1733 Powder Springs Rd SW", "postal_code": "30064"}, "capProviderId": null, "distance": null, "has_offers": false, "name": "Starbucks Coffee", "longitude": -84.603225, "has_menu": true, "awards": null, "user_review_count": 0}, {"business_operation_status": 1, "rating": null, "neighborhood": null, "image": null, "scorecard": null, "featured": false, "sample_categories": "Restaurants, Delis And Delicatessens, Sandwich Shops, Carry Out, American Express", "public_id": "quiznos-marietta-3", "id": 43840232, "votes": null, "tagline": null, "has_video": false, "website": null, "offers": null, "latitude": 33.917126, "politanName": "Atlanta, GA Metro ", "phone_number": "6785947600", "tags": [{"primary": false, "id": 1727, "name": "Delis And Delicatessens"}, {"primary": false, "id": 1736, "name": "Sandwich Shops"}, {"primary": false, "id": 11247, "name": "Carry Out"}, {"primary": false, "id": 11333, "name": "American Express"}, {"primary": false, "id": 11347, "name": "Debit Card"}, {"primary": false, "id": 11349, "name": "Discover"}, {"primary": false, "id": 11361, "name": "MasterCard"}, {"primary": false, "id": 11382, "name": "Visa"}, {"primary": true, "id": 1722, "name": "Restaurants"}], "fax_number": null, "expansion": {"count": null, "uri": null}, "impression_id": "000b00000039caa71365f84b58ad51aac70e0b515d", "profile": "http://www.citysearch.com/profile/43840232/marietta_ga/quiznos.html", "address": {"city": "Marietta", "state": "GA", "street": "125 Barrett Pkwy Ste 104", "postal_code": "30066"}, "capProviderId": null, "distance": null, "has_offers": false, "name": "Quiznos", "longitude": -84.563854, "has_menu": true, "awards": null, "user_review_count": 0}, {"business_operation_status": 1, "rating": null, "neighborhood": null, "image": null, "scorecard": null, "featured": false, "sample_categories": "Restaurants, Bistros", "public_id": "pearls-southern-bistro-mableton", "id": 787089110, "votes": null, "tagline": null, "has_video": false, "website": null, "offers": null, "latitude": 33.817233, "politanName": "Atlanta, GA Metro ", "phone_number": "7707092666", "tags": [{"primary": false, "id": 13690, "name": "Bistros"}, {"primary": true, "id": 1722, "name": "Restaurants"}], "fax_number": null, "expansion": {"count": null, "uri": null}, "impression_id": "000b0000004d8ff17c3d6d46d69a4b6b923775bccd", "profile": "http://www.citysearch.com/profile/787089110/mableton_ga/pearl_s_southern_bistro.html", "address": {"city": "Mableton", "state": "GA", "street": "1174 Veterans Memorial Hwy Sw", "postal_code": "30126"}, "capProviderId": null, "distance": null, "has_offers": false, "name": "Pearl's Southern Bistro", "longitude": -84.588574, "has_menu": false, "awards": null, "user_review_count": 0}, {"business_operation_status": 1, "rating": null, "neighborhood": "Northside, Northside", "image": null, "scorecard": null, "featured": false, "sample_categories": "Restaurants, Traditional American", "public_id": "wingnuts-atlanta-2", "id": 793381620, "votes": null, "tagline": null, "has_video": false, "website": "http://www.citysearch.com/profile/external/793381620/atlanta_ga/wingnuts.html", "offers": null, "latitude": 33.794633, "politanName": "Atlanta, GA Metro ", "phone_number": "6787029990", "tags": [{"primary": false, "id": 11190, "name": "Traditional American"}, {"primary": true, "id": 1722, "name": "Restaurants"}], "fax_number": null, "expansion": {"count": null, "uri": null}, "impression_id": "000b0000005f8e1b31185644078d1cf60cabfa67fd", "profile": "http://www.citysearch.com/profile/793381620/atlanta_ga/wingnuts.html", "address": {"city": "Atlanta", "state": "GA", "street": "768 Naric St", "postal_code": "30318"}, "capProviderId": null, "distance": null, "has_offers": false, "name": "Wingnuts", "longitude": -84.448772, "has_menu": false, "awards": null, "user_review_count": 0}, {"business_operation_status": 1, "rating": null, "neighborhood": null, "image": null, "scorecard": null, "featured": false, "sample_categories": "Restaurants, Pizza, Carry Out", "public_id": "little-caesars-pizza-marietta-14", "id": 607327154, "votes": null, "tagline": null, "has_video": false, "website": "http://www.citysearch.com/profile/external/607327154/marietta_ga/little_caesars_pizza.html", "offers": null, "latitude": 33.951081, "politanName": "Atlanta, GA Metro ", "phone_number": "7709195595", "tags": [{"primary": false, "id": 1722, "name": "Restaurants"}, {"primary": false, "id": 11247, "name": "Carry Out"}, {"primary": true, "id": 11299, "name": "Pizza"}], "fax_number": null, "expansion": {"count": null, "uri": null}, "impression_id": "000b000000293587e07a3d49c392f1ce48e6328a16", "profile": "http://www.citysearch.com/profile/607327154/marietta_ga/little_caesars_pizza.html", "address": {"city": "Marietta", "state": "GA", "street": "36 Powder Springs St", "postal_code": "30064"}, "capProviderId": null, "distance": null, "has_offers": false, "name": "Little Caesars Pizza", "longitude": -84.55027, "has_menu": false, "awards": null, "user_review_count": 0}, {"business_operation_status": 1, "rating": null, "neighborhood": null, "image": null, "scorecard": null, "featured": false, "sample_categories": "Restaurants", "public_id": "viva-mexico-restaurant-marietta", "id": 611156824, "votes": null, "tagline": null, "has_video": false, "website": null, "offers": null, "latitude": 33.925486, "politanName": "Atlanta, GA Metro ", "phone_number": "7704298909", "tags": [{"primary": true, "id": 1722, "name": "Restaurants"}], "fax_number": null, "expansion": {"count": null, "uri": null}, "impression_id": "000b00000021c6e2c6b6c841d5a55e5ab7d3a7eac2", "profile": "http://www.citysearch.com/profile/611156824/marietta_ga/viva_mexico_restaurant.html", "address": {"city": "Marietta", "state": "GA", "street": "1115 Powder Springs St # S", "postal_code": "30064"}, "capProviderId": null, "distance": null, "has_offers": false, "name": "Viva Mexico Restaurant", "longitude": -84.572072, "has_menu": false, "awards": null, "user_review_count": 0}, {"business_operation_status": 1, "rating": null, "neighborhood": null, "image": null, "scorecard": null, "featured": false, "sample_categories": "Restaurants", "public_id": "grain-works-smyrna", "id": 815926420, "votes": null, "tagline": null, "has_video": false, "website": null, "offers": null, "latitude": 33.844924, "politanName": "Atlanta, GA Metro ", "phone_number": "6785030710", "tags": [{"primary": true, "id": 1722, "name": "Restaurants"}], "fax_number": null, "expansion": {"count": null, "uri": null}, "impression_id": "000b00000052f3fbd433544cc1ba069fd939db1037", "profile": "http://www.citysearch.com/profile/815926420/smyrna_ga/grain_works.html", "address": {"city": "Smyrna", "state": "GA", "street": "1270 Winchester Pkwy SE # 219", "postal_code": "30080"}, "capProviderId": null, "distance": null, "has_offers": false, "name": "Grain Works", "longitude": -84.489021, "has_menu": false, "awards": null, "user_review_count": 0}, {"business_operation_status": 1, "rating": null, "neighborhood": null, "image": null, "scorecard": null, "featured": false, "sample_categories": "Restaurants", "public_id": "angels-burrito-on-the-square-marietta", "id": 609728344, "votes": null, "tagline": null, "has_video": false, "website": null, "offers": null, "latitude": 33.952259, "politanName": "Atlanta, GA Metro ", "phone_number": "6785943352", "tags": [{"primary": true, "id": 1722, "name": "Restaurants"}], "fax_number": null, "expansion": {"count": null, "uri": null}, "impression_id": "000b000000cc29da1be7da4ba7a6f4fafbebe11c45", "profile": "http://www.citysearch.com/profile/609728344/marietta_ga/angel_s_burrito_on_the_square.html", "address": {"city": "Marietta", "state": "GA", "street": "154 Roswell St SE", "postal_code": "30060"}, "capProviderId": null, "distance": null, "has_offers": false, "name": "Angel's Burrito On The Square", "longitude": -84.548687, "has_menu": false, "awards": null, "user_review_count": 0}, {"business_operation_status": 1, "rating": null, "neighborhood": null, "image": null, "scorecard": null, "featured": false, "sample_categories": "Restaurants", "public_id": "china-key-development-llc-atlanta", "id": 817168600, "votes": null, "tagline": null, "has_video": false, "website": null, "offers": null, "latitude": 33.863183, "politanName": "Atlanta, GA Metro ", "phone_number": "4047687087", "tags": [{"primary": true, "id": 1722, "name": "Restaurants"}], "fax_number": null, "expansion": {"count": null, "uri": null}, "impression_id": "000b000000fac07ab77c14481cb862ecf9620f7ea1", "profile": "http://www.citysearch.com/profile/817168600/atlanta_ga/china_key_development_llc.html", "address": {"city": "Atlanta", "state": "GA", "street": "2451 Cumberland Pkwy SE # 300", "postal_code": "30339"}, "capProviderId": null, "distance": null, "has_offers": false, "name": "China Key Development LLC", "longitude": -84.478702, "has_menu": false, "awards": null, "user_review_count": 0}, {"business_operation_status": 1, "rating": null, "neighborhood": null, "image": null, "scorecard": null, "featured": false, "sample_categories": "Restaurants", "public_id": "village-cafe-gourmet-smyrna", "id": 614556564, "votes": null, "tagline": null, "has_video": false, "website": null, "offers": null, "latitude": 33.869097, "politanName": "Atlanta, GA Metro ", "phone_number": "7704319620", "tags": [{"primary": true, "id": 1722, "name": "Restaurants"}], "fax_number": null, "expansion": {"count": null, "uri": null}, "impression_id": "000b00000011f0c0475e524f2986af74e1d29d6c06", "profile": "http://www.citysearch.com/profile/614556564/smyrna_ga/village_cafe_gourmet.html", "address": {"city": "Smyrna", "state": "GA", "street": "1265 W Spring St SE", "postal_code": "30080"}, "capProviderId": null, "distance": null, "has_offers": false, "name": "Village Cafe & Gourmet", "longitude": -84.495999, "has_menu": false, "awards": null, "user_review_count": 1}, {"business_operation_status": 1, "rating": null, "neighborhood": null, "image": null, "scorecard": null, "featured": false, "sample_categories": "Restaurants, Food Delivery", "public_id": "r-t-restaurant-svc-marietta", "id": 742250660, "votes": null, "tagline": null, "has_video": false, "website": null, "offers": null, "latitude": 33.911149, "politanName": "Atlanta, GA Metro ", "phone_number": "7704273260", "tags": [{"primary": false, "id": 11267, "name": "Food Delivery"}, {"primary": true, "id": 1722, "name": "Restaurants"}], "fax_number": null, "expansion": {"count": null, "uri": null}, "impression_id": "000b0000009be08fce05fe4b908e7af923dd60a0c7", "profile": "http://www.citysearch.com/profile/742250660/marietta_ga/r_t_restaurant_svc.html", "address": {"city": "Marietta", "state": "GA", "street": "1679 Longwood Dr SW", "postal_code": "30008"}, "capProviderId": null, "distance": null, "has_offers": false, "name": "R & T Restaurant Svc", "longitude": -84.56801, "has_menu": false, "awards": null, "user_review_count": 0}, {"business_operation_status": 1, "rating": 8.0, "neighborhood": null, "image": null, "scorecard": null, "featured": false, "sample_categories": "Crowd Control, Generators, Household Appliances, Seafood", "public_id": "joes-crab-shack-smyrna", "id": 2922308, "votes": null, "tagline": null, "has_video": false, "website": "http://www.citysearch.com/profile/external/2922308/smyrna_ga/joe_s_crab_shack.html", "offers": null, "latitude": 33.897929, "politanName": "Atlanta, GA Metro ", "phone_number": "7709552722", "tags": [{"primary": false, "id": 26380, "name": "Crowd Control"}, {"primary": false, "id": 26420, "name": "Generators"}, {"primary": false, "id": 11228, "name": "Seafood"}, {"primary": true, "id": 3937, "name": "Household Appliances"}], "fax_number": null, "expansion": {"count": null, "uri": null}, "impression_id": "000b00000054894e77d90446d6bbdc3e6742fad39c", "profile": "http://www.citysearch.com/profile/2922308/smyrna_ga/joe_s_crab_shack.html", "address": {"city": "Smyrna", "state": "GA", "street": "2175 Cobb Pkwy SE", "postal_code": "30080"}, "capProviderId": null, "distance": null, "has_offers": false, "name": "Joe's Crab Shack", "longitude": -84.482808, "has_menu": true, "awards": null, "user_review_count": 0}, {"business_operation_status": 0, "rating": null, "neighborhood": null, "image": null, "scorecard": null, "featured": false, "sample_categories": "Restaurants, Carry Out", "public_id": "shoneys-restaurant-atlanta", "id": 3025962, "votes": null, "tagline": null, "has_video": false, "website": null, "offers": null, "latitude": 33.771143, "politanName": "Atlanta, GA Metro ", "phone_number": "4046969393", "tags": [{"primary": false, "id": 11247, "name": "Carry Out"}, {"primary": true, "id": 1722, "name": "Restaurants"}], "fax_number": null, "expansion": {"count": null, "uri": null}, "impression_id": "000b0000009fb87b7bb7f347fc895af28b8fda79f5", "profile": "http://www.citysearch.com/profile/3025962/atlanta_ga/shoney_s_restaurant.html", "address": {"city": "Atlanta", "state": "GA", "street": "3930 Fulton Industrial Blvd SW", "postal_code": "30336"}, "capProviderId": null, "distance": null, "has_offers": false, "name": "Shoney's Restaurant", "longitude": -84.516707, "has_menu": true, "awards": null, "user_review_count": 0}, {"business_operation_status": 1, "rating": null, "neighborhood": null, "image": null, "scorecard": null, "featured": false, "sample_categories": "Restaurants", "public_id": "healthy-eating-restaurant-smyrna", "id": 672835080, "votes": null, "tagline": null, "has_video": false, "website": null, "offers": null, "latitude": 33.883443, "politanName": "Atlanta, GA Metro ", "phone_number": "7704357155", "tags": [{"primary": true, "id": 1722, "name": "Restaurants"}], "fax_number": null, "expansion": {"count": null, "uri": null}, "impression_id": "000b00000010cbaedb3de5463a92fc73fd03db5956", "profile": "http://www.citysearch.com/profile/672835080/smyrna_ga/healthy_eating_restaurant.html", "address": {"city": "Smyrna", "state": "GA", "street": "2517 Spring Road", "postal_code": "30080"}, "capProviderId": null, "distance": null, "has_offers": false, "name": "Healthy Eating Restaurant", "longitude": -84.480608, "has_menu": false, "awards": null, "user_review_count": 0}, {"business_operation_status": 1, "rating": null, "neighborhood": null, "image": null, "scorecard": null, "featured": false, "sample_categories": "Delis And Delicatessens", "public_id": "kroger-deli-smyrna-2", "id": 694352350, "votes": null, "tagline": null, "has_video": false, "website": null, "offers": null, "latitude": 33.838977, "politanName": "Atlanta, GA Metro ", "phone_number": "4047926990", "tags": [{"primary": true, "id": 1727, "name": "Delis And Delicatessens"}], "fax_number": null, "expansion": {"count": null, "uri": null}, "impression_id": "000b000000e2da73a6c7d8454ab9c01c05c2f3734c", "profile": "http://www.citysearch.com/profile/694352350/smyrna_ga/kroger_deli.html", "address": {"city": "Smyrna", "state": "GA", "street": "4715 S Atlanta Rd Se # 100", "postal_code": "30080"}, "capProviderId": null, "distance": null, "has_offers": false, "name": "Kroger Deli", "longitude": -84.481545, "has_menu": false, "awards": null, "user_review_count": 0}, {"business_operation_status": 1, "rating": null, "neighborhood": null, "image": null, "scorecard": null, "featured": false, "sample_categories": "Restaurants, Cafes", "public_id": "socrates-cafe-marietta", "id": 713427300, "votes": null, "tagline": null, "has_video": false, "website": null, "offers": null, "latitude": 33.930756, "politanName": "Atlanta, GA Metro ", "phone_number": "7707926042", "tags": [{"primary": false, "id": 6190, "name": "Cafes"}, {"primary": true, "id": 1722, "name": "Restaurants"}], "fax_number": null, "expansion": {"count": null, "uri": null}, "impression_id": "000b0000002097b790c6ad49b1bb405e503245636d", "profile": "http://www.citysearch.com/profile/713427300/marietta_ga/socrates_cafe.html", "address": {"city": "Marietta", "state": "GA", "street": "1269 Barclay Cir Se", "postal_code": "30060"}, "capProviderId": null, "distance": null, "has_offers": false, "name": "Socrates Cafe", "longitude": -84.514539, "has_menu": false, "awards": null, "user_review_count": 0}, {"business_operation_status": 1, "rating": null, "neighborhood": null, "image": null, "scorecard": null, "featured": false, "sample_categories": "Restaurants", "public_id": "little-china-smyrna", "id": 805796770, "votes": null, "tagline": null, "has_video": false, "website": null, "offers": null, "latitude": 33.894335, "politanName": "Atlanta, GA Metro ", "phone_number": "6783057377", "tags": [{"primary": true, "id": 1722, "name": "Restaurants"}], "fax_number": null, "expansion": {"count": null, "uri": null}, "impression_id": "000b000000c1a51c41b43c4aff898d688349bdb7ce", "profile": "http://www.citysearch.com/profile/805796770/smyrna_ga/little_china.html", "address": {"city": "Smyrna", "state": "GA", "street": "1065 Windy Hill Rd SE", "postal_code": "30080"}, "capProviderId": null, "distance": null, "has_offers": false, "name": "Little China", "longitude": -84.522435, "has_menu": false, "awards": null, "user_review_count": 0}, {"business_operation_status": 1, "rating": null, "neighborhood": null, "image": null, "scorecard": null, "featured": false, "sample_categories": "Coffeehouses", "public_id": "hamilton-coffee-co-inc-smyrna", "id": 821080290, "votes": null, "tagline": null, "has_video": false, "website": null, "offers": null, "latitude": 33.869377, "politanName": "Atlanta, GA Metro ", "phone_number": "7704327385", "tags": [{"primary": true, "id": 1726, "name": "Coffeehouses"}], "fax_number": null, "expansion": {"count": null, "uri": null}, "impression_id": "000b000000cc5a4f75e1a348fbaeae3153b3375564", "profile": "http://www.citysearch.com/profile/821080290/smyrna_ga/hamilton_coffee_co_inc.html", "address": {"city": "Smyrna", "state": "GA", "street": "1105 Oakdale Dr SE", "postal_code": "30080"}, "capProviderId": null, "distance": null, "has_offers": false, "name": "Hamilton Coffee Co Inc", "longitude": -84.521363, "has_menu": false, "awards": null, "user_review_count": 0}, {"business_operation_status": 1, "rating": null, "neighborhood": "Northside, Northside", "image": null, "scorecard": null, "featured": false, "sample_categories": "Restaurants", "public_id": "take-away-cafe-atlanta", "id": 766802530, "votes": null, "tagline": null, "has_video": false, "website": "http://www.citysearch.com/profile/external/766802530/atlanta_ga/take_away_cafe.html", "offers": null, "latitude": 33.790876, "politanName": "Atlanta, GA Metro ", "phone_number": "4043517101", "tags": [{"primary": true, "id": 1722, "name": "Restaurants"}], "fax_number": null, "expansion": {"count": null, "uri": null}, "impression_id": "000b000000b26693be13bb4ffe9f934a35cb098016", "profile": "http://www.citysearch.com/profile/766802530/atlanta_ga/take_away_cafe.html", "address": {"city": "Atlanta", "state": "GA", "street": "1331 Marietta Blvd", "postal_code": "30318"}, "capProviderId": null, "distance": null, "has_offers": false, "name": "Take Away Cafe", "longitude": -84.429554, "has_menu": false, "awards": null, "user_review_count": 0}, {"business_operation_status": 1, "rating": null, "neighborhood": null, "image": null, "scorecard": null, "featured": false, "sample_categories": "Restaurants", "public_id": "mrs-winners-chicken-bscts-marietta", "id": 824819280, "votes": null, "tagline": null, "has_video": false, "website": null, "offers": null, "latitude": 33.863233, "politanName": "Atlanta, GA Metro ", "phone_number": "7704386204", "tags": [{"primary": true, "id": 1722, "name": "Restaurants"}], "fax_number": null, "expansion": {"count": null, "uri": null}, "impression_id": "000b000000c8174ef7d3d94cbcbb453a454313a436", "profile": "http://www.citysearch.com/profile/824819280/marietta_ga/mrs_winner_s_chicken_bscts.html", "address": {"city": "Marietta", "state": "GA", "street": "3710 Austell Rd SW", "postal_code": "30008"}, "capProviderId": null, "distance": null, "has_offers": false, "name": "Mrs Winner's Chicken & Bscts", "longitude": -84.596738, "has_menu": false, "awards": null, "user_review_count": 0}, {"business_operation_status": 1, "rating": null, "neighborhood": null, "image": null, "scorecard": null, "featured": false, "sample_categories": "Doughnut Shops", "public_id": "devs-donuts-marietta", "id": 826828870, "votes": null, "tagline": null, "has_video": false, "website": null, "offers": null, "latitude": 33.901077, "politanName": "Atlanta, GA Metro ", "phone_number": "7607025007", "tags": [{"primary": true, "id": 1734, "name": "Doughnut Shops"}], "fax_number": null, "expansion": {"count": null, "uri": null}, "impression_id": "000b00000069190483f8584083b37d11231b03f7a2", "profile": "http://www.citysearch.com/profile/826828870/marietta_ga/dev_s_donuts.html", "address": {"city": "Marietta", "state": "GA", "street": "1812 Pdr Spgs Rd SW # 2115", "postal_code": "30064"}, "capProviderId": null, "distance": null, "has_offers": false, "name": "Dev's Donuts", "longitude": -84.606768, "has_menu": false, "awards": null, "user_review_count": 0}, {"business_operation_status": 1, "rating": null, "neighborhood": null, "image": null, "scorecard": null, "featured": false, "sample_categories": "Restaurants", "public_id": "cafeteria-la-oaxaquena-smyrna", "id": 764902040, "votes": null, "tagline": null, "has_video": false, "website": null, "offers": null, "latitude": 33.8912, "politanName": "Atlanta, GA Metro ", "phone_number": "6785560599", "tags": [{"primary": true, "id": 1722, "name": "Restaurants"}], "fax_number": null, "expansion": {"count": null, "uri": null}, "impression_id": "000b000000bcdd090ec9544f3fbff4c1718a93b61b", "profile": "http://www.citysearch.com/profile/764902040/smyrna_ga/cafeteria_la_oaxaquena.html", "address": {"city": "Smyrna", "state": "GA", "street": "1651 Roswell St SE", "postal_code": "30080"}, "capProviderId": null, "distance": null, "has_offers": false, "name": "Cafeteria La Oaxaquena", "longitude": -84.503871, "has_menu": false, "awards": null, "user_review_count": 0}, {"business_operation_status": 1, "rating": null, "neighborhood": null, "image": null, "scorecard": null, "featured": false, "sample_categories": "Restaurants", "public_id": "sushinobo-smyrna-2", "id": 787110950, "votes": null, "tagline": null, "has_video": false, "website": null, "offers": null, "latitude": 33.842707, "politanName": "Atlanta, GA Metro ", "phone_number": "6784017322", "tags": [{"primary": true, "id": 1722, "name": "Restaurants"}], "fax_number": null, "expansion": {"count": null, "uri": null}, "impression_id": "000b0000008dc41ebb21ae4b7fb559d14a8c225c01", "profile": "http://www.citysearch.com/profile/787110950/smyrna_ga/sushinobo.html", "address": {"city": "Smyrna", "state": "GA", "street": "4500 West Village Pl Se # 1005", "postal_code": "30080"}, "capProviderId": null, "distance": null, "has_offers": false, "name": "Sushinobo", "longitude": -84.490488, "has_menu": false, "awards": null, "user_review_count": 0}, {"business_operation_status": 1, "rating": null, "neighborhood": null, "image": null, "scorecard": null, "featured": false, "sample_categories": "Restaurants, Carry Out", "public_id": "jamaica-mi-krazy-restaurant-smyrna", "id": 789846400, "votes": null, "tagline": null, "has_video": false, "website": null, "offers": null, "latitude": 33.883443, "politanName": "Atlanta, GA Metro ", "phone_number": "7708743071", "tags": [{"primary": false, "id": 1722, "name": "Restaurants"}, {"primary": true, "id": 11247, "name": "Carry Out"}], "fax_number": null, "expansion": {"count": null, "uri": null}, "impression_id": "000b000000ab75b4996fdc463698fcef08340d3c20", "profile": "http://www.citysearch.com/profile/789846400/smyrna_ga/jamaica_mi_krazy_restaurant.html", "address": {"city": "Smyrna", "state": "GA", "street": "2517 Spring Rd SE", "postal_code": "30080"}, "capProviderId": null, "distance": null, "has_offers": false, "name": "JAMAICA MI KRAZY RESTAURANT", "longitude": -84.480608, "has_menu": false, "awards": null, "user_review_count": 0}, {"business_operation_status": 1, "rating": null, "neighborhood": null, "image": null, "scorecard": null, "featured": false, "sample_categories": "Restaurants", "public_id": "maximillians-marietta", "id": 815534440, "votes": null, "tagline": null, "has_video": false, "website": null, "offers": null, "latitude": 33.905412, "politanName": "Atlanta, GA Metro ", "phone_number": "7709554286", "tags": [{"primary": true, "id": 1722, "name": "Restaurants"}], "fax_number": null, "expansion": {"count": null, "uri": null}, "impression_id": "000b000000808d3525c272455a8ae3b03c2f89cc2b", "profile": "http://www.citysearch.com/profile/815534440/marietta_ga/maximillian_s.html", "address": {"city": "Marietta", "state": "GA", "street": "1857 Airport Ind Park Dr SE", "postal_code": "30060"}, "capProviderId": null, "distance": null, "has_offers": false, "name": "Maximillian's", "longitude": -84.495214, "has_menu": false, "awards": null, "user_review_count": 0}, {"business_operation_status": 1, "rating": null, "neighborhood": null, "image": null, "scorecard": null, "featured": false, "sample_categories": "Restaurants", "public_id": "baker-brothers-installations-marietta", "id": 601298983, "votes": null, "tagline": null, "has_video": false, "website": "http://www.citysearch.com/profile/external/601298983/marietta_ga/baker_brothers_installations.html", "offers": null, "latitude": 33.919512, "politanName": "Atlanta, GA Metro ", "phone_number": "7705630281", "tags": [{"primary": true, "id": 1722, "name": "Restaurants"}], "fax_number": null, "expansion": {"count": null, "uri": null}, "impression_id": "000b0000008cccdcce0076445e977715f2270b0a1f", "profile": "http://www.citysearch.com/profile/601298983/marietta_ga/baker_brothers_installations.html", "address": {"city": "Marietta", "state": "GA", "street": "2152 Northwest Pkwy Se # F", "postal_code": "30067"}, "capProviderId": null, "distance": null, "has_offers": false, "name": "Baker Brothers Installations", "longitude": -84.487991, "has_menu": false, "awards": null, "user_review_count": 0}, {"business_operation_status": 1, "rating": null, "neighborhood": null, "image": null, "scorecard": null, "featured": false, "sample_categories": "Restaurants", "public_id": "fade-fine-dining-marietta", "id": 610801124, "votes": null, "tagline": null, "has_video": false, "website": null, "offers": null, "latitude": 33.868607, "politanName": "Atlanta, GA Metro ", "phone_number": "7704310505", "tags": [{"primary": true, "id": 1722, "name": "Restaurants"}], "fax_number": null, "expansion": {"count": null, "uri": null}, "impression_id": "000b000000003de43cfecb43a48bc315bfad79ec0f", "profile": "http://www.citysearch.com/profile/610801124/marietta_ga/fade_fine_dining.html", "address": {"city": "Marietta", "state": "GA", "street": "3505 Austell Rd SW", "postal_code": "30008"}, "capProviderId": null, "distance": null, "has_offers": false, "name": "Fade Fine Dining", "longitude": -84.591958, "has_menu": false, "awards": null, "user_review_count": 0}, {"business_operation_status": 1, "rating": null, "neighborhood": null, "image": null, "scorecard": null, "featured": false, "sample_categories": "Restaurants, Coffeehouses", "public_id": "rev-coffee-house-smyrna", "id": 766767230, "votes": null, "tagline": null, "has_video": false, "website": null, "offers": null, "latitude": 33.882118, "politanName": "Atlanta, GA Metro ", "phone_number": "7705734434", "tags": [{"primary": false, "id": 1726, "name": "Coffeehouses"}, {"primary": true, "id": 1722, "name": "Restaurants"}], "fax_number": null, "expansion": {"count": null, "uri": null}, "impression_id": "000b000000ef385a24d5534536be4693ca89ea1d49", "profile": "http://www.citysearch.com/profile/766767230/smyrna_ga/rev_coffee_house.html", "address": {"city": "Smyrna", "state": "GA", "street": "1680 Spring Rd SE", "postal_code": "30080"}, "capProviderId": null, "distance": null, "has_offers": false, "name": "Rev Coffee House", "longitude": -84.504533, "has_menu": false, "awards": null, "user_review_count": 0}, {"business_operation_status": 1, "rating": null, "neighborhood": null, "image": null, "scorecard": null, "featured": false, "sample_categories": "Restaurants", "public_id": "buffalos-cafe-marietta", "id": 2870538, "votes": null, "tagline": null, "has_video": false, "website": null, "offers": null, "latitude": 33.950209, "politanName": "Atlanta, GA Metro ", "phone_number": "7705212844", "tags": [{"primary": true, "id": 1722, "name": "Restaurants"}], "fax_number": null, "expansion": {"count": null, "uri": null}, "impression_id": "000b000000877c586986374bbab7e9f5d7395441cc", "profile": "http://www.citysearch.com/profile/2870538/marietta_ga/buffalo_s_cafe.html", "address": {"city": "Marietta", "state": "GA", "street": "707 Whitlock Ave SW Ste H13", "postal_code": "30064"}, "capProviderId": null, "distance": null, "has_offers": false, "name": "Buffalo's Cafe", "longitude": -84.573437, "has_menu": true, "awards": null, "user_review_count": 0}, {"business_operation_status": 1, "rating": null, "neighborhood": null, "image": null, "scorecard": null, "featured": false, "sample_categories": "Restaurants, Cajun & Creole, Carry Out, Food Delivery, American Express", "public_id": "folks-southern-kitchen-marietta-2", "id": 2901678, "votes": null, "tagline": null, "has_video": false, "website": "http://www.citysearch.com/profile/external/2901678/marietta_ga/folks_southern_kitchen.html", "offers": null, "latitude": 33.903775, "politanName": "Atlanta, GA Metro ", "phone_number": "7709525111", "tags": [{"primary": false, "id": 11245, "name": "Cajun & Creole"}, {"primary": false, "id": 11247, "name": "Carry Out"}, {"primary": false, "id": 11267, "name": "Food Delivery"}, {"primary": false, "id": 11333, "name": "American Express"}, {"primary": false, "id": 11349, "name": "Discover"}, {"primary": false, "id": 11361, "name": "MasterCard"}, {"primary": false, "id": 11382, "name": "Visa"}, {"primary": true, "id": 1722, "name": "Restaurants"}], "fax_number": null, "expansion": {"count": null, "uri": null}, "impression_id": "000b0000003fcb0a81f311417890fe47276d4a4290", "profile": "http://www.citysearch.com/profile/2901678/marietta_ga/folks_southern_kitchen.html", "address": {"city": "Marietta", "state": "GA", "street": "2031 Cobb Pkwy S", "postal_code": "30060"}, "capProviderId": null, "distance": null, "has_offers": false, "name": "Folks Southern Kitchen", "longitude": -84.487499, "has_menu": true, "awards": null, "user_review_count": 1}, {"business_operation_status": 1, "rating": null, "neighborhood": null, "image": null, "scorecard": null, "featured": false, "sample_categories": "Restaurants", "public_id": "jc-flowers-bonsai-marietta", "id": 787129080, "votes": null, "tagline": null, "has_video": false, "website": null, "offers": null, "latitude": 33.952602, "politanName": "Atlanta, GA Metro ", "phone_number": "7705653912", "tags": [{"primary": true, "id": 1722, "name": "Restaurants"}], "fax_number": null, "expansion": {"count": null, "uri": null}, "impression_id": "000b000000311e5d37e9ac4827926333644311db3e", "profile": "http://www.citysearch.com/profile/787129080/marietta_ga/jc_flowers_bonsai.html", "address": {"city": "Marietta", "state": "GA", "street": "2754 Sandy Plains Rd # 116", "postal_code": "30066"}, "capProviderId": null, "distance": null, "has_offers": false, "name": "Jc Flowers & Bonsai", "longitude": -84.549933, "has_menu": false, "awards": null, "user_review_count": 0}, {"business_operation_status": 1, "rating": null, "neighborhood": null, "image": null, "scorecard": null, "featured": false, "sample_categories": "Restaurants", "public_id": "la-isla-dominican-cafe-mableton", "id": 796129680, "votes": null, "tagline": null, "has_video": false, "website": null, "offers": null, "latitude": 33.818318, "politanName": "Atlanta, GA Metro ", "phone_number": "6784017696", "tags": [{"primary": true, "id": 1722, "name": "Restaurants"}], "fax_number": null, "expansion": {"count": null, "uri": null}, "impression_id": "000b0000005953c860eba243af9be51ad1505b18a5", "profile": "http://www.citysearch.com/profile/796129680/mableton_ga/la_isla_dominican_cafe.html", "address": {"city": "Mableton", "state": "GA", "street": "679 Veterans Memorial Hwy Sw", "postal_code": "30126"}, "capProviderId": null, "distance": null, "has_offers": false, "name": "La Isla Dominican Cafe", "longitude": -84.574544, "has_menu": false, "awards": null, "user_review_count": 0}, {"business_operation_status": 1, "rating": null, "neighborhood": null, "image": null, "scorecard": null, "featured": false, "sample_categories": "Restaurants, Pizza", "public_id": "spikes-brickoven-pizzeria-marietta", "id": 807252710, "votes": null, "tagline": null, "has_video": false, "website": null, "offers": null, "latitude": 33.925486, "politanName": "Atlanta, GA Metro ", "phone_number": "7704226821", "tags": [{"primary": false, "id": 1722, "name": "Restaurants"}, {"primary": true, "id": 11299, "name": "Pizza"}], "fax_number": null, "expansion": {"count": null, "uri": null}, "impression_id": "000b0000002cdcaf9f0fe94f7eb4f50e414fefa082", "profile": "http://www.citysearch.com/profile/807252710/marietta_ga/spikes_brickoven_pizzeria.html", "address": {"city": "Marietta", "state": "GA", "street": "1115 Powder Springs St", "postal_code": "30064"}, "capProviderId": null, "distance": null, "has_offers": false, "name": "Spikes Brickoven Pizzeria", "longitude": -84.572072, "has_menu": false, "awards": null, "user_review_count": 0}, {"business_operation_status": 1, "rating": null, "neighborhood": null, "image": null, "scorecard": null, "featured": false, "sample_categories": "Restaurants", "public_id": "imani-african-arabian-rstrnt-smyrna", "id": 713541910, "votes": null, "tagline": null, "has_video": false, "website": null, "offers": null, "latitude": 33.891129, "politanName": "Atlanta, GA Metro ", "phone_number": "6782936841", "tags": [{"primary": true, "id": 1722, "name": "Restaurants"}], "fax_number": null, "expansion": {"count": null, "uri": null}, "impression_id": "000b00000076f2d996c24c4ed0b15b5c012424a661", "profile": "http://www.citysearch.com/profile/713541910/smyrna_ga/imani_african_arabian_rstrnt.html", "address": {"city": "Smyrna", "state": "GA", "street": "1651 Roswell St Se", "postal_code": "30080"}, "capProviderId": null, "distance": null, "has_offers": false, "name": "Imani African & Arabian Rstrnt", "longitude": -84.504659, "has_menu": false, "awards": null, "user_review_count": 0}, {"business_operation_status": 1, "rating": null, "neighborhood": null, "image": null, "scorecard": null, "featured": false, "sample_categories": "Restaurants", "public_id": "wings-101-smyrna", "id": 621748804, "votes": null, "tagline": null, "has_video": false, "website": null, "offers": null, "latitude": 33.894038, "politanName": "Atlanta, GA Metro ", "phone_number": "7709891520", "tags": [{"primary": true, "id": 1722, "name": "Restaurants"}], "fax_number": null, "expansion": {"count": null, "uri": null}, "impression_id": "000b000000337153e6db4244fca23a3a255737f162", "profile": "http://www.citysearch.com/profile/621748804/smyrna_ga/wings_101.html", "address": {"city": "Smyrna", "state": "GA", "street": "998 Windy Hill Rd SE", "postal_code": "30080"}, "capProviderId": null, "distance": null, "has_offers": false, "name": "Wings 101", "longitude": -84.524382, "has_menu": false, "awards": null, "user_review_count": 0}, {"business_operation_status": 1, "rating": null, "neighborhood": null, "image": null, "scorecard": null, "featured": false, "sample_categories": "Restaurants", "public_id": "village-cafe-smyrna", "id": 745629910, "votes": null, "tagline": null, "has_video": false, "website": null, "offers": null, "latitude": 33.883751, "politanName": "Atlanta, GA Metro ", "phone_number": "6782935977", "tags": [{"primary": true, "id": 1722, "name": "Restaurants"}], "fax_number": null, "expansion": {"count": null, "uri": null}, "impression_id": "000b0000008c3173786efe49e6bad38f0c3f29be34", "profile": "http://www.citysearch.com/profile/745629910/smyrna_ga/village_cafe.html", "address": {"city": "Smyrna", "state": "GA", "street": "865 Pinehill Dr SE", "postal_code": "30080"}, "capProviderId": null, "distance": null, "has_offers": false, "name": "Village Cafe", "longitude": -84.528342, "has_menu": false, "awards": null, "user_review_count": 0}, {"business_operation_status": 0, "rating": null, "neighborhood": null, "image": null, "scorecard": null, "featured": false, "sample_categories": "Restaurants", "public_id": "taco-al-1000000-marietta", "id": 766781070, "votes": null, "tagline": null, "has_video": false, "website": null, "offers": null, "latitude": 33.902657, "politanName": "Atlanta, GA Metro ", "phone_number": "7707380000", "tags": [{"primary": true, "id": 1722, "name": "Restaurants"}], "fax_number": null, "expansion": {"count": null, "uri": null}, "impression_id": "000b000000fb0acfc76b29406fa51e16123ed56b89", "profile": "http://www.citysearch.com/profile/766781070/marietta_ga/taco_al_1000000.html", "address": {"city": "Marietta", "state": "GA", "street": "2084 Favor Rd SW", "postal_code": "30060"}, "capProviderId": null, "distance": null, "has_offers": false, "name": "Taco Al 1000000", "longitude": -84.564316, "has_menu": false, "awards": null, "user_review_count": 0}, {"business_operation_status": 1, "rating": null, "neighborhood": null, "image": null, "scorecard": null, "featured": false, "sample_categories": "Restaurants, Delis And Delicatessens, Carry Out", "public_id": "firehouse-subs-austell", "id": 773458950, "votes": null, "tagline": null, "has_video": false, "website": null, "offers": null, "latitude": 33.866955, "politanName": "Atlanta, GA Metro ", "phone_number": "7704396165", "tags": [{"primary": false, "id": 1727, "name": "Delis And Delicatessens"}, {"primary": false, "id": 11247, "name": "Carry Out"}, {"primary": true, "id": 1722, "name": "Restaurants"}], "fax_number": null, "expansion": {"count": null, "uri": null}, "impression_id": "000b000000847c1e624a3f49918a1c2ee8cb342487", "profile": "http://www.citysearch.com/profile/773458950/austell_ga/firehouse_subs.html", "address": {"city": "Austell", "state": "GA", "street": "2860 E West Connector", "postal_code": "30106"}, "capProviderId": null, "distance": null, "has_offers": false, "name": "Firehouse Subs", "longitude": -84.626974, "has_menu": true, "awards": null, "user_review_count": 0}, {"business_operation_status": 1, "rating": null, "neighborhood": null, "image": null, "scorecard": null, "featured": false, "sample_categories": "Seafood Markets, Restaurants, Seafood", "public_id": "pieer-213-seafood-marietta", "id": 772962240, "votes": null, "tagline": null, "has_video": false, "website": null, "offers": null, "latitude": 33.951025, "politanName": "Atlanta, GA Metro ", "phone_number": "6782908170", "tags": [{"primary": false, "id": 1722, "name": "Restaurants"}, {"primary": false, "id": 11228, "name": "Seafood"}, {"primary": true, "id": 1719, "name": "Seafood Markets"}], "fax_number": null, "expansion": {"count": null, "uri": null}, "impression_id": "000b000000aa96612518b44a81a6c856c1116797c6", "profile": "http://www.citysearch.com/profile/772962240/marietta_ga/pieer_213_seafood.html", "address": {"city": "Marietta", "state": "GA", "street": "35 S Marietta Pkwy Sw", "postal_code": "30064"}, "capProviderId": null, "distance": null, "has_offers": false, "name": "Pieer 213 Seafood", "longitude": -84.551785, "has_menu": false, "awards": null, "user_review_count": 0}, {"business_operation_status": 1, "rating": null, "neighborhood": null, "image": null, "scorecard": null, "featured": false, "sample_categories": "Restaurants, Barbecue Restaurants", "public_id": "bar-be-que-heavern-marietta", "id": 787133740, "votes": null, "tagline": null, "has_video": false, "website": null, "offers": null, "latitude": 33.894508, "politanName": "Atlanta, GA Metro ", "phone_number": "7706530935", "tags": [{"primary": false, "id": 1724, "name": "Barbecue Restaurants"}, {"primary": true, "id": 1722, "name": "Restaurants"}], "fax_number": null, "expansion": {"count": null, "uri": null}, "impression_id": "000b00000050c755322fe342a79521edb70d936cf2", "profile": "http://www.citysearch.com/profile/787133740/marietta_ga/bar_be_que_heavern.html", "address": {"city": "Marietta", "state": "GA", "street": "186 Windy Hill Rd Sw", "postal_code": "30060"}, "capProviderId": null, "distance": null, "has_offers": false, "name": "Bar Be Que Heavern", "longitude": -84.555734, "has_menu": false, "awards": null, "user_review_count": 0}, {"business_operation_status": 1, "rating": null, "neighborhood": null, "image": null, "scorecard": null, "featured": false, "sample_categories": "Restaurants, Utility Contractors", "public_id": "optelian-marietta", "id": 2910548, "votes": null, "tagline": null, "has_video": false, "website": "http://www.citysearch.com/profile/external/2910548/marietta_ga/optelian.html", "offers": null, "latitude": 33.919788, "politanName": "Atlanta, GA Metro ", "phone_number": "7706909575", "tags": [{"primary": false, "id": 1722, "name": "Restaurants"}, {"primary": true, "id": 788, "name": "Utility Contractors"}], "fax_number": null, "expansion": {"count": null, "uri": null}, "impression_id": "000b000000a9ff9121cc5f4433bd0d6f27549e7622", "profile": "http://www.citysearch.com/profile/2910548/marietta_ga/optelian.html", "address": {"city": "Marietta", "state": "GA", "street": "2121 New Market Pkwy SE", "postal_code": "30067"}, "capProviderId": null, "distance": null, "has_offers": false, "name": "Optelian", "longitude": -84.49377, "has_menu": false, "awards": null, "user_review_count": 0}, {"business_operation_status": 1, "rating": null, "neighborhood": null, "image": null, "scorecard": null, "featured": false, "sample_categories": "Restaurants, Barbecue Restaurants", "public_id": "wings-grill-mableton", "id": 787135080, "votes": null, "tagline": null, "has_video": false, "website": null, "offers": null, "latitude": 33.823999, "politanName": "Atlanta, GA Metro ", "phone_number": "7706757267", "tags": [{"primary": false, "id": 1724, "name": "Barbecue Restaurants"}, {"primary": true, "id": 1722, "name": "Restaurants"}], "fax_number": null, "expansion": {"count": null, "uri": null}, "impression_id": "000b00000063e3daa46e1242b694ac2da2f97bd883", "profile": "http://www.citysearch.com/profile/787135080/mableton_ga/wings_grill.html", "address": {"city": "Mableton", "state": "GA", "street": "5345 Floyd Rd Sw", "postal_code": "30126"}, "capProviderId": null, "distance": null, "has_offers": false, "name": "Wings & Grill", "longitude": -84.574687, "has_menu": false, "awards": null, "user_review_count": 0}, {"business_operation_status": 1, "rating": null, "neighborhood": null, "image": null, "scorecard": null, "featured": false, "sample_categories": "Restaurants, Hamburgers", "public_id": "ils-wayportmc-donalds-marietta", "id": 793313560, "votes": null, "tagline": null, "has_video": false, "website": null, "offers": null, "latitude": 33.924211, "politanName": "Atlanta, GA Metro ", "phone_number": "7708509549", "tags": [{"primary": false, "id": 11270, "name": "Hamburgers"}, {"primary": true, "id": 1722, "name": "Restaurants"}], "fax_number": null, "expansion": {"count": null, "uri": null}, "impression_id": "000b0000006372fd08b2914cdcba07d20609e1975c", "profile": "http://www.citysearch.com/profile/793313560/marietta_ga/ils_wayport_mc_donald_s.html", "address": {"city": "Marietta", "state": "GA", "street": "2375 Delk Rd Se", "postal_code": "30067"}, "capProviderId": null, "distance": null, "has_offers": false, "name": "Ils Wayport-Mc Donald's", "longitude": -84.483793, "has_menu": false, "awards": null, "user_review_count": 0}, {"business_operation_status": 1, "rating": null, "neighborhood": null, "image": null, "scorecard": null, "featured": false, "sample_categories": "Restaurants, American Express, Discover, MasterCard, Shop Online", "public_id": "metro-kitchen-marietta", "id": 728110290, "votes": null, "tagline": null, "has_video": false, "website": "http://www.citysearch.com/profile/external/728110290/marietta_ga/metro_kitchen.html", "offers": null, "latitude": 33.926059, "politanName": "Atlanta, GA Metro ", "phone_number": "7709160102", "tags": [{"primary": false, "id": 11333, "name": "American Express"}, {"primary": false, "id": 11349, "name": "Discover"}, {"primary": false, "id": 11361, "name": "MasterCard"}, {"primary": false, "id": 11375, "name": "Shop Online"}, {"primary": false, "id": 11382, "name": "Visa"}, {"primary": true, "id": 1722, "name": "Restaurants"}], "fax_number": null, "expansion": {"count": null, "uri": null}, "impression_id": "000b00000078eb0766f6db49e28136820f0da6e80b", "profile": "http://www.citysearch.com/profile/728110290/marietta_ga/metro_kitchen.html", "address": {"city": "Marietta", "state": "GA", "street": "4041 Kingston Ct Se # A", "postal_code": "30067"}, "capProviderId": null, "distance": null, "has_offers": false, "name": "Metro Kitchen", "longitude": -84.491207, "has_menu": false, "awards": null, "user_review_count": 0}, {"business_operation_status": 1, "rating": null, "neighborhood": null, "image": null, "scorecard": null, "featured": false, "sample_categories": "Restaurants", "public_id": "checkers-marietta-3", "id": 836194250, "votes": null, "tagline": null, "has_video": false, "website": null, "offers": null, "latitude": 33.950121, "politanName": "Atlanta, GA Metro ", "phone_number": "7704298398", "tags": [{"primary": true, "id": 1722, "name": "Restaurants"}], "fax_number": null, "expansion": {"count": null, "uri": null}, "impression_id": "000b000000faa92dc2c407420bbc79a5bda9968236", "profile": "http://www.citysearch.com/profile/836194250/marietta_ga/checkers.html", "address": {"city": "Marietta", "state": "GA", "street": "41 Cobb Pkwy S", "postal_code": "30060"}, "capProviderId": null, "distance": null, "has_offers": false, "name": "Checkers", "longitude": -84.519571, "has_menu": false, "awards": null, "user_review_count": 0}, {"business_operation_status": 1, "rating": null, "neighborhood": null, "image": null, "scorecard": null, "featured": false, "sample_categories": "Restaurants", "public_id": "golden-glory-cafe-mableton", "id": 627145624, "votes": null, "tagline": null, "has_video": false, "website": null, "offers": null, "latitude": 33.818318, "politanName": "Atlanta, GA Metro ", "phone_number": "6783880800", "tags": [{"primary": true, "id": 1722, "name": "Restaurants"}], "fax_number": null, "expansion": {"count": null, "uri": null}, "impression_id": "000b0000009c5a3235cc8a406dbea1a338ee60c435", "profile": "http://www.citysearch.com/profile/627145624/mableton_ga/golden_glory_cafe.html", "address": {"city": "Mableton", "state": "GA", "street": "679 Veterans Memorial Hwy SW", "postal_code": "30126"}, "capProviderId": null, "distance": null, "has_offers": false, "name": "Golden Glory Cafe", "longitude": -84.57454, "has_menu": false, "awards": null, "user_review_count": 0}, {"business_operation_status": 1, "rating": null, "neighborhood": null, "image": null, "scorecard": null, "featured": false, "sample_categories": "Restaurants", "public_id": "healthy-smoothies-marietta", "id": 839059750, "votes": null, "tagline": null, "has_video": false, "website": null, "offers": null, "latitude": 33.901077, "politanName": "Atlanta, GA Metro ", "phone_number": "4046044604", "tags": [{"primary": true, "id": 1722, "name": "Restaurants"}], "fax_number": null, "expansion": {"count": null, "uri": null}, "impression_id": "000b0000009119daeae3f44213aea5b667529c2995", "profile": "http://www.citysearch.com/profile/839059750/marietta_ga/healthy_smoothies.html", "address": {"city": "Marietta", "state": "GA", "street": "1812 Powder Springs Rd SW", "postal_code": "30064"}, "capProviderId": null, "distance": null, "has_offers": false, "name": "Healthy Smoothies", "longitude": -84.606768, "has_menu": false, "awards": null, "user_review_count": 0}, {"business_operation_status": 1, "rating": null, "neighborhood": null, "image": null, "scorecard": null, "featured": false, "sample_categories": "Restaurants, Barbecue Restaurants", "public_id": "ruchda-wings-powder-spg", "id": 682329700, "votes": null, "tagline": null, "has_video": false, "website": null, "offers": null, "latitude": 33.867624, "politanName": "Atlanta, GA Metro ", "phone_number": "7709439399", "tags": [{"primary": false, "id": 1724, "name": "Barbecue Restaurants"}, {"primary": true, "id": 1722, "name": "Restaurants"}], "fax_number": null, "expansion": {"count": null, "uri": null}, "impression_id": "000b00000046f7d15b3a0641a493970a542562cdfd", "profile": "http://www.citysearch.com/profile/682329700/powder_springs_ga/ruchda_wings.html", "address": {"city": "Powder Springs", "state": "GA", "street": "2860 East W Connector Sw", "postal_code": "30127"}, "capProviderId": null, "distance": null, "has_offers": false, "name": "Ruchda Wings", "longitude": -84.631069, "has_menu": false, "awards": null, "user_review_count": 0}, {"business_operation_status": 1, "rating": 9.0, "neighborhood": null, "image": null, "scorecard": null, "featured": false, "sample_categories": "Catering, Restaurants", "public_id": "jones-house-restaurant-catering-lithia-spgs", "id": 2948169, "votes": null, "tagline": null, "has_video": false, "website": null, "offers": null, "latitude": 33.789264, "politanName": "Atlanta, GA Metro ", "phone_number": "7709483287", "tags": [{"primary": false, "id": 1722, "name": "Restaurants"}, {"primary": true, "id": 1705, "name": "Catering"}], "fax_number": null, "expansion": {"count": null, "uri": null}, "impression_id": "000b0000003bde2e1ddb0a4cefb0a47433e337fc06", "profile": "http://www.citysearch.com/profile/2948169/lithia_springs_ga/jones_house_restaurant_catering.html", "address": {"city": "Lithia Springs", "state": "GA", "street": "561 Thornton Rd", "postal_code": "30122"}, "capProviderId": null, "distance": null, "has_offers": false, "name": "Jones House Restaurant & Catering", "longitude": -84.62553, "has_menu": false, "awards": null, "user_review_count": 2}], "histograms": [], "tag_ids": [1722], "uri": "http://api.citygridmedia.com:8080/search/places/v2/search/where?has_offers=false&type=restaurant&format=json&page=19&where=30082&rpp=50&histograms=false&publisher=10000009598&region_type=circle", "did_you_mean": "", "regions": [{"latitude": 33.854375999999995, "default_radius": 3.24, "type": "postal_code", "name": "30082", "longitude": -84.535215}], "call_id": "000b000000f274aa4692574c218a67b71f1302c93a", "first_hit": 901, "total_hits": 1174, "geo_ids": [26331], "page": 19, "last_hit": 950}}