{"results": {"rpp": 50, "locations": [{"business_operation_status": 1, "rating": null, "neighborhood": null, "image": null, "scorecard": null, "featured": false, "sample_categories": "Restaurants", "public_id": "j-gumbos-marietta", "id": 713632110, "votes": null, "tagline": null, "has_video": false, "website": null, "offers": null, "latitude": 33.903919, "politanName": "Atlanta, GA Metro ", "phone_number": "7706121810", "tags": [{"primary": true, "id": 1722, "name": "Restaurants"}], "fax_number": null, "expansion": {"count": null, "uri": null}, "impression_id": "000b000000a8cb48f2a74d43f985c2fd6ddb9b9c21", "profile": "http://www.citysearch.com/profile/713632110/marietta_ga/j_gumbo_s.html", "address": {"city": "Marietta", "state": "GA", "street": "3000 Windy Hill Rd Se", "postal_code": "30067"}, "capProviderId": null, "distance": null, "has_offers": false, "name": "J Gumbo's", "longitude": -84.4706, "has_menu": true, "awards": null, "user_review_count": 0}, {"business_operation_status": 1, "rating": null, "neighborhood": null, "image": null, "scorecard": null, "featured": false, "sample_categories": "Sandwich Shops, Restaurants, Delis And Delicatessens, Soups", "public_id": "georgia-sandwich-co-marietta", "id": 33646008, "votes": null, "tagline": null, "has_video": false, "website": "http://www.citysearch.com/profile/external/33646008/marietta_ga/georgia_sandwich_co.html", "offers": null, "latitude": 33.933969, "politanName": "Atlanta, GA Metro ", "phone_number": "7704265678", "tags": [{"primary": false, "id": 1722, "name": "Restaurants"}, {"primary": false, "id": 1727, "name": "Delis And Delicatessens"}, {"primary": false, "id": 11311, "name": "Soups"}, {"primary": true, "id": 1736, "name": "Sandwich Shops"}], "fax_number": null, "expansion": {"count": null, "uri": null}, "impression_id": "000b000000c19c0e9aaf1646eaa1359911a914deb9", "profile": "http://www.citysearch.com/profile/33646008/marietta_ga/georgia_sandwich_co.html", "address": {"city": "Marietta", "state": "GA", "street": "115 Davis Cir SW", "postal_code": "30008"}, "capProviderId": null, "distance": null, "has_offers": false, "name": "Georgia Sandwich Co", "longitude": -84.554133, "has_menu": false, "awards": null, "user_review_count": 0}, {"business_operation_status": 1, "rating": null, "neighborhood": null, "image": null, "scorecard": null, "featured": false, "sample_categories": "Restaurants", "public_id": "le-peep-restaurant-marietta", "id": 819290350, "votes": null, "tagline": null, "has_video": false, "website": null, "offers": null, "latitude": 33.952271, "politanName": "Atlanta, GA Metro ", "phone_number": "7704265161", "tags": [{"primary": true, "id": 1722, "name": "Restaurants"}], "fax_number": null, "expansion": {"count": null, "uri": null}, "impression_id": "000b000000a4d455dcc2474f0dacc19a148d9d9ede", "profile": "http://www.citysearch.com/profile/819290350/marietta_ga/le_peep_restaurant.html", "address": {"city": "Marietta", "state": "GA", "street": "70 S Park Sq NE", "postal_code": "30060"}, "capProviderId": null, "distance": null, "has_offers": false, "name": "Le Peep Restaurant", "longitude": -84.549833, "has_menu": false, "awards": null, "user_review_count": 0}, {"business_operation_status": 1, "rating": null, "neighborhood": "Riverside, Northside, Northside", "image": null, "scorecard": null, "featured": false, "sample_categories": "Restaurants", "public_id": "nekbonz-atlanta", "id": 818801840, "votes": null, "tagline": null, "has_video": false, "website": null, "offers": null, "latitude": 33.812139, "politanName": "Atlanta, GA Metro ", "phone_number": "4047995231", "tags": [{"primary": true, "id": 1722, "name": "Restaurants"}], "fax_number": null, "expansion": {"count": null, "uri": null}, "impression_id": "000b0000007f51c2b6a9fc4c59bf2a3d6a117300b8", "profile": "http://www.citysearch.com/profile/818801840/atlanta_ga/nekbonz.html", "address": {"city": "Atlanta", "state": "GA", "street": "2061 Main St NW", "postal_code": "30318"}, "capProviderId": null, "distance": null, "has_offers": false, "name": "Nekbonz", "longitude": -84.471904, "has_menu": false, "awards": null, "user_review_count": 0}, {"business_operation_status": 1, "rating": null, "neighborhood": null, "image": null, "scorecard": null, "featured": false, "sample_categories": "Restaurants, Japanese, American Express, Debit Card, MasterCard", "public_id": "hoki-japanese-restaurant-atlanta", "id": 754709640, "votes": null, "tagline": null, "has_video": false, "website": "http://www.citysearch.com/profile/external/754709640/atlanta_ga/hoki_japanese_restaurant.html", "offers": null, "latitude": 33.872583, "politanName": "Atlanta, GA Metro ", "phone_number": "7706900555", "tags": [{"primary": false, "id": 11202, "name": "Japanese"}, {"primary": false, "id": 11333, "name": "American Express"}, {"primary": false, "id": 11347, "name": "Debit Card"}, {"primary": false, "id": 11361, "name": "MasterCard"}, {"primary": false, "id": 11382, "name": "Visa"}, {"primary": true, "id": 1722, "name": "Restaurants"}], "fax_number": null, "expansion": {"count": null, "uri": null}, "impression_id": "000b0000005fb58ab0916a4f949c21e9f513b07ab5", "profile": "http://www.citysearch.com/profile/754709640/atlanta_ga/hoki_japanese_restaurant.html", "address": {"city": "Atlanta", "state": "GA", "street": "3300 Cobb Pkwy SE 114", "postal_code": "30339"}, "capProviderId": null, "distance": null, "has_offers": false, "name": "HOKI Japanese Restaurant", "longitude": -84.457738, "has_menu": false, "awards": null, "user_review_count": 0}, {"business_operation_status": 1, "rating": null, "neighborhood": null, "image": null, "scorecard": null, "featured": false, "sample_categories": "Restaurants", "public_id": "grazie-a-bistro-marietta", "id": 823574700, "votes": null, "tagline": null, "has_video": false, "website": null, "offers": null, "latitude": 33.953111, "politanName": "Atlanta, GA Metro ", "phone_number": "7704998585", "tags": [{"primary": true, "id": 1722, "name": "Restaurants"}], "fax_number": null, "expansion": {"count": null, "uri": null}, "impression_id": "000b000000fff5b0618f564d27968baeeed1aa1831", "profile": "http://www.citysearch.com/profile/823574700/marietta_ga/grazie_a_bistro.html", "address": {"city": "Marietta", "state": "GA", "street": "1000 Whitlock Ave NW # 410", "postal_code": "30064"}, "capProviderId": null, "distance": null, "has_offers": false, "name": "Grazie A Bistro", "longitude": -84.581272, "has_menu": false, "awards": null, "user_review_count": 0}, {"business_operation_status": 1, "rating": null, "neighborhood": null, "image": null, "scorecard": null, "featured": false, "sample_categories": "Restaurants", "public_id": "j-r-cricket-mableton", "id": 832544960, "votes": null, "tagline": null, "has_video": false, "website": null, "offers": null, "latitude": 33.823999, "politanName": "Atlanta, GA Metro ", "phone_number": "7707455475", "tags": [{"primary": true, "id": 1722, "name": "Restaurants"}], "fax_number": null, "expansion": {"count": null, "uri": null}, "impression_id": "000b000000dbc13658a5d94adcb64d141d3fd00ab4", "profile": "http://www.citysearch.com/profile/832544960/mableton_ga/j_r_cricket.html", "address": {"city": "Mableton", "state": "GA", "street": "5345 Floyd Rd SW # J", "postal_code": "30126"}, "capProviderId": null, "distance": null, "has_offers": false, "name": "J R Cricket", "longitude": -84.574687, "has_menu": true, "awards": null, "user_review_count": 0}, {"business_operation_status": 1, "rating": null, "neighborhood": null, "image": null, "scorecard": null, "featured": false, "sample_categories": "Restaurants, Pizza", "public_id": "johnnys-new-york-style-pizza-smyrna-5", "id": 824318460, "votes": null, "tagline": null, "has_video": false, "website": null, "offers": null, "latitude": 33.846135, "politanName": "Atlanta, GA Metro ", "phone_number": "7703498191", "tags": [{"primary": false, "id": 1722, "name": "Restaurants"}, {"primary": true, "id": 11299, "name": "Pizza"}], "fax_number": null, "expansion": {"count": null, "uri": null}, "impression_id": "000b000000ceb57d121ddb40d197dd2a5a0e3cfda0", "profile": "http://www.citysearch.com/profile/824318460/smyrna_ga/johnny_s_new_york_style_pizza.html", "address": {"city": "Smyrna", "state": "GA", "street": "4268 Mill Grove Ln SW", "postal_code": "30082"}, "capProviderId": null, "distance": null, "has_offers": false, "name": "Johnny's New York Style Pizza", "longitude": -84.563226, "has_menu": false, "awards": null, "user_review_count": 0}, {"business_operation_status": 1, "rating": null, "neighborhood": null, "image": null, "scorecard": null, "featured": false, "sample_categories": "Delis And Delicatessens", "public_id": "beyahs-mobile-deli-smyrna", "id": 824638410, "votes": null, "tagline": null, "has_video": false, "website": null, "offers": null, "latitude": 33.869932, "politanName": "Atlanta, GA Metro ", "phone_number": "7704378084", "tags": [{"primary": true, "id": 1727, "name": "Delis And Delicatessens"}], "fax_number": null, "expansion": {"count": null, "uri": null}, "impression_id": "000b00000048497e0596b445f5883a7dd292259325", "profile": "http://www.citysearch.com/profile/824638410/smyrna_ga/beyahs_mobile_deli.html", "address": {"city": "Smyrna", "state": "GA", "street": "156 Hurt Rd SW", "postal_code": "30082"}, "capProviderId": null, "distance": null, "has_offers": false, "name": "Beyahs Mobile Deli", "longitude": -84.557188, "has_menu": false, "awards": null, "user_review_count": 0}, {"business_operation_status": 1, "rating": null, "neighborhood": null, "image": null, "scorecard": null, "featured": false, "sample_categories": "Restaurants", "public_id": "folia-brazilian-steakhouse-marietta", "id": 831979230, "votes": null, "tagline": null, "has_video": false, "website": "http://www.citysearch.com/profile/external/831979230/marietta_ga/folia_brazilian_steakhouse.html", "offers": null, "latitude": 33.918527, "politanName": "Atlanta, GA Metro ", "phone_number": "7706273170", "tags": [{"primary": true, "id": 1722, "name": "Restaurants"}], "fax_number": null, "expansion": {"count": null, "uri": null}, "impression_id": "000b0000006c29214eb57a48c79197953cececc3b4", "profile": "http://www.citysearch.com/profile/831979230/marietta_ga/folia_brazilian_steakhouse.html", "address": {"city": "Marietta", "state": "GA", "street": "1360 Powers Ferry Rd SE # B165", "postal_code": "30067"}, "capProviderId": null, "distance": null, "has_offers": false, "name": "Folia Brazilian Steakhouse", "longitude": -84.468586, "has_menu": false, "awards": null, "user_review_count": 0}, {"business_operation_status": 1, "rating": null, "neighborhood": null, "image": null, "scorecard": null, "featured": false, "sample_categories": "Restaurants", "public_id": "red-house-marietta", "id": 775207480, "votes": null, "tagline": null, "has_video": false, "website": null, "offers": null, "latitude": 33.951025, "politanName": "Atlanta, GA Metro ", "phone_number": "7704277588", "tags": [{"primary": true, "id": 1722, "name": "Restaurants"}], "fax_number": null, "expansion": {"count": null, "uri": null}, "impression_id": "000b00000013e5741505b549d09123b6f7dbc3cc5f", "profile": "http://www.citysearch.com/profile/775207480/marietta_ga/red_house.html", "address": {"city": "Marietta", "state": "GA", "street": "35 S Marietta Pkwy SW", "postal_code": "30064"}, "capProviderId": null, "distance": null, "has_offers": false, "name": "Red House", "longitude": -84.551785, "has_menu": false, "awards": null, "user_review_count": 0}, {"business_operation_status": 1, "rating": null, "neighborhood": null, "image": null, "scorecard": null, "featured": false, "sample_categories": "Restaurants, Barbecue Restaurants", "public_id": "hurricane-grill-wings-austell", "id": 777739530, "votes": null, "tagline": null, "has_video": false, "website": "http://www.citysearch.com/profile/external/777739530/austell_ga/hurricane_grill_wings.html", "offers": null, "latitude": 33.856949, "politanName": "Atlanta, GA Metro ", "phone_number": "7708011345", "tags": [{"primary": false, "id": 1724, "name": "Barbecue Restaurants"}, {"primary": true, "id": 1722, "name": "Restaurants"}], "fax_number": null, "expansion": {"count": null, "uri": null}, "impression_id": "000b000000ec2a350e07284acb8d8cf010163e395c", "profile": "http://www.citysearch.com/profile/777739530/austell_ga/hurricane_grill_wings.html", "address": {"city": "Austell", "state": "GA", "street": "3961 Floyd Rd # 100", "postal_code": "30106"}, "capProviderId": null, "distance": null, "has_offers": false, "name": "Hurricane Grill & Wings", "longitude": -84.590442, "has_menu": true, "awards": null, "user_review_count": 0}, {"business_operation_status": 1, "rating": null, "neighborhood": null, "image": null, "scorecard": null, "featured": false, "sample_categories": "Restaurants, Barbecue Restaurants", "public_id": "travelers-bar-b-que-ctrng-marietta", "id": 777759510, "votes": null, "tagline": null, "has_video": false, "website": null, "offers": null, "latitude": 33.952909, "politanName": "Atlanta, GA Metro ", "phone_number": "7704234884", "tags": [{"primary": false, "id": 1724, "name": "Barbecue Restaurants"}, {"primary": true, "id": 1722, "name": "Restaurants"}], "fax_number": null, "expansion": {"count": null, "uri": null}, "impression_id": "000b000000d1cd896980a34ea6bcd4a08c1ffd749a", "profile": "http://www.citysearch.com/profile/777759510/marietta_ga/traveler_s_bar_b_que_ctrng.html", "address": {"city": "Marietta", "state": "GA", "street": "79 N Fairground St Ne", "postal_code": "30060"}, "capProviderId": null, "distance": null, "has_offers": false, "name": "Traveler's Bar B Que & Ctrng", "longitude": -84.53505, "has_menu": false, "awards": null, "user_review_count": 0}, {"business_operation_status": 1, "rating": null, "neighborhood": null, "image": null, "scorecard": null, "featured": false, "sample_categories": "Restaurants, Mexican", "public_id": "las-colines-mexican-restaurant-marietta", "id": 621981290, "votes": null, "tagline": null, "has_video": false, "website": null, "offers": null, "latitude": 33.921085, "politanName": "Atlanta, GA Metro ", "phone_number": "6785947524", "tags": [{"primary": false, "id": 11208, "name": "Mexican"}, {"primary": true, "id": 1722, "name": "Restaurants"}], "fax_number": null, "expansion": {"count": null, "uri": null}, "impression_id": "000b0000008f020e3f95ed4beca2bdf62bfe840e0b", "profile": "http://www.citysearch.com/profile/621981290/marietta_ga/las_colines_mexican_restaurant.html", "address": {"city": "Marietta", "state": "GA", "street": "1300 Atlanta Rd Se # 400", "postal_code": "30060"}, "capProviderId": null, "distance": null, "has_offers": false, "name": "Las Colines Mexican Restaurant", "longitude": -84.542827, "has_menu": false, "awards": null, "user_review_count": 0}, {"business_operation_status": 1, "rating": null, "neighborhood": null, "image": null, "scorecard": null, "featured": false, "sample_categories": "Ice Cream Parlors", "public_id": "ritas-water-ice-marietta-2", "id": 621872750, "votes": null, "tagline": null, "has_video": false, "website": "http://www.citysearch.com/profile/external/621872750/marietta_ga/rita_s_water_ice.html", "offers": null, "latitude": 33.952594, "politanName": "Atlanta, GA Metro ", "phone_number": "6784026240", "tags": [{"primary": true, "id": 1730, "name": "Ice Cream Parlors"}], "fax_number": null, "expansion": {"count": null, "uri": null}, "impression_id": "000b000000d5b5ac9716d349408848794a00079cf6", "profile": "http://www.citysearch.com/profile/621872750/marietta_ga/rita_s_water_ice.html", "address": {"city": "Marietta", "state": "GA", "street": "800 Whitlock Ave Nw", "postal_code": "30064"}, "capProviderId": null, "distance": null, "has_offers": false, "name": "Rita's Water Ice", "longitude": -84.575881, "has_menu": false, "awards": null, "user_review_count": 1}, {"business_operation_status": 1, "rating": null, "neighborhood": null, "image": null, "scorecard": null, "featured": false, "sample_categories": "Restaurants", "public_id": "grain-works-marietta", "id": 621976160, "votes": null, "tagline": null, "has_video": false, "website": "http://www.citysearch.com/profile/external/621976160/marietta_ga/grain_works.html", "offers": null, "latitude": 33.923408, "politanName": "Atlanta, GA Metro ", "phone_number": "7709800081", "tags": [{"primary": true, "id": 1722, "name": "Restaurants"}], "fax_number": null, "expansion": {"count": null, "uri": null}, "impression_id": "000b000000d8e394bc45024111bc3c7c9d998e71a0", "profile": "http://www.citysearch.com/profile/621976160/marietta_ga/grain_works.html", "address": {"city": "Marietta", "state": "GA", "street": "2160 Kingston Ct Se", "postal_code": "30067"}, "capProviderId": null, "distance": null, "has_offers": false, "name": "Grain Works", "longitude": -84.489216, "has_menu": false, "awards": null, "user_review_count": 0}, {"business_operation_status": 1, "rating": null, "neighborhood": "Riverside, Northside, Northside", "image": null, "scorecard": null, "featured": false, "sample_categories": "Restaurants, Carry Out", "public_id": "waffle-house-atlanta-32", "id": 621872814, "votes": null, "tagline": null, "has_video": false, "website": "http://www.citysearch.com/profile/external/621872814/atlanta_ga/waffle_house.html", "offers": null, "latitude": 33.81087, "politanName": "Atlanta, GA Metro ", "phone_number": "4047929009", "tags": [{"primary": false, "id": 11247, "name": "Carry Out"}, {"primary": true, "id": 1722, "name": "Restaurants"}], "fax_number": null, "expansion": {"count": null, "uri": null}, "impression_id": "000b0000002f7602d4918c4edea1288e5685c6979b", "profile": "http://www.citysearch.com/profile/621872814/atlanta_ga/waffle_house.html", "address": {"city": "Atlanta", "state": "GA", "street": "2025 Bolton Rd NW", "postal_code": "30318"}, "capProviderId": null, "distance": null, "has_offers": false, "name": "Waffle House", "longitude": -84.476265, "has_menu": false, "awards": null, "user_review_count": 0}, {"business_operation_status": 1, "rating": null, "neighborhood": null, "image": null, "scorecard": null, "featured": false, "sample_categories": "Nutritionists, Weight Loss, Health Food", "public_id": "jenny-craig-weight-loss-ctr-atlanta", "id": 601369806, "votes": null, "tagline": null, "has_video": false, "website": "http://www.citysearch.com/profile/external/601369806/atlanta_ga/jenny_craig_weight_loss_ctr.html", "offers": null, "latitude": 33.88068, "politanName": "Atlanta, GA Metro ", "phone_number": "7706904190", "tags": [{"primary": false, "id": 1893, "name": "Nutritionists"}, {"primary": false, "id": 11200, "name": "Health Food"}, {"primary": true, "id": 1931, "name": "Weight Loss"}], "fax_number": null, "expansion": {"count": null, "uri": null}, "impression_id": "000b000000455bf84bd1284753b17abea363a090af", "profile": "http://www.citysearch.com/profile/601369806/atlanta_ga/jenny_craig_weight_loss_ctr.html", "address": {"city": "Atlanta", "state": "GA", "street": "2969 Cobb Pkwy", "postal_code": "30339"}, "capProviderId": null, "distance": null, "has_offers": false, "name": "Jenny Craig Weight Loss Ctr", "longitude": -84.461897, "has_menu": false, "awards": null, "user_review_count": 0}, {"business_operation_status": 1, "rating": null, "neighborhood": null, "image": null, "scorecard": null, "featured": false, "sample_categories": "Restaurants, Mediterranean", "public_id": "316-cafe-kabob-more-marietta", "id": 672208690, "votes": null, "tagline": null, "has_video": false, "website": null, "offers": null, "latitude": 33.921284, "politanName": "Atlanta, GA Metro ", "phone_number": "7709550804", "tags": [{"primary": false, "id": 11289, "name": "Mediterranean"}, {"primary": true, "id": 1722, "name": "Restaurants"}], "fax_number": null, "expansion": {"count": null, "uri": null}, "impression_id": "000b0000005e5140fb200d425594b395b5bd4645f0", "profile": "http://www.citysearch.com/profile/672208690/marietta_ga/316_cafe_kabob_more.html", "address": {"city": "Marietta", "state": "GA", "street": "1260 Powers Ferry Road", "postal_code": "30067"}, "capProviderId": null, "distance": null, "has_offers": false, "name": "316 Cafe Kabob & More", "longitude": -84.467848, "has_menu": false, "awards": null, "user_review_count": 0}, {"business_operation_status": 1, "rating": null, "neighborhood": null, "image": null, "scorecard": null, "featured": false, "sample_categories": "Restaurants", "public_id": "vinings-club-atlanta", "id": 672416590, "votes": null, "tagline": null, "has_video": false, "website": "http://www.citysearch.com/profile/external/672416590/atlanta_ga/vinings_club.html", "offers": null, "latitude": 33.867677, "politanName": "Atlanta, GA Metro ", "phone_number": "7704331155", "tags": [{"primary": true, "id": 1722, "name": "Restaurants"}], "fax_number": null, "expansion": {"count": null, "uri": null}, "impression_id": "000b00000054ea04b7335a4ea1885d3adedec828bc", "profile": "http://www.citysearch.com/profile/672416590/atlanta_ga/vinings_club.html", "address": {"city": "Atlanta", "state": "GA", "street": "2859 Paces Ferry Rd SE", "postal_code": "30339"}, "capProviderId": null, "distance": null, "has_offers": false, "name": "Vinings Club", "longitude": -84.468631, "has_menu": false, "awards": null, "user_review_count": 1}, {"business_operation_status": 1, "rating": null, "neighborhood": null, "image": null, "scorecard": null, "featured": false, "sample_categories": "Restaurants", "public_id": "garveys-west-indian-marietta", "id": 672435580, "votes": null, "tagline": null, "has_video": false, "website": null, "offers": null, "latitude": 33.869778, "politanName": "Atlanta, GA Metro ", "phone_number": "6783840766", "tags": [{"primary": true, "id": 1722, "name": "Restaurants"}], "fax_number": null, "expansion": {"count": null, "uri": null}, "impression_id": "000b0000004dffb71328a441e5a2f7b97c31a9c4ba", "profile": "http://www.citysearch.com/profile/672435580/marietta_ga/garvey_s_west_indian.html", "address": {"city": "Marietta", "state": "GA", "street": "2575 Whitehaven dr", "postal_code": "30064"}, "capProviderId": null, "distance": null, "has_offers": false, "name": "Garvey's West Indian", "longitude": -84.629052, "has_menu": false, "awards": null, "user_review_count": 0}, {"business_operation_status": 1, "rating": null, "neighborhood": "Northside, Northside", "image": null, "scorecard": null, "featured": false, "sample_categories": "Seafood Markets, Restaurants, Seafood", "public_id": "off-the-dock-seafood-atlanta", "id": 713580320, "votes": null, "tagline": null, "has_video": false, "website": "http://www.citysearch.com/profile/external/713580320/atlanta_ga/off_the_dock_seafood.html", "offers": null, "latitude": 33.79921, "politanName": "Atlanta, GA Metro ", "phone_number": "4045492576", "tags": [{"primary": false, "id": 1722, "name": "Restaurants"}, {"primary": false, "id": 11228, "name": "Seafood"}, {"primary": true, "id": 1719, "name": "Seafood Markets"}], "fax_number": null, "expansion": {"count": null, "uri": null}, "impression_id": "000b00000014f9c51a30a344348eb904c33dcd9918", "profile": "http://www.citysearch.com/profile/713580320/atlanta_ga/off_the_dock_seafood.html", "address": {"city": "Atlanta", "state": "GA", "street": "1500 Southland Cir NW", "postal_code": "30318"}, "capProviderId": null, "distance": null, "has_offers": false, "name": "Off The Dock Seafood", "longitude": -84.432104, "has_menu": false, "awards": null, "user_review_count": 0}, {"business_operation_status": 1, "rating": null, "neighborhood": null, "image": null, "scorecard": null, "featured": false, "sample_categories": "Restaurants", "public_id": "island-breeze-restaurant-mableton-2", "id": 713524240, "votes": null, "tagline": null, "has_video": false, "website": null, "offers": null, "latitude": 33.783961, "politanName": "Atlanta, GA Metro ", "phone_number": "6784645910", "tags": [{"primary": true, "id": 1722, "name": "Restaurants"}], "fax_number": null, "expansion": {"count": null, "uri": null}, "impression_id": "000b000000875b3c6c5b3648c2853c7ba3cd118e34", "profile": "http://www.citysearch.com/profile/713524240/mableton_ga/island_breeze_restaurant.html", "address": {"city": "Mableton", "state": "GA", "street": "6981 Mableton Pkwy Se # 115", "postal_code": "30126"}, "capProviderId": null, "distance": null, "has_offers": false, "name": "Island Breeze Restaurant", "longitude": -84.540201, "has_menu": false, "awards": null, "user_review_count": 0}, {"business_operation_status": 1, "rating": null, "neighborhood": null, "image": null, "scorecard": null, "featured": false, "sample_categories": "Restaurants", "public_id": "paces-vine-atlanta", "id": 618927874, "votes": null, "tagline": null, "has_video": false, "website": null, "offers": null, "latitude": 33.864473, "politanName": "Atlanta, GA Metro ", "phone_number": "4048720904", "tags": [{"primary": true, "id": 1722, "name": "Restaurants"}], "fax_number": null, "expansion": {"count": null, "uri": null}, "impression_id": "000b0000000c70b68e4ba8458ea6631fc7964a4ee8", "profile": "http://www.citysearch.com/profile/618927874/atlanta_ga/paces_vine.html", "address": {"city": "Atlanta", "state": "GA", "street": "4300 Paces Ferry Rd SE 250", "postal_code": "30339"}, "capProviderId": null, "distance": null, "has_offers": false, "name": "Paces & Vine", "longitude": -84.466262, "has_menu": true, "awards": null, "user_review_count": 0}, {"business_operation_status": 1, "rating": null, "neighborhood": null, "image": null, "scorecard": null, "featured": false, "sample_categories": "Restaurants", "public_id": "tin-drum-asiacafe-atlanta-2", "id": 627002064, "votes": null, "tagline": null, "has_video": false, "website": null, "offers": null, "latitude": 33.882376, "politanName": "Atlanta, GA Metro ", "phone_number": "6783880515", "tags": [{"primary": true, "id": 1722, "name": "Restaurants"}], "fax_number": null, "expansion": {"count": null, "uri": null}, "impression_id": "000b0000006055a49e98dc443f8c186eb1c64dab09", "profile": "http://www.citysearch.com/profile/627002064/atlanta_ga/tin_drum_asiacafe.html", "address": {"city": "Atlanta", "state": "GA", "street": "2955 Cobb Pkwy SE", "postal_code": "30339"}, "capProviderId": null, "distance": null, "has_offers": false, "name": "Tin Drum Asiacafe", "longitude": -84.459577, "has_menu": false, "awards": null, "user_review_count": 0}, {"business_operation_status": 1, "rating": null, "neighborhood": null, "image": null, "scorecard": null, "featured": false, "sample_categories": "Restaurants, Mexican", "public_id": "el-barco-mexican-restaurant-marietta", "id": 638790530, "votes": null, "tagline": null, "has_video": false, "website": null, "offers": null, "latitude": 33.890372, "politanName": "Atlanta, GA Metro ", "phone_number": "6782906778", "tags": [{"primary": false, "id": 11208, "name": "Mexican"}, {"primary": true, "id": 1722, "name": "Restaurants"}], "fax_number": null, "expansion": {"count": null, "uri": null}, "impression_id": "000b000000666410f95a204dd79864e9c3c7ff83ab", "profile": "http://www.citysearch.com/profile/638790530/marietta_ga/el_barco_mexican_restaurant.html", "address": {"city": "Marietta", "state": "GA", "street": "2586 Thorns Hill Pl Sw", "postal_code": "30064"}, "capProviderId": null, "distance": null, "has_offers": false, "name": "El Barco Mexican Restaurant", "longitude": -84.630827, "has_menu": false, "awards": null, "user_review_count": 0}, {"business_operation_status": 1, "rating": null, "neighborhood": null, "image": null, "scorecard": null, "featured": false, "sample_categories": "Restaurants, Delis And Delicatessens, Sandwich Shops, Carry Out, MasterCard", "public_id": "subway-marietta-4", "id": 601296783, "votes": null, "tagline": null, "has_video": false, "website": "http://www.citysearch.com/profile/external/601296783/marietta_ga/subway.html", "offers": null, "latitude": 33.906428, "politanName": "Atlanta, GA Metro ", "phone_number": "7709530023", "tags": [{"primary": false, "id": 1727, "name": "Delis And Delicatessens"}, {"primary": false, "id": 1736, "name": "Sandwich Shops"}, {"primary": false, "id": 11247, "name": "Carry Out"}, {"primary": false, "id": 11361, "name": "MasterCard"}, {"primary": false, "id": 11382, "name": "Visa"}, {"primary": true, "id": 1722, "name": "Restaurants"}], "fax_number": null, "expansion": {"count": null, "uri": null}, "impression_id": "000b000000a8d3beb374834a94870609bfdfbdbd65", "profile": "http://www.citysearch.com/profile/601296783/marietta_ga/subway.html", "address": {"city": "Marietta", "state": "GA", "street": "1871 Cobb Pkwy S # 400", "postal_code": "30060"}, "capProviderId": null, "distance": null, "has_offers": false, "name": "Subway", "longitude": -84.489855, "has_menu": true, "awards": null, "user_review_count": 0}, {"business_operation_status": 1, "rating": null, "neighborhood": "Lake Ridge Technical Park", "image": null, "scorecard": null, "featured": false, "sample_categories": "Restaurants, Pizza", "public_id": "chicago-pizza-smyrna", "id": 609408414, "votes": null, "tagline": null, "has_video": false, "website": null, "offers": null, "latitude": 33.827169, "politanName": "Atlanta, GA Metro ", "phone_number": "6782130238", "tags": [{"primary": false, "id": 11299, "name": "Pizza"}, {"primary": true, "id": 1722, "name": "Restaurants"}], "fax_number": null, "expansion": {"count": null, "uri": null}, "impression_id": "000b00000078eeddbc4b684eaab6333ae477e1e9b8", "profile": "http://www.citysearch.com/profile/609408414/smyrna_ga/chicago_pizza.html", "address": {"city": "Smyrna", "state": "GA", "street": "3150 Highlands Pkwy SE", "postal_code": "30082"}, "capProviderId": null, "distance": null, "has_offers": false, "name": "Chicago Pizza", "longitude": -84.496303, "has_menu": false, "awards": null, "user_review_count": 0}, {"business_operation_status": 1, "rating": null, "neighborhood": null, "image": null, "scorecard": null, "featured": false, "sample_categories": "Ice Cream Parlors", "public_id": "tios-mexican-grill-marietta", "id": 830806670, "votes": null, "tagline": null, "has_video": false, "website": null, "offers": null, "latitude": 33.970818, "politanName": "Atlanta, GA Metro ", "phone_number": "7709779727", "tags": [{"primary": true, "id": 1730, "name": "Ice Cream Parlors"}], "fax_number": null, "expansion": {"count": null, "uri": null}, "impression_id": "000b00000034e0559da9ab4f50b4392f830755a3ba", "profile": "http://www.citysearch.com/profile/830806670/marietta_ga/tios_mexican_grill.html", "address": {"city": "Marietta", "state": "GA", "street": "821 Woodmont Dr", "postal_code": "30062"}, "capProviderId": null, "distance": null, "has_offers": false, "name": "Tios Mexican Grill", "longitude": -84.49593, "has_menu": true, "awards": null, "user_review_count": 0}, {"business_operation_status": 1, "rating": null, "neighborhood": null, "image": null, "scorecard": null, "featured": false, "sample_categories": "Restaurants, Pizza", "public_id": "christos-pizza-marietta-2", "id": 620835184, "votes": null, "tagline": null, "has_video": false, "website": null, "offers": null, "latitude": 33.91616, "politanName": "Atlanta, GA Metro ", "phone_number": "7709521965", "tags": [{"primary": false, "id": 11299, "name": "Pizza"}, {"primary": true, "id": 1722, "name": "Restaurants"}], "fax_number": null, "expansion": {"count": null, "uri": null}, "impression_id": "000b000000cc205c1ac58b4ee48734be46e73551d6", "profile": "http://www.citysearch.com/profile/620835184/marietta_ga/christos_pizza.html", "address": {"city": "Marietta", "state": "GA", "street": "1453 Terrell Mill Rd SE", "postal_code": "30067"}, "capProviderId": null, "distance": null, "has_offers": false, "name": "Christos Pizza", "longitude": -84.467925, "has_menu": false, "awards": null, "user_review_count": 0}, {"business_operation_status": 0, "rating": null, "neighborhood": "Northside, Northside", "image": null, "scorecard": null, "featured": false, "sample_categories": "Restaurants", "public_id": "peppers-restaurant-atlanta", "id": 33614686, "votes": null, "tagline": null, "has_video": false, "website": null, "offers": null, "latitude": 33.819953, "politanName": "Atlanta, GA Metro ", "phone_number": "4043520770", "tags": [{"primary": true, "id": 1722, "name": "Restaurants"}], "fax_number": null, "expansion": {"count": null, "uri": null}, "impression_id": "000b0000004f143b66bc5d4264ae746e0c6e58f60a", "profile": "http://www.citysearch.com/profile/33614686/atlanta_ga/peppers_restaurant.html", "address": {"city": "Atlanta", "state": "GA", "street": "2611 Bolton Rd NW", "postal_code": "30318"}, "capProviderId": null, "distance": null, "has_offers": false, "name": "Peppers Restaurant", "longitude": -84.449421, "has_menu": true, "awards": null, "user_review_count": 0}, {"business_operation_status": 1, "rating": null, "neighborhood": null, "image": null, "scorecard": null, "featured": false, "sample_categories": "Restaurants, Shop Online", "public_id": "killer-concepts-management-inc-marietta-2", "id": 627641050, "votes": null, "tagline": null, "has_video": false, "website": "http://www.citysearch.com/profile/external/627641050/marietta_ga/killer_concepts_management_inc.html", "offers": null, "latitude": 33.922016, "politanName": "Atlanta, GA Metro ", "phone_number": "7709846350", "tags": [{"primary": false, "id": 11375, "name": "Shop Online"}, {"primary": true, "id": 1722, "name": "Restaurants"}], "fax_number": null, "expansion": {"count": null, "uri": null}, "impression_id": "000b00000000e7323f3df041d7ad18618d6ddce490", "profile": "http://www.citysearch.com/profile/627641050/marietta_ga/killer_concepts_management_inc.html", "address": {"city": "Marietta", "state": "GA", "street": "2700 Delk Rd Se # 135", "postal_code": "30067"}, "capProviderId": null, "distance": null, "has_offers": false, "name": "Killer Concepts Management Inc", "longitude": -84.475071, "has_menu": false, "awards": null, "user_review_count": 0}, {"business_operation_status": 1, "rating": null, "neighborhood": "Northside, Northside", "image": null, "scorecard": null, "featured": false, "sample_categories": "Restaurants", "public_id": "khima-atlanta", "id": 672957830, "votes": null, "tagline": null, "has_video": false, "website": null, "offers": null, "latitude": 33.807938, "politanName": "Atlanta, GA Metro ", "phone_number": "4046099666", "tags": [{"primary": true, "id": 1722, "name": "Restaurants"}], "fax_number": null, "expansion": {"count": null, "uri": null}, "impression_id": "000b000000938eb61e77f34edea88d45674aceb88f", "profile": "http://www.citysearch.com/profile/672957830/atlanta_ga/khima.html", "address": {"city": "Atlanta", "state": "GA", "street": "1954 Howell Mill Rd", "postal_code": "30318"}, "capProviderId": null, "distance": null, "has_offers": false, "name": "Khima", "longitude": -84.412689, "has_menu": false, "awards": null, "user_review_count": 0}, {"business_operation_status": 1, "rating": null, "neighborhood": null, "image": null, "scorecard": null, "featured": false, "sample_categories": "Restaurants, Traditional American, Carry Out", "public_id": "ihop-restaurant-marietta-3", "id": 682450140, "votes": null, "tagline": null, "has_video": false, "website": "http://www.citysearch.com/profile/external/682450140/marietta_ga/ihop.html", "offers": null, "latitude": 33.94651, "politanName": "Atlanta, GA Metro ", "phone_number": "7704851267", "tags": [{"primary": false, "id": 11190, "name": "Traditional American"}, {"primary": false, "id": 11247, "name": "Carry Out"}, {"primary": true, "id": 1722, "name": "Restaurants"}], "fax_number": null, "expansion": {"count": null, "uri": null}, "impression_id": "000b000000bd32c77936fa4ba98c1f619369cc693a", "profile": "http://www.citysearch.com/profile/682450140/marietta_ga/ihop.html", "address": {"city": "Marietta", "state": "GA", "street": "2390 Dallas Hwy SW", "postal_code": "30064"}, "capProviderId": null, "distance": null, "has_offers": false, "name": "IHOP", "longitude": -84.62155, "has_menu": false, "awards": null, "user_review_count": 0}, {"business_operation_status": 1, "rating": null, "neighborhood": null, "image": null, "scorecard": null, "featured": false, "sample_categories": "Restaurants", "public_id": "la-joya-taqueira-mableton", "id": 837082200, "votes": null, "tagline": null, "has_video": false, "website": null, "offers": null, "latitude": 33.783418, "politanName": "Atlanta, GA Metro ", "phone_number": "6788876324", "tags": [{"primary": true, "id": 1722, "name": "Restaurants"}], "fax_number": null, "expansion": {"count": null, "uri": null}, "impression_id": "000b000000fd91497f122b4121aa81d039bf62af51", "profile": "http://www.citysearch.com/profile/837082200/mableton_ga/la_joya_taqueira.html", "address": {"city": "Mableton", "state": "GA", "street": "6960 Mableton Pkwy SE # B", "postal_code": "30126"}, "capProviderId": null, "distance": null, "has_offers": false, "name": "La Joya Taqueira", "longitude": -84.541117, "has_menu": false, "awards": null, "user_review_count": 0}, {"business_operation_status": 1, "rating": null, "neighborhood": null, "image": null, "scorecard": null, "featured": false, "sample_categories": "Restaurants", "public_id": "wing-zone-atlanta", "id": 775256470, "votes": null, "tagline": null, "has_video": false, "website": "http://www.citysearch.com/profile/external/775256470/atlanta_ga/wing_zone.html", "offers": null, "latitude": 33.887519, "politanName": "Atlanta, GA Metro ", "phone_number": "4048755045", "tags": [{"primary": true, "id": 1722, "name": "Restaurants"}], "fax_number": null, "expansion": {"count": null, "uri": null}, "impression_id": "000b0000001a34c4658ec44396983d1b0413f6edfa", "profile": "http://www.citysearch.com/profile/775256470/atlanta_ga/wing_zone.html", "address": {"city": "Atlanta", "state": "GA", "street": "900 Circle 75 Pkwy SE", "postal_code": "30339"}, "capProviderId": null, "distance": null, "has_offers": false, "name": "Wing Zone", "longitude": -84.467593, "has_menu": false, "awards": null, "user_review_count": 0}, {"business_operation_status": 1, "rating": null, "neighborhood": null, "image": null, "scorecard": null, "featured": false, "sample_categories": "Restaurants, French", "public_id": "la-madeleine-atlanta-3", "id": 777814890, "votes": null, "tagline": null, "has_video": false, "website": null, "offers": null, "latitude": 33.904695, "politanName": "Atlanta, GA Metro ", "phone_number": "7709528426", "tags": [{"primary": false, "id": 11219, "name": "French"}, {"primary": true, "id": 1722, "name": "Restaurants"}], "fax_number": null, "expansion": {"count": null, "uri": null}, "impression_id": "000b000000b5a2c8f99dee47c7b964c966d3b976f9", "profile": "http://www.citysearch.com/profile/777814890/atlanta_ga/la_madeleine.html", "address": {"city": "Atlanta", "state": "GA", "street": "1931 Powers Ferry Rd Se", "postal_code": "30339"}, "capProviderId": null, "distance": null, "has_offers": false, "name": "La Madeleine", "longitude": -84.46178, "has_menu": false, "awards": null, "user_review_count": 0}, {"business_operation_status": 1, "rating": null, "neighborhood": null, "image": null, "scorecard": null, "featured": false, "sample_categories": "Restaurants, Delis And Delicatessens", "public_id": "wildwood-cafe-marietta", "id": 787135220, "votes": null, "tagline": null, "has_video": false, "website": null, "offers": null, "latitude": 33.905878, "politanName": "Atlanta, GA Metro ", "phone_number": "7709160069", "tags": [{"primary": false, "id": 1727, "name": "Delis And Delicatessens"}, {"primary": true, "id": 1722, "name": "Restaurants"}], "fax_number": null, "expansion": {"count": null, "uri": null}, "impression_id": "000b0000000550a05306d349be97a95a9340ef2e61", "profile": "http://www.citysearch.com/profile/787135220/marietta_ga/wildwood_cafe.html", "address": {"city": "Marietta", "state": "GA", "street": "2300 Windy Ridge Pkwy Se", "postal_code": "30067"}, "capProviderId": null, "distance": null, "has_offers": false, "name": "Wildwood Cafe", "longitude": -84.459393, "has_menu": false, "awards": null, "user_review_count": 0}, {"business_operation_status": 0, "rating": null, "neighborhood": null, "image": null, "scorecard": null, "featured": false, "sample_categories": "Restaurants", "public_id": "feeder-of-flocks-rib-chips-marietta", "id": 801084460, "votes": null, "tagline": null, "has_video": false, "website": null, "offers": null, "latitude": 33.880532, "politanName": "Atlanta, GA Metro ", "phone_number": "4046689810", "tags": [{"primary": true, "id": 1722, "name": "Restaurants"}], "fax_number": null, "expansion": {"count": null, "uri": null}, "impression_id": "000b000000fae016bda60f4c26a88c41557f94ff2a", "profile": "http://www.citysearch.com/profile/801084460/marietta_ga/feeder_of_flocks_rib_chips.html", "address": {"city": "Marietta", "state": "GA", "street": "901 Milford Church Rd Sw # G", "postal_code": "30060"}, "capProviderId": null, "distance": null, "has_offers": false, "name": "Feeder of Flocks Rib & Chips", "longitude": -84.580368, "has_menu": false, "awards": null, "user_review_count": 0}, {"business_operation_status": 1, "rating": null, "neighborhood": null, "image": null, "scorecard": null, "featured": false, "sample_categories": "Restaurants", "public_id": "d-k-wings-marietta", "id": 824095540, "votes": null, "tagline": null, "has_video": false, "website": null, "offers": null, "latitude": 33.902356, "politanName": "Atlanta, GA Metro ", "phone_number": "7708030499", "tags": [{"primary": true, "id": 1722, "name": "Restaurants"}], "fax_number": null, "expansion": {"count": null, "uri": null}, "impression_id": "000b0000000cf7959df34348b8a97560ced726f2fe", "profile": "http://www.citysearch.com/profile/824095540/marietta_ga/d_k_wings.html", "address": {"city": "Marietta", "state": "GA", "street": "451 Pat Mell Rd SW", "postal_code": "30060"}, "capProviderId": null, "distance": null, "has_offers": false, "name": "D K Wings", "longitude": -84.566142, "has_menu": false, "awards": null, "user_review_count": 0}, {"business_operation_status": 1, "rating": null, "neighborhood": null, "image": null, "scorecard": null, "featured": false, "sample_categories": "Restaurants", "public_id": "leo-franco-chef-marietta", "id": 824426470, "votes": null, "tagline": null, "has_video": false, "website": null, "offers": null, "latitude": 33.948481, "politanName": "Atlanta, GA Metro ", "phone_number": "7704999439", "tags": [{"primary": true, "id": 1722, "name": "Restaurants"}], "fax_number": null, "expansion": {"count": null, "uri": null}, "impression_id": "000b000000b3d094d8e2d1430aa69b8376f6d0bfab", "profile": "http://www.citysearch.com/profile/824426470/marietta_ga/leo_franco_chef.html", "address": {"city": "Marietta", "state": "GA", "street": "20 Emerson Hill Sq", "postal_code": "30060"}, "capProviderId": null, "distance": null, "has_offers": false, "name": "Leo Franco Chef", "longitude": -84.542181, "has_menu": false, "awards": null, "user_review_count": 0}, {"business_operation_status": 0, "rating": null, "neighborhood": null, "image": null, "scorecard": null, "featured": false, "sample_categories": "Restaurants", "public_id": "paris-bistro-atlanta-2", "id": 605601560, "votes": null, "tagline": null, "has_video": false, "website": null, "offers": null, "latitude": 33.867677, "politanName": "Atlanta, GA Metro ", "phone_number": "6788420603", "tags": [{"primary": true, "id": 1722, "name": "Restaurants"}], "fax_number": null, "expansion": {"count": null, "uri": null}, "impression_id": "000b000000c75746d07b1640e3ad7a5bb022ebcb22", "profile": "http://www.citysearch.com/profile/605601560/atlanta_ga/paris_bistro.html", "address": {"city": "Atlanta", "state": "GA", "street": "2859 Paces Ferry Rd Se", "postal_code": "30339"}, "capProviderId": null, "distance": null, "has_offers": false, "name": "Paris Bistro", "longitude": -84.468631, "has_menu": false, "awards": null, "user_review_count": 0}, {"business_operation_status": 1, "rating": null, "neighborhood": null, "image": null, "scorecard": null, "featured": false, "sample_categories": "Restaurants", "public_id": "cafe-overton-atlanta", "id": 611320744, "votes": null, "tagline": null, "has_video": false, "website": null, "offers": null, "latitude": 33.884117, "politanName": "Atlanta, GA Metro ", "phone_number": "7706938591", "tags": [{"primary": true, "id": 1722, "name": "Restaurants"}], "fax_number": null, "expansion": {"count": null, "uri": null}, "impression_id": "000b000000fa5349f24171490cbb771d06ad7610af", "profile": "http://www.citysearch.com/profile/611320744/atlanta_ga/cafe_overton.html", "address": {"city": "Atlanta", "state": "GA", "street": "3625 Cumberland Blvd SE", "postal_code": "30339"}, "capProviderId": null, "distance": null, "has_offers": false, "name": "Cafe Overton", "longitude": -84.453917, "has_menu": false, "awards": null, "user_review_count": 0}, {"business_operation_status": 1, "rating": null, "neighborhood": null, "image": null, "scorecard": null, "featured": false, "sample_categories": "Restaurants", "public_id": "bridge-smoke-grill-marietta", "id": 838772530, "votes": null, "tagline": null, "has_video": false, "website": null, "offers": null, "latitude": 33.927554, "politanName": "Atlanta, GA Metro ", "phone_number": "6789033043", "tags": [{"primary": true, "id": 1722, "name": "Restaurants"}], "fax_number": null, "expansion": {"count": null, "uri": null}, "impression_id": "000b0000005ef9fcb8ed264244b4173be9dc1e0c38", "profile": "http://www.citysearch.com/profile/838772530/marietta_ga/bridge_smoke_grill.html", "address": {"city": "Marietta", "state": "GA", "street": "1038 Franklin Rd SE", "postal_code": "30067"}, "capProviderId": null, "distance": null, "has_offers": false, "name": "Bridge Smoke Grill", "longitude": -84.493666, "has_menu": false, "awards": null, "user_review_count": 0}, {"business_operation_status": 1, "rating": null, "neighborhood": null, "image": null, "scorecard": null, "featured": false, "sample_categories": "Restaurants, Traditional American, Hot Dogs", "public_id": "shoneys-restaurant-marietta-2", "id": 39887498, "votes": null, "tagline": null, "has_video": false, "website": null, "offers": null, "latitude": 33.905998, "politanName": "Atlanta, GA Metro ", "phone_number": "7709926060", "tags": [{"primary": false, "id": 1722, "name": "Restaurants"}, {"primary": false, "id": 11274, "name": "Hot Dogs"}, {"primary": true, "id": 11190, "name": "Traditional American"}], "fax_number": null, "expansion": {"count": null, "uri": null}, "impression_id": "000b000000c0f2a1263f4847308fa17efeddca476e", "profile": "http://www.citysearch.com/profile/39887498/marietta_ga/shoney_s_restaurant.html", "address": {"city": "Marietta", "state": "GA", "street": "1950 Spectrum Cir SE", "postal_code": "30067"}, "capProviderId": null, "distance": null, "has_offers": false, "name": "Shoney's Restaurant", "longitude": -84.467685, "has_menu": true, "awards": null, "user_review_count": 0}, {"business_operation_status": 1, "rating": null, "neighborhood": null, "image": null, "scorecard": null, "featured": false, "sample_categories": "Restaurants, Delis And Delicatessens, Carry Out, Shop Online", "public_id": "jimmy-johns-atlanta-10", "id": 653623400, "votes": null, "tagline": null, "has_video": false, "website": "http://www.citysearch.com/profile/external/653623400/atlanta_ga/jimmy_john_s.html", "offers": null, "latitude": 33.866524, "politanName": "Atlanta, GA Metro ", "phone_number": "7708743285", "tags": [{"primary": false, "id": 1727, "name": "Delis And Delicatessens"}, {"primary": false, "id": 11247, "name": "Carry Out"}, {"primary": false, "id": 11375, "name": "Shop Online"}, {"primary": true, "id": 1722, "name": "Restaurants"}], "fax_number": null, "expansion": {"count": null, "uri": null}, "impression_id": "000b0000007fe49a17215c4740add432392e22ac2c", "profile": "http://www.citysearch.com/profile/653623400/atlanta_ga/jimmy_john_s.html", "address": {"city": "Atlanta", "state": "GA", "street": "2941 Paces Ferry Rd Se", "postal_code": "30339"}, "capProviderId": null, "distance": null, "has_offers": false, "name": "Jimmy John's", "longitude": -84.466985, "has_menu": false, "awards": null, "user_review_count": 0}, {"business_operation_status": 1, "rating": null, "neighborhood": null, "image": null, "scorecard": null, "featured": false, "sample_categories": "Restaurants, Catering, Gourmet Foods", "public_id": "masani-gourmet-southern-c-marietta", "id": 682266220, "votes": null, "tagline": null, "has_video": false, "website": "http://www.citysearch.com/profile/external/682266220/marietta_ga/masani_gourmet_southern_c.html", "offers": null, "latitude": 33.886828, "politanName": "Atlanta, GA Metro ", "phone_number": "6785982121", "tags": [{"primary": false, "id": 1705, "name": "Catering"}, {"primary": false, "id": 11169, "name": "Gourmet Foods"}, {"primary": true, "id": 1722, "name": "Restaurants"}], "fax_number": null, "expansion": {"count": null, "uri": null}, "impression_id": "000b000000404d829b3c4d44bf8da660515f4fc7c6", "profile": "http://www.citysearch.com/profile/682266220/marietta_ga/masani_gourmet_southern_c.html", "address": {"city": "Marietta", "state": "GA", "street": "246 Timber Creek Ln Sw", "postal_code": "30060"}, "capProviderId": null, "distance": null, "has_offers": false, "name": "Masani Gourmet Southern C", "longitude": -84.557713, "has_menu": false, "awards": null, "user_review_count": 0}, {"business_operation_status": 1, "rating": null, "neighborhood": null, "image": null, "scorecard": null, "featured": false, "sample_categories": "Restaurants, Delis And Delicatessens, Sandwich Shops", "public_id": "my-friends-place-atlanta-10", "id": 682312750, "votes": null, "tagline": null, "has_video": false, "website": "http://www.citysearch.com/profile/external/682312750/atlanta_ga/my_friend_s_place.html", "offers": null, "latitude": 33.88074, "politanName": "Atlanta, GA Metro ", "phone_number": "7708501431", "tags": [{"primary": false, "id": 1727, "name": "Delis And Delicatessens"}, {"primary": false, "id": 1736, "name": "Sandwich Shops"}, {"primary": true, "id": 1722, "name": "Restaurants"}], "fax_number": null, "expansion": {"count": null, "uri": null}, "impression_id": "000b0000000cabb03ff6584425862b01edf333f6f0", "profile": "http://www.citysearch.com/profile/682312750/atlanta_ga/my_friend_s_place.html", "address": {"city": "Atlanta", "state": "GA", "street": "2955 Cobb Pkwy Se # 280", "postal_code": "30339"}, "capProviderId": null, "distance": null, "has_offers": false, "name": "My Friend's Place", "longitude": -84.462229, "has_menu": false, "awards": null, "user_review_count": 3}, {"business_operation_status": 1, "rating": null, "neighborhood": null, "image": null, "scorecard": null, "featured": false, "sample_categories": "Restaurants", "public_id": "cool-water-cafe-atlanta", "id": 682535400, "votes": null, "tagline": null, "has_video": false, "website": null, "offers": null, "latitude": 33.906954, "politanName": "Atlanta, GA Metro ", "phone_number": "7709840944", "tags": [{"primary": true, "id": 1722, "name": "Restaurants"}], "fax_number": null, "expansion": {"count": null, "uri": null}, "impression_id": "000b000000d459272be9a343a086a3f83f46ce4cbe", "profile": "http://www.citysearch.com/profile/682535400/atlanta_ga/cool_water_cafe.html", "address": {"city": "Atlanta", "state": "GA", "street": "5500 Interstate North Pkwy NW", "postal_code": "30328"}, "capProviderId": null, "distance": null, "has_offers": false, "name": "Cool Water Cafe", "longitude": -84.434288, "has_menu": false, "awards": null, "user_review_count": 0}, {"business_operation_status": 1, "rating": null, "neighborhood": null, "image": null, "scorecard": null, "featured": false, "sample_categories": "Restaurants, Mexican, Carry Out, American Express, Discover", "public_id": "taco-bell-marietta-7", "id": 682721700, "votes": null, "tagline": null, "has_video": false, "website": "http://www.citysearch.com/profile/external/682721700/marietta_ga/taco_bell.html", "offers": null, "latitude": 33.944909, "politanName": "Atlanta, GA Metro ", "phone_number": "7704218815", "tags": [{"primary": false, "id": 11208, "name": "Mexican"}, {"primary": false, "id": 11247, "name": "Carry Out"}, {"primary": false, "id": 11333, "name": "American Express"}, {"primary": false, "id": 11349, "name": "Discover"}, {"primary": false, "id": 11361, "name": "MasterCard"}, {"primary": false, "id": 11382, "name": "Visa"}, {"primary": true, "id": 1722, "name": "Restaurants"}], "fax_number": null, "expansion": {"count": null, "uri": null}, "impression_id": "000b000000de721e7f33ff4218a47584ae63c46f4f", "profile": "http://www.citysearch.com/profile/682721700/marietta_ga/taco_bell.html", "address": {"city": "Marietta", "state": "GA", "street": "3480 Ernest W Barrett Pkwy Sw", "postal_code": "30064"}, "capProviderId": null, "distance": null, "has_offers": false, "name": "Taco Bell", "longitude": -84.624717, "has_menu": true, "awards": null, "user_review_count": 0}], "histograms": [], "tag_ids": [1722], "uri": "http://api.citygridmedia.com:8080/search/places/v2/search/where?has_offers=false&type=restaurant&format=json&page=25&where=30080&rpp=50&histograms=false&publisher=10000009598&region_type=circle", "did_you_mean": "", "regions": [{"latitude": 33.870107, "default_radius": 3.76, "type": "postal_code", "name": "30080", "longitude": -84.499867}], "call_id": "000b00000037b091a4af2f4b558573bc51148dea99", "first_hit": 1201, "total_hits": 1580, "geo_ids": [26330], "page": 25, "last_hit": 1250}}