{"results": {"rpp": 50, "locations": [{"business_operation_status": 1, "rating": null, "neighborhood": null, "image": null, "scorecard": null, "featured": false, "sample_categories": "Restaurants", "public_id": "open-door-pediatrics-therapy-marietta", "id": 621872460, "votes": null, "tagline": null, "has_video": false, "website": "http://www.citysearch.com/profile/external/621872460/marietta_ga/open_door_pediatrics_therapy.html", "offers": null, "latitude": 33.950209, "politanName": "Atlanta, GA Metro ", "phone_number": "6782908910", "tags": [{"primary": true, "id": 1722, "name": "Restaurants"}], "fax_number": null, "expansion": {"count": null, "uri": null}, "impression_id": "000b0000000e8ffc1ea1b945c6986280c0920d7513", "profile": "http://www.citysearch.com/profile/621872460/marietta_ga/open_door_pediatrics_therapy.html", "address": {"city": "Marietta", "state": "GA", "street": "707 Whitlock Ave Sw # A41", "postal_code": "30064"}, "capProviderId": null, "distance": null, "has_offers": false, "name": "Open Door Pediatrics Therapy", "longitude": -84.573437, "has_menu": false, "awards": null, "user_review_count": 0}, {"business_operation_status": 1, "rating": null, "neighborhood": null, "image": null, "scorecard": null, "featured": false, "sample_categories": "Restaurants, Coffee & Tea Shops, Cafes", "public_id": "parkway-cafe-marietta", "id": 621991080, "votes": null, "tagline": null, "has_video": false, "website": null, "offers": null, "latitude": 33.938367, "politanName": "Atlanta, GA Metro ", "phone_number": "7705908922", "tags": [{"primary": false, "id": 1711, "name": "Coffee & Tea Shops"}, {"primary": false, "id": 6190, "name": "Cafes"}, {"primary": true, "id": 1722, "name": "Restaurants"}], "fax_number": null, "expansion": {"count": null, "uri": null}, "impression_id": "000b0000007b20645664d649f68c579ae7cfcfd1f8", "profile": "http://www.citysearch.com/profile/621991080/marietta_ga/parkway_cafe.html", "address": {"city": "Marietta", "state": "GA", "street": "1850 Parkway Pl Se # 120", "postal_code": "30067"}, "capProviderId": null, "distance": null, "has_offers": false, "name": "Parkway Cafe", "longitude": -84.501954, "has_menu": false, "awards": null, "user_review_count": 0}, {"business_operation_status": 1, "rating": null, "neighborhood": null, "image": null, "scorecard": null, "featured": false, "sample_categories": "Restaurants, Mexican", "public_id": "don-pedro-mexican-restaurant-marietta", "id": 45556665, "votes": null, "tagline": null, "has_video": false, "website": null, "offers": null, "latitude": 33.944297, "politanName": "Atlanta, GA Metro ", "phone_number": "6782900202", "tags": [{"primary": false, "id": 11208, "name": "Mexican"}, {"primary": true, "id": 1722, "name": "Restaurants"}], "fax_number": null, "expansion": {"count": null, "uri": null}, "impression_id": "000b00000064050fca72294d5099e6d51e81348fa4", "profile": "http://www.citysearch.com/profile/45556665/marietta_ga/don_pedro_mexican_restaurant.html", "address": {"city": "Marietta", "state": "GA", "street": "344 S Fairground St SE", "postal_code": "30060"}, "capProviderId": null, "distance": null, "has_offers": false, "name": "Don Pedro Mexican Restaurant", "longitude": -84.535657, "has_menu": false, "awards": null, "user_review_count": 0}, {"business_operation_status": 1, "rating": null, "neighborhood": null, "image": null, "scorecard": null, "featured": false, "sample_categories": "Restaurants", "public_id": "banquet-hall-de-las-america-marietta", "id": 775210860, "votes": null, "tagline": null, "has_video": false, "website": null, "offers": null, "latitude": 33.951285, "politanName": "Atlanta, GA Metro ", "phone_number": "7707941080", "tags": [{"primary": true, "id": 1722, "name": "Restaurants"}], "fax_number": null, "expansion": {"count": null, "uri": null}, "impression_id": "000b000000c2384dcc732b4f3d952e2d2f546e970d", "profile": "http://www.citysearch.com/profile/775210860/marietta_ga/banquet_hall_de_las_america.html", "address": {"city": "Marietta", "state": "GA", "street": "737 Roswell St NE", "postal_code": "30060"}, "capProviderId": null, "distance": null, "has_offers": false, "name": "Banquet Hall De Las America", "longitude": -84.530697, "has_menu": false, "awards": null, "user_review_count": 0}, {"business_operation_status": 1, "rating": null, "neighborhood": null, "image": null, "scorecard": null, "featured": false, "sample_categories": "Restaurants, Pizza, Carry Out", "public_id": "johnnys-pizza-marietta", "id": 790893290, "votes": null, "tagline": null, "has_video": false, "website": null, "offers": null, "latitude": 33.968758, "politanName": "Atlanta, GA Metro ", "phone_number": "7705658665", "tags": [{"primary": false, "id": 1722, "name": "Restaurants"}, {"primary": false, "id": 11247, "name": "Carry Out"}, {"primary": true, "id": 11299, "name": "Pizza"}], "fax_number": null, "expansion": {"count": null, "uri": null}, "impression_id": "000b000000a219ff14545d467eb9c7b804c0b7aa5b", "profile": "http://www.citysearch.com/profile/790893290/marietta_ga/johnnys_pizza.html", "address": {"city": "Marietta", "state": "GA", "street": "2100 Roswell Rd # 1100", "postal_code": "30062"}, "capProviderId": null, "distance": null, "has_offers": false, "name": "Johnnys Pizza", "longitude": -84.488447, "has_menu": false, "awards": null, "user_review_count": 0}, {"business_operation_status": 1, "rating": null, "neighborhood": null, "image": null, "scorecard": null, "featured": false, "sample_categories": "Restaurants, Delis And Delicatessens, Sandwich Shops, Carry Out", "public_id": "firehouse-subs-smyrna-4", "id": 777803930, "votes": null, "tagline": null, "has_video": false, "website": "http://www.citysearch.com/profile/external/777803930/smyrna_ga/firehouse_subs.html", "offers": null, "latitude": 33.841827, "politanName": "Atlanta, GA Metro ", "phone_number": "7703331399", "tags": [{"primary": false, "id": 1727, "name": "Delis And Delicatessens"}, {"primary": false, "id": 1736, "name": "Sandwich Shops"}, {"primary": false, "id": 11247, "name": "Carry Out"}, {"primary": true, "id": 1722, "name": "Restaurants"}], "fax_number": null, "expansion": {"count": null, "uri": null}, "impression_id": "000b000000a94bde7f0df54c71ad2cc1b8cf93dc76", "profile": "http://www.citysearch.com/profile/777803930/smyrna_ga/firehouse_subs.html", "address": {"city": "Smyrna", "state": "GA", "street": "4624 Camp Highland Se # 1000", "postal_code": "30082"}, "capProviderId": null, "distance": null, "has_offers": false, "name": "Firehouse Subs", "longitude": -84.505595, "has_menu": true, "awards": null, "user_review_count": 0}, {"business_operation_status": 1, "rating": null, "neighborhood": null, "image": null, "scorecard": null, "featured": false, "sample_categories": "Restaurants, Traditional American, Carry Out", "public_id": "waffle-house-marietta-16", "id": 777819230, "votes": null, "tagline": null, "has_video": false, "website": "http://www.citysearch.com/profile/external/777819230/marietta_ga/waffle_house.html", "offers": null, "latitude": 33.923768, "politanName": "Atlanta, GA Metro ", "phone_number": "7709526638", "tags": [{"primary": false, "id": 11190, "name": "Traditional American"}, {"primary": false, "id": 11247, "name": "Carry Out"}, {"primary": true, "id": 1722, "name": "Restaurants"}], "fax_number": null, "expansion": {"count": null, "uri": null}, "impression_id": "000b00000091fa5edf2cac4287b17b01afa7abf0fd", "profile": "http://www.citysearch.com/profile/777819230/marietta_ga/waffle_house.html", "address": {"city": "Marietta", "state": "GA", "street": "1185 Franklin Rd Se", "postal_code": "30067"}, "capProviderId": null, "distance": null, "has_offers": false, "name": "Waffle House", "longitude": -84.491678, "has_menu": true, "awards": null, "user_review_count": 0}, {"business_operation_status": 1, "rating": null, "neighborhood": null, "image": null, "scorecard": null, "featured": false, "sample_categories": "Restaurants", "public_id": "inter-cafe-marietta", "id": 777730670, "votes": null, "tagline": null, "has_video": false, "website": null, "offers": null, "latitude": 33.919221, "politanName": "Atlanta, GA Metro ", "phone_number": "6783541225", "tags": [{"primary": true, "id": 1722, "name": "Restaurants"}], "fax_number": null, "expansion": {"count": null, "uri": null}, "impression_id": "000b00000046990df1ffee4d37bbf173f7e5bb3883", "profile": "http://www.citysearch.com/profile/777730670/marietta_ga/inter_cafe.html", "address": {"city": "Marietta", "state": "GA", "street": "1368 Atlanta Rd Se", "postal_code": "30060"}, "capProviderId": null, "distance": null, "has_offers": false, "name": "Inter Cafe", "longitude": -84.542534, "has_menu": false, "awards": null, "user_review_count": 0}, {"business_operation_status": 1, "rating": null, "neighborhood": "Southwest, Southwest", "image": null, "scorecard": null, "featured": false, "sample_categories": "Ice Cream Parlors", "public_id": "bulay-twiste-llc-atlanta", "id": 781217790, "votes": null, "tagline": null, "has_video": false, "website": null, "offers": null, "latitude": 33.736227, "politanName": "Atlanta, GA Metro ", "phone_number": "4046910444", "tags": [{"primary": true, "id": 1730, "name": "Ice Cream Parlors"}], "fax_number": null, "expansion": {"count": null, "uri": null}, "impression_id": "000b000000e47c325914a0434586d16d4bc531c386", "profile": "http://www.citysearch.com/profile/781217790/atlanta_ga/bu_lay_twiste_llc.html", "address": {"city": "Atlanta", "state": "GA", "street": "4355 Cascade Rd Sw", "postal_code": "30331"}, "capProviderId": null, "distance": null, "has_offers": false, "name": "Bu-Lay Twiste LLC", "longitude": -84.531451, "has_menu": false, "awards": null, "user_review_count": 0}, {"business_operation_status": 1, "rating": null, "neighborhood": null, "image": null, "scorecard": null, "featured": false, "sample_categories": "Restaurants", "public_id": "puntacana-dominican-bargrill-marietta", "id": 802510780, "votes": null, "tagline": null, "has_video": false, "website": null, "offers": null, "latitude": 33.901077, "politanName": "Atlanta, GA Metro ", "phone_number": "7707954500", "tags": [{"primary": true, "id": 1722, "name": "Restaurants"}], "fax_number": null, "expansion": {"count": null, "uri": null}, "impression_id": "000b0000009ebe0b61ba0d4eb9a25164d0774d2319", "profile": "http://www.citysearch.com/profile/802510780/marietta_ga/puntacana_dominican_bar_grill.html", "address": {"city": "Marietta", "state": "GA", "street": "1812 Powder Springs Rd Sw", "postal_code": "30064"}, "capProviderId": null, "distance": null, "has_offers": false, "name": "Puntacana Dominican Bar-Grill", "longitude": -84.606768, "has_menu": false, "awards": null, "user_review_count": 0}, {"business_operation_status": 1, "rating": null, "neighborhood": null, "image": null, "scorecard": null, "featured": false, "sample_categories": "Restaurants", "public_id": "were-cookin-inc-atlanta", "id": 801144420, "votes": null, "tagline": null, "has_video": false, "website": null, "offers": null, "latitude": 33.859786, "politanName": "Atlanta, GA Metro ", "phone_number": "7704371134", "tags": [{"primary": true, "id": 1722, "name": "Restaurants"}], "fax_number": null, "expansion": {"count": null, "uri": null}, "impression_id": "000b00000015e737f55e4c446b8b11296387009b69", "profile": "http://www.citysearch.com/profile/801144420/atlanta_ga/we_re_cookin_inc.html", "address": {"city": "Atlanta", "state": "GA", "street": "4199 Paces Ferry Rd Se # C", "postal_code": "30339"}, "capProviderId": null, "distance": null, "has_offers": false, "name": "We're Cookin INC", "longitude": -84.455353, "has_menu": false, "awards": null, "user_review_count": 0}, {"business_operation_status": 1, "rating": null, "neighborhood": null, "image": null, "scorecard": null, "featured": false, "sample_categories": "Restaurants", "public_id": "grazie-marietta", "id": 818460400, "votes": null, "tagline": null, "has_video": false, "website": null, "offers": null, "latitude": 33.953111, "politanName": "Atlanta, GA Metro ", "phone_number": "7704998585", "tags": [{"primary": true, "id": 1722, "name": "Restaurants"}], "fax_number": null, "expansion": {"count": null, "uri": null}, "impression_id": "000b000000baa5bd53163341abb1cfbc52fa98d438", "profile": "http://www.citysearch.com/profile/818460400/marietta_ga/grazie.html", "address": {"city": "Marietta", "state": "GA", "street": "1000 Whitlock Ave NW", "postal_code": "30064"}, "capProviderId": null, "distance": null, "has_offers": false, "name": "Grazie", "longitude": -84.581272, "has_menu": false, "awards": null, "user_review_count": 0}, {"business_operation_status": 1, "rating": null, "neighborhood": null, "image": null, "scorecard": null, "featured": false, "sample_categories": "Restaurants", "public_id": "olgas-porch-inc-marietta", "id": 732189800, "votes": null, "tagline": null, "has_video": false, "website": null, "offers": null, "latitude": 33.962903, "politanName": "Atlanta, GA Metro ", "phone_number": "6786374595", "tags": [{"primary": true, "id": 1722, "name": "Restaurants"}], "fax_number": null, "expansion": {"count": null, "uri": null}, "impression_id": "000b000000555fe4fdd9ba4d0b9d9d273fb903c5ce", "profile": "http://www.citysearch.com/profile/732189800/marietta_ga/olgas_porch_inc.html", "address": {"city": "Marietta", "state": "GA", "street": "1591 Gresham Rd", "postal_code": "30062"}, "capProviderId": null, "distance": null, "has_offers": false, "name": "Olgas Porch Inc", "longitude": -84.50563, "has_menu": false, "awards": null, "user_review_count": 0}, {"business_operation_status": 1, "rating": null, "neighborhood": null, "image": null, "scorecard": null, "featured": false, "sample_categories": "Restaurants, Delis And Delicatessens, Carry Out", "public_id": "firehouse-subs-marietta-2", "id": 745603500, "votes": null, "tagline": null, "has_video": false, "website": null, "offers": null, "latitude": 33.95896, "politanName": "Atlanta, GA Metro ", "phone_number": "7707925993", "tags": [{"primary": false, "id": 1727, "name": "Delis And Delicatessens"}, {"primary": false, "id": 11247, "name": "Carry Out"}, {"primary": true, "id": 1722, "name": "Restaurants"}], "fax_number": null, "expansion": {"count": null, "uri": null}, "impression_id": "000b0000001a63a4d9cf4a43c08b4865c8b429be8a", "profile": "http://www.citysearch.com/profile/745603500/marietta_ga/firehouse_subs.html", "address": {"city": "Marietta", "state": "GA", "street": "145 N Marietta Pkwy NE", "postal_code": "30060"}, "capProviderId": null, "distance": null, "has_offers": false, "name": "Firehouse Subs", "longitude": -84.546879, "has_menu": false, "awards": null, "user_review_count": 0}, {"business_operation_status": 1, "rating": null, "neighborhood": null, "image": null, "scorecard": null, "featured": false, "sample_categories": "Restaurants", "public_id": "bennigans-corp-atlanta", "id": 825862700, "votes": null, "tagline": null, "has_video": false, "website": null, "offers": null, "latitude": 33.904439, "politanName": "Atlanta, GA Metro ", "phone_number": "7709523004", "tags": [{"primary": true, "id": 1722, "name": "Restaurants"}], "fax_number": null, "expansion": {"count": null, "uri": null}, "impression_id": "000b000000d128537fff934c4d9a8dc5f991efe4c8", "profile": "http://www.citysearch.com/profile/825862700/atlanta_ga/bennigan_s_corp.html", "address": {"city": "Atlanta", "state": "GA", "street": "5525 Interstate North Pkwy", "postal_code": "30328"}, "capProviderId": null, "distance": null, "has_offers": false, "name": "Bennigan's Corp", "longitude": -84.437055, "has_menu": false, "awards": null, "user_review_count": 0}, {"business_operation_status": 1, "rating": null, "neighborhood": null, "image": null, "scorecard": null, "featured": false, "sample_categories": "Restaurants", "public_id": "anthonys-italian-kitchen-marietta", "id": 826910750, "votes": null, "tagline": null, "has_video": false, "website": null, "offers": null, "latitude": 33.952602, "politanName": "Atlanta, GA Metro ", "phone_number": "7705097757", "tags": [{"primary": true, "id": 1722, "name": "Restaurants"}], "fax_number": null, "expansion": {"count": null, "uri": null}, "impression_id": "000b000000f1c417efa53c45e280ab23c0a624eeee", "profile": "http://www.citysearch.com/profile/826910750/marietta_ga/anthony_s_italian_kitchen.html", "address": {"city": "Marietta", "state": "GA", "street": "1323 Roswell Rd", "postal_code": "30062"}, "capProviderId": null, "distance": null, "has_offers": false, "name": "Anthony's Italian Kitchen", "longitude": -84.549933, "has_menu": true, "awards": null, "user_review_count": 0}, {"business_operation_status": 1, "rating": null, "neighborhood": null, "image": null, "scorecard": null, "featured": false, "sample_categories": "Restaurants", "public_id": "peramona-home-taste-mableton", "id": 827075450, "votes": null, "tagline": null, "has_video": false, "website": null, "offers": null, "latitude": 33.79153, "politanName": "Atlanta, GA Metro ", "phone_number": "7707395755", "tags": [{"primary": true, "id": 1722, "name": "Restaurants"}], "fax_number": null, "expansion": {"count": null, "uri": null}, "impression_id": "000b000000fca8981f3fb84028b7aa6b95475da66f", "profile": "http://www.citysearch.com/profile/827075450/mableton_ga/peramona_home_taste.html", "address": {"city": "Mableton", "state": "GA", "street": "6029 Mableton Pkwy SE", "postal_code": "30126"}, "capProviderId": null, "distance": null, "has_offers": false, "name": "Peramona Home Taste", "longitude": -84.555407, "has_menu": false, "awards": null, "user_review_count": 0}, {"business_operation_status": 1, "rating": null, "neighborhood": null, "image": null, "scorecard": null, "featured": false, "sample_categories": "Restaurants, Carry Out", "public_id": "ruby-tuesday-atlanta-6", "id": 833545440, "votes": null, "tagline": null, "has_video": false, "website": null, "offers": null, "latitude": 33.907783, "politanName": "Atlanta, GA Metro ", "phone_number": "6785744550", "tags": [{"primary": false, "id": 11247, "name": "Carry Out"}, {"primary": true, "id": 1722, "name": "Restaurants"}], "fax_number": null, "expansion": {"count": null, "uri": null}, "impression_id": "000b00000071418b6f010a4c7e9ff0d1eb27420df3", "profile": "http://www.citysearch.com/profile/833545440/atlanta_ga/ruby_tuesday.html", "address": {"city": "Atlanta", "state": "GA", "street": "3318 Cobb Pkwy SE", "postal_code": "30339"}, "capProviderId": null, "distance": null, "has_offers": false, "name": "Ruby Tuesday", "longitude": -84.492298, "has_menu": true, "awards": null, "user_review_count": 0}, {"business_operation_status": 1, "rating": null, "neighborhood": null, "image": null, "scorecard": null, "featured": false, "sample_categories": "Restaurants, Delis And Delicatessens, Sandwich Shops, Carry Out", "public_id": "quiznos-marietta-7", "id": 832339260, "votes": null, "tagline": null, "has_video": false, "website": null, "offers": null, "latitude": 33.905926, "politanName": "Atlanta, GA Metro ", "phone_number": "7709800268", "tags": [{"primary": false, "id": 1727, "name": "Delis And Delicatessens"}, {"primary": false, "id": 1736, "name": "Sandwich Shops"}, {"primary": false, "id": 11247, "name": "Carry Out"}, {"primary": true, "id": 1722, "name": "Restaurants"}], "fax_number": null, "expansion": {"count": null, "uri": null}, "impression_id": "000b000000b3c9032b7a964e7f85303b9542493168", "profile": "http://www.citysearch.com/profile/832339260/marietta_ga/quiznos.html", "address": {"city": "Marietta", "state": "GA", "street": "2000 Powers Ferry Rd SE # 1-11", "postal_code": "30067"}, "capProviderId": null, "distance": null, "has_offers": false, "name": "Quiznos", "longitude": -84.465323, "has_menu": true, "awards": null, "user_review_count": 0}, {"business_operation_status": 1, "rating": null, "neighborhood": "Northside, Northside", "image": null, "scorecard": null, "featured": false, "sample_categories": "Restaurants, Bars & Clubs, Bars & Pubs", "public_id": "corner-tavern-atlanta", "id": 764878190, "votes": null, "tagline": null, "has_video": false, "website": null, "offers": null, "latitude": 33.789045, "politanName": "Atlanta, GA Metro ", "phone_number": "4042285164", "tags": [{"primary": false, "id": 164, "name": "Bars & Clubs"}, {"primary": false, "id": 1686, "name": "Bars & Pubs"}, {"primary": true, "id": 1722, "name": "Restaurants"}], "fax_number": null, "expansion": {"count": null, "uri": null}, "impression_id": "000b000000af11b6cb6e7a462e8b14754ac390be76", "profile": "http://www.citysearch.com/profile/764878190/atlanta_ga/corner_tavern.html", "address": {"city": "Atlanta", "state": "GA", "street": "1133 Huff Rd NW # A", "postal_code": "30318"}, "capProviderId": null, "distance": null, "has_offers": false, "name": "Corner Tavern", "longitude": -84.425066, "has_menu": false, "awards": null, "user_review_count": 0}, {"business_operation_status": 1, "rating": null, "neighborhood": null, "image": null, "scorecard": null, "featured": false, "sample_categories": "Restaurants, Bars & Clubs, Nightclubs", "public_id": "illusion-lounge-dance-club-marietta", "id": 775216060, "votes": null, "tagline": null, "has_video": false, "website": null, "offers": null, "latitude": 33.905926, "politanName": "Atlanta, GA Metro ", "phone_number": "7709569909", "tags": [{"primary": false, "id": 164, "name": "Bars & Clubs"}, {"primary": false, "id": 169, "name": "Nightclubs"}, {"primary": true, "id": 1722, "name": "Restaurants"}], "fax_number": null, "expansion": {"count": null, "uri": null}, "impression_id": "000b000000683d5da3994b4cb998586d4be5f91dad", "profile": "http://www.citysearch.com/profile/775216060/marietta_ga/illusion_lounge_dance_club.html", "address": {"city": "Marietta", "state": "GA", "street": "2000 Powers Ferry Rd SE", "postal_code": "30067"}, "capProviderId": null, "distance": null, "has_offers": false, "name": "Illusion Lounge & Dance Club", "longitude": -84.465323, "has_menu": false, "awards": null, "user_review_count": 0}, {"business_operation_status": 1, "rating": null, "neighborhood": null, "image": null, "scorecard": null, "featured": false, "sample_categories": "Restaurants, Pizza, Carry Out", "public_id": "pizza-hut-marietta-12", "id": 775223530, "votes": null, "tagline": null, "has_video": false, "website": null, "offers": null, "latitude": 33.952602, "politanName": "Atlanta, GA Metro ", "phone_number": "7709716932", "tags": [{"primary": false, "id": 1722, "name": "Restaurants"}, {"primary": false, "id": 11247, "name": "Carry Out"}, {"primary": true, "id": 11299, "name": "Pizza"}], "fax_number": null, "expansion": {"count": null, "uri": null}, "impression_id": "000b00000056be9d79a77b4a359a41d8654073b014", "profile": "http://www.citysearch.com/profile/775223530/marietta_ga/pizza_hut.html", "address": {"city": "Marietta", "state": "GA", "street": "2204 Roswell Rd", "postal_code": "30062"}, "capProviderId": null, "distance": null, "has_offers": false, "name": "Pizza Hut", "longitude": -84.549933, "has_menu": false, "awards": null, "user_review_count": 0}, {"business_operation_status": 1, "rating": null, "neighborhood": "Northside, Northside", "image": null, "scorecard": null, "featured": false, "sample_categories": "Restaurants", "public_id": "ambra-restaurant-atlanta", "id": 806632990, "votes": null, "tagline": null, "has_video": false, "website": null, "offers": null, "latitude": 33.793667, "politanName": "Atlanta, GA Metro ", "phone_number": "4043509770", "tags": [{"primary": true, "id": 1722, "name": "Restaurants"}], "fax_number": null, "expansion": {"count": null, "uri": null}, "impression_id": "000b000000a52bb4cd511c4f468f57d3b3d77e39c0", "profile": "http://www.citysearch.com/profile/806632990/atlanta_ga/ambra_restaurant.html", "address": {"city": "Atlanta", "state": "GA", "street": "1425 Ellsworth Ind Blvd NW # 6", "postal_code": "30318"}, "capProviderId": null, "distance": null, "has_offers": false, "name": "Ambra Restaurant", "longitude": -84.426109, "has_menu": false, "awards": null, "user_review_count": 0}, {"business_operation_status": 1, "rating": null, "neighborhood": "Northside, Bolton, Northside", "image": null, "scorecard": null, "featured": false, "sample_categories": "Restaurants, Delis And Delicatessens, Sandwich Shops, Carry Out", "public_id": "subway-atlanta-95", "id": 748278230, "votes": null, "tagline": null, "has_video": false, "website": "http://www.citysearch.com/profile/external/748278230/atlanta_ga/subway.html", "offers": null, "latitude": 33.821089, "politanName": "Atlanta, GA Metro ", "phone_number": "4043551157", "tags": [{"primary": false, "id": 1727, "name": "Delis And Delicatessens"}, {"primary": false, "id": 1736, "name": "Sandwich Shops"}, {"primary": false, "id": 11247, "name": "Carry Out"}, {"primary": true, "id": 1722, "name": "Restaurants"}], "fax_number": null, "expansion": {"count": null, "uri": null}, "impression_id": "000b0000000320e90b260549ef844aa859afb6d883", "profile": "http://www.citysearch.com/profile/748278230/atlanta_ga/subway.html", "address": {"city": "Atlanta", "state": "GA", "street": "2418 Bolton Road", "postal_code": "30318"}, "capProviderId": null, "distance": null, "has_offers": false, "name": "Subway", "longitude": -84.458656, "has_menu": true, "awards": null, "user_review_count": 0}, {"business_operation_status": 1, "rating": null, "neighborhood": null, "image": null, "scorecard": null, "featured": false, "sample_categories": "Restaurants", "public_id": "san-francisco-banquet-hall-marietta", "id": 839721110, "votes": null, "tagline": null, "has_video": false, "website": null, "offers": null, "latitude": 33.904632, "politanName": "Atlanta, GA Metro ", "phone_number": "6785569759", "tags": [{"primary": true, "id": 1722, "name": "Restaurants"}], "fax_number": null, "expansion": {"count": null, "uri": null}, "impression_id": "000b00000003c4617bfa5947c980b7be95ce4b12b4", "profile": "http://www.citysearch.com/profile/839721110/marietta_ga/san_francisco_banquet_hall.html", "address": {"city": "Marietta", "state": "GA", "street": "1977 S Cobb Dr SE", "postal_code": "30060"}, "capProviderId": null, "distance": null, "has_offers": false, "name": "San Francisco Banquet Hall", "longitude": -84.540946, "has_menu": false, "awards": null, "user_review_count": 0}, {"business_operation_status": 1, "rating": null, "neighborhood": null, "image": null, "scorecard": null, "featured": false, "sample_categories": "Restaurants", "public_id": "grill-on-the-square-marietta", "id": 827975120, "votes": null, "tagline": null, "has_video": false, "website": null, "offers": null, "latitude": 33.952271, "politanName": "Atlanta, GA Metro ", "phone_number": "7704265161", "tags": [{"primary": true, "id": 1722, "name": "Restaurants"}], "fax_number": null, "expansion": {"count": null, "uri": null}, "impression_id": "000b00000007736f21409e4a12b5674d41fdbf23d4", "profile": "http://www.citysearch.com/profile/827975120/marietta_ga/grill_on_the_square.html", "address": {"city": "Marietta", "state": "GA", "street": "70 S Park Sq NE # C", "postal_code": "30060"}, "capProviderId": null, "distance": null, "has_offers": false, "name": "Grill On The Square", "longitude": -84.549833, "has_menu": false, "awards": null, "user_review_count": 0}, {"business_operation_status": 1, "rating": null, "neighborhood": null, "image": null, "scorecard": null, "featured": false, "sample_categories": "Restaurants", "public_id": "cafe-1100-atlanta-2", "id": 805596080, "votes": null, "tagline": null, "has_video": false, "website": null, "offers": null, "latitude": 33.887519, "politanName": "Atlanta, GA Metro ", "phone_number": "7709334141", "tags": [{"primary": true, "id": 1722, "name": "Restaurants"}], "fax_number": null, "expansion": {"count": null, "uri": null}, "impression_id": "000b000000fa4598ebbf704dbfbffaf95249618f8d", "profile": "http://www.citysearch.com/profile/805596080/atlanta_ga/cafe_1100.html", "address": {"city": "Atlanta", "state": "GA", "street": "900 Circle 75 Pkwy SE # 25", "postal_code": "30339"}, "capProviderId": null, "distance": null, "has_offers": false, "name": "Cafe 1100", "longitude": -84.467593, "has_menu": false, "awards": null, "user_review_count": 0}, {"business_operation_status": 1, "rating": null, "neighborhood": null, "image": null, "scorecard": null, "featured": false, "sample_categories": "Restaurants", "public_id": "moch-delights-atlanta", "id": 43872739, "votes": null, "tagline": null, "has_video": false, "website": null, "offers": null, "latitude": 33.909943, "politanName": "Atlanta, GA Metro ", "phone_number": "7706128999", "tags": [{"primary": true, "id": 1722, "name": "Restaurants"}], "fax_number": null, "expansion": {"count": null, "uri": null}, "impression_id": "000b000000791c5d9da4114583b5c66c238fec9d05", "profile": "http://www.citysearch.com/profile/43872739/atlanta_ga/moch_delights.html", "address": {"city": "Atlanta", "state": "GA", "street": "1765 The Exchange SE", "postal_code": "30339"}, "capProviderId": null, "distance": null, "has_offers": false, "name": "Moch Delights", "longitude": -84.482145, "has_menu": false, "awards": null, "user_review_count": 0}, {"business_operation_status": 1, "rating": null, "neighborhood": "Northside, Northside", "image": null, "scorecard": null, "featured": false, "sample_categories": "Restaurants, Grocery Stores", "public_id": "joiners-food-co-inc-atlanta", "id": 808568680, "votes": null, "tagline": null, "has_video": false, "website": null, "offers": null, "latitude": 33.797259, "politanName": "Atlanta, GA Metro ", "phone_number": "4043558732", "tags": [{"primary": false, "id": 1713, "name": "Grocery Stores"}, {"primary": true, "id": 1722, "name": "Restaurants"}], "fax_number": null, "expansion": {"count": null, "uri": null}, "impression_id": "000b00000025a285a0a30346328befd3366eb98d45", "profile": "http://www.citysearch.com/profile/808568680/atlanta_ga/joiners_food_co_inc.html", "address": {"city": "Atlanta", "state": "GA", "street": "1531 Howell Mill Rd NW", "postal_code": "30318"}, "capProviderId": null, "distance": null, "has_offers": false, "name": "Joiners Food Co Inc", "longitude": -84.415868, "has_menu": false, "awards": null, "user_review_count": 0}, {"business_operation_status": 0, "rating": null, "neighborhood": "Northside, Northside", "image": null, "scorecard": null, "featured": false, "sample_categories": "Restaurants", "public_id": "westside-garden-market-atlanta", "id": 672863510, "votes": null, "tagline": null, "has_video": false, "website": null, "offers": null, "latitude": 33.807938, "politanName": "Atlanta, GA Metro ", "phone_number": "4046099666", "tags": [{"primary": true, "id": 1722, "name": "Restaurants"}], "fax_number": null, "expansion": {"count": null, "uri": null}, "impression_id": "000b000000c496dd11f824461ca01bd94454093733", "profile": "http://www.citysearch.com/profile/672863510/atlanta_ga/westside_garden_market.html", "address": {"city": "Atlanta", "state": "GA", "street": "1954 Howell Mill Road", "postal_code": "30318"}, "capProviderId": null, "distance": null, "has_offers": false, "name": "Westside Garden Market", "longitude": -84.412689, "has_menu": false, "awards": null, "user_review_count": 1}, {"business_operation_status": 1, "rating": null, "neighborhood": null, "image": null, "scorecard": null, "featured": false, "sample_categories": "Restaurants", "public_id": "overlook-cafe-atlanta", "id": 713406040, "votes": null, "tagline": null, "has_video": false, "website": null, "offers": null, "latitude": 33.867677, "politanName": "Atlanta, GA Metro ", "phone_number": "6788429008", "tags": [{"primary": true, "id": 1722, "name": "Restaurants"}], "fax_number": null, "expansion": {"count": null, "uri": null}, "impression_id": "000b00000011126f1cbe124a39931b1540ed9bee59", "profile": "http://www.citysearch.com/profile/713406040/atlanta_ga/overlook_cafe.html", "address": {"city": "Atlanta", "state": "GA", "street": "2859 Paces Ferry Rd Se", "postal_code": "30339"}, "capProviderId": null, "distance": null, "has_offers": false, "name": "Overlook Cafe", "longitude": -84.468631, "has_menu": false, "awards": null, "user_review_count": 0}, {"business_operation_status": 1, "rating": null, "neighborhood": "Northside, Northside", "image": null, "scorecard": null, "featured": false, "sample_categories": "Restaurants, Mexican", "public_id": "bell-street-burritos-atlanta-3", "id": 732199780, "votes": null, "tagline": null, "has_video": false, "website": "http://www.citysearch.com/profile/external/732199780/atlanta_ga/bell_street_burritos.html", "offers": null, "latitude": 33.799337, "politanName": "Atlanta, GA Metro ", "phone_number": "4048352018", "tags": [{"primary": false, "id": 11208, "name": "Mexican"}, {"primary": true, "id": 1722, "name": "Restaurants"}], "fax_number": null, "expansion": {"count": null, "uri": null}, "impression_id": "000b0000002312ee0aa7b14245aac251fdff699d12", "profile": "http://www.citysearch.com/profile/732199780/atlanta_ga/bell_street_burritos.html", "address": {"city": "Atlanta", "state": "GA", "street": "1663 Howell Mill Rd NW", "postal_code": "30318"}, "capProviderId": null, "distance": null, "has_offers": false, "name": "Bell Street Burritos", "longitude": -84.415657, "has_menu": false, "awards": null, "user_review_count": 0}, {"business_operation_status": 1, "rating": null, "neighborhood": null, "image": null, "scorecard": null, "featured": false, "sample_categories": "Restaurants, Bars & Clubs, Bars & Pubs", "public_id": "grants-bar-grill-atlanta", "id": 739062670, "votes": null, "tagline": null, "has_video": false, "website": null, "offers": null, "latitude": 33.878323, "politanName": "Atlanta, GA Metro ", "phone_number": "7706726451", "tags": [{"primary": false, "id": 164, "name": "Bars & Clubs"}, {"primary": false, "id": 1686, "name": "Bars & Pubs"}, {"primary": true, "id": 1722, "name": "Restaurants"}], "fax_number": null, "expansion": {"count": null, "uri": null}, "impression_id": "000b000000e6d5ce8cdac94b299a98be333164dce5", "profile": "http://www.citysearch.com/profile/739062670/atlanta_ga/grants_bar_grill.html", "address": {"city": "Atlanta", "state": "GA", "street": "2997 Cumberland Blvd SE # 100", "postal_code": "30339"}, "capProviderId": null, "distance": null, "has_offers": false, "name": "Grants Bar & Grill", "longitude": -84.468394, "has_menu": false, "awards": null, "user_review_count": 0}, {"business_operation_status": 1, "rating": null, "neighborhood": null, "image": null, "scorecard": null, "featured": false, "sample_categories": "Restaurants", "public_id": "peachtree-grill-atlanta", "id": 3001279, "votes": null, "tagline": null, "has_video": false, "website": null, "offers": null, "latitude": 33.92078, "politanName": "Atlanta, GA Metro ", "phone_number": "4048749448", "tags": [{"primary": true, "id": 1722, "name": "Restaurants"}], "fax_number": null, "expansion": {"count": null, "uri": null}, "impression_id": "000b000000aa02c8b8a4d345cd95561d76c17fd5ef", "profile": "http://www.citysearch.com/profile/3001279/atlanta_ga/peachtree_grill.html", "address": {"city": "Atlanta", "state": "GA", "street": "1080 Riverside Trce NW", "postal_code": "30328"}, "capProviderId": null, "distance": null, "has_offers": false, "name": "Peachtree Grill", "longitude": -84.422827, "has_menu": false, "awards": null, "user_review_count": 0}, {"business_operation_status": 0, "rating": null, "neighborhood": null, "image": null, "scorecard": null, "featured": false, "sample_categories": "Investments, Restaurants, Post Offices, American Express, Discover", "public_id": "us-post-office-atlanta-60", "id": 3029512, "votes": null, "tagline": null, "has_video": false, "website": null, "offers": null, "latitude": 33.901998, "politanName": "Atlanta, GA Metro ", "phone_number": null, "tags": [{"primary": false, "id": 1636, "name": "Investments"}, {"primary": false, "id": 1722, "name": "Restaurants"}, {"primary": false, "id": 11333, "name": "American Express"}, {"primary": false, "id": 11349, "name": "Discover"}, {"primary": false, "id": 11361, "name": "MasterCard"}, {"primary": false, "id": 11382, "name": "Visa"}, {"primary": true, "id": 1779, "name": "Post Offices"}], "fax_number": null, "expansion": {"count": null, "uri": null}, "impression_id": "000b00000000783a4d52724d5d9d28ad00483e8377", "profile": "http://www.citysearch.com/profile/3029512/atlanta_ga/us_post_office.html", "address": {"city": "Atlanta", "state": "GA", "street": "120 Interstate North Pkwy SE", "postal_code": "30339"}, "capProviderId": null, "distance": null, "has_offers": false, "name": "Us Post Office", "longitude": -84.464688, "has_menu": false, "awards": null, "user_review_count": 0}, {"business_operation_status": 1, "rating": null, "neighborhood": null, "image": null, "scorecard": null, "featured": false, "sample_categories": "Restaurants, Pizza", "public_id": "blue-moon-pizza-marietta-3", "id": 745594000, "votes": null, "tagline": null, "has_video": false, "website": null, "offers": null, "latitude": 33.913381, "politanName": "Atlanta, GA Metro ", "phone_number": "7709842444", "tags": [{"primary": false, "id": 1722, "name": "Restaurants"}, {"primary": true, "id": 11299, "name": "Pizza"}], "fax_number": null, "expansion": {"count": null, "uri": null}, "impression_id": "000b000000fda1355cc3fb43bf81a147a3eb314edc", "profile": "http://www.citysearch.com/profile/745594000/marietta_ga/blue_moon_pizza.html", "address": {"city": "Marietta", "state": "GA", "street": "1307 Wynnes Ridge Cir SE", "postal_code": "30067"}, "capProviderId": null, "distance": null, "has_offers": false, "name": "Blue Moon Pizza", "longitude": -84.468451, "has_menu": false, "awards": null, "user_review_count": 0}, {"business_operation_status": 1, "rating": null, "neighborhood": null, "image": null, "scorecard": null, "featured": false, "sample_categories": "Restaurants", "public_id": "twenty-five-hundred-cafe-atlanta", "id": 627779900, "votes": null, "tagline": null, "has_video": false, "website": null, "offers": null, "latitude": 33.86762, "politanName": "Atlanta, GA Metro ", "phone_number": "7704325669", "tags": [{"primary": true, "id": 1722, "name": "Restaurants"}], "fax_number": null, "expansion": {"count": null, "uri": null}, "impression_id": "000b00000052c1a5a90a7d43afb32779d0886a0664", "profile": "http://www.citysearch.com/profile/627779900/atlanta_ga/twenty_five_hundred_cafe.html", "address": {"city": "Atlanta", "state": "GA", "street": "2500 Cumberland Pkwy Se", "postal_code": "30339"}, "capProviderId": null, "distance": null, "has_offers": false, "name": "Twenty Five Hundred Cafe", "longitude": -84.476243, "has_menu": false, "awards": null, "user_review_count": 0}, {"business_operation_status": 1, "rating": null, "neighborhood": null, "image": null, "scorecard": null, "featured": false, "sample_categories": "Restaurants", "public_id": "r-cs-southern-cooking-marietta", "id": 754855600, "votes": null, "tagline": null, "has_video": false, "website": null, "offers": null, "latitude": 33.951248, "politanName": "Atlanta, GA Metro ", "phone_number": "7704854668", "tags": [{"primary": true, "id": 1722, "name": "Restaurants"}], "fax_number": null, "expansion": {"count": null, "uri": null}, "impression_id": "000b0000002a5e8231e5e84722a6ca26aad5380523", "profile": "http://www.citysearch.com/profile/754855600/marietta_ga/r_c_s_southern_cooking.html", "address": {"city": "Marietta", "state": "GA", "street": "1516 Roswell Rd", "postal_code": "30062"}, "capProviderId": null, "distance": null, "has_offers": false, "name": "R C's Southern Cooking", "longitude": -84.508172, "has_menu": false, "awards": null, "user_review_count": 0}, {"business_operation_status": 1, "rating": null, "neighborhood": "Northside, Northside", "image": null, "scorecard": null, "featured": false, "sample_categories": "Restaurants, Barbecue Restaurants", "public_id": "shanes-rib-shack-llc-atlanta", "id": 762759830, "votes": null, "tagline": null, "has_video": false, "website": null, "offers": null, "latitude": 33.794633, "politanName": "Atlanta, GA Metro ", "phone_number": "4048564320", "tags": [{"primary": false, "id": 1724, "name": "Barbecue Restaurants"}, {"primary": true, "id": 1722, "name": "Restaurants"}], "fax_number": null, "expansion": {"count": null, "uri": null}, "impression_id": "000b000000fd37f7310ac24272b6a3f3374e933351", "profile": "http://www.citysearch.com/profile/762759830/atlanta_ga/shanes_rib_shack_llc.html", "address": {"city": "Atlanta", "state": "GA", "street": "1425 Elwrth Ind Blvd NW", "postal_code": "30318"}, "capProviderId": null, "distance": null, "has_offers": false, "name": "Shanes Rib Shack LLC", "longitude": -84.448772, "has_menu": false, "awards": null, "user_review_count": 0}, {"business_operation_status": 1, "rating": null, "neighborhood": null, "image": null, "scorecard": null, "featured": false, "sample_categories": "Restaurants, Bars & Clubs, Traditional American, Carry Out, Shop Online", "public_id": "hooters-atlanta-4", "id": 775226180, "votes": null, "tagline": null, "has_video": false, "website": "http://www.citysearch.com/profile/external/775226180/atlanta_ga/hooters.html", "offers": null, "latitude": 33.908131, "politanName": "Atlanta, GA Metro ", "phone_number": "7709512040", "tags": [{"primary": false, "id": 164, "name": "Bars & Clubs"}, {"primary": false, "id": 11190, "name": "Traditional American"}, {"primary": false, "id": 11247, "name": "Carry Out"}, {"primary": false, "id": 11375, "name": "Shop Online"}, {"primary": true, "id": 1722, "name": "Restaurants"}], "fax_number": null, "expansion": {"count": null, "uri": null}, "impression_id": "000b000000a14aeff90a8241c0800177d2754e0a94", "profile": "http://www.citysearch.com/profile/775226180/atlanta_ga/hooters.html", "address": {"city": "Atlanta", "state": "GA", "street": "1815 the Exchange SE", "postal_code": "30339"}, "capProviderId": null, "distance": null, "has_offers": false, "name": "Hooters", "longitude": -84.479005, "has_menu": false, "awards": null, "user_review_count": 0}, {"business_operation_status": 1, "rating": null, "neighborhood": null, "image": null, "scorecard": null, "featured": false, "sample_categories": "Restaurants", "public_id": "la-hispaniola-marietta", "id": 672780210, "votes": null, "tagline": null, "has_video": false, "website": null, "offers": null, "latitude": 33.952062, "politanName": "Atlanta, GA Metro ", "phone_number": "7704240093", "tags": [{"primary": true, "id": 1722, "name": "Restaurants"}], "fax_number": null, "expansion": {"count": null, "uri": null}, "impression_id": "000b0000001545e7915f9749879fc2c8eb43658dc7", "profile": "http://www.citysearch.com/profile/672780210/marietta_ga/la_hispaniola.html", "address": {"city": "Marietta", "state": "GA", "street": "168 Roswell St NE", "postal_code": "30060"}, "capProviderId": null, "distance": null, "has_offers": false, "name": "La Hispaniola", "longitude": -84.548376, "has_menu": false, "awards": null, "user_review_count": 0}, {"business_operation_status": 1, "rating": null, "neighborhood": null, "image": null, "scorecard": null, "featured": false, "sample_categories": "Restaurants", "public_id": "peramang-home-taste-mableton", "id": 768803810, "votes": null, "tagline": null, "has_video": false, "website": null, "offers": null, "latitude": 33.80705, "politanName": "Atlanta, GA Metro ", "phone_number": "7709481042", "tags": [{"primary": true, "id": 1722, "name": "Restaurants"}], "fax_number": null, "expansion": {"count": null, "uri": null}, "impression_id": "000b00000004150b97a7764981b7eaa55061cc7ca0", "profile": "http://www.citysearch.com/profile/768803810/mableton_ga/peramang_home_taste.html", "address": {"city": "Mableton", "state": "GA", "street": "6041 Mableton Pkwy SW # 142", "postal_code": "30126"}, "capProviderId": null, "distance": null, "has_offers": false, "name": "Peramang Home Taste", "longitude": -84.569431, "has_menu": false, "awards": null, "user_review_count": 0}, {"business_operation_status": 1, "rating": null, "neighborhood": null, "image": null, "scorecard": null, "featured": false, "sample_categories": "Barbecue Restaurants", "public_id": "wanyes-brother-bbq-marietta", "id": 777668500, "votes": null, "tagline": null, "has_video": false, "website": null, "offers": null, "latitude": 33.977691, "politanName": "Atlanta, GA Metro ", "phone_number": "6783313892", "tags": [{"primary": true, "id": 1724, "name": "Barbecue Restaurants"}], "fax_number": null, "expansion": {"count": null, "uri": null}, "impression_id": "000b0000009e0e596b8bf143a7afd219a3e26fe610", "profile": "http://www.citysearch.com/profile/777668500/marietta_ga/wanye_s_brother_bbq.html", "address": {"city": "Marietta", "state": "GA", "street": "1160 Hayes Industrial Dr", "postal_code": "30062"}, "capProviderId": null, "distance": null, "has_offers": false, "name": "Wanye's Brother BBQ", "longitude": -84.542327, "has_menu": false, "awards": null, "user_review_count": 0}, {"business_operation_status": 1, "rating": null, "neighborhood": null, "image": null, "scorecard": null, "featured": false, "sample_categories": "Restaurants", "public_id": "blue-agave-marietta", "id": 777622960, "votes": null, "tagline": null, "has_video": false, "website": null, "offers": null, "latitude": 33.927644, "politanName": "Atlanta, GA Metro ", "phone_number": "6786641133", "tags": [{"primary": true, "id": 1722, "name": "Restaurants"}], "fax_number": null, "expansion": {"count": null, "uri": null}, "impression_id": "000b000000d2183a56626d4df6938be162cf114436", "profile": "http://www.citysearch.com/profile/777622960/marietta_ga/blue_agave.html", "address": {"city": "Marietta", "state": "GA", "street": "1090 Northchase Pkwy Se", "postal_code": "30067"}, "capProviderId": null, "distance": null, "has_offers": false, "name": "Blue Agave", "longitude": -84.482308, "has_menu": false, "awards": null, "user_review_count": 0}, {"business_operation_status": 1, "rating": null, "neighborhood": null, "image": null, "scorecard": null, "featured": false, "sample_categories": "Restaurants", "public_id": "hoboken-cafe-marietta", "id": 777676340, "votes": null, "tagline": null, "has_video": false, "website": null, "offers": null, "latitude": 33.951914, "politanName": "Atlanta, GA Metro ", "phone_number": "6789093375", "tags": [{"primary": true, "id": 1722, "name": "Restaurants"}], "fax_number": null, "expansion": {"count": null, "uri": null}, "impression_id": "000b0000005d0e8f70e3d144f3a013d4d7cca4a50a", "profile": "http://www.citysearch.com/profile/777676340/marietta_ga/hoboken_cafe.html", "address": {"city": "Marietta", "state": "GA", "street": "688 Whitlock Ave NW", "postal_code": "30064"}, "capProviderId": null, "distance": null, "has_offers": false, "name": "Hoboken Cafe", "longitude": -84.57265, "has_menu": false, "awards": null, "user_review_count": 0}, {"business_operation_status": 1, "rating": null, "neighborhood": null, "image": null, "scorecard": null, "featured": false, "sample_categories": "Restaurants, Barbecue Restaurants", "public_id": "beast-bone-barbecue-mableton", "id": 777755900, "votes": null, "tagline": null, "has_video": false, "website": null, "offers": null, "latitude": 33.805377, "politanName": "Atlanta, GA Metro ", "phone_number": "7707390002", "tags": [{"primary": false, "id": 1724, "name": "Barbecue Restaurants"}, {"primary": true, "id": 1722, "name": "Restaurants"}], "fax_number": null, "expansion": {"count": null, "uri": null}, "impression_id": "000b000000a67b9ec270d3476791e92a6bf91444fa", "profile": "http://www.citysearch.com/profile/777755900/mableton_ga/beast_bone_barbecue.html", "address": {"city": "Mableton", "state": "GA", "street": "1025 Veterans Memorial Hwy Se", "postal_code": "30126"}, "capProviderId": null, "distance": null, "has_offers": false, "name": "Beast Bone Barbecue", "longitude": -84.52581, "has_menu": false, "awards": null, "user_review_count": 0}, {"business_operation_status": 1, "rating": null, "neighborhood": null, "image": null, "scorecard": null, "featured": false, "sample_categories": "Restaurants, Catering, Delis And Delicatessens, Carry Out", "public_id": "jimmy-johns-marietta-3", "id": 796130460, "votes": null, "tagline": null, "has_video": false, "website": "http://www.citysearch.com/profile/external/796130460/marietta_ga/jimmy_john_s.html", "offers": null, "latitude": 33.91914, "politanName": "Atlanta, GA Metro ", "phone_number": "6783243630", "tags": [{"primary": false, "id": 1705, "name": "Catering"}, {"primary": false, "id": 1727, "name": "Delis And Delicatessens"}, {"primary": false, "id": 11247, "name": "Carry Out"}, {"primary": true, "id": 1722, "name": "Restaurants"}], "fax_number": null, "expansion": {"count": null, "uri": null}, "impression_id": "000b0000007fc26c9a48234f518f31f8b07b3c2566", "profile": "http://www.citysearch.com/profile/796130460/marietta_ga/jimmy_john_s.html", "address": {"city": "Marietta", "state": "GA", "street": "1337 Powers Ferry Rd Se", "postal_code": "30067"}, "capProviderId": null, "distance": null, "has_offers": false, "name": "Jimmy John's", "longitude": -84.466839, "has_menu": false, "awards": null, "user_review_count": 0}, {"business_operation_status": 1, "rating": null, "neighborhood": null, "image": null, "scorecard": null, "featured": false, "sample_categories": "Restaurants", "public_id": "d-c-backyard-grill-inc-marietta", "id": 798805340, "votes": null, "tagline": null, "has_video": false, "website": null, "offers": null, "latitude": 33.942612, "politanName": "Atlanta, GA Metro ", "phone_number": "7709198797", "tags": [{"primary": true, "id": 1722, "name": "Restaurants"}], "fax_number": null, "expansion": {"count": null, "uri": null}, "impression_id": "000b00000056659d81f88b4cedac580cdb4773b286", "profile": "http://www.citysearch.com/profile/798805340/marietta_ga/d_c_backyard_grill_inc.html", "address": {"city": "Marietta", "state": "GA", "street": "547 Atlanta St Se", "postal_code": "30060"}, "capProviderId": null, "distance": null, "has_offers": false, "name": "D C Backyard Grill INC", "longitude": -84.545574, "has_menu": false, "awards": null, "user_review_count": 0}, {"business_operation_status": 1, "rating": null, "neighborhood": null, "image": null, "scorecard": null, "featured": false, "sample_categories": "Restaurants", "public_id": "las-drisas-number-2-marietta", "id": 713600220, "votes": null, "tagline": null, "has_video": false, "website": null, "offers": null, "latitude": 33.935213, "politanName": "Atlanta, GA Metro ", "phone_number": "6783542220", "tags": [{"primary": true, "id": 1722, "name": "Restaurants"}], "fax_number": null, "expansion": {"count": null, "uri": null}, "impression_id": "000b00000040b9e19a81184ba1a0c2369f0e2cf24b", "profile": "http://www.citysearch.com/profile/713600220/marietta_ga/las_drisas_number_2.html", "address": {"city": "Marietta", "state": "GA", "street": "715 Sandtown Rd Sw", "postal_code": "30008"}, "capProviderId": null, "distance": null, "has_offers": false, "name": "Las Drisas Number 2", "longitude": -84.555821, "has_menu": false, "awards": null, "user_review_count": 0}, {"business_operation_status": 1, "rating": null, "neighborhood": null, "image": null, "scorecard": null, "featured": false, "sample_categories": "Restaurants", "public_id": "great-panda-restaurant-marietta", "id": 814222940, "votes": null, "tagline": null, "has_video": false, "website": null, "offers": null, "latitude": 33.953111, "politanName": "Atlanta, GA Metro ", "phone_number": "7704282831", "tags": [{"primary": true, "id": 1722, "name": "Restaurants"}], "fax_number": null, "expansion": {"count": null, "uri": null}, "impression_id": "000b0000009a9f9043a9064fe28374453666d840c7", "profile": "http://www.citysearch.com/profile/814222940/marietta_ga/great_panda_restaurant.html", "address": {"city": "Marietta", "state": "GA", "street": "1000 Whitlock Ave NW", "postal_code": "30064"}, "capProviderId": null, "distance": null, "has_offers": false, "name": "Great Panda Restaurant", "longitude": -84.581272, "has_menu": false, "awards": null, "user_review_count": 0}], "histograms": [], "tag_ids": [1722], "uri": "http://api.citygridmedia.com:8080/search/places/v2/search/where?has_offers=false&type=restaurant&format=json&page=31&where=30080&rpp=50&histograms=false&publisher=10000009598&region_type=circle", "did_you_mean": "", "regions": [{"latitude": 33.870107, "default_radius": 3.76, "type": "postal_code", "name": "30080", "longitude": -84.499867}], "call_id": "000b000000645586ba9c154019ab5f0292b4025cc4", "first_hit": 1501, "total_hits": 1580, "geo_ids": [26330], "page": 31, "last_hit": 1550}}