{"results": {"rpp": 50, "locations": [{"business_operation_status": 1, "rating": null, "neighborhood": null, "image": null, "scorecard": null, "featured": false, "sample_categories": "Restaurants", "public_id": "village-cafe-gourmet-smyrna", "id": 614556564, "votes": null, "tagline": null, "has_video": false, "website": null, "offers": null, "latitude": 33.869097, "politanName": "Atlanta, GA Metro ", "phone_number": "7704319620", "tags": [{"primary": true, "id": 1722, "name": "Restaurants"}], "fax_number": null, "expansion": {"count": null, "uri": null}, "impression_id": "000b000000fc80e08bb8a141d58ff81b34692343f0", "profile": "http://www.citysearch.com/profile/614556564/smyrna_ga/village_cafe_gourmet.html", "address": {"city": "Smyrna", "state": "GA", "street": "1265 W Spring St SE", "postal_code": "30080"}, "capProviderId": null, "distance": null, "has_offers": false, "name": "Village Cafe & Gourmet", "longitude": -84.495999, "has_menu": false, "awards": null, "user_review_count": 1}, {"business_operation_status": 1, "rating": null, "neighborhood": null, "image": null, "scorecard": null, "featured": false, "sample_categories": "Restaurants, Traditional American, Carry Out", "public_id": "arbys-atlanta-16", "id": 742194410, "votes": null, "tagline": null, "has_video": false, "website": "http://www.citysearch.com/profile/external/742194410/atlanta_ga/arby_s.html", "offers": null, "latitude": 33.908945, "politanName": "Atlanta, GA Metro ", "phone_number": "4047625088", "tags": [{"primary": false, "id": 11190, "name": "Traditional American"}, {"primary": false, "id": 11247, "name": "Carry Out"}, {"primary": true, "id": 1722, "name": "Restaurants"}], "fax_number": null, "expansion": {"count": null, "uri": null}, "impression_id": "000b000000c4fdb42194814827b1ccc9d99084e290", "profile": "http://www.citysearch.com/profile/742194410/atlanta_ga/arby_s.html", "address": {"city": "Atlanta", "state": "GA", "street": "1700 the Exchange SE # 200", "postal_code": "30339"}, "capProviderId": null, "distance": null, "has_offers": false, "name": "Arby's", "longitude": -84.484196, "has_menu": false, "awards": null, "user_review_count": 0}, {"business_operation_status": 1, "rating": 8.0, "neighborhood": null, "image": null, "scorecard": null, "featured": false, "sample_categories": "Crowd Control, Generators, Household Appliances, Seafood", "public_id": "joes-crab-shack-smyrna", "id": 2922308, "votes": null, "tagline": null, "has_video": false, "website": "http://www.citysearch.com/profile/external/2922308/smyrna_ga/joe_s_crab_shack.html", "offers": null, "latitude": 33.897929, "politanName": "Atlanta, GA Metro ", "phone_number": "7709552722", "tags": [{"primary": false, "id": 26380, "name": "Crowd Control"}, {"primary": false, "id": 26420, "name": "Generators"}, {"primary": false, "id": 11228, "name": "Seafood"}, {"primary": true, "id": 3937, "name": "Household Appliances"}], "fax_number": null, "expansion": {"count": null, "uri": null}, "impression_id": "000b00000044bbf393d6b74d90aa2c4c07b629c184", "profile": "http://www.citysearch.com/profile/2922308/smyrna_ga/joe_s_crab_shack.html", "address": {"city": "Smyrna", "state": "GA", "street": "2175 Cobb Pkwy SE", "postal_code": "30080"}, "capProviderId": null, "distance": null, "has_offers": false, "name": "Joe's Crab Shack", "longitude": -84.482808, "has_menu": true, "awards": null, "user_review_count": 0}, {"business_operation_status": 1, "rating": null, "neighborhood": null, "image": null, "scorecard": null, "featured": false, "sample_categories": "Restaurants, Carry Out, Hamburgers", "public_id": "in-n-out-wings-n-burger-marietta", "id": 745593160, "votes": null, "tagline": null, "has_video": false, "website": "http://www.citysearch.com/profile/external/745593160/marietta_ga/in_n_out_wings_n_burger.html", "offers": null, "latitude": 33.923677, "politanName": "Atlanta, GA Metro ", "phone_number": "7705411960", "tags": [{"primary": false, "id": 11247, "name": "Carry Out"}, {"primary": false, "id": 11270, "name": "Hamburgers"}, {"primary": true, "id": 1722, "name": "Restaurants"}], "fax_number": null, "expansion": {"count": null, "uri": null}, "impression_id": "000b000000739a08b023964a93b49aa2e660595a4e", "profile": "http://www.citysearch.com/profile/745593160/marietta_ga/in_n_out_wings_n_burger.html", "address": {"city": "Marietta", "state": "GA", "street": "2856 Delk Rd SE", "postal_code": "30067"}, "capProviderId": null, "distance": null, "has_offers": false, "name": "In N Out Wings N Burger", "longitude": -84.471351, "has_menu": false, "awards": null, "user_review_count": 0}, {"business_operation_status": 1, "rating": null, "neighborhood": null, "image": null, "scorecard": null, "featured": false, "sample_categories": "Restaurants", "public_id": "healthy-eating-restaurant-smyrna", "id": 672835080, "votes": null, "tagline": null, "has_video": false, "website": null, "offers": null, "latitude": 33.883443, "politanName": "Atlanta, GA Metro ", "phone_number": "7704357155", "tags": [{"primary": true, "id": 1722, "name": "Restaurants"}], "fax_number": null, "expansion": {"count": null, "uri": null}, "impression_id": "000b0000006286a894c6a34cc8949ac32ee049b118", "profile": "http://www.citysearch.com/profile/672835080/smyrna_ga/healthy_eating_restaurant.html", "address": {"city": "Smyrna", "state": "GA", "street": "2517 Spring Road", "postal_code": "30080"}, "capProviderId": null, "distance": null, "has_offers": false, "name": "Healthy Eating Restaurant", "longitude": -84.480608, "has_menu": false, "awards": null, "user_review_count": 0}, {"business_operation_status": 1, "rating": null, "neighborhood": null, "image": null, "scorecard": null, "featured": false, "sample_categories": "Restaurants, Chinese", "public_id": "number-one-chinese-restaurant-smyrna", "id": 773448470, "votes": null, "tagline": null, "has_video": false, "website": null, "offers": null, "latitude": 33.873639, "politanName": "Atlanta, GA Metro ", "phone_number": "7703331293", "tags": [{"primary": false, "id": 11252, "name": "Chinese"}, {"primary": true, "id": 1722, "name": "Restaurants"}], "fax_number": null, "expansion": {"count": null, "uri": null}, "impression_id": "000b0000004b0db776980c497e8f93cd66ea76f56e", "profile": "http://www.citysearch.com/profile/773448470/smyrna_ga/number_one_chinese_restaurant.html", "address": {"city": "Smyrna", "state": "GA", "street": "3240 S Cobb Dr SE", "postal_code": "30080"}, "capProviderId": null, "distance": null, "has_offers": false, "name": "Number One Chinese Restaurant", "longitude": -84.530478, "has_menu": false, "awards": null, "user_review_count": 0}, {"business_operation_status": 1, "rating": null, "neighborhood": null, "image": null, "scorecard": null, "featured": false, "sample_categories": "Restaurants, Cafes", "public_id": "socrates-cafe-marietta", "id": 713427300, "votes": null, "tagline": null, "has_video": false, "website": null, "offers": null, "latitude": 33.930756, "politanName": "Atlanta, GA Metro ", "phone_number": "7707926042", "tags": [{"primary": false, "id": 6190, "name": "Cafes"}, {"primary": true, "id": 1722, "name": "Restaurants"}], "fax_number": null, "expansion": {"count": null, "uri": null}, "impression_id": "000b000000120e414c169247f99e0396ff9ff0f398", "profile": "http://www.citysearch.com/profile/713427300/marietta_ga/socrates_cafe.html", "address": {"city": "Marietta", "state": "GA", "street": "1269 Barclay Cir Se", "postal_code": "30060"}, "capProviderId": null, "distance": null, "has_offers": false, "name": "Socrates Cafe", "longitude": -84.514539, "has_menu": false, "awards": null, "user_review_count": 0}, {"business_operation_status": 1, "rating": null, "neighborhood": null, "image": null, "scorecard": null, "featured": false, "sample_categories": "Restaurants", "public_id": "little-china-smyrna", "id": 805796770, "votes": null, "tagline": null, "has_video": false, "website": null, "offers": null, "latitude": 33.894335, "politanName": "Atlanta, GA Metro ", "phone_number": "6783057377", "tags": [{"primary": true, "id": 1722, "name": "Restaurants"}], "fax_number": null, "expansion": {"count": null, "uri": null}, "impression_id": "000b00000074806b8d9b7b45f6a66534cfee041c26", "profile": "http://www.citysearch.com/profile/805796770/smyrna_ga/little_china.html", "address": {"city": "Smyrna", "state": "GA", "street": "1065 Windy Hill Rd SE", "postal_code": "30080"}, "capProviderId": null, "distance": null, "has_offers": false, "name": "Little China", "longitude": -84.522435, "has_menu": false, "awards": null, "user_review_count": 0}, {"business_operation_status": 1, "rating": null, "neighborhood": null, "image": null, "scorecard": null, "featured": false, "sample_categories": "Coffeehouses", "public_id": "hamilton-coffee-co-inc-smyrna", "id": 821080290, "votes": null, "tagline": null, "has_video": false, "website": null, "offers": null, "latitude": 33.869377, "politanName": "Atlanta, GA Metro ", "phone_number": "7704327385", "tags": [{"primary": true, "id": 1726, "name": "Coffeehouses"}], "fax_number": null, "expansion": {"count": null, "uri": null}, "impression_id": "000b0000000a0ad0a2270844759a8de62924bb2533", "profile": "http://www.citysearch.com/profile/821080290/smyrna_ga/hamilton_coffee_co_inc.html", "address": {"city": "Smyrna", "state": "GA", "street": "1105 Oakdale Dr SE", "postal_code": "30080"}, "capProviderId": null, "distance": null, "has_offers": false, "name": "Hamilton Coffee Co Inc", "longitude": -84.521363, "has_menu": false, "awards": null, "user_review_count": 0}, {"business_operation_status": 1, "rating": null, "neighborhood": null, "image": null, "scorecard": null, "featured": false, "sample_categories": "Doughnut Shops", "public_id": "devs-donuts-marietta", "id": 826828870, "votes": null, "tagline": null, "has_video": false, "website": null, "offers": null, "latitude": 33.901077, "politanName": "Atlanta, GA Metro ", "phone_number": "7607025007", "tags": [{"primary": true, "id": 1734, "name": "Doughnut Shops"}], "fax_number": null, "expansion": {"count": null, "uri": null}, "impression_id": "000b0000004d193c04b52048c4b360a6a9b82efff8", "profile": "http://www.citysearch.com/profile/826828870/marietta_ga/dev_s_donuts.html", "address": {"city": "Marietta", "state": "GA", "street": "1812 Pdr Spgs Rd SW # 2115", "postal_code": "30064"}, "capProviderId": null, "distance": null, "has_offers": false, "name": "Dev's Donuts", "longitude": -84.606768, "has_menu": false, "awards": null, "user_review_count": 0}, {"business_operation_status": 1, "rating": null, "neighborhood": null, "image": null, "scorecard": null, "featured": false, "sample_categories": "Restaurants", "public_id": "cafeteria-la-oaxaquena-smyrna", "id": 764902040, "votes": null, "tagline": null, "has_video": false, "website": null, "offers": null, "latitude": 33.8912, "politanName": "Atlanta, GA Metro ", "phone_number": "6785560599", "tags": [{"primary": true, "id": 1722, "name": "Restaurants"}], "fax_number": null, "expansion": {"count": null, "uri": null}, "impression_id": "000b0000008a2c6e9161e3455f932cae1c7bc94d30", "profile": "http://www.citysearch.com/profile/764902040/smyrna_ga/cafeteria_la_oaxaquena.html", "address": {"city": "Smyrna", "state": "GA", "street": "1651 Roswell St SE", "postal_code": "30080"}, "capProviderId": null, "distance": null, "has_offers": false, "name": "Cafeteria La Oaxaquena", "longitude": -84.503871, "has_menu": false, "awards": null, "user_review_count": 0}, {"business_operation_status": 1, "rating": null, "neighborhood": null, "image": null, "scorecard": null, "featured": false, "sample_categories": "Restaurants, Asian, Chinese", "public_id": "magic-china-marietta", "id": 777698190, "votes": null, "tagline": null, "has_video": false, "website": null, "offers": null, "latitude": 33.918666, "politanName": "Atlanta, GA Metro ", "phone_number": "7709330933", "tags": [{"primary": false, "id": 11235, "name": "Asian"}, {"primary": false, "id": 11252, "name": "Chinese"}, {"primary": true, "id": 1722, "name": "Restaurants"}], "fax_number": null, "expansion": {"count": null, "uri": null}, "impression_id": "000b0000001ba3d3b1705e43fe8eff137eba7b58e3", "profile": "http://www.citysearch.com/profile/777698190/marietta_ga/magic_china.html", "address": {"city": "Marietta", "state": "GA", "street": "1360 Powers Ferry Rd Se", "postal_code": "30067"}, "capProviderId": null, "distance": null, "has_offers": false, "name": "Magic China", "longitude": -84.469414, "has_menu": false, "awards": null, "user_review_count": 0}, {"business_operation_status": 1, "rating": null, "neighborhood": null, "image": null, "scorecard": null, "featured": false, "sample_categories": "Restaurants", "public_id": "sushinobo-smyrna-2", "id": 787110950, "votes": null, "tagline": null, "has_video": false, "website": null, "offers": null, "latitude": 33.842707, "politanName": "Atlanta, GA Metro ", "phone_number": "6784017322", "tags": [{"primary": true, "id": 1722, "name": "Restaurants"}], "fax_number": null, "expansion": {"count": null, "uri": null}, "impression_id": "000b00000021ac8ff546684e2b9fb0a0e58cd104cd", "profile": "http://www.citysearch.com/profile/787110950/smyrna_ga/sushinobo.html", "address": {"city": "Smyrna", "state": "GA", "street": "4500 West Village Pl Se # 1005", "postal_code": "30080"}, "capProviderId": null, "distance": null, "has_offers": false, "name": "Sushinobo", "longitude": -84.490488, "has_menu": false, "awards": null, "user_review_count": 0}, {"business_operation_status": 1, "rating": null, "neighborhood": null, "image": null, "scorecard": null, "featured": false, "sample_categories": "Restaurants, Carry Out", "public_id": "jamaica-mi-krazy-restaurant-smyrna", "id": 789846400, "votes": null, "tagline": null, "has_video": false, "website": null, "offers": null, "latitude": 33.883443, "politanName": "Atlanta, GA Metro ", "phone_number": "7708743071", "tags": [{"primary": false, "id": 1722, "name": "Restaurants"}, {"primary": true, "id": 11247, "name": "Carry Out"}], "fax_number": null, "expansion": {"count": null, "uri": null}, "impression_id": "000b000000e32a848f616942d2b0039088b7819c92", "profile": "http://www.citysearch.com/profile/789846400/smyrna_ga/jamaica_mi_krazy_restaurant.html", "address": {"city": "Smyrna", "state": "GA", "street": "2517 Spring Rd SE", "postal_code": "30080"}, "capProviderId": null, "distance": null, "has_offers": false, "name": "JAMAICA MI KRAZY RESTAURANT", "longitude": -84.480608, "has_menu": false, "awards": null, "user_review_count": 0}, {"business_operation_status": 1, "rating": null, "neighborhood": null, "image": null, "scorecard": null, "featured": false, "sample_categories": "Restaurants", "public_id": "maximillians-marietta", "id": 815534440, "votes": null, "tagline": null, "has_video": false, "website": null, "offers": null, "latitude": 33.905412, "politanName": "Atlanta, GA Metro ", "phone_number": "7709554286", "tags": [{"primary": true, "id": 1722, "name": "Restaurants"}], "fax_number": null, "expansion": {"count": null, "uri": null}, "impression_id": "000b00000074d5a8c126ec408a8ec47246f89176e4", "profile": "http://www.citysearch.com/profile/815534440/marietta_ga/maximillian_s.html", "address": {"city": "Marietta", "state": "GA", "street": "1857 Airport Ind Park Dr SE", "postal_code": "30060"}, "capProviderId": null, "distance": null, "has_offers": false, "name": "Maximillian's", "longitude": -84.495214, "has_menu": false, "awards": null, "user_review_count": 0}, {"business_operation_status": 1, "rating": null, "neighborhood": null, "image": null, "scorecard": null, "featured": false, "sample_categories": "Restaurants", "public_id": "h-y-co-marietta", "id": 732213150, "votes": null, "tagline": null, "has_video": false, "website": null, "offers": null, "latitude": 33.917272, "politanName": "Atlanta, GA Metro ", "phone_number": "7703670759", "tags": [{"primary": true, "id": 1722, "name": "Restaurants"}], "fax_number": null, "expansion": {"count": null, "uri": null}, "impression_id": "000b000000ad21fac8231a47fea131d23150600168", "profile": "http://www.citysearch.com/profile/732213150/marietta_ga/h_y_co.html", "address": {"city": "Marietta", "state": "GA", "street": "1487 Bentley Ln SE", "postal_code": "30067"}, "capProviderId": null, "distance": null, "has_offers": false, "name": "H & Y Co", "longitude": -84.47374, "has_menu": false, "awards": null, "user_review_count": 0}, {"business_operation_status": 1, "rating": null, "neighborhood": null, "image": null, "scorecard": null, "featured": false, "sample_categories": "Restaurants, Coffeehouses", "public_id": "rev-coffee-house-smyrna", "id": 766767230, "votes": null, "tagline": null, "has_video": false, "website": null, "offers": null, "latitude": 33.882118, "politanName": "Atlanta, GA Metro ", "phone_number": "7705734434", "tags": [{"primary": false, "id": 1726, "name": "Coffeehouses"}, {"primary": true, "id": 1722, "name": "Restaurants"}], "fax_number": null, "expansion": {"count": null, "uri": null}, "impression_id": "000b000000c3bfe2fee447493699c723cb5b1d689d", "profile": "http://www.citysearch.com/profile/766767230/smyrna_ga/rev_coffee_house.html", "address": {"city": "Smyrna", "state": "GA", "street": "1680 Spring Rd SE", "postal_code": "30080"}, "capProviderId": null, "distance": null, "has_offers": false, "name": "Rev Coffee House", "longitude": -84.504533, "has_menu": false, "awards": null, "user_review_count": 0}, {"business_operation_status": 1, "rating": null, "neighborhood": null, "image": null, "scorecard": null, "featured": false, "sample_categories": "Restaurants, Pizza", "public_id": "spikes-brickoven-pizzeria-marietta", "id": 807252710, "votes": null, "tagline": null, "has_video": false, "website": null, "offers": null, "latitude": 33.925486, "politanName": "Atlanta, GA Metro ", "phone_number": "7704226821", "tags": [{"primary": false, "id": 1722, "name": "Restaurants"}, {"primary": true, "id": 11299, "name": "Pizza"}], "fax_number": null, "expansion": {"count": null, "uri": null}, "impression_id": "000b000000c5f2c2aa76b54bf3b59ae103083a7e2d", "profile": "http://www.citysearch.com/profile/807252710/marietta_ga/spikes_brickoven_pizzeria.html", "address": {"city": "Marietta", "state": "GA", "street": "1115 Powder Springs St", "postal_code": "30064"}, "capProviderId": null, "distance": null, "has_offers": false, "name": "Spikes Brickoven Pizzeria", "longitude": -84.572072, "has_menu": false, "awards": null, "user_review_count": 0}, {"business_operation_status": 1, "rating": null, "neighborhood": null, "image": null, "scorecard": null, "featured": false, "sample_categories": "Restaurants", "public_id": "imani-african-arabian-rstrnt-smyrna", "id": 713541910, "votes": null, "tagline": null, "has_video": false, "website": null, "offers": null, "latitude": 33.891129, "politanName": "Atlanta, GA Metro ", "phone_number": "6782936841", "tags": [{"primary": true, "id": 1722, "name": "Restaurants"}], "fax_number": null, "expansion": {"count": null, "uri": null}, "impression_id": "000b0000006abec26a3dcb4a5c92a3844b31f96981", "profile": "http://www.citysearch.com/profile/713541910/smyrna_ga/imani_african_arabian_rstrnt.html", "address": {"city": "Smyrna", "state": "GA", "street": "1651 Roswell St Se", "postal_code": "30080"}, "capProviderId": null, "distance": null, "has_offers": false, "name": "Imani African & Arabian Rstrnt", "longitude": -84.504659, "has_menu": false, "awards": null, "user_review_count": 0}, {"business_operation_status": 1, "rating": null, "neighborhood": null, "image": null, "scorecard": null, "featured": false, "sample_categories": "Restaurants", "public_id": "wings-101-smyrna", "id": 621748804, "votes": null, "tagline": null, "has_video": false, "website": null, "offers": null, "latitude": 33.894038, "politanName": "Atlanta, GA Metro ", "phone_number": "7709891520", "tags": [{"primary": true, "id": 1722, "name": "Restaurants"}], "fax_number": null, "expansion": {"count": null, "uri": null}, "impression_id": "000b000000e69f9daf6bcd48978306b36da147de09", "profile": "http://www.citysearch.com/profile/621748804/smyrna_ga/wings_101.html", "address": {"city": "Smyrna", "state": "GA", "street": "998 Windy Hill Rd SE", "postal_code": "30080"}, "capProviderId": null, "distance": null, "has_offers": false, "name": "Wings 101", "longitude": -84.524382, "has_menu": false, "awards": null, "user_review_count": 0}, {"business_operation_status": 1, "rating": null, "neighborhood": null, "image": null, "scorecard": null, "featured": false, "sample_categories": "Restaurants", "public_id": "village-cafe-smyrna", "id": 745629910, "votes": null, "tagline": null, "has_video": false, "website": null, "offers": null, "latitude": 33.883751, "politanName": "Atlanta, GA Metro ", "phone_number": "6782935977", "tags": [{"primary": true, "id": 1722, "name": "Restaurants"}], "fax_number": null, "expansion": {"count": null, "uri": null}, "impression_id": "000b0000004aa3af37bd014665ac88a0ff8e7d83e0", "profile": "http://www.citysearch.com/profile/745629910/smyrna_ga/village_cafe.html", "address": {"city": "Smyrna", "state": "GA", "street": "865 Pinehill Dr SE", "postal_code": "30080"}, "capProviderId": null, "distance": null, "has_offers": false, "name": "Village Cafe", "longitude": -84.528342, "has_menu": false, "awards": null, "user_review_count": 0}, {"business_operation_status": 0, "rating": null, "neighborhood": null, "image": null, "scorecard": null, "featured": false, "sample_categories": "Restaurants", "public_id": "taco-al-1000000-marietta", "id": 766781070, "votes": null, "tagline": null, "has_video": false, "website": null, "offers": null, "latitude": 33.902657, "politanName": "Atlanta, GA Metro ", "phone_number": "7707380000", "tags": [{"primary": true, "id": 1722, "name": "Restaurants"}], "fax_number": null, "expansion": {"count": null, "uri": null}, "impression_id": "000b00000016371528bbcf4c3997dfa90d8729d035", "profile": "http://www.citysearch.com/profile/766781070/marietta_ga/taco_al_1000000.html", "address": {"city": "Marietta", "state": "GA", "street": "2084 Favor Rd SW", "postal_code": "30060"}, "capProviderId": null, "distance": null, "has_offers": false, "name": "Taco Al 1000000", "longitude": -84.564316, "has_menu": false, "awards": null, "user_review_count": 0}, {"business_operation_status": 1, "rating": null, "neighborhood": null, "image": null, "scorecard": null, "featured": false, "sample_categories": "Restaurants, Barbecue Restaurants", "public_id": "bar-be-que-heavern-marietta", "id": 787133740, "votes": null, "tagline": null, "has_video": false, "website": null, "offers": null, "latitude": 33.894508, "politanName": "Atlanta, GA Metro ", "phone_number": "7706530935", "tags": [{"primary": false, "id": 1724, "name": "Barbecue Restaurants"}, {"primary": true, "id": 1722, "name": "Restaurants"}], "fax_number": null, "expansion": {"count": null, "uri": null}, "impression_id": "000b0000000a74db2e7648469587f1e3a95b3d2533", "profile": "http://www.citysearch.com/profile/787133740/marietta_ga/bar_be_que_heavern.html", "address": {"city": "Marietta", "state": "GA", "street": "186 Windy Hill Rd Sw", "postal_code": "30060"}, "capProviderId": null, "distance": null, "has_offers": false, "name": "Bar Be Que Heavern", "longitude": -84.555734, "has_menu": false, "awards": null, "user_review_count": 0}, {"business_operation_status": 1, "rating": null, "neighborhood": null, "image": null, "scorecard": null, "featured": false, "sample_categories": "Restaurants, Barbecue Restaurants", "public_id": "wings-grill-mableton", "id": 787135080, "votes": null, "tagline": null, "has_video": false, "website": null, "offers": null, "latitude": 33.823999, "politanName": "Atlanta, GA Metro ", "phone_number": "7706757267", "tags": [{"primary": false, "id": 1724, "name": "Barbecue Restaurants"}, {"primary": true, "id": 1722, "name": "Restaurants"}], "fax_number": null, "expansion": {"count": null, "uri": null}, "impression_id": "000b00000008b30f55e1594900b8800016f43b0f57", "profile": "http://www.citysearch.com/profile/787135080/mableton_ga/wings_grill.html", "address": {"city": "Mableton", "state": "GA", "street": "5345 Floyd Rd Sw", "postal_code": "30126"}, "capProviderId": null, "distance": null, "has_offers": false, "name": "Wings & Grill", "longitude": -84.574687, "has_menu": false, "awards": null, "user_review_count": 0}, {"business_operation_status": 1, "rating": null, "neighborhood": null, "image": null, "scorecard": null, "featured": false, "sample_categories": "Restaurants, Hamburgers", "public_id": "ils-wayportmc-donalds-marietta", "id": 793313560, "votes": null, "tagline": null, "has_video": false, "website": null, "offers": null, "latitude": 33.924211, "politanName": "Atlanta, GA Metro ", "phone_number": "7708509549", "tags": [{"primary": false, "id": 11270, "name": "Hamburgers"}, {"primary": true, "id": 1722, "name": "Restaurants"}], "fax_number": null, "expansion": {"count": null, "uri": null}, "impression_id": "000b000000ae1c2ffc0348486cbbda9c56b80c9fdf", "profile": "http://www.citysearch.com/profile/793313560/marietta_ga/ils_wayport_mc_donald_s.html", "address": {"city": "Marietta", "state": "GA", "street": "2375 Delk Rd Se", "postal_code": "30067"}, "capProviderId": null, "distance": null, "has_offers": false, "name": "Ils Wayport-Mc Donald's", "longitude": -84.483793, "has_menu": false, "awards": null, "user_review_count": 0}, {"business_operation_status": 1, "rating": null, "neighborhood": null, "image": null, "scorecard": null, "featured": false, "sample_categories": "Doughnut Shops, Coffeehouses", "public_id": "krispy-kreme-doughnuts-smyrna-2", "id": 816048270, "votes": null, "tagline": null, "has_video": false, "website": "http://www.citysearch.com/profile/external/816048270/smyrna_ga/krispy_kreme_doughnuts.html", "offers": null, "latitude": 33.842457, "politanName": "Atlanta, GA Metro ", "phone_number": "7704322320", "tags": [{"primary": false, "id": 1726, "name": "Coffeehouses"}, {"primary": true, "id": 1734, "name": "Doughnut Shops"}], "fax_number": null, "expansion": {"count": null, "uri": null}, "impression_id": "000b000000ed8f8c3769c04a798171a8094d6aea7d", "profile": "http://www.citysearch.com/profile/816048270/smyrna_ga/krispy_kreme_doughnuts.html", "address": {"city": "Smyrna", "state": "GA", "street": "4560 S Cobb Dr SE", "postal_code": "30080"}, "capProviderId": null, "distance": null, "has_offers": false, "name": "Krispy Kreme Doughnuts", "longitude": -84.501331, "has_menu": false, "awards": null, "user_review_count": 0}, {"business_operation_status": 1, "rating": null, "neighborhood": null, "image": null, "scorecard": null, "featured": false, "sample_categories": "Restaurants, American Express, Discover, MasterCard, Shop Online", "public_id": "metro-kitchen-marietta", "id": 728110290, "votes": null, "tagline": null, "has_video": false, "website": "http://www.citysearch.com/profile/external/728110290/marietta_ga/metro_kitchen.html", "offers": null, "latitude": 33.926059, "politanName": "Atlanta, GA Metro ", "phone_number": "7709160102", "tags": [{"primary": false, "id": 11333, "name": "American Express"}, {"primary": false, "id": 11349, "name": "Discover"}, {"primary": false, "id": 11361, "name": "MasterCard"}, {"primary": false, "id": 11375, "name": "Shop Online"}, {"primary": false, "id": 11382, "name": "Visa"}, {"primary": true, "id": 1722, "name": "Restaurants"}], "fax_number": null, "expansion": {"count": null, "uri": null}, "impression_id": "000b000000788f342d99c9418c8c331e5ca2c8fedc", "profile": "http://www.citysearch.com/profile/728110290/marietta_ga/metro_kitchen.html", "address": {"city": "Marietta", "state": "GA", "street": "4041 Kingston Ct Se # A", "postal_code": "30067"}, "capProviderId": null, "distance": null, "has_offers": false, "name": "Metro Kitchen", "longitude": -84.491207, "has_menu": false, "awards": null, "user_review_count": 0}, {"business_operation_status": 1, "rating": null, "neighborhood": null, "image": null, "scorecard": null, "featured": false, "sample_categories": "Restaurants", "public_id": "checkers-marietta-3", "id": 836194250, "votes": null, "tagline": null, "has_video": false, "website": null, "offers": null, "latitude": 33.950121, "politanName": "Atlanta, GA Metro ", "phone_number": "7704298398", "tags": [{"primary": true, "id": 1722, "name": "Restaurants"}], "fax_number": null, "expansion": {"count": null, "uri": null}, "impression_id": "000b00000074f119457fcc481eac9b5e9dd4575c18", "profile": "http://www.citysearch.com/profile/836194250/marietta_ga/checkers.html", "address": {"city": "Marietta", "state": "GA", "street": "41 Cobb Pkwy S", "postal_code": "30060"}, "capProviderId": null, "distance": null, "has_offers": false, "name": "Checkers", "longitude": -84.519571, "has_menu": false, "awards": null, "user_review_count": 0}, {"business_operation_status": 1, "rating": null, "neighborhood": null, "image": null, "scorecard": null, "featured": false, "sample_categories": "Restaurants", "public_id": "healthy-smoothies-marietta", "id": 839059750, "votes": null, "tagline": null, "has_video": false, "website": null, "offers": null, "latitude": 33.901077, "politanName": "Atlanta, GA Metro ", "phone_number": "4046044604", "tags": [{"primary": true, "id": 1722, "name": "Restaurants"}], "fax_number": null, "expansion": {"count": null, "uri": null}, "impression_id": "000b00000055d7e1d21d4040c6a6d16e592044562f", "profile": "http://www.citysearch.com/profile/839059750/marietta_ga/healthy_smoothies.html", "address": {"city": "Marietta", "state": "GA", "street": "1812 Powder Springs Rd SW", "postal_code": "30064"}, "capProviderId": null, "distance": null, "has_offers": false, "name": "Healthy Smoothies", "longitude": -84.606768, "has_menu": false, "awards": null, "user_review_count": 0}, {"business_operation_status": 1, "rating": null, "neighborhood": null, "image": null, "scorecard": null, "featured": false, "sample_categories": "Restaurants, Pizza", "public_id": "johnnys-new-york-style-pizza-smyrna-4", "id": 682425730, "votes": null, "tagline": null, "has_video": false, "website": "http://www.citysearch.com/profile/external/682425730/smyrna_ga/johnny_s_new_york_style_pizza.html", "offers": null, "latitude": 33.887838, "politanName": "Atlanta, GA Metro ", "phone_number": "7704380300", "tags": [{"primary": false, "id": 1722, "name": "Restaurants"}, {"primary": true, "id": 11299, "name": "Pizza"}], "fax_number": null, "expansion": {"count": null, "uri": null}, "impression_id": "000b000000090e0b4e50c14215ade83a2cee3f41e2", "profile": "http://www.citysearch.com/profile/682425730/smyrna_ga/johnny_s_new_york_style_pizza.html", "address": {"city": "Smyrna", "state": "GA", "street": "2651 Cumberland Blvd Se", "postal_code": "30080"}, "capProviderId": null, "distance": null, "has_offers": false, "name": "Johnny's New York Style Pizza", "longitude": -84.475608, "has_menu": true, "awards": null, "user_review_count": 0}, {"business_operation_status": 1, "rating": null, "neighborhood": null, "image": null, "scorecard": null, "featured": false, "sample_categories": "Restaurants, Pizza, American Express, Discover, MasterCard", "public_id": "st-angelos-pizza-vinings-vlg-smyrna", "id": 682274700, "votes": null, "tagline": null, "has_video": false, "website": "http://www.citysearch.com/profile/external/682274700/smyrna_ga/st_angelo_s_pizza_vinings_vlg.html", "offers": null, "latitude": 33.838436, "politanName": "Atlanta, GA Metro ", "phone_number": "4047949254", "tags": [{"primary": false, "id": 1722, "name": "Restaurants"}, {"primary": false, "id": 11333, "name": "American Express"}, {"primary": false, "id": 11349, "name": "Discover"}, {"primary": false, "id": 11361, "name": "MasterCard"}, {"primary": false, "id": 11382, "name": "Visa"}, {"primary": true, "id": 11299, "name": "Pizza"}], "fax_number": null, "expansion": {"count": null, "uri": null}, "impression_id": "000b0000008fea382cb6cf4fd5989f2a101f3822eb", "profile": "http://www.citysearch.com/profile/682274700/smyrna_ga/st_angelo_s_pizza_vinings_vlg.html", "address": {"city": "Smyrna", "state": "GA", "street": "4686 S Atlanta Rd Se", "postal_code": "30080"}, "capProviderId": null, "distance": null, "has_offers": false, "name": "St Angelo's Pizza Vinings Vlg", "longitude": -84.482318, "has_menu": true, "awards": null, "user_review_count": 5}, {"business_operation_status": 1, "rating": null, "neighborhood": null, "image": null, "scorecard": null, "featured": false, "sample_categories": "Ice Cream Parlors", "public_id": "tropicanna-billiards-grill-smyrna", "id": 614553874, "votes": null, "tagline": null, "has_video": false, "website": null, "offers": null, "latitude": 33.890202, "politanName": "Atlanta, GA Metro ", "phone_number": "7704320051", "tags": [{"primary": true, "id": 1730, "name": "Ice Cream Parlors"}], "fax_number": null, "expansion": {"count": null, "uri": null}, "impression_id": "000b00000009179aa880224b2eb62fd54731b802d5", "profile": "http://www.citysearch.com/profile/614553874/smyrna_ga/tropicanna_billiards_grill.html", "address": {"city": "Smyrna", "state": "GA", "street": "2570 Atlanta Rd SE", "postal_code": "30080"}, "capProviderId": null, "distance": null, "has_offers": false, "name": "Tropicanna Billiards & Grill", "longitude": -84.517036, "has_menu": false, "awards": null, "user_review_count": 0}, {"business_operation_status": 1, "rating": null, "neighborhood": null, "image": null, "scorecard": null, "featured": false, "sample_categories": "Restaurants, Carry Out, Hamburgers", "public_id": "mc-donalds-marietta-20", "id": 713574940, "votes": null, "tagline": null, "has_video": false, "website": "http://www.citysearch.com/profile/external/713574940/marietta_ga/mc_donald_s.html", "offers": null, "latitude": 33.924211, "politanName": "Atlanta, GA Metro ", "phone_number": "7708509549", "tags": [{"primary": false, "id": 11247, "name": "Carry Out"}, {"primary": false, "id": 11270, "name": "Hamburgers"}, {"primary": true, "id": 1722, "name": "Restaurants"}], "fax_number": null, "expansion": {"count": null, "uri": null}, "impression_id": "000b0000004418f8ffeeab4685b0c6b260f7675de3", "profile": "http://www.citysearch.com/profile/713574940/marietta_ga/mc_donald_s.html", "address": {"city": "Marietta", "state": "GA", "street": "2375 Delk Rd Se", "postal_code": "30067"}, "capProviderId": null, "distance": null, "has_offers": false, "name": "Mc Donald's", "longitude": -84.483793, "has_menu": false, "awards": null, "user_review_count": 0}, {"business_operation_status": 1, "rating": null, "neighborhood": null, "image": null, "scorecard": null, "featured": false, "sample_categories": "Restaurants", "public_id": "cafe-alice-smyrna", "id": 672226100, "votes": null, "tagline": null, "has_video": false, "website": null, "offers": null, "latitude": 33.901234, "politanName": "Atlanta, GA Metro ", "phone_number": "7709550300", "tags": [{"primary": true, "id": 1722, "name": "Restaurants"}], "fax_number": null, "expansion": {"count": null, "uri": null}, "impression_id": "000b00000017b39a4de109424485a9a55a4198e129", "profile": "http://www.citysearch.com/profile/672226100/smyrna_ga/cafe_alice.html", "address": {"city": "Smyrna", "state": "GA", "street": "2092 Cobb Pkwy", "postal_code": "30080"}, "capProviderId": null, "distance": null, "has_offers": false, "name": "Cafe Alice", "longitude": -84.488366, "has_menu": false, "awards": null, "user_review_count": 0}, {"business_operation_status": 1, "rating": null, "neighborhood": null, "image": null, "scorecard": null, "featured": false, "sample_categories": "Restaurants, Barbecue Restaurants", "public_id": "wings-express-smyrna", "id": 655890370, "votes": null, "tagline": null, "has_video": false, "website": null, "offers": null, "latitude": 33.887226, "politanName": "Atlanta, GA Metro ", "phone_number": "6783059522", "tags": [{"primary": false, "id": 1724, "name": "Barbecue Restaurants"}, {"primary": true, "id": 1722, "name": "Restaurants"}], "fax_number": null, "expansion": {"count": null, "uri": null}, "impression_id": "000b0000000325a14fe61b45c99a7d50b1c18eac2b", "profile": "http://www.citysearch.com/profile/655890370/smyrna_ga/wings_express.html", "address": {"city": "Smyrna", "state": "GA", "street": "2711 S Cobb Dr Se", "postal_code": "30080"}, "capProviderId": null, "distance": null, "has_offers": false, "name": "Wings Express", "longitude": -84.535161, "has_menu": false, "awards": null, "user_review_count": 0}, {"business_operation_status": 0, "rating": null, "neighborhood": null, "image": null, "scorecard": null, "featured": false, "sample_categories": "Restaurants, Carry Out", "public_id": "mc-donalds-smyrna-11", "id": 682428720, "votes": null, "tagline": null, "has_video": false, "website": "http://www.citysearch.com/profile/external/682428720/smyrna_ga/mc_donald_s.html", "offers": null, "latitude": 33.855476, "politanName": "Atlanta, GA Metro ", "phone_number": "7708019353", "tags": [{"primary": false, "id": 11247, "name": "Carry Out"}, {"primary": true, "id": 1722, "name": "Restaurants"}], "fax_number": null, "expansion": {"count": null, "uri": null}, "impression_id": "000b0000004143aadc7f57432cb80178b6fdc54279", "profile": "http://www.citysearch.com/profile/682428720/smyrna_ga/mc_donald_s.html", "address": {"city": "Smyrna", "state": "GA", "street": "4301 Ridgehurst Dr Se", "postal_code": "30080"}, "capProviderId": null, "distance": null, "has_offers": false, "name": "Mc Donald's", "longitude": -84.505022, "has_menu": false, "awards": null, "user_review_count": 0}, {"business_operation_status": 1, "rating": null, "neighborhood": null, "image": null, "scorecard": null, "featured": false, "sample_categories": "Catering, Restaurants", "public_id": "freckled-and-blue-kitchen-catering-smyrna", "id": 606527734, "votes": null, "tagline": null, "has_video": false, "website": null, "offers": null, "latitude": 33.842593, "politanName": "Atlanta, GA Metro ", "phone_number": "4049895571", "tags": [{"primary": false, "id": 1722, "name": "Restaurants"}, {"primary": true, "id": 1705, "name": "Catering"}], "fax_number": null, "expansion": {"count": null, "uri": null}, "impression_id": "000b0000006486c6e1295446d8b3749185af10902c", "profile": "http://www.citysearch.com/profile/606527734/smyrna_ga/freckled_and_blue_kitchen_catering.html", "address": {"city": "Smyrna", "state": "GA", "street": "4585 S Cobb Dr SE 100", "postal_code": "30080"}, "capProviderId": null, "distance": null, "has_offers": false, "name": "Freckled and Blue Kitchen & Catering", "longitude": -84.498107, "has_menu": false, "awards": null, "user_review_count": 0}, {"business_operation_status": 1, "rating": null, "neighborhood": null, "image": null, "scorecard": null, "featured": false, "sample_categories": "Restaurants, Carry Out", "public_id": "atlanta-bread-co-smyrna-3", "id": 822894330, "votes": null, "tagline": null, "has_video": false, "website": null, "offers": null, "latitude": 33.844924, "politanName": "Atlanta, GA Metro ", "phone_number": "6785030710", "tags": [{"primary": false, "id": 11247, "name": "Carry Out"}, {"primary": true, "id": 1722, "name": "Restaurants"}], "fax_number": null, "expansion": {"count": null, "uri": null}, "impression_id": "000b000000736f29067f1b49cda78e097e018da75d", "profile": "http://www.citysearch.com/profile/822894330/smyrna_ga/atlanta_bread_co.html", "address": {"city": "Smyrna", "state": "GA", "street": "1270 Winchester Pkwy SE # 219", "postal_code": "30080"}, "capProviderId": null, "distance": null, "has_offers": false, "name": "Atlanta Bread Co", "longitude": -84.489021, "has_menu": false, "awards": null, "user_review_count": 0}, {"business_operation_status": 1, "rating": null, "neighborhood": null, "image": null, "scorecard": null, "featured": false, "sample_categories": "Restaurants", "public_id": "cafe-803-marietta", "id": 838064280, "votes": null, "tagline": null, "has_video": false, "website": null, "offers": null, "latitude": 33.933132, "politanName": "Atlanta, GA Metro ", "phone_number": "7707925579", "tags": [{"primary": true, "id": 1722, "name": "Restaurants"}], "fax_number": null, "expansion": {"count": null, "uri": null}, "impression_id": "000b000000a248df1798f64fcbb403ad6fa2f00d27", "profile": "http://www.citysearch.com/profile/838064280/marietta_ga/cafe_803.html", "address": {"city": "Marietta", "state": "GA", "street": "803 Powder Springs St", "postal_code": "30064"}, "capProviderId": null, "distance": null, "has_offers": false, "name": "Cafe 803", "longitude": -84.559871, "has_menu": false, "awards": null, "user_review_count": 0}, {"business_operation_status": 1, "rating": null, "neighborhood": null, "image": null, "scorecard": null, "featured": false, "sample_categories": "Restaurants", "public_id": "tme-enterprises-i-ltd-marietta-3", "id": 793319820, "votes": null, "tagline": null, "has_video": false, "website": null, "offers": null, "latitude": 33.924583, "politanName": "Atlanta, GA Metro ", "phone_number": "7704198081", "tags": [{"primary": true, "id": 1722, "name": "Restaurants"}], "fax_number": null, "expansion": {"count": null, "uri": null}, "impression_id": "000b0000000dfd3e7f6c1745c887a7d29780741191", "profile": "http://www.citysearch.com/profile/793319820/marietta_ga/tme_enterprises_i_ltd.html", "address": {"city": "Marietta", "state": "GA", "street": "1180 Powder Springs St", "postal_code": "30064"}, "capProviderId": null, "distance": null, "has_offers": false, "name": "Tme Enterprises I LTD", "longitude": -84.575231, "has_menu": false, "awards": null, "user_review_count": 0}, {"business_operation_status": 1, "rating": null, "neighborhood": null, "image": null, "scorecard": null, "featured": false, "sample_categories": "Restaurants, Carry Out", "public_id": "atlanta-bread-co-smyrna-2", "id": 805222070, "votes": null, "tagline": null, "has_video": false, "website": null, "offers": null, "latitude": 33.923686, "politanName": "Atlanta, GA Metro ", "phone_number": "6785030710", "tags": [{"primary": false, "id": 11247, "name": "Carry Out"}, {"primary": true, "id": 1722, "name": "Restaurants"}], "fax_number": null, "expansion": {"count": null, "uri": null}, "impression_id": "000b000000c76a746ce22a4825a3fda5880251dd27", "profile": "http://www.citysearch.com/profile/805222070/smyrna_ga/atlanta_bread_co.html", "address": {"city": "Smyrna", "state": "GA", "street": "2160 Kingston CT SE", "postal_code": "30080"}, "capProviderId": null, "distance": null, "has_offers": false, "name": "Atlanta Bread Co", "longitude": -84.488921, "has_menu": false, "awards": null, "user_review_count": 0}, {"business_operation_status": 1, "rating": null, "neighborhood": null, "image": null, "scorecard": null, "featured": false, "sample_categories": "Restaurants, Barbecue Restaurants", "public_id": "wing-zone-smyrna", "id": 764933090, "votes": null, "tagline": null, "has_video": false, "website": "http://www.citysearch.com/profile/external/764933090/smyrna_ga/wing_zone.html", "offers": null, "latitude": 33.844439, "politanName": "Atlanta, GA Metro ", "phone_number": "6783090002", "tags": [{"primary": false, "id": 1724, "name": "Barbecue Restaurants"}, {"primary": true, "id": 1722, "name": "Restaurants"}], "fax_number": null, "expansion": {"count": null, "uri": null}, "impression_id": "000b00000059216a19509b4cc685b7b527d8792f5e", "profile": "http://www.citysearch.com/profile/764933090/smyrna_ga/wing_zone.html", "address": {"city": "Smyrna", "state": "GA", "street": "4490 S Cobb Dr SE", "postal_code": "30080"}, "capProviderId": null, "distance": null, "has_offers": false, "name": "Wing Zone", "longitude": -84.501907, "has_menu": true, "awards": null, "user_review_count": 0}, {"business_operation_status": 1, "rating": null, "neighborhood": null, "image": null, "scorecard": null, "featured": false, "sample_categories": "Restaurants", "public_id": "rmony-restaurant-lounge-marietta", "id": 779811170, "votes": null, "tagline": null, "has_video": false, "website": null, "offers": null, "latitude": 33.912354, "politanName": "Atlanta, GA Metro ", "phone_number": "7708019475", "tags": [{"primary": true, "id": 1722, "name": "Restaurants"}], "fax_number": null, "expansion": {"count": null, "uri": null}, "impression_id": "000b00000099da125b372544f69e6fe49177b92293", "profile": "http://www.citysearch.com/profile/779811170/marietta_ga/r_mony_restaurant_lounge.html", "address": {"city": "Marietta", "state": "GA", "street": "1644 Atlanta Rd Se", "postal_code": "30060"}, "capProviderId": null, "distance": null, "has_offers": false, "name": "R'mony Restaurant & Lounge", "longitude": -84.535382, "has_menu": true, "awards": null, "user_review_count": 0}, {"business_operation_status": 1, "rating": null, "neighborhood": null, "image": null, "scorecard": null, "featured": false, "sample_categories": "Restaurants", "public_id": "picoso-taco-factory-marietta", "id": 815654770, "votes": null, "tagline": null, "has_video": false, "website": null, "offers": null, "latitude": 33.950031, "politanName": "Atlanta, GA Metro ", "phone_number": "7707928406", "tags": [{"primary": true, "id": 1722, "name": "Restaurants"}], "fax_number": null, "expansion": {"count": null, "uri": null}, "impression_id": "000b0000006488e458561545daa9aa1906a5c4bbb7", "profile": "http://www.citysearch.com/profile/815654770/marietta_ga/picoso_taco_factory.html", "address": {"city": "Marietta", "state": "GA", "street": "50 Cobb Pkwy S", "postal_code": "30060"}, "capProviderId": null, "distance": null, "has_offers": false, "name": "Picoso Taco Factory", "longitude": -84.520799, "has_menu": false, "awards": null, "user_review_count": 0}, {"business_operation_status": 1, "rating": null, "neighborhood": null, "image": null, "scorecard": null, "featured": false, "sample_categories": "Catering, Restaurants, Pizza, Carry Out, Food Delivery", "public_id": "pizza-hut-mableton-2", "id": 835803370, "votes": null, "tagline": null, "has_video": false, "website": "http://www.citysearch.com/profile/external/835803370/mableton_ga/pizza_hut.html", "offers": null, "latitude": 33.833318, "politanName": "Atlanta, GA Metro ", "phone_number": "7707397739", "tags": [{"primary": false, "id": 1705, "name": "Catering"}, {"primary": false, "id": 1722, "name": "Restaurants"}, {"primary": false, "id": 11247, "name": "Carry Out"}, {"primary": false, "id": 11267, "name": "Food Delivery"}, {"primary": true, "id": 11299, "name": "Pizza"}], "fax_number": null, "expansion": {"count": null, "uri": null}, "impression_id": "000b000000db2ae4a750074f11b68a111f516cec82", "profile": "http://www.citysearch.com/profile/835803370/mableton_ga/pizza_hut.html", "address": {"city": "Mableton", "state": "GA", "street": "5005 Floyd Rd SW 910", "postal_code": "30126"}, "capProviderId": null, "distance": null, "has_offers": false, "name": "Pizza Hut", "longitude": -84.575479, "has_menu": true, "awards": null, "user_review_count": 0}, {"business_operation_status": 1, "rating": null, "neighborhood": null, "image": null, "scorecard": null, "featured": false, "sample_categories": "Restaurants, Delis And Delicatessens", "public_id": "zero-sub-smyrna", "id": 764935550, "votes": null, "tagline": null, "has_video": false, "website": "http://www.citysearch.com/profile/external/764935550/smyrna_ga/zero_sub.html", "offers": null, "latitude": 33.843682, "politanName": "Atlanta, GA Metro ", "phone_number": "6783093600", "tags": [{"primary": false, "id": 1727, "name": "Delis And Delicatessens"}, {"primary": true, "id": 1722, "name": "Restaurants"}], "fax_number": null, "expansion": {"count": null, "uri": null}, "impression_id": "000b000000024ccfea905b4b4dbcec4ac071c2113d", "profile": "http://www.citysearch.com/profile/764935550/smyrna_ga/zero_sub.html", "address": {"city": "Smyrna", "state": "GA", "street": "4480 S Cobb Dr SE", "postal_code": "30080"}, "capProviderId": null, "distance": null, "has_offers": false, "name": "Zero Sub", "longitude": -84.503845, "has_menu": false, "awards": null, "user_review_count": 0}, {"business_operation_status": 1, "rating": 8.0, "neighborhood": null, "image": null, "scorecard": null, "featured": false, "sample_categories": "Restaurants, Traditional American, Carry Out, American Express, Discover", "public_id": "ruby-tuesday-marietta", "id": 43851545, "votes": null, "tagline": null, "has_video": false, "website": "http://www.citysearch.com/profile/external/43851545/marietta_ga/ruby_tuesday.html", "offers": null, "latitude": 33.922906, "politanName": "Atlanta, GA Metro ", "phone_number": "7709339050", "tags": [{"primary": false, "id": 11190, "name": "Traditional American"}, {"primary": false, "id": 11247, "name": "Carry Out"}, {"primary": false, "id": 11333, "name": "American Express"}, {"primary": false, "id": 11349, "name": "Discover"}, {"primary": false, "id": 11361, "name": "MasterCard"}, {"primary": false, "id": 11375, "name": "Shop Online"}, {"primary": false, "id": 11382, "name": "Visa"}, {"primary": true, "id": 1722, "name": "Restaurants"}], "fax_number": null, "expansion": {"count": null, "uri": null}, "impression_id": "000b000000cd85c1a30f8a49d0912af7377126b289", "profile": "http://www.citysearch.com/profile/43851545/marietta_ga/ruby_tuesday.html", "address": {"city": "Marietta", "state": "GA", "street": "2435 Delk Rd SE", "postal_code": "30067"}, "capProviderId": null, "distance": null, "has_offers": false, "name": "Ruby Tuesday", "longitude": -84.485017, "has_menu": true, "awards": null, "user_review_count": 2}, {"business_operation_status": 1, "rating": null, "neighborhood": null, "image": null, "scorecard": null, "featured": false, "sample_categories": "Restaurants", "public_id": "hacienda-los-mariachis-smyrna", "id": 806154260, "votes": null, "tagline": null, "has_video": false, "website": null, "offers": null, "latitude": 33.87498, "politanName": "Atlanta, GA Metro ", "phone_number": "7704324730", "tags": [{"primary": true, "id": 1722, "name": "Restaurants"}], "fax_number": null, "expansion": {"count": null, "uri": null}, "impression_id": "000b00000023c32f13522248aca07e2ad47b4a1105", "profile": "http://www.citysearch.com/profile/806154260/smyrna_ga/hacienda_los_mariachis.html", "address": {"city": "Smyrna", "state": "GA", "street": "821 Concord Rd SE", "postal_code": "30080"}, "capProviderId": null, "distance": null, "has_offers": false, "name": "Hacienda Los Mariachis", "longitude": -84.529694, "has_menu": false, "awards": null, "user_review_count": 0}, {"business_operation_status": 1, "rating": null, "neighborhood": null, "image": null, "scorecard": null, "featured": false, "sample_categories": "Restaurants, Coffeehouses", "public_id": "drinkmor-coffee-smyrna", "id": 672304430, "votes": null, "tagline": null, "has_video": false, "website": null, "offers": null, "latitude": 33.850095, "politanName": "Atlanta, GA Metro ", "phone_number": "4047948900", "tags": [{"primary": false, "id": 1726, "name": "Coffeehouses"}, {"primary": true, "id": 1722, "name": "Restaurants"}], "fax_number": null, "expansion": {"count": null, "uri": null}, "impression_id": "000b00000018cfcef0fec44838af81d8bdb4984f89", "profile": "http://www.citysearch.com/profile/672304430/smyrna_ga/drinkmor_coffee.html", "address": {"city": "Smyrna", "state": "GA", "street": "4715 Atlanta Rd SE", "postal_code": "30080"}, "capProviderId": null, "distance": null, "has_offers": false, "name": "Drinkmor Coffee", "longitude": -84.493468, "has_menu": false, "awards": null, "user_review_count": 0}, {"business_operation_status": 1, "rating": null, "neighborhood": null, "image": null, "scorecard": null, "featured": false, "sample_categories": "Restaurants", "public_id": "monterrey-restaurant-smyrna-2", "id": 682346770, "votes": null, "tagline": null, "has_video": false, "website": null, "offers": null, "latitude": 33.871956, "politanName": "Atlanta, GA Metro ", "phone_number": "7704339344", "tags": [{"primary": true, "id": 1722, "name": "Restaurants"}], "fax_number": null, "expansion": {"count": null, "uri": null}, "impression_id": "000b0000009d8353fb0685401ca224a31b891e39c3", "profile": "http://www.citysearch.com/profile/682346770/smyrna_ga/monterrey_restaurant.html", "address": {"city": "Smyrna", "state": "GA", "street": "3326 S Cobb Dr Se", "postal_code": "30080"}, "capProviderId": null, "distance": null, "has_offers": false, "name": "Monterrey Restaurant", "longitude": -84.52909, "has_menu": false, "awards": null, "user_review_count": 0}], "histograms": [], "tag_ids": [1722], "uri": "http://api.citygridmedia.com:8080/search/places/v2/search/where?has_offers=false&type=restaurant&format=json&page=7&where=30081&rpp=50&histograms=false&publisher=10000009598&region_type=circle", "did_you_mean": "", "regions": [{"latitude": 33.883700000000005, "default_radius": 0.25, "type": "postal_code", "name": "30081", "longitude": -84.51440000000001}], "call_id": "000b000000b4f1ddd8f5824079b2e47a4c08b55b34", "first_hit": 301, "total_hits": 440, "geo_ids": [137030], "page": 7, "last_hit": 350}}