{"results": {"rpp": 50, "locations": [{"business_operation_status": 1, "rating": null, "neighborhood": null, "image": null, "scorecard": null, "featured": false, "sample_categories": "Restaurants, Delis And Delicatessens, Sandwich Shops, Carry Out", "public_id": "subway-smyrna-8", "id": 621921010, "votes": null, "tagline": null, "has_video": false, "website": "http://www.citysearch.com/profile/external/621921010/smyrna_ga/subway.html", "offers": null, "latitude": 33.883443, "politanName": "Atlanta, GA Metro ", "phone_number": "7708058522", "tags": [{"primary": false, "id": 1727, "name": "Delis And Delicatessens"}, {"primary": false, "id": 1736, "name": "Sandwich Shops"}, {"primary": false, "id": 11247, "name": "Carry Out"}, {"primary": true, "id": 1722, "name": "Restaurants"}], "fax_number": null, "expansion": {"count": null, "uri": null}, "impression_id": "000b0000005c9245b7381742eda15903302939ba84", "profile": "http://www.citysearch.com/profile/621921010/smyrna_ga/subway.html", "address": {"city": "Smyrna", "state": "GA", "street": "2517 Spring Rd Se", "postal_code": "30080"}, "capProviderId": null, "distance": null, "has_offers": false, "name": "Subway", "longitude": -84.480608, "has_menu": true, "awards": null, "user_review_count": 0}, {"business_operation_status": 1, "rating": null, "neighborhood": null, "image": null, "scorecard": null, "featured": false, "sample_categories": "Restaurants", "public_id": "cafe-210-smyrna", "id": 821687430, "votes": null, "tagline": null, "has_video": false, "website": null, "offers": null, "latitude": 33.89467, "politanName": "Atlanta, GA Metro ", "phone_number": "7704380077", "tags": [{"primary": true, "id": 1722, "name": "Restaurants"}], "fax_number": null, "expansion": {"count": null, "uri": null}, "impression_id": "000b0000007a91d4f1fb4b45059adc45be1b0c8ba4", "profile": "http://www.citysearch.com/profile/821687430/smyrna_ga/cafe_210.html", "address": {"city": "Smyrna", "state": "GA", "street": "2233 Lake Park Dr SE", "postal_code": "30080"}, "capProviderId": null, "distance": null, "has_offers": false, "name": "Cafe 210", "longitude": -84.484401, "has_menu": false, "awards": null, "user_review_count": 0}, {"business_operation_status": 1, "rating": null, "neighborhood": null, "image": null, "scorecard": null, "featured": false, "sample_categories": "Ice Cream Parlors, Restaurants, Carry Out", "public_id": "dairy-queen-smyrna-4", "id": 777697890, "votes": null, "tagline": null, "has_video": false, "website": "http://www.citysearch.com/profile/external/777697890/smyrna_ga/dairy_queen.html", "offers": null, "latitude": 33.882258, "politanName": "Atlanta, GA Metro ", "phone_number": "7704323809", "tags": [{"primary": false, "id": 1722, "name": "Restaurants"}, {"primary": false, "id": 11247, "name": "Carry Out"}, {"primary": true, "id": 1730, "name": "Ice Cream Parlors"}], "fax_number": null, "expansion": {"count": null, "uri": null}, "impression_id": "000b00000055c4dd80667e43a58bba239c62c9f10f", "profile": "http://www.citysearch.com/profile/777697890/smyrna_ga/dairy_queen.html", "address": {"city": "Smyrna", "state": "GA", "street": "1641 Spring Rd Se", "postal_code": "30080"}, "capProviderId": null, "distance": null, "has_offers": false, "name": "Dairy Queen", "longitude": -84.505572, "has_menu": true, "awards": null, "user_review_count": 0}, {"business_operation_status": 1, "rating": null, "neighborhood": null, "image": null, "scorecard": null, "featured": false, "sample_categories": "Restaurants", "public_id": "atlanta-halftime-cafe-marietta", "id": 838782380, "votes": null, "tagline": null, "has_video": false, "website": null, "offers": null, "latitude": 33.900651, "politanName": "Atlanta, GA Metro ", "phone_number": "7708500868", "tags": [{"primary": true, "id": 1722, "name": "Restaurants"}], "fax_number": null, "expansion": {"count": null, "uri": null}, "impression_id": "000b000000927cdba4d8424b5a92d99fd69b43526a", "profile": "http://www.citysearch.com/profile/838782380/marietta_ga/atlanta_halftime_cafe.html", "address": {"city": "Marietta", "state": "GA", "street": "2580 Windy Hill Rd SE", "postal_code": "30067"}, "capProviderId": null, "distance": null, "has_offers": false, "name": "Atlanta Halftime Cafe", "longitude": -84.477783, "has_menu": false, "awards": null, "user_review_count": 0}, {"business_operation_status": 1, "rating": null, "neighborhood": "Longleaf", "image": null, "scorecard": null, "featured": false, "sample_categories": "Restaurants", "public_id": "long-leaf-at-vinings-cafe-smyrna", "id": 45555721, "votes": null, "tagline": null, "has_video": false, "website": null, "offers": null, "latitude": 33.835463, "politanName": "Atlanta, GA Metro ", "phone_number": "4047999721", "tags": [{"primary": true, "id": 1722, "name": "Restaurants"}], "fax_number": null, "expansion": {"count": null, "uri": null}, "impression_id": "000b0000004d8a1b3c864046588cf197fdbb198c64", "profile": "http://www.citysearch.com/profile/45555721/smyrna_ga/long_leaf_at_vinings_cafe.html", "address": {"city": "Smyrna", "state": "GA", "street": "4829 Longcourt Dr SE", "postal_code": "30080"}, "capProviderId": null, "distance": null, "has_offers": false, "name": "Long Leaf At Vinings Cafe", "longitude": -84.484693, "has_menu": false, "awards": null, "user_review_count": 0}, {"business_operation_status": 1, "rating": null, "neighborhood": null, "image": null, "scorecard": null, "featured": false, "sample_categories": "Ice Cream Parlors", "public_id": "marble-slab-creamery-smyrna", "id": 822378770, "votes": null, "tagline": null, "has_video": false, "website": null, "offers": null, "latitude": 33.884889, "politanName": "Atlanta, GA Metro ", "phone_number": "7704333336", "tags": [{"primary": true, "id": 1730, "name": "Ice Cream Parlors"}], "fax_number": null, "expansion": {"count": null, "uri": null}, "impression_id": "000b000000de9ed4b0c7894696b08d25dd4efacab9", "profile": "http://www.citysearch.com/profile/822378770/smyrna_ga/marble_slab_creamery.html", "address": {"city": "Smyrna", "state": "GA", "street": "400 Village Green Cir SE", "postal_code": "30080"}, "capProviderId": null, "distance": null, "has_offers": false, "name": "Marble Slab Creamery", "longitude": -84.516415, "has_menu": false, "awards": null, "user_review_count": 0}, {"business_operation_status": 1, "rating": null, "neighborhood": "Highlands Park", "image": null, "scorecard": null, "featured": false, "sample_categories": "Restaurants", "public_id": "coffeenet-smyrna", "id": 822796550, "votes": null, "tagline": null, "has_video": false, "website": null, "offers": null, "latitude": 33.827432, "politanName": "Atlanta, GA Metro ", "phone_number": "4047944468", "tags": [{"primary": true, "id": 1722, "name": "Restaurants"}], "fax_number": null, "expansion": {"count": null, "uri": null}, "impression_id": "000b0000004f6cb3b1c8484ec9b5c55993b69d9212", "profile": "http://www.citysearch.com/profile/822796550/smyrna_ga/coffeenet.html", "address": {"city": "Smyrna", "state": "GA", "street": "3100 Highlands Pkwy SE", "postal_code": "30082"}, "capProviderId": null, "distance": null, "has_offers": false, "name": "Coffeenet", "longitude": -84.49424, "has_menu": false, "awards": null, "user_review_count": 0}, {"business_operation_status": 1, "rating": null, "neighborhood": null, "image": null, "scorecard": null, "featured": false, "sample_categories": "Restaurants", "public_id": "champs-barbq-smyrna", "id": 819797740, "votes": null, "tagline": null, "has_video": false, "website": null, "offers": null, "latitude": 33.896088, "politanName": "Atlanta, GA Metro ", "phone_number": "7704386618", "tags": [{"primary": true, "id": 1722, "name": "Restaurants"}], "fax_number": null, "expansion": {"count": null, "uri": null}, "impression_id": "000b000000115fe42244b14a948587e6e1f46c1444", "profile": "http://www.citysearch.com/profile/819797740/smyrna_ga/champs_bar_b_q.html", "address": {"city": "Smyrna", "state": "GA", "street": "2300 S Cobb Dr SE", "postal_code": "30080"}, "capProviderId": null, "distance": null, "has_offers": false, "name": "Champs Bar-B-Q", "longitude": -84.539784, "has_menu": false, "awards": null, "user_review_count": 0}, {"business_operation_status": 1, "rating": null, "neighborhood": null, "image": null, "scorecard": null, "featured": false, "sample_categories": "Restaurants, Carry Out, Italian, Pizza", "public_id": "sbarro-smyrna", "id": 45082264, "votes": null, "tagline": null, "has_video": false, "website": "http://www.citysearch.com/profile/external/45082264/smyrna_ga/sbarro.html", "offers": null, "latitude": 33.874593, "politanName": "Atlanta, GA Metro ", "phone_number": "7704358311", "tags": [{"primary": false, "id": 11247, "name": "Carry Out"}, {"primary": false, "id": 11279, "name": "Italian"}, {"primary": false, "id": 11299, "name": "Pizza"}, {"primary": true, "id": 1722, "name": "Restaurants"}], "fax_number": null, "expansion": {"count": null, "uri": null}, "impression_id": "000b0000004e6ceb6ed9a842a981a607cf83b90fdb", "profile": "http://www.citysearch.com/profile/45082264/smyrna_ga/sbarro.html", "address": {"city": "Smyrna", "state": "GA", "street": "1000 Cumberland Ct SE", "postal_code": "30080"}, "capProviderId": null, "distance": null, "has_offers": false, "name": "Sbarro", "longitude": -84.479034, "has_menu": true, "awards": null, "user_review_count": 0}, {"business_operation_status": 1, "rating": 6.0, "neighborhood": null, "image": null, "scorecard": null, "featured": false, "sample_categories": "Restaurants, Bars & Pubs, Taverns, Barbecue Restaurants, MasterCard", "public_id": "wings-pub-smyrna", "id": 2922999, "votes": null, "tagline": null, "has_video": false, "website": null, "offers": null, "latitude": 33.894336, "politanName": "Atlanta, GA Metro ", "phone_number": "7704350007", "tags": [{"primary": false, "id": 1686, "name": "Bars & Pubs"}, {"primary": false, "id": 1702, "name": "Taverns"}, {"primary": false, "id": 1724, "name": "Barbecue Restaurants"}, {"primary": false, "id": 11361, "name": "MasterCard"}, {"primary": false, "id": 11382, "name": "Visa"}, {"primary": true, "id": 1722, "name": "Restaurants"}], "fax_number": null, "expansion": {"count": null, "uri": null}, "impression_id": "000b00000031a1e3c084344ec787e6465386151c1b", "profile": "http://www.citysearch.com/profile/2922999/smyrna_ga/wings_pub.html", "address": {"city": "Smyrna", "state": "GA", "street": "1024 Windy Hill Rd SE", "postal_code": "30080"}, "capProviderId": null, "distance": null, "has_offers": false, "name": "Wings Pub", "longitude": -84.52318, "has_menu": false, "awards": null, "user_review_count": 0}, {"business_operation_status": 1, "rating": null, "neighborhood": null, "image": null, "scorecard": null, "featured": false, "sample_categories": "Restaurants, Coffeehouses", "public_id": "starbucks-smyrna-6", "id": 834619900, "votes": null, "tagline": null, "has_video": false, "website": null, "offers": null, "latitude": 33.887919, "politanName": "Atlanta, GA Metro ", "phone_number": "7709550322", "tags": [{"primary": false, "id": 1726, "name": "Coffeehouses"}, {"primary": true, "id": 1722, "name": "Restaurants"}], "fax_number": null, "expansion": {"count": null, "uri": null}, "impression_id": "000b0000000231f216f21e46098b6347f6d4f48a4b", "profile": "http://www.citysearch.com/profile/834619900/smyrna_ga/starbucks.html", "address": {"city": "Smyrna", "state": "GA", "street": "2670 Cobb Pkwy SE", "postal_code": "30080"}, "capProviderId": null, "distance": null, "has_offers": false, "name": "Starbucks", "longitude": -84.474232, "has_menu": true, "awards": null, "user_review_count": 0}, {"business_operation_status": 1, "rating": 8.0, "neighborhood": null, "image": null, "scorecard": null, "featured": false, "sample_categories": "Ice Cream Parlors, Dessert Shops", "public_id": "bambi-ice-cream-smyrna", "id": 37647413, "votes": null, "tagline": null, "has_video": false, "website": null, "offers": null, "latitude": 33.902095, "politanName": "Atlanta, GA Metro ", "phone_number": "7703191929", "tags": [{"primary": false, "id": 1728, "name": "Dessert Shops"}, {"primary": true, "id": 1730, "name": "Ice Cream Parlors"}], "fax_number": null, "expansion": {"count": null, "uri": null}, "impression_id": "000b000000a39d67d7b20048138b7614047e9aa903", "profile": "http://www.citysearch.com/profile/37647413/smyrna_ga/bambi_ice_cream.html", "address": {"city": "Smyrna", "state": "GA", "street": "441 Pat Mell Rd SE", "postal_code": "30080"}, "capProviderId": null, "distance": null, "has_offers": false, "name": "Bambi Ice Cream", "longitude": -84.540382, "has_menu": false, "awards": null, "user_review_count": 1}, {"business_operation_status": 1, "rating": null, "neighborhood": null, "image": null, "scorecard": null, "featured": false, "sample_categories": "Restaurants", "public_id": "china-buffet-chinese-rstrnt-smyrna", "id": 826425600, "votes": null, "tagline": null, "has_video": false, "website": null, "offers": null, "latitude": 33.884505, "politanName": "Atlanta, GA Metro ", "phone_number": "7703338328", "tags": [{"primary": true, "id": 1722, "name": "Restaurants"}], "fax_number": null, "expansion": {"count": null, "uri": null}, "impression_id": "000b0000002eb3b6b08e694b3990ed6fc90264ba48", "profile": "http://www.citysearch.com/profile/826425600/smyrna_ga/china_buffet_chinese_rstrnt.html", "address": {"city": "Smyrna", "state": "GA", "street": "2800 #a Spring Road", "postal_code": "30080"}, "capProviderId": null, "distance": null, "has_offers": false, "name": "China Buffet Chinese Rstrnt", "longitude": -84.4741, "has_menu": false, "awards": null, "user_review_count": 0}, {"business_operation_status": 1, "rating": null, "neighborhood": null, "image": null, "scorecard": null, "featured": false, "sample_categories": "Water Well Drilling, Drilling & Boring Contractors, Food Delivery", "public_id": "j-wings-more-smyrna", "id": 2962298, "votes": null, "tagline": null, "has_video": false, "website": null, "offers": null, "latitude": 33.885247, "politanName": "Atlanta, GA Metro ", "phone_number": "7702269977", "tags": [{"primary": false, "id": 889, "name": "Water Well Drilling"}, {"primary": false, "id": 892, "name": "Drilling & Boring Contractors"}, {"primary": true, "id": 11267, "name": "Food Delivery"}], "fax_number": null, "expansion": {"count": null, "uri": null}, "impression_id": "000b000000d1a775da1f2a404cb89f63e689c23b7b", "profile": "http://www.citysearch.com/profile/2962298/smyrna_ga/j_wings_more.html", "address": {"city": "Smyrna", "state": "GA", "street": "2778 Cumberland Blvd SE Ste 574", "postal_code": "30080"}, "capProviderId": null, "distance": null, "has_offers": false, "name": "J Wings & More", "longitude": -84.47677, "has_menu": false, "awards": null, "user_review_count": 0}, {"business_operation_status": 1, "rating": null, "neighborhood": null, "image": null, "scorecard": null, "featured": false, "sample_categories": "Restaurants", "public_id": "mexican-taqueria-smyrna", "id": 623985844, "votes": null, "tagline": null, "has_video": false, "website": null, "offers": null, "latitude": 33.889788, "politanName": "Atlanta, GA Metro ", "phone_number": "7709891248", "tags": [{"primary": true, "id": 1722, "name": "Restaurants"}], "fax_number": null, "expansion": {"count": null, "uri": null}, "impression_id": "000b000000ce06322719cb4dd0939ef2628e6ba01f", "profile": "http://www.citysearch.com/profile/623985844/smyrna_ga/mexican_taqueria.html", "address": {"city": "Smyrna", "state": "GA", "street": "2599 S Cobb Dr SE", "postal_code": "30080"}, "capProviderId": null, "distance": null, "has_offers": false, "name": "Mexican Taqueria", "longitude": -84.536114, "has_menu": false, "awards": null, "user_review_count": 0}, {"business_operation_status": 1, "rating": null, "neighborhood": null, "image": null, "scorecard": null, "featured": false, "sample_categories": "Restaurants, Cajun & Creole", "public_id": "on-the-bayou-smyrna", "id": 764832940, "votes": null, "tagline": null, "has_video": false, "website": null, "offers": null, "latitude": 33.879071, "politanName": "Atlanta, GA Metro ", "phone_number": "7704343329", "tags": [{"primary": false, "id": 11245, "name": "Cajun & Creole"}, {"primary": true, "id": 1722, "name": "Restaurants"}], "fax_number": null, "expansion": {"count": null, "uri": null}, "impression_id": "000b00000037e304c9bc974d7cbb644ff5dc1b5620", "profile": "http://www.citysearch.com/profile/764832940/smyrna_ga/on_the_bayou.html", "address": {"city": "Smyrna", "state": "GA", "street": "3120 S Cobb Dr SE", "postal_code": "30080"}, "capProviderId": null, "distance": null, "has_offers": false, "name": "On the Bayou", "longitude": -84.532683, "has_menu": false, "awards": null, "user_review_count": 0}, {"business_operation_status": 1, "rating": null, "neighborhood": null, "image": null, "scorecard": null, "featured": false, "sample_categories": "Juice & Smoothie Shops, Restaurants, Carry Out", "public_id": "orange-julius-smyrna", "id": 764893330, "votes": null, "tagline": null, "has_video": false, "website": null, "offers": null, "latitude": 33.882258, "politanName": "Atlanta, GA Metro ", "phone_number": "7704323809", "tags": [{"primary": false, "id": 1722, "name": "Restaurants"}, {"primary": false, "id": 11247, "name": "Carry Out"}, {"primary": true, "id": 1735, "name": "Juice & Smoothie Shops"}], "fax_number": null, "expansion": {"count": null, "uri": null}, "impression_id": "000b000000529e9e67ee724a70986a5d7e5ea25914", "profile": "http://www.citysearch.com/profile/764893330/smyrna_ga/orange_julius.html", "address": {"city": "Smyrna", "state": "GA", "street": "1641 Spring Rd SE", "postal_code": "30080"}, "capProviderId": null, "distance": null, "has_offers": false, "name": "Orange Julius", "longitude": -84.505572, "has_menu": false, "awards": null, "user_review_count": 0}, {"business_operation_status": 1, "rating": null, "neighborhood": null, "image": null, "scorecard": null, "featured": false, "sample_categories": "Restaurants", "public_id": "gato-bizco-cafe-inc-smyrna", "id": 813337660, "votes": null, "tagline": null, "has_video": false, "website": null, "offers": null, "latitude": 33.882251, "politanName": "Atlanta, GA Metro ", "phone_number": "7703333300", "tags": [{"primary": true, "id": 1722, "name": "Restaurants"}], "fax_number": null, "expansion": {"count": null, "uri": null}, "impression_id": "000b000000de07a9caf68f4668be2344ade348fbaf", "profile": "http://www.citysearch.com/profile/813337660/smyrna_ga/gato_bizco_cafe_inc.html", "address": {"city": "Smyrna", "state": "GA", "street": "801 Country Park Dr SE", "postal_code": "30080"}, "capProviderId": null, "distance": null, "has_offers": false, "name": "Gato Bizco Cafe Inc", "longitude": -84.489138, "has_menu": false, "awards": null, "user_review_count": 0}, {"business_operation_status": 1, "rating": null, "neighborhood": null, "image": null, "scorecard": null, "featured": false, "sample_categories": "Restaurants, Barbecue Restaurants", "public_id": "boyds-bar-be-que-smyrna", "id": 793283860, "votes": null, "tagline": null, "has_video": false, "website": null, "offers": null, "latitude": 33.890044, "politanName": "Atlanta, GA Metro ", "phone_number": "6783099726", "tags": [{"primary": false, "id": 1724, "name": "Barbecue Restaurants"}, {"primary": true, "id": 1722, "name": "Restaurants"}], "fax_number": null, "expansion": {"count": null, "uri": null}, "impression_id": "000b000000932e65222bc54bf583c4af9e7c73c37d", "profile": "http://www.citysearch.com/profile/793283860/smyrna_ga/boyd_s_bar_be_que.html", "address": {"city": "Smyrna", "state": "GA", "street": "2599 S Cobb Dr Se", "postal_code": "30080"}, "capProviderId": null, "distance": null, "has_offers": false, "name": "Boyd's Bar Be Que", "longitude": -84.536832, "has_menu": false, "awards": null, "user_review_count": 0}, {"business_operation_status": 1, "rating": null, "neighborhood": null, "image": null, "scorecard": null, "featured": false, "sample_categories": "Coffeehouses, Coffee & Tea Shops", "public_id": "starbucks-smyrna-5", "id": 713648460, "votes": null, "tagline": null, "has_video": false, "website": "http://www.citysearch.com/profile/external/713648460/smyrna_ga/starbucks.html", "offers": null, "latitude": 33.889232, "politanName": "Atlanta, GA Metro ", "phone_number": "7709550337", "tags": [{"primary": false, "id": 1711, "name": "Coffee & Tea Shops"}, {"primary": true, "id": 1726, "name": "Coffeehouses"}], "fax_number": null, "expansion": {"count": null, "uri": null}, "impression_id": "000b000000d63f0bf3b0d94b82b25e7f5af3fa7813", "profile": "http://www.citysearch.com/profile/713648460/smyrna_ga/starbucks.html", "address": {"city": "Smyrna", "state": "GA", "street": "2600 Cobb Pkwy Se", "postal_code": "30080"}, "capProviderId": null, "distance": null, "has_offers": false, "name": "Starbucks", "longitude": -84.474858, "has_menu": false, "awards": null, "user_review_count": 0}, {"business_operation_status": 0, "rating": 9.0, "neighborhood": null, "image": null, "scorecard": null, "featured": false, "sample_categories": "Restaurants", "public_id": "great-american-soup-company-smyrna", "id": 2922976, "votes": null, "tagline": null, "has_video": false, "website": null, "offers": null, "latitude": 33.838436, "politanName": "Atlanta, GA Metro ", "phone_number": "4047927687", "tags": [{"primary": true, "id": 1722, "name": "Restaurants"}], "fax_number": null, "expansion": {"count": null, "uri": null}, "impression_id": "000b0000005c0501bacfd44da0a846882d9ee89782", "profile": "http://www.citysearch.com/profile/2922976/smyrna_ga/great_american_soup_company.html", "address": {"city": "Smyrna", "state": "GA", "street": "4686 S Atlanta Rd SE", "postal_code": "30080"}, "capProviderId": null, "distance": null, "has_offers": false, "name": "Great American Soup Company", "longitude": -84.482318, "has_menu": false, "awards": null, "user_review_count": 0}, {"business_operation_status": 1, "rating": null, "neighborhood": null, "image": null, "scorecard": null, "featured": false, "sample_categories": "Restaurants, Bars & Clubs, Bars & Pubs", "public_id": "boomers-bar-grill-smyrna", "id": 764862000, "votes": null, "tagline": null, "has_video": false, "website": null, "offers": null, "latitude": 33.899075, "politanName": "Atlanta, GA Metro ", "phone_number": "7709569555", "tags": [{"primary": false, "id": 164, "name": "Bars & Clubs"}, {"primary": false, "id": 1686, "name": "Bars & Pubs"}, {"primary": true, "id": 1722, "name": "Restaurants"}], "fax_number": null, "expansion": {"count": null, "uri": null}, "impression_id": "000b0000007bd0e336557a4cfc98863790d40a577d", "profile": "http://www.citysearch.com/profile/764862000/smyrna_ga/boomer_s_bar_grill.html", "address": {"city": "Smyrna", "state": "GA", "street": "2105 S Cobb Dr SE", "postal_code": "30080"}, "capProviderId": null, "distance": null, "has_offers": false, "name": "Boomer's Bar & Grill", "longitude": -84.54028, "has_menu": false, "awards": null, "user_review_count": 0}, {"business_operation_status": 1, "rating": null, "neighborhood": "Kenwood", "image": null, "scorecard": null, "featured": false, "sample_categories": "Restaurants, Asian, Chinese, Luaus", "public_id": "new-china-chinese-restaurant-smyrna", "id": 777785680, "votes": null, "tagline": null, "has_video": false, "website": null, "offers": null, "latitude": 33.831526, "politanName": "Atlanta, GA Metro ", "phone_number": "7708030086", "tags": [{"primary": false, "id": 11235, "name": "Asian"}, {"primary": false, "id": 11252, "name": "Chinese"}, {"primary": false, "id": 11285, "name": "Luaus"}, {"primary": true, "id": 1722, "name": "Restaurants"}], "fax_number": null, "expansion": {"count": null, "uri": null}, "impression_id": "000b000000f99648bd4af9472c8c47b05f708a4712", "profile": "http://www.citysearch.com/profile/777785680/smyrna_ga/new_china_chinese_restaurant.html", "address": {"city": "Smyrna", "state": "GA", "street": "4924 S Cobb Dr Se # E", "postal_code": "30080"}, "capProviderId": null, "distance": null, "has_offers": false, "name": "New China Chinese Restaurant", "longitude": -84.493417, "has_menu": true, "awards": null, "user_review_count": 4}, {"business_operation_status": 1, "rating": null, "neighborhood": null, "image": null, "scorecard": null, "featured": false, "sample_categories": "Restaurants", "public_id": "mamas-soulfood-kitchen-smyrna", "id": 777797920, "votes": null, "tagline": null, "has_video": false, "website": null, "offers": null, "latitude": 33.891089, "politanName": "Atlanta, GA Metro ", "phone_number": "7704357779", "tags": [{"primary": true, "id": 1722, "name": "Restaurants"}], "fax_number": null, "expansion": {"count": null, "uri": null}, "impression_id": "000b0000005d8f67b0c561426eb20dfcac41da9d94", "profile": "http://www.citysearch.com/profile/777797920/smyrna_ga/mama_s_soulfood_kitchen.html", "address": {"city": "Smyrna", "state": "GA", "street": "1651 Roswell St Se", "postal_code": "30080"}, "capProviderId": null, "distance": null, "has_offers": false, "name": "Mama's Soulfood Kitchen", "longitude": -84.504679, "has_menu": false, "awards": null, "user_review_count": 1}, {"business_operation_status": 1, "rating": null, "neighborhood": null, "image": null, "scorecard": null, "featured": false, "sample_categories": "Restaurants", "public_id": "tropical-smoothie-cafe-smyrna", "id": 807164030, "votes": null, "tagline": null, "has_video": false, "website": null, "offers": null, "latitude": 33.884019, "politanName": "Atlanta, GA Metro ", "phone_number": "7704369980", "tags": [{"primary": true, "id": 1722, "name": "Restaurants"}], "fax_number": null, "expansion": {"count": null, "uri": null}, "impression_id": "000b000000db44ce4bb0c84ee289bc8b5bc82737cd", "profile": "http://www.citysearch.com/profile/807164030/smyrna_ga/tropical_smoothie_cafe.html", "address": {"city": "Smyrna", "state": "GA", "street": "1265 W Spring St SE", "postal_code": "30080"}, "capProviderId": null, "distance": null, "has_offers": false, "name": "Tropical Smoothie Cafe", "longitude": -84.515924, "has_menu": false, "awards": null, "user_review_count": 0}, {"business_operation_status": 1, "rating": null, "neighborhood": null, "image": null, "scorecard": null, "featured": false, "sample_categories": "Restaurants, Carry Out, Pizza", "public_id": "little-caesars-pizza-smyrna-3", "id": 787125170, "votes": null, "tagline": null, "has_video": false, "website": "http://www.citysearch.com/profile/external/787125170/smyrna_ga/little_caesars_pizza.html", "offers": null, "latitude": 33.882426, "politanName": "Atlanta, GA Metro ", "phone_number": "7709891088", "tags": [{"primary": false, "id": 11247, "name": "Carry Out"}, {"primary": false, "id": 11299, "name": "Pizza"}, {"primary": true, "id": 1722, "name": "Restaurants"}], "fax_number": null, "expansion": {"count": null, "uri": null}, "impression_id": "000b000000898840a5fdc04cab909184116ed2b682", "profile": "http://www.citysearch.com/profile/787125170/smyrna_ga/little_caesars_pizza.html", "address": {"city": "Smyrna", "state": "GA", "street": "2350 Spring Rd Se", "postal_code": "30080"}, "capProviderId": null, "distance": null, "has_offers": false, "name": "Little Caesars Pizza", "longitude": -84.487375, "has_menu": false, "awards": null, "user_review_count": 0}, {"business_operation_status": 1, "rating": null, "neighborhood": null, "image": null, "scorecard": null, "featured": false, "sample_categories": "Restaurants, Pizza", "public_id": "johnnys-new-york-style-pizza-smyrna-2", "id": 653590150, "votes": null, "tagline": null, "has_video": false, "website": null, "offers": null, "latitude": 33.887146, "politanName": "Atlanta, GA Metro ", "phone_number": "7704380300", "tags": [{"primary": false, "id": 1722, "name": "Restaurants"}, {"primary": true, "id": 11299, "name": "Pizza"}], "fax_number": null, "expansion": {"count": null, "uri": null}, "impression_id": "000b000000ab36dc251f014b90beb6865b0ac2e510", "profile": "http://www.citysearch.com/profile/653590150/smyrna_ga/johnny_s_new_york_style_pizza.html", "address": {"city": "Smyrna", "state": "GA", "street": "2700 Cobb Pkwy Se", "postal_code": "30080"}, "capProviderId": null, "distance": null, "has_offers": false, "name": "Johnny's New York Style Pizza", "longitude": -84.47315, "has_menu": false, "awards": null, "user_review_count": 0}, {"business_operation_status": 1, "rating": null, "neighborhood": null, "image": null, "scorecard": null, "featured": false, "sample_categories": "Restaurants, Bars & Clubs, Bars & Pubs, Carry Out, Steakhouse", "public_id": "applebees-neighborhood-grill-atlanta-5", "id": 682623920, "votes": null, "tagline": null, "has_video": false, "website": "http://www.citysearch.com/profile/external/682623920/atlanta_ga/applebee_s.html", "offers": null, "latitude": 33.884889, "politanName": "Atlanta, GA Metro ", "phone_number": "7704321974", "tags": [{"primary": false, "id": 164, "name": "Bars & Clubs"}, {"primary": false, "id": 1686, "name": "Bars & Pubs"}, {"primary": false, "id": 11247, "name": "Carry Out"}, {"primary": false, "id": 11316, "name": "Steakhouse"}, {"primary": false, "id": 11333, "name": "American Express"}, {"primary": false, "id": 11349, "name": "Discover"}, {"primary": false, "id": 11361, "name": "MasterCard"}, {"primary": false, "id": 11382, "name": "Visa"}, {"primary": true, "id": 1722, "name": "Restaurants"}], "fax_number": null, "expansion": {"count": null, "uri": null}, "impression_id": "000b000000fb98cad52ddd4e8a90f5e564ee6190ef", "profile": "http://www.citysearch.com/profile/682623920/atlanta_ga/applebee_s.html", "address": {"city": "Atlanta", "state": "GA", "street": "2728 New Spring Road S.E.", "postal_code": "30339"}, "capProviderId": null, "distance": null, "has_offers": false, "name": "Applebee's", "longitude": -84.473777, "has_menu": false, "awards": null, "user_review_count": 0}, {"business_operation_status": 1, "rating": null, "neighborhood": null, "image": null, "scorecard": null, "featured": false, "sample_categories": "Restaurants", "public_id": "mobile-pit-stop-of-atlanta-smyrna", "id": 754713040, "votes": null, "tagline": null, "has_video": false, "website": null, "offers": null, "latitude": 33.884704, "politanName": "Atlanta, GA Metro ", "phone_number": "7707786349", "tags": [{"primary": true, "id": 1722, "name": "Restaurants"}], "fax_number": null, "expansion": {"count": null, "uri": null}, "impression_id": "000b00000091a6e60076aa4dfb956442f56636b1ea", "profile": "http://www.citysearch.com/profile/754713040/smyrna_ga/mobile_pit_stop_of_atlanta.html", "address": {"city": "Smyrna", "state": "GA", "street": "2051 Glenroy Dr SE", "postal_code": "30080"}, "capProviderId": null, "distance": null, "has_offers": false, "name": "Mobile Pit Stop of Atlanta", "longitude": -84.4941, "has_menu": false, "awards": null, "user_review_count": 0}, {"business_operation_status": 1, "rating": null, "neighborhood": "Kenwood", "image": null, "scorecard": null, "featured": false, "sample_categories": "Restaurants", "public_id": "buffalo-bobs-original-wings-smyrna", "id": 827235140, "votes": null, "tagline": null, "has_video": false, "website": null, "offers": null, "latitude": 33.831526, "politanName": "Atlanta, GA Metro ", "phone_number": "7703338640", "tags": [{"primary": true, "id": 1722, "name": "Restaurants"}], "fax_number": null, "expansion": {"count": null, "uri": null}, "impression_id": "000b000000f6f733906f62425c8bbfc0fb67e75b4b", "profile": "http://www.citysearch.com/profile/827235140/smyrna_ga/buffalo_bob_s_original_wings.html", "address": {"city": "Smyrna", "state": "GA", "street": "4924 S Cobb Dr SE", "postal_code": "30080"}, "capProviderId": null, "distance": null, "has_offers": false, "name": "Buffalo Bob's Original Wings", "longitude": -84.493417, "has_menu": false, "awards": null, "user_review_count": 0}, {"business_operation_status": 1, "rating": null, "neighborhood": null, "image": null, "scorecard": null, "featured": false, "sample_categories": "Ice Cream Parlors", "public_id": "smyrna-old-fashioned-ice-cream-smyrna", "id": 829274170, "votes": null, "tagline": null, "has_video": false, "website": null, "offers": null, "latitude": 33.8824, "politanName": "Atlanta, GA Metro ", "phone_number": "7704345560", "tags": [{"primary": true, "id": 1730, "name": "Ice Cream Parlors"}], "fax_number": null, "expansion": {"count": null, "uri": null}, "impression_id": "000b0000007789b9dacba144859322f9bd0701121d", "profile": "http://www.citysearch.com/profile/829274170/smyrna_ga/smyrna_old_fashioned_ice_cream.html", "address": {"city": "Smyrna", "state": "GA", "street": "885 Flagler Cir SE", "postal_code": "30080"}, "capProviderId": null, "distance": null, "has_offers": false, "name": "Smyrna Old Fashioned Ice Cream", "longitude": -84.527884, "has_menu": false, "awards": null, "user_review_count": 0}, {"business_operation_status": 1, "rating": null, "neighborhood": null, "image": null, "scorecard": null, "featured": false, "sample_categories": "Restaurants, Mexican, Carry Out", "public_id": "del-taco-smyrna", "id": 762762470, "votes": null, "tagline": null, "has_video": false, "website": "http://www.citysearch.com/profile/external/762762470/smyrna_ga/del_taco.html", "offers": null, "latitude": 33.891305, "politanName": "Atlanta, GA Metro ", "phone_number": "7709559115", "tags": [{"primary": false, "id": 11208, "name": "Mexican"}, {"primary": false, "id": 11247, "name": "Carry Out"}, {"primary": true, "id": 1722, "name": "Restaurants"}], "fax_number": null, "expansion": {"count": null, "uri": null}, "impression_id": "000b000000cbd90d2ed02142cf9363787ccc7c21b7", "profile": "http://www.citysearch.com/profile/762762470/smyrna_ga/del_taco.html", "address": {"city": "Smyrna", "state": "GA", "street": "2521 Cobb Pkwy SE", "postal_code": "30080"}, "capProviderId": null, "distance": null, "has_offers": false, "name": "Del Taco", "longitude": -84.47582, "has_menu": false, "awards": null, "user_review_count": 0}, {"business_operation_status": 1, "rating": null, "neighborhood": null, "image": null, "scorecard": null, "featured": false, "sample_categories": "Restaurants, Mexican", "public_id": "casa-de-oro-mexican-restaurant-smyrna", "id": 777623800, "votes": null, "tagline": null, "has_video": false, "website": null, "offers": null, "latitude": 33.87498, "politanName": "Atlanta, GA Metro ", "phone_number": "7704360333", "tags": [{"primary": false, "id": 11208, "name": "Mexican"}, {"primary": true, "id": 1722, "name": "Restaurants"}], "fax_number": null, "expansion": {"count": null, "uri": null}, "impression_id": "000b00000089b1f4dc735b43b088b9f37715747e24", "profile": "http://www.citysearch.com/profile/777623800/smyrna_ga/casa_de_oro_mexican_restaurant.html", "address": {"city": "Smyrna", "state": "GA", "street": "821 Concord Rd Se", "postal_code": "30080"}, "capProviderId": null, "distance": null, "has_offers": false, "name": "Casa De Oro Mexican Restaurant", "longitude": -84.529694, "has_menu": false, "awards": null, "user_review_count": 0}, {"business_operation_status": 1, "rating": null, "neighborhood": null, "image": null, "scorecard": null, "featured": false, "sample_categories": "Restaurants, Barbecue Restaurants", "public_id": "wing-factory-atlanta-3", "id": 802521640, "votes": null, "tagline": null, "has_video": false, "website": null, "offers": null, "latitude": 33.882005, "politanName": "Atlanta, GA Metro ", "phone_number": "7704856950", "tags": [{"primary": false, "id": 1724, "name": "Barbecue Restaurants"}, {"primary": true, "id": 1722, "name": "Restaurants"}], "fax_number": null, "expansion": {"count": null, "uri": null}, "impression_id": "000b0000005b3929efa3ca4c09aba7b66234800152", "profile": "http://www.citysearch.com/profile/802521640/atlanta_ga/wing_factory.html", "address": {"city": "Atlanta", "state": "GA", "street": "2997 Cumberland Blvd Se", "postal_code": "30339"}, "capProviderId": null, "distance": null, "has_offers": false, "name": "Wing Factory", "longitude": -84.474455, "has_menu": true, "awards": null, "user_review_count": 0}, {"business_operation_status": 0, "rating": null, "neighborhood": null, "image": null, "scorecard": null, "featured": false, "sample_categories": "Restaurants", "public_id": "zokas-smyrna", "id": 43845390, "votes": null, "tagline": null, "has_video": false, "website": null, "offers": null, "latitude": 33.890523, "politanName": "Atlanta, GA Metro ", "phone_number": "7704314727", "tags": [{"primary": true, "id": 1722, "name": "Restaurants"}], "fax_number": null, "expansion": {"count": null, "uri": null}, "impression_id": "000b0000007896fe757d9540a39d49eee5ed4c4089", "profile": "http://www.citysearch.com/profile/43845390/smyrna_ga/zoka_s.html", "address": {"city": "Smyrna", "state": "GA", "street": "2506 Atlanta Rd SE Ste O8", "postal_code": "30080"}, "capProviderId": null, "distance": null, "has_offers": false, "name": "Zoka's", "longitude": -84.51736, "has_menu": true, "awards": null, "user_review_count": 0}, {"business_operation_status": 1, "rating": null, "neighborhood": null, "image": null, "scorecard": null, "featured": false, "sample_categories": "Restaurants, Barbecue Restaurants, Food Delivery", "public_id": "j-wings-and-more-smyrna", "id": 45555723, "votes": null, "tagline": null, "has_video": false, "website": null, "offers": null, "latitude": 33.893244, "politanName": "Atlanta, GA Metro ", "phone_number": "7702269977", "tags": [{"primary": false, "id": 1724, "name": "Barbecue Restaurants"}, {"primary": false, "id": 11267, "name": "Food Delivery"}, {"primary": true, "id": 1722, "name": "Restaurants"}], "fax_number": null, "expansion": {"count": null, "uri": null}, "impression_id": "000b000000246fad8ea0704149be66c7e473340e3b", "profile": "http://www.citysearch.com/profile/45555723/smyrna_ga/j_wings_and_more.html", "address": {"city": "Smyrna", "state": "GA", "street": "2380 Cobb Pkwy SE", "postal_code": "30080"}, "capProviderId": null, "distance": null, "has_offers": false, "name": "J Wings And More", "longitude": -84.478459, "has_menu": true, "awards": null, "user_review_count": 0}, {"business_operation_status": 1, "rating": null, "neighborhood": null, "image": null, "scorecard": null, "featured": false, "sample_categories": "Restaurants", "public_id": "food-court-cobb-international-farmers-mrkt-smyrna", "id": 672343510, "votes": null, "tagline": null, "has_video": false, "website": null, "offers": null, "latitude": 33.88361, "politanName": "Atlanta, GA Metro ", "phone_number": "6783090007", "tags": [{"primary": true, "id": 1722, "name": "Restaurants"}], "fax_number": null, "expansion": {"count": null, "uri": null}, "impression_id": "000b0000000188664cd38d46ca8f5a438ea7eca562", "profile": "http://www.citysearch.com/profile/672343510/smyrna_ga/food_court_cobb_international_farmers_mrkt.html", "address": {"city": "Smyrna", "state": "GA", "street": "2350 Spring Street", "postal_code": "30080"}, "capProviderId": null, "distance": null, "has_offers": false, "name": "Food Court @ Cobb International Farmers Mrkt", "longitude": -84.501858, "has_menu": false, "awards": null, "user_review_count": 0}, {"business_operation_status": 1, "rating": null, "neighborhood": null, "image": null, "scorecard": null, "featured": false, "sample_categories": "Restaurants, Bars & Clubs, Bars & Pubs, Traditional American, American Express", "public_id": "ciclon-sports-bar-grll-smyrna", "id": 43853277, "votes": null, "tagline": null, "has_video": false, "website": null, "offers": null, "latitude": 33.886772, "politanName": "Atlanta, GA Metro ", "phone_number": "7704318100", "tags": [{"primary": false, "id": 164, "name": "Bars & Clubs"}, {"primary": false, "id": 1686, "name": "Bars & Pubs"}, {"primary": false, "id": 11190, "name": "Traditional American"}, {"primary": false, "id": 11333, "name": "American Express"}, {"primary": false, "id": 11349, "name": "Discover"}, {"primary": false, "id": 11361, "name": "MasterCard"}, {"primary": false, "id": 11382, "name": "Visa"}, {"primary": true, "id": 1722, "name": "Restaurants"}], "fax_number": null, "expansion": {"count": null, "uri": null}, "impression_id": "000b000000583d7e27f9914ef2b88e5cb794ab5ebe", "profile": "http://www.citysearch.com/profile/43853277/smyrna_ga/ciclon_sports_bar_grll.html", "address": {"city": "Smyrna", "state": "GA", "street": "2731 S Cobb Dr SE", "postal_code": "30080"}, "capProviderId": null, "distance": null, "has_offers": false, "name": "Ciclon Sports Bar & Grll", "longitude": -84.534827, "has_menu": false, "awards": null, "user_review_count": 0}, {"business_operation_status": 1, "rating": null, "neighborhood": null, "image": null, "scorecard": null, "featured": false, "sample_categories": "Restaurants", "public_id": "houstons-restaurants-del-smyrna", "id": 810805950, "votes": null, "tagline": null, "has_video": false, "website": null, "offers": null, "latitude": 33.852594, "politanName": "Atlanta, GA Metro ", "phone_number": "7703338377", "tags": [{"primary": true, "id": 1722, "name": "Restaurants"}], "fax_number": null, "expansion": {"count": null, "uri": null}, "impression_id": "000b000000b68b4d9b34164878b698a91e27b3aadb", "profile": "http://www.citysearch.com/profile/810805950/smyrna_ga/houstons_restaurants_del.html", "address": {"city": "Smyrna", "state": "GA", "street": "4112 Oberon Dr SE", "postal_code": "30080"}, "capProviderId": null, "distance": null, "has_offers": false, "name": "Houstons Restaurants Del", "longitude": -84.487327, "has_menu": false, "awards": null, "user_review_count": 0}, {"business_operation_status": 1, "rating": null, "neighborhood": null, "image": null, "scorecard": null, "featured": false, "sample_categories": "Restaurants, Delis And Delicatessens, Sandwich Shops, Carry Out, Soups", "public_id": "subway-smyrna-7", "id": 43839574, "votes": null, "tagline": null, "has_video": false, "website": "http://www.citysearch.com/profile/external/43839574/smyrna_ga/subway.html", "offers": null, "latitude": 33.838117, "politanName": "Atlanta, GA Metro ", "phone_number": "4047991300", "tags": [{"primary": false, "id": 1727, "name": "Delis And Delicatessens"}, {"primary": false, "id": 1736, "name": "Sandwich Shops"}, {"primary": false, "id": 11247, "name": "Carry Out"}, {"primary": false, "id": 11311, "name": "Soups"}, {"primary": false, "id": 11333, "name": "American Express"}, {"primary": false, "id": 11349, "name": "Discover"}, {"primary": false, "id": 11361, "name": "MasterCard"}, {"primary": false, "id": 11382, "name": "Visa"}, {"primary": true, "id": 1722, "name": "Restaurants"}], "fax_number": null, "expansion": {"count": null, "uri": null}, "impression_id": "000b000000cd8d9b49bad14653b5e09dfb654deebc", "profile": "http://www.citysearch.com/profile/43839574/smyrna_ga/subway.html", "address": {"city": "Smyrna", "state": "GA", "street": "4725 S Atlanta Rd SE Ste D", "postal_code": "30080"}, "capProviderId": null, "distance": null, "has_offers": false, "name": "Subway", "longitude": -84.480226, "has_menu": true, "awards": null, "user_review_count": 0}, {"business_operation_status": 1, "rating": null, "neighborhood": null, "image": null, "scorecard": null, "featured": false, "sample_categories": "Restaurants, Pizza, American Express, Debit Card, Discover", "public_id": "stevi-bs-pizza-smyrna", "id": 655867830, "votes": null, "tagline": null, "has_video": false, "website": "http://www.citysearch.com/profile/external/655867830/smyrna_ga/stevi_b_s_pizza.html", "offers": null, "latitude": 33.84362, "politanName": "Atlanta, GA Metro ", "phone_number": "7703198600", "tags": [{"primary": false, "id": 1722, "name": "Restaurants"}, {"primary": false, "id": 11333, "name": "American Express"}, {"primary": false, "id": 11347, "name": "Debit Card"}, {"primary": false, "id": 11349, "name": "Discover"}, {"primary": false, "id": 11361, "name": "MasterCard"}, {"primary": false, "id": 11382, "name": "Visa"}, {"primary": true, "id": 11299, "name": "Pizza"}], "fax_number": null, "expansion": {"count": null, "uri": null}, "impression_id": "000b0000004321d6d0d0434e80ac0ceb9b62a65f5b", "profile": "http://www.citysearch.com/profile/655867830/smyrna_ga/stevi_b_s_pizza.html", "address": {"city": "Smyrna", "state": "GA", "street": "4480 S Cobb Dr Se", "postal_code": "30080"}, "capProviderId": null, "distance": null, "has_offers": false, "name": "Stevi B's Pizza", "longitude": -84.503397, "has_menu": true, "awards": null, "user_review_count": 0}, {"business_operation_status": 1, "rating": 6.0, "neighborhood": null, "image": null, "scorecard": null, "featured": false, "sample_categories": "Restaurants", "public_id": "daabha-indian-cafe-smyrna", "id": 35682006, "votes": null, "tagline": null, "has_video": false, "website": null, "offers": null, "latitude": 33.885315, "politanName": "Atlanta, GA Metro ", "phone_number": "7704440940", "tags": [{"primary": true, "id": 1722, "name": "Restaurants"}], "fax_number": null, "expansion": {"count": null, "uri": null}, "impression_id": "000b0000004e9b1d3bd7654ad1b81b94478ae1b30d", "profile": "http://www.citysearch.com/profile/35682006/smyrna_ga/daabha_indian_cafe.html", "address": {"city": "Smyrna", "state": "GA", "street": "2772 Cumberland Blvd SE", "postal_code": "30080"}, "capProviderId": null, "distance": null, "has_offers": false, "name": "Daabha Indian Cafe", "longitude": -84.476776, "has_menu": false, "awards": null, "user_review_count": 1}, {"business_operation_status": 1, "rating": null, "neighborhood": null, "image": null, "scorecard": null, "featured": false, "sample_categories": "Restaurants", "public_id": "cancun-seafood-restaurant-smyrna", "id": 807595980, "votes": null, "tagline": null, "has_video": false, "website": null, "offers": null, "latitude": 33.894868, "politanName": "Atlanta, GA Metro ", "phone_number": "7704360565", "tags": [{"primary": true, "id": 1722, "name": "Restaurants"}], "fax_number": null, "expansion": {"count": null, "uri": null}, "impression_id": "000b000000c755a153d53345729965bbfa579b42fe", "profile": "http://www.citysearch.com/profile/807595980/smyrna_ga/cancun_seafood_restaurant.html", "address": {"city": "Smyrna", "state": "GA", "street": "1005 Windy Hill Rd SE", "postal_code": "30080"}, "capProviderId": null, "distance": null, "has_offers": false, "name": "Cancun Seafood Restaurant", "longitude": -84.523746, "has_menu": false, "awards": null, "user_review_count": 0}, {"business_operation_status": 1, "rating": null, "neighborhood": null, "image": null, "scorecard": null, "featured": false, "sample_categories": "Restaurants, Mexican", "public_id": "las-tortas-smyrna", "id": 36642548, "votes": null, "tagline": null, "has_video": false, "website": null, "offers": null, "latitude": 33.894337, "politanName": "Atlanta, GA Metro ", "phone_number": "7708050304", "tags": [{"primary": false, "id": 11208, "name": "Mexican"}, {"primary": true, "id": 1722, "name": "Restaurants"}], "fax_number": null, "expansion": {"count": null, "uri": null}, "impression_id": "000b00000067142435f4054e25b9c5031a237f9c2a", "profile": "http://www.citysearch.com/profile/36642548/smyrna_ga/las_tortas.html", "address": {"city": "Smyrna", "state": "GA", "street": "1026 Windy Hill Rd SE", "postal_code": "30080"}, "capProviderId": null, "distance": null, "has_offers": false, "name": "Las Tortas", "longitude": -84.523128, "has_menu": false, "awards": null, "user_review_count": 0}, {"business_operation_status": 0, "rating": null, "neighborhood": null, "image": null, "scorecard": null, "featured": false, "sample_categories": "Restaurants", "public_id": "chez-carmelle-pastry-restaurant-smyrna", "id": 672394340, "votes": null, "tagline": null, "has_video": false, "website": null, "offers": null, "latitude": 33.89429, "politanName": "Atlanta, GA Metro ", "phone_number": "7704384331", "tags": [{"primary": true, "id": 1722, "name": "Restaurants"}], "fax_number": null, "expansion": {"count": null, "uri": null}, "impression_id": "000b0000003892ce365ba54c258b06cb17e2c3a97b", "profile": "http://www.citysearch.com/profile/672394340/smyrna_ga/chez_carmelle_pastry_restaurant.html", "address": {"city": "Smyrna", "state": "GA", "street": "560 Windy Hill Rd SE", "postal_code": "30080"}, "capProviderId": null, "distance": null, "has_offers": false, "name": "Chez Carmelle Pastry Restaurant", "longitude": -84.536945, "has_menu": false, "awards": null, "user_review_count": 0}, {"business_operation_status": 1, "rating": null, "neighborhood": null, "image": null, "scorecard": null, "featured": false, "sample_categories": "Restaurants, Seafood Markets, Italian Food Products, Italian, American Express", "public_id": "mezza-luna-pasta-seafood-smyrna", "id": 801105940, "votes": null, "tagline": null, "has_video": false, "website": "http://www.citysearch.com/profile/external/801105940/smyrna_ga/mezza_luna_pasta_and_seafood.html", "offers": null, "latitude": 33.882797, "politanName": "Atlanta, GA Metro ", "phone_number": "7703190333", "tags": [{"primary": false, "id": 1719, "name": "Seafood Markets"}, {"primary": false, "id": 11154, "name": "Italian Food Products"}, {"primary": false, "id": 11279, "name": "Italian"}, {"primary": false, "id": 11333, "name": "American Express"}, {"primary": false, "id": 11347, "name": "Debit Card"}, {"primary": false, "id": 11349, "name": "Discover"}, {"primary": false, "id": 11361, "name": "MasterCard"}, {"primary": false, "id": 11382, "name": "Visa"}, {"primary": true, "id": 1722, "name": "Restaurants"}], "fax_number": null, "expansion": {"count": null, "uri": null}, "impression_id": "000b0000002c47007170494d099ccd17d7270108b4", "profile": "http://www.citysearch.com/profile/801105940/smyrna_ga/mezza_luna_pasta_and_seafood.html", "address": {"city": "Smyrna", "state": "GA", "street": "1669 Spring Rd SE", "postal_code": "30080"}, "capProviderId": null, "distance": null, "has_offers": false, "name": "Mezza Luna Pasta and Seafood", "longitude": -84.504883, "has_menu": false, "awards": null, "user_review_count": 0}, {"business_operation_status": 0, "rating": null, "neighborhood": null, "image": null, "scorecard": null, "featured": false, "sample_categories": "Restaurants", "public_id": "dawg-it-smyrna-2", "id": 713402410, "votes": null, "tagline": null, "has_video": false, "website": null, "offers": null, "latitude": 33.831642, "politanName": "Atlanta, GA Metro ", "phone_number": "7704352900", "tags": [{"primary": true, "id": 1722, "name": "Restaurants"}], "fax_number": null, "expansion": {"count": null, "uri": null}, "impression_id": "000b000000d0f01b701c9245fab1613edc801666f5", "profile": "http://www.citysearch.com/profile/713402410/smyrna_ga/dawg_it.html", "address": {"city": "Smyrna", "state": "GA", "street": "4924 S Cobb Dr Se # B", "postal_code": "30080"}, "capProviderId": null, "distance": null, "has_offers": false, "name": "Dawg It", "longitude": -84.493491, "has_menu": false, "awards": null, "user_review_count": 0}, {"business_operation_status": 1, "rating": null, "neighborhood": null, "image": null, "scorecard": null, "featured": false, "sample_categories": "Restaurants", "public_id": "manna-smyrna", "id": 777817720, "votes": null, "tagline": null, "has_video": false, "website": null, "offers": null, "latitude": 33.879067, "politanName": "Atlanta, GA Metro ", "phone_number": "7704311992", "tags": [{"primary": true, "id": 1722, "name": "Restaurants"}], "fax_number": null, "expansion": {"count": null, "uri": null}, "impression_id": "000b00000060f32f8e573a462d95d87f29cdc2ad5e", "profile": "http://www.citysearch.com/profile/777817720/smyrna_ga/manna.html", "address": {"city": "Smyrna", "state": "GA", "street": "3120 S Cobb Dr Se", "postal_code": "30080"}, "capProviderId": null, "distance": null, "has_offers": false, "name": "Manna", "longitude": -84.5327, "has_menu": false, "awards": null, "user_review_count": 0}, {"business_operation_status": 1, "rating": null, "neighborhood": null, "image": null, "scorecard": null, "featured": false, "sample_categories": "Restaurants", "public_id": "bonz-sports-grill-smyrna", "id": 777729350, "votes": null, "tagline": null, "has_video": false, "website": null, "offers": null, "latitude": 33.873639, "politanName": "Atlanta, GA Metro ", "phone_number": "7704352669", "tags": [{"primary": true, "id": 1722, "name": "Restaurants"}], "fax_number": null, "expansion": {"count": null, "uri": null}, "impression_id": "000b00000002cf2c0ee3534dc49a8fb683ad51c4b8", "profile": "http://www.citysearch.com/profile/777729350/smyrna_ga/bonz_sports_grill.html", "address": {"city": "Smyrna", "state": "GA", "street": "3240 S Cobb Dr Se # N", "postal_code": "30080"}, "capProviderId": null, "distance": null, "has_offers": false, "name": "Bonz Sports Grill", "longitude": -84.530478, "has_menu": false, "awards": null, "user_review_count": 1}, {"business_operation_status": 1, "rating": null, "neighborhood": null, "image": null, "scorecard": null, "featured": false, "sample_categories": "Restaurants", "public_id": "mojo-grill-cuban-cuisine-smyrna", "id": 672444450, "votes": null, "tagline": null, "has_video": false, "website": null, "offers": null, "latitude": 33.879071, "politanName": "Atlanta, GA Metro ", "phone_number": null, "tags": [{"primary": true, "id": 1722, "name": "Restaurants"}], "fax_number": null, "expansion": {"count": null, "uri": null}, "impression_id": "000b00000029936bfe971b416ba39dd7bb7f3e7ffe", "profile": "http://www.citysearch.com/profile/672444450/smyrna_ga/mojo_grill_cuban_cuisine.html", "address": {"city": "Smyrna", "state": "GA", "street": "3120 S Cobb Dr SE", "postal_code": "30080"}, "capProviderId": null, "distance": null, "has_offers": false, "name": "Mojo Grill Cuban Cuisine", "longitude": -84.532683, "has_menu": false, "awards": null, "user_review_count": 0}], "histograms": [], "tag_ids": [1722], "uri": "http://api.citygridmedia.com:8080/search/places/v2/search/where?has_offers=false&type=restaurant&format=json&page=4&where=30080&rpp=50&histograms=false&publisher=10000009598&region_type=circle", "did_you_mean": "", "regions": [{"latitude": 33.870107, "default_radius": 3.76, "type": "postal_code", "name": "30080", "longitude": -84.499867}], "call_id": "000b00000037ef1ed925864bc98f2592aac756aa24", "first_hit": 151, "total_hits": 1580, "geo_ids": [26330], "page": 4, "last_hit": 200}}