{"results": {"rpp": 50, "locations": [{"business_operation_status": 1, "rating": null, "neighborhood": null, "image": null, "scorecard": null, "featured": false, "sample_categories": "Restaurants, Cajun & Creole", "public_id": "ji-bou-te-marietta", "id": 777783530, "votes": null, "tagline": null, "has_video": false, "website": null, "offers": null, "latitude": 33.952594, "politanName": "Atlanta, GA Metro ", "phone_number": "7707940772", "tags": [{"primary": false, "id": 11245, "name": "Cajun & Creole"}, {"primary": true, "id": 1722, "name": "Restaurants"}], "fax_number": null, "expansion": {"count": null, "uri": null}, "impression_id": "000b00000056eb4de9e0ea4b3a8894745767bc1a80", "profile": "http://www.citysearch.com/profile/777783530/marietta_ga/ji_bou_te.html", "address": {"city": "Marietta", "state": "GA", "street": "800 Whitlock Ave NW # 103", "postal_code": "30064"}, "capProviderId": null, "distance": null, "has_offers": false, "name": "Ji Bou Te", "longitude": -84.575881, "has_menu": false, "awards": null, "user_review_count": 0}, {"business_operation_status": 1, "rating": null, "neighborhood": null, "image": null, "scorecard": null, "featured": false, "sample_categories": "Restaurants, South American", "public_id": "el-hondureno-billares-marietta", "id": 777670670, "votes": null, "tagline": null, "has_video": false, "website": null, "offers": null, "latitude": 33.928458, "politanName": "Atlanta, GA Metro ", "phone_number": "7709532737", "tags": [{"primary": false, "id": 15490, "name": "South American"}, {"primary": true, "id": 1722, "name": "Restaurants"}], "fax_number": null, "expansion": {"count": null, "uri": null}, "impression_id": "000b0000001cec655700b64b1ebc36b26eb3f3f47d", "profile": "http://www.citysearch.com/profile/777670670/marietta_ga/el_hondureno_billares.html", "address": {"city": "Marietta", "state": "GA", "street": "1033 Franklin Rd Se", "postal_code": "30067"}, "capProviderId": null, "distance": null, "has_offers": false, "name": "El Hondureno Billares", "longitude": -84.492995, "has_menu": false, "awards": null, "user_review_count": 0}, {"business_operation_status": 1, "rating": null, "neighborhood": null, "image": null, "scorecard": null, "featured": false, "sample_categories": "Restaurants", "public_id": "chili-dog-factory-marietta", "id": 672271920, "votes": null, "tagline": null, "has_video": false, "website": null, "offers": null, "latitude": 33.940571, "politanName": "Atlanta, GA Metro ", "phone_number": "6782131114", "tags": [{"primary": true, "id": 1722, "name": "Restaurants"}], "fax_number": null, "expansion": {"count": null, "uri": null}, "impression_id": "000b0000000e5579553f2f4eec8214aeb668e76898", "profile": "http://www.citysearch.com/profile/672271920/marietta_ga/chili_dog_factory.html", "address": {"city": "Marietta", "state": "GA", "street": "940 South Marietta Parkway", "postal_code": "30060"}, "capProviderId": null, "distance": null, "has_offers": false, "name": "Chili Dog Factory", "longitude": -84.525094, "has_menu": false, "awards": null, "user_review_count": 0}, {"business_operation_status": 1, "rating": null, "neighborhood": null, "image": null, "scorecard": null, "featured": false, "sample_categories": "Restaurants", "public_id": "miyako-hibachi-sushi-steak-house-austell", "id": 672372180, "votes": null, "tagline": null, "has_video": false, "website": null, "offers": null, "latitude": 33.855384, "politanName": "Atlanta, GA Metro ", "phone_number": "7708056336", "tags": [{"primary": true, "id": 1722, "name": "Restaurants"}], "fax_number": null, "expansion": {"count": null, "uri": null}, "impression_id": "000b000000b1ebbddc878d4dbabfe6da174fff1db4", "profile": "http://www.citysearch.com/profile/672372180/austell_ga/miyako_hibachi_sushi_steak_house.html", "address": {"city": "Austell", "state": "GA", "street": "1025 East-West Connector", "postal_code": "30106"}, "capProviderId": null, "distance": null, "has_offers": false, "name": "Miyako Hibachi, Sushi & Steak House", "longitude": -84.583167, "has_menu": false, "awards": null, "user_review_count": 0}, {"business_operation_status": 1, "rating": 8.0, "neighborhood": null, "image": null, "scorecard": null, "featured": false, "sample_categories": "Restaurants", "public_id": "vittles-restaurant-smyrna", "id": 33561245, "votes": null, "tagline": null, "has_video": false, "website": "http://www.citysearch.com/profile/external/33561245/smyrna_ga/vittle_s_restaurant.html", "offers": null, "latitude": 33.890311, "politanName": "Atlanta, GA Metro ", "phone_number": "7704330047", "tags": [{"primary": true, "id": 1722, "name": "Restaurants"}], "fax_number": null, "expansion": {"count": null, "uri": null}, "impression_id": "000b000000684e34e0ced341ffa434b82d380be038", "profile": "http://www.citysearch.com/profile/33561245/smyrna_ga/vittle_s_restaurant.html", "address": {"city": "Smyrna", "state": "GA", "street": "2579 S Cobb Dr SE", "postal_code": "30080"}, "capProviderId": null, "distance": null, "has_offers": false, "name": "Vittle's Restaurant", "longitude": -84.536797, "has_menu": true, "awards": null, "user_review_count": 0}, {"business_operation_status": 1, "rating": null, "neighborhood": null, "image": null, "scorecard": null, "featured": false, "sample_categories": "Restaurants, Japanese", "public_id": "japanese-engine-line-marietta", "id": 775183550, "votes": null, "tagline": null, "has_video": false, "website": null, "offers": null, "latitude": 33.910751, "politanName": "Atlanta, GA Metro ", "phone_number": "7709521200", "tags": [{"primary": false, "id": 11202, "name": "Japanese"}, {"primary": true, "id": 1722, "name": "Restaurants"}], "fax_number": null, "expansion": {"count": null, "uri": null}, "impression_id": "000b000000f9e378b23af34f69a065125a3501a469", "profile": "http://www.citysearch.com/profile/775183550/marietta_ga/japanese_engine_line.html", "address": {"city": "Marietta", "state": "GA", "street": "1735 Cobb Pkwy S", "postal_code": "30060"}, "capProviderId": null, "distance": null, "has_offers": false, "name": "Japanese Engine Line", "longitude": -84.493702, "has_menu": false, "awards": null, "user_review_count": 0}, {"business_operation_status": 1, "rating": null, "neighborhood": "Northside, Northside", "image": null, "scorecard": null, "featured": false, "sample_categories": "Restaurants, Carry Out, Hamburgers", "public_id": "krystal-atlanta-10", "id": 787117020, "votes": null, "tagline": null, "has_video": false, "website": "http://www.citysearch.com/profile/external/787117020/atlanta_ga/krystal.html", "offers": null, "latitude": 33.794633, "politanName": "Atlanta, GA Metro ", "phone_number": "7709442586", "tags": [{"primary": false, "id": 11247, "name": "Carry Out"}, {"primary": false, "id": 11270, "name": "Hamburgers"}, {"primary": true, "id": 1722, "name": "Restaurants"}], "fax_number": null, "expansion": {"count": null, "uri": null}, "impression_id": "000b0000001884ec53a62145928a1d186309b7ff12", "profile": "http://www.citysearch.com/profile/787117020/atlanta_ga/krystal.html", "address": {"city": "Atlanta", "state": "GA", "street": "725 Hllwell Hwy NW", "postal_code": "30318"}, "capProviderId": null, "distance": null, "has_offers": false, "name": "Krystal", "longitude": -84.448772, "has_menu": true, "awards": null, "user_review_count": 0}, {"business_operation_status": 1, "rating": null, "neighborhood": null, "image": null, "scorecard": null, "featured": false, "sample_categories": "Restaurants, Delis And Delicatessens, Carry Out", "public_id": "firehouse-subs-lithia", "id": 798825170, "votes": null, "tagline": null, "has_video": false, "website": null, "offers": null, "latitude": 33.7867, "politanName": "Atlanta, GA Metro ", "phone_number": "7704854552", "tags": [{"primary": false, "id": 1727, "name": "Delis And Delicatessens"}, {"primary": false, "id": 11247, "name": "Carry Out"}, {"primary": true, "id": 1722, "name": "Restaurants"}], "fax_number": null, "expansion": {"count": null, "uri": null}, "impression_id": "000b000000487c6f0326564198add4c07c958bed9b", "profile": "http://www.citysearch.com/profile/798825170/lithia_springs_ga/firehouse_subs.html", "address": {"city": "Lithia Springs", "state": "GA", "street": "1300 W Corporate Ct", "postal_code": "30122"}, "capProviderId": null, "distance": null, "has_offers": false, "name": "Firehouse Subs", "longitude": -84.618514, "has_menu": true, "awards": null, "user_review_count": 0}, {"business_operation_status": 1, "rating": null, "neighborhood": "Northwest, Northwest", "image": null, "scorecard": null, "featured": false, "sample_categories": "Restaurants, Spices", "public_id": "georgia-spice-co-inc-atlanta", "id": 713521050, "votes": null, "tagline": null, "has_video": false, "website": null, "offers": null, "latitude": 33.799035, "politanName": "Atlanta, GA Metro ", "phone_number": "4046966200", "tags": [{"primary": false, "id": 1722, "name": "Restaurants"}, {"primary": true, "id": 11175, "name": "Spices"}], "fax_number": null, "expansion": {"count": null, "uri": null}, "impression_id": "000b000000afdc99b915694267835a39f1bbed6aae", "profile": "http://www.citysearch.com/profile/713521050/atlanta_ga/georgia_spice_co_inc.html", "address": {"city": "Atlanta", "state": "GA", "street": "3600 Atlanta Industrial Pkwy N", "postal_code": "30331"}, "capProviderId": null, "distance": null, "has_offers": false, "name": "Georgia Spice Co INC", "longitude": -84.497102, "has_menu": false, "awards": null, "user_review_count": 0}, {"business_operation_status": 1, "rating": null, "neighborhood": null, "image": null, "scorecard": null, "featured": false, "sample_categories": "Sandwich Shops, Restaurants, Delis And Delicatessens, Soups", "public_id": "georgia-sandwich-co-marietta", "id": 33646008, "votes": null, "tagline": null, "has_video": false, "website": "http://www.citysearch.com/profile/external/33646008/marietta_ga/georgia_sandwich_co.html", "offers": null, "latitude": 33.933969, "politanName": "Atlanta, GA Metro ", "phone_number": "7704265678", "tags": [{"primary": false, "id": 1722, "name": "Restaurants"}, {"primary": false, "id": 1727, "name": "Delis And Delicatessens"}, {"primary": false, "id": 11311, "name": "Soups"}, {"primary": true, "id": 1736, "name": "Sandwich Shops"}], "fax_number": null, "expansion": {"count": null, "uri": null}, "impression_id": "000b00000083eb7c223f6d45f1bc42c903ad836a20", "profile": "http://www.citysearch.com/profile/33646008/marietta_ga/georgia_sandwich_co.html", "address": {"city": "Marietta", "state": "GA", "street": "115 Davis Cir SW", "postal_code": "30008"}, "capProviderId": null, "distance": null, "has_offers": false, "name": "Georgia Sandwich Co", "longitude": -84.554133, "has_menu": false, "awards": null, "user_review_count": 0}, {"business_operation_status": 1, "rating": null, "neighborhood": null, "image": null, "scorecard": null, "featured": false, "sample_categories": "Restaurants", "public_id": "le-peep-restaurant-marietta", "id": 819290350, "votes": null, "tagline": null, "has_video": false, "website": null, "offers": null, "latitude": 33.952271, "politanName": "Atlanta, GA Metro ", "phone_number": "7704265161", "tags": [{"primary": true, "id": 1722, "name": "Restaurants"}], "fax_number": null, "expansion": {"count": null, "uri": null}, "impression_id": "000b000000ce4e39073c904dbc8b30e70a863fca4a", "profile": "http://www.citysearch.com/profile/819290350/marietta_ga/le_peep_restaurant.html", "address": {"city": "Marietta", "state": "GA", "street": "70 S Park Sq NE", "postal_code": "30060"}, "capProviderId": null, "distance": null, "has_offers": false, "name": "Le Peep Restaurant", "longitude": -84.549833, "has_menu": false, "awards": null, "user_review_count": 0}, {"business_operation_status": 1, "rating": null, "neighborhood": null, "image": null, "scorecard": null, "featured": false, "sample_categories": "Restaurants", "public_id": "creative-cafe-marietta-2", "id": 820012610, "votes": null, "tagline": null, "has_video": false, "website": null, "offers": null, "latitude": 33.895694, "politanName": "Atlanta, GA Metro ", "phone_number": "6787702879", "tags": [{"primary": true, "id": 1722, "name": "Restaurants"}], "fax_number": null, "expansion": {"count": null, "uri": null}, "impression_id": "000b0000008121d24256fd4e97a99b17ba9ee22323", "profile": "http://www.citysearch.com/profile/820012610/marietta_ga/creative_cafe.html", "address": {"city": "Marietta", "state": "GA", "street": "1430 Glynn Oaks Cir SW", "postal_code": "30008"}, "capProviderId": null, "distance": null, "has_offers": false, "name": "Creative Cafe", "longitude": -84.599593, "has_menu": false, "awards": null, "user_review_count": 0}, {"business_operation_status": 1, "rating": null, "neighborhood": null, "image": null, "scorecard": null, "featured": false, "sample_categories": "Restaurants, Delis And Delicatessens, Sandwich Shops, Carry Out", "public_id": "quiznos-austell", "id": 827661580, "votes": null, "tagline": null, "has_video": false, "website": null, "offers": null, "latitude": 33.860912, "politanName": "Atlanta, GA Metro ", "phone_number": "6783840005", "tags": [{"primary": false, "id": 1727, "name": "Delis And Delicatessens"}, {"primary": false, "id": 1736, "name": "Sandwich Shops"}, {"primary": false, "id": 11247, "name": "Carry Out"}, {"primary": true, "id": 1722, "name": "Restaurants"}], "fax_number": null, "expansion": {"count": null, "uri": null}, "impression_id": "000b000000e625f6a443eb4af9860572d3473fe0ec", "profile": "http://www.citysearch.com/profile/827661580/austell_ga/quiznos.html", "address": {"city": "Austell", "state": "GA", "street": "2495 E West Connector # 80", "postal_code": "30106"}, "capProviderId": null, "distance": null, "has_offers": false, "name": "Quiznos", "longitude": -84.620637, "has_menu": false, "awards": null, "user_review_count": 0}, {"business_operation_status": 1, "rating": null, "neighborhood": null, "image": null, "scorecard": null, "featured": false, "sample_categories": "Restaurants", "public_id": "grazie-a-bistro-marietta", "id": 823574700, "votes": null, "tagline": null, "has_video": false, "website": null, "offers": null, "latitude": 33.953111, "politanName": "Atlanta, GA Metro ", "phone_number": "7704998585", "tags": [{"primary": true, "id": 1722, "name": "Restaurants"}], "fax_number": null, "expansion": {"count": null, "uri": null}, "impression_id": "000b000000c748efd1ae2c4e84ad0bf81efd846180", "profile": "http://www.citysearch.com/profile/823574700/marietta_ga/grazie_a_bistro.html", "address": {"city": "Marietta", "state": "GA", "street": "1000 Whitlock Ave NW # 410", "postal_code": "30064"}, "capProviderId": null, "distance": null, "has_offers": false, "name": "Grazie A Bistro", "longitude": -84.581272, "has_menu": false, "awards": null, "user_review_count": 0}, {"business_operation_status": 1, "rating": null, "neighborhood": null, "image": null, "scorecard": null, "featured": false, "sample_categories": "Restaurants", "public_id": "j-r-cricket-mableton", "id": 832544960, "votes": null, "tagline": null, "has_video": false, "website": null, "offers": null, "latitude": 33.823999, "politanName": "Atlanta, GA Metro ", "phone_number": "7707455475", "tags": [{"primary": true, "id": 1722, "name": "Restaurants"}], "fax_number": null, "expansion": {"count": null, "uri": null}, "impression_id": "000b000000828be49f83d84331af081a511ab16c2b", "profile": "http://www.citysearch.com/profile/832544960/mableton_ga/j_r_cricket.html", "address": {"city": "Mableton", "state": "GA", "street": "5345 Floyd Rd SW # J", "postal_code": "30126"}, "capProviderId": null, "distance": null, "has_offers": false, "name": "J R Cricket", "longitude": -84.574687, "has_menu": true, "awards": null, "user_review_count": 0}, {"business_operation_status": 1, "rating": null, "neighborhood": null, "image": null, "scorecard": null, "featured": false, "sample_categories": "Restaurants", "public_id": "red-house-marietta", "id": 775207480, "votes": null, "tagline": null, "has_video": false, "website": null, "offers": null, "latitude": 33.951025, "politanName": "Atlanta, GA Metro ", "phone_number": "7704277588", "tags": [{"primary": true, "id": 1722, "name": "Restaurants"}], "fax_number": null, "expansion": {"count": null, "uri": null}, "impression_id": "000b00000041b27702b9374537bdaa187b354df007", "profile": "http://www.citysearch.com/profile/775207480/marietta_ga/red_house.html", "address": {"city": "Marietta", "state": "GA", "street": "35 S Marietta Pkwy SW", "postal_code": "30064"}, "capProviderId": null, "distance": null, "has_offers": false, "name": "Red House", "longitude": -84.551785, "has_menu": false, "awards": null, "user_review_count": 0}, {"business_operation_status": 1, "rating": null, "neighborhood": null, "image": null, "scorecard": null, "featured": false, "sample_categories": "Restaurants, Barbecue Restaurants", "public_id": "hurricane-grill-wings-austell", "id": 777739530, "votes": null, "tagline": null, "has_video": false, "website": "http://www.citysearch.com/profile/external/777739530/austell_ga/hurricane_grill_wings.html", "offers": null, "latitude": 33.856949, "politanName": "Atlanta, GA Metro ", "phone_number": "7708011345", "tags": [{"primary": false, "id": 1724, "name": "Barbecue Restaurants"}, {"primary": true, "id": 1722, "name": "Restaurants"}], "fax_number": null, "expansion": {"count": null, "uri": null}, "impression_id": "000b000000857f9502f37940df8c41fcbec0c48c26", "profile": "http://www.citysearch.com/profile/777739530/austell_ga/hurricane_grill_wings.html", "address": {"city": "Austell", "state": "GA", "street": "3961 Floyd Rd # 100", "postal_code": "30106"}, "capProviderId": null, "distance": null, "has_offers": false, "name": "Hurricane Grill & Wings", "longitude": -84.590442, "has_menu": true, "awards": null, "user_review_count": 0}, {"business_operation_status": 1, "rating": null, "neighborhood": null, "image": null, "scorecard": null, "featured": false, "sample_categories": "Restaurants, Indian", "public_id": "tanvi-indian-cuisine-smyrna", "id": 780476510, "votes": null, "tagline": null, "has_video": false, "website": null, "offers": null, "latitude": 33.882766, "politanName": "Atlanta, GA Metro ", "phone_number": "7703339899", "tags": [{"primary": false, "id": 11277, "name": "Indian"}, {"primary": true, "id": 1722, "name": "Restaurants"}], "fax_number": null, "expansion": {"count": null, "uri": null}, "impression_id": "000b000000be8d85db6af84602baab9ff7ceaa0f85", "profile": "http://www.citysearch.com/profile/780476510/smyrna_ga/tanvi_indian_cuisine.html", "address": {"city": "Smyrna", "state": "GA", "street": "2590 Spring Road Southeast", "postal_code": "30080"}, "capProviderId": null, "distance": null, "has_offers": false, "name": "Tanvi Indian Cuisine", "longitude": -84.478149, "has_menu": false, "awards": null, "user_review_count": 0}, {"business_operation_status": 1, "rating": 8.0, "neighborhood": null, "image": null, "scorecard": null, "featured": false, "sample_categories": "Dessert Shops, Traditional American", "public_id": "darlenes-philadelphia-water-austell", "id": 36286186, "votes": null, "tagline": null, "has_video": false, "website": null, "offers": null, "latitude": 33.827117, "politanName": "Atlanta, GA Metro ", "phone_number": "7707397199", "tags": [{"primary": false, "id": 1728, "name": "Dessert Shops"}, {"primary": true, "id": 11190, "name": "Traditional American"}], "fax_number": null, "expansion": {"count": null, "uri": null}, "impression_id": "000b000000ee83bee9a9a646c4ac7fe0e012dae72d", "profile": "http://www.citysearch.com/profile/36286186/austell_ga/darlene_s_philadelphia_water.html", "address": {"city": "Austell", "state": "GA", "street": "5220 Austell RdSte C", "postal_code": "30106"}, "capProviderId": null, "distance": null, "has_offers": false, "name": "Darlene's Philadelphia Water", "longitude": -84.61505, "has_menu": false, "awards": null, "user_review_count": 0}, {"business_operation_status": 1, "rating": null, "neighborhood": null, "image": null, "scorecard": null, "featured": false, "sample_categories": "Ice Cream Parlors", "public_id": "ritas-water-ice-marietta-2", "id": 621872750, "votes": null, "tagline": null, "has_video": false, "website": "http://www.citysearch.com/profile/external/621872750/marietta_ga/rita_s_water_ice.html", "offers": null, "latitude": 33.952594, "politanName": "Atlanta, GA Metro ", "phone_number": "6784026240", "tags": [{"primary": true, "id": 1730, "name": "Ice Cream Parlors"}], "fax_number": null, "expansion": {"count": null, "uri": null}, "impression_id": "000b0000001af9e1d8892c4d929e89545729884540", "profile": "http://www.citysearch.com/profile/621872750/marietta_ga/rita_s_water_ice.html", "address": {"city": "Marietta", "state": "GA", "street": "800 Whitlock Ave Nw", "postal_code": "30064"}, "capProviderId": null, "distance": null, "has_offers": false, "name": "Rita's Water Ice", "longitude": -84.575881, "has_menu": false, "awards": null, "user_review_count": 1}, {"business_operation_status": 1, "rating": null, "neighborhood": null, "image": null, "scorecard": null, "featured": false, "sample_categories": "Restaurants", "public_id": "grain-works-marietta", "id": 621976160, "votes": null, "tagline": null, "has_video": false, "website": "http://www.citysearch.com/profile/external/621976160/marietta_ga/grain_works.html", "offers": null, "latitude": 33.923408, "politanName": "Atlanta, GA Metro ", "phone_number": "7709800081", "tags": [{"primary": true, "id": 1722, "name": "Restaurants"}], "fax_number": null, "expansion": {"count": null, "uri": null}, "impression_id": "000b0000003547bf8f10ee4b59a1442937aa918b1c", "profile": "http://www.citysearch.com/profile/621976160/marietta_ga/grain_works.html", "address": {"city": "Marietta", "state": "GA", "street": "2160 Kingston Ct Se", "postal_code": "30067"}, "capProviderId": null, "distance": null, "has_offers": false, "name": "Grain Works", "longitude": -84.489216, "has_menu": false, "awards": null, "user_review_count": 0}, {"business_operation_status": 1, "rating": null, "neighborhood": "Riverside, Northside, Northside", "image": null, "scorecard": null, "featured": false, "sample_categories": "Restaurants, Carry Out", "public_id": "waffle-house-atlanta-32", "id": 621872814, "votes": null, "tagline": null, "has_video": false, "website": "http://www.citysearch.com/profile/external/621872814/atlanta_ga/waffle_house.html", "offers": null, "latitude": 33.81087, "politanName": "Atlanta, GA Metro ", "phone_number": "4047929009", "tags": [{"primary": false, "id": 11247, "name": "Carry Out"}, {"primary": true, "id": 1722, "name": "Restaurants"}], "fax_number": null, "expansion": {"count": null, "uri": null}, "impression_id": "000b0000001d33279dc56340cfbd6d6e16db60453e", "profile": "http://www.citysearch.com/profile/621872814/atlanta_ga/waffle_house.html", "address": {"city": "Atlanta", "state": "GA", "street": "2025 Bolton Rd NW", "postal_code": "30318"}, "capProviderId": null, "distance": null, "has_offers": false, "name": "Waffle House", "longitude": -84.476265, "has_menu": false, "awards": null, "user_review_count": 0}, {"business_operation_status": 1, "rating": null, "neighborhood": null, "image": null, "scorecard": null, "featured": false, "sample_categories": "Restaurants", "public_id": "vinings-club-atlanta", "id": 672416590, "votes": null, "tagline": null, "has_video": false, "website": "http://www.citysearch.com/profile/external/672416590/atlanta_ga/vinings_club.html", "offers": null, "latitude": 33.867677, "politanName": "Atlanta, GA Metro ", "phone_number": "7704331155", "tags": [{"primary": true, "id": 1722, "name": "Restaurants"}], "fax_number": null, "expansion": {"count": null, "uri": null}, "impression_id": "000b0000006d5037cb31f04d108fc74bd787b2606b", "profile": "http://www.citysearch.com/profile/672416590/atlanta_ga/vinings_club.html", "address": {"city": "Atlanta", "state": "GA", "street": "2859 Paces Ferry Rd SE", "postal_code": "30339"}, "capProviderId": null, "distance": null, "has_offers": false, "name": "Vinings Club", "longitude": -84.468631, "has_menu": false, "awards": null, "user_review_count": 1}, {"business_operation_status": 1, "rating": null, "neighborhood": null, "image": null, "scorecard": null, "featured": false, "sample_categories": "Restaurants", "public_id": "garveys-west-indian-marietta", "id": 672435580, "votes": null, "tagline": null, "has_video": false, "website": null, "offers": null, "latitude": 33.869778, "politanName": "Atlanta, GA Metro ", "phone_number": "6783840766", "tags": [{"primary": true, "id": 1722, "name": "Restaurants"}], "fax_number": null, "expansion": {"count": null, "uri": null}, "impression_id": "000b00000062b3074b51284abcbf5285b5967f3567", "profile": "http://www.citysearch.com/profile/672435580/marietta_ga/garvey_s_west_indian.html", "address": {"city": "Marietta", "state": "GA", "street": "2575 Whitehaven dr", "postal_code": "30064"}, "capProviderId": null, "distance": null, "has_offers": false, "name": "Garvey's West Indian", "longitude": -84.629052, "has_menu": false, "awards": null, "user_review_count": 0}, {"business_operation_status": 1, "rating": null, "neighborhood": null, "image": null, "scorecard": null, "featured": false, "sample_categories": "Restaurants, Delis And Delicatessens, Sandwich Shops, Carry Out", "public_id": "subway-powder", "id": 713516600, "votes": null, "tagline": null, "has_video": false, "website": "http://www.citysearch.com/profile/external/713516600/powder_springs_ga/subway.html", "offers": null, "latitude": 33.903473, "politanName": "Atlanta, GA Metro ", "phone_number": "7702222710", "tags": [{"primary": false, "id": 1727, "name": "Delis And Delicatessens"}, {"primary": false, "id": 1736, "name": "Sandwich Shops"}, {"primary": false, "id": 11247, "name": "Carry Out"}, {"primary": true, "id": 1722, "name": "Restaurants"}], "fax_number": null, "expansion": {"count": null, "uri": null}, "impression_id": "000b000000fac5963fad4d477a87d9029fbf73be99", "profile": "http://www.citysearch.com/profile/713516600/powder_springs_ga/subway.html", "address": {"city": "Powder Springs", "state": "GA", "street": "4150 Macland Rd", "postal_code": "30127"}, "capProviderId": null, "distance": null, "has_offers": false, "name": "SUBWAY", "longitude": -84.67471, "has_menu": true, "awards": null, "user_review_count": 0}, {"business_operation_status": 1, "rating": null, "neighborhood": "Northside, Northside", "image": null, "scorecard": null, "featured": false, "sample_categories": "Seafood Markets, Restaurants, Seafood", "public_id": "off-the-dock-seafood-atlanta", "id": 713580320, "votes": null, "tagline": null, "has_video": false, "website": "http://www.citysearch.com/profile/external/713580320/atlanta_ga/off_the_dock_seafood.html", "offers": null, "latitude": 33.79921, "politanName": "Atlanta, GA Metro ", "phone_number": "4045492576", "tags": [{"primary": false, "id": 1722, "name": "Restaurants"}, {"primary": false, "id": 11228, "name": "Seafood"}, {"primary": true, "id": 1719, "name": "Seafood Markets"}], "fax_number": null, "expansion": {"count": null, "uri": null}, "impression_id": "000b000000133d5d22524e47db9688af576615a2b0", "profile": "http://www.citysearch.com/profile/713580320/atlanta_ga/off_the_dock_seafood.html", "address": {"city": "Atlanta", "state": "GA", "street": "1500 Southland Cir NW", "postal_code": "30318"}, "capProviderId": null, "distance": null, "has_offers": false, "name": "Off The Dock Seafood", "longitude": -84.432104, "has_menu": false, "awards": null, "user_review_count": 0}, {"business_operation_status": 1, "rating": null, "neighborhood": null, "image": null, "scorecard": null, "featured": false, "sample_categories": "Restaurants", "public_id": "island-breeze-restaurant-mableton-2", "id": 713524240, "votes": null, "tagline": null, "has_video": false, "website": null, "offers": null, "latitude": 33.783961, "politanName": "Atlanta, GA Metro ", "phone_number": "6784645910", "tags": [{"primary": true, "id": 1722, "name": "Restaurants"}], "fax_number": null, "expansion": {"count": null, "uri": null}, "impression_id": "000b0000000d1671c9999c4147befc8afc82d61180", "profile": "http://www.citysearch.com/profile/713524240/mableton_ga/island_breeze_restaurant.html", "address": {"city": "Mableton", "state": "GA", "street": "6981 Mableton Pkwy Se # 115", "postal_code": "30126"}, "capProviderId": null, "distance": null, "has_offers": false, "name": "Island Breeze Restaurant", "longitude": -84.540201, "has_menu": false, "awards": null, "user_review_count": 0}, {"business_operation_status": 1, "rating": null, "neighborhood": null, "image": null, "scorecard": null, "featured": false, "sample_categories": "Restaurants", "public_id": "tropicanna-billards-grill-smyrna", "id": 614750544, "votes": null, "tagline": null, "has_video": false, "website": null, "offers": null, "latitude": 33.891092, "politanName": "Atlanta, GA Metro ", "phone_number": "7704320051", "tags": [{"primary": true, "id": 1722, "name": "Restaurants"}], "fax_number": null, "expansion": {"count": null, "uri": null}, "impression_id": "000b000000f190ed04888644f0b5f6eedab1ef7bd8", "profile": "http://www.citysearch.com/profile/614750544/smyrna_ga/tropicanna_billards_grill.html", "address": {"city": "Smyrna", "state": "GA", "street": "2540 Atlanta Rd SE", "postal_code": "30080"}, "capProviderId": null, "distance": null, "has_offers": false, "name": "Tropicanna Billards & Grill", "longitude": -84.519025, "has_menu": false, "awards": null, "user_review_count": 0}, {"business_operation_status": 1, "rating": null, "neighborhood": null, "image": null, "scorecard": null, "featured": false, "sample_categories": "Restaurants", "public_id": "paces-vine-atlanta", "id": 618927874, "votes": null, "tagline": null, "has_video": false, "website": null, "offers": null, "latitude": 33.864473, "politanName": "Atlanta, GA Metro ", "phone_number": "4048720904", "tags": [{"primary": true, "id": 1722, "name": "Restaurants"}], "fax_number": null, "expansion": {"count": null, "uri": null}, "impression_id": "000b0000007db74d011f8845d3aac9f02f2bd6aa99", "profile": "http://www.citysearch.com/profile/618927874/atlanta_ga/paces_vine.html", "address": {"city": "Atlanta", "state": "GA", "street": "4300 Paces Ferry Rd SE 250", "postal_code": "30339"}, "capProviderId": null, "distance": null, "has_offers": false, "name": "Paces & Vine", "longitude": -84.466262, "has_menu": true, "awards": null, "user_review_count": 0}, {"business_operation_status": 1, "rating": null, "neighborhood": null, "image": null, "scorecard": null, "featured": false, "sample_categories": "Restaurants", "public_id": "wings-101-smyrna", "id": 622039784, "votes": null, "tagline": null, "has_video": false, "website": null, "offers": null, "latitude": 33.894038, "politanName": "Atlanta, GA Metro ", "phone_number": "7709891520", "tags": [{"primary": true, "id": 1722, "name": "Restaurants"}], "fax_number": null, "expansion": {"count": null, "uri": null}, "impression_id": "000b0000007e22b8d084724d5481fd2f27617d2907", "profile": "http://www.citysearch.com/profile/622039784/smyrna_ga/wings_101.html", "address": {"city": "Smyrna", "state": "GA", "street": "998 Windy Hill Rd SE", "postal_code": "30080"}, "capProviderId": null, "distance": null, "has_offers": false, "name": "Wings 101", "longitude": -84.524382, "has_menu": false, "awards": null, "user_review_count": 0}, {"business_operation_status": 1, "rating": null, "neighborhood": null, "image": null, "scorecard": null, "featured": false, "sample_categories": "Ice Cream Parlors, Deordorant, Soap, Glue, Air Fresheners", "public_id": "ritas-ice-smyrna", "id": 638835090, "votes": null, "tagline": null, "has_video": false, "website": "http://www.citysearch.com/profile/external/638835090/smyrna_ga/rita_s_ice.html", "offers": null, "latitude": 33.842892, "politanName": "Atlanta, GA Metro ", "phone_number": "7706273225", "tags": [{"primary": false, "id": 23400, "name": "Deordorant"}, {"primary": false, "id": 23410, "name": "Soap"}, {"primary": false, "id": 24950, "name": "Glue"}, {"primary": false, "id": 25880, "name": "Air Fresheners"}, {"primary": true, "id": 1730, "name": "Ice Cream Parlors"}], "fax_number": null, "expansion": {"count": null, "uri": null}, "impression_id": "000b0000003ceb0ddd3f1f4091bfc9eb842b82b46a", "profile": "http://www.citysearch.com/profile/638835090/smyrna_ga/rita_s_ice.html", "address": {"city": "Smyrna", "state": "GA", "street": "4500 West Village Pl Se", "postal_code": "30080"}, "capProviderId": null, "distance": null, "has_offers": false, "name": "Rita's Ice", "longitude": -84.490261, "has_menu": false, "awards": null, "user_review_count": 0}, {"business_operation_status": 1, "rating": null, "neighborhood": null, "image": null, "scorecard": null, "featured": false, "sample_categories": "Restaurants, Mexican", "public_id": "el-barco-mexican-restaurant-marietta", "id": 638790530, "votes": null, "tagline": null, "has_video": false, "website": null, "offers": null, "latitude": 33.890372, "politanName": "Atlanta, GA Metro ", "phone_number": "6782906778", "tags": [{"primary": false, "id": 11208, "name": "Mexican"}, {"primary": true, "id": 1722, "name": "Restaurants"}], "fax_number": null, "expansion": {"count": null, "uri": null}, "impression_id": "000b0000007ea80589d7d34a1aaa0951d35ebc604e", "profile": "http://www.citysearch.com/profile/638790530/marietta_ga/el_barco_mexican_restaurant.html", "address": {"city": "Marietta", "state": "GA", "street": "2586 Thorns Hill Pl Sw", "postal_code": "30064"}, "capProviderId": null, "distance": null, "has_offers": false, "name": "El Barco Mexican Restaurant", "longitude": -84.630827, "has_menu": false, "awards": null, "user_review_count": 0}, {"business_operation_status": 1, "rating": null, "neighborhood": null, "image": null, "scorecard": null, "featured": false, "sample_categories": "Restaurants, Delis And Delicatessens, Sandwich Shops, Carry Out, MasterCard", "public_id": "subway-marietta-4", "id": 601296783, "votes": null, "tagline": null, "has_video": false, "website": "http://www.citysearch.com/profile/external/601296783/marietta_ga/subway.html", "offers": null, "latitude": 33.906428, "politanName": "Atlanta, GA Metro ", "phone_number": "7709530023", "tags": [{"primary": false, "id": 1727, "name": "Delis And Delicatessens"}, {"primary": false, "id": 1736, "name": "Sandwich Shops"}, {"primary": false, "id": 11247, "name": "Carry Out"}, {"primary": false, "id": 11361, "name": "MasterCard"}, {"primary": false, "id": 11382, "name": "Visa"}, {"primary": true, "id": 1722, "name": "Restaurants"}], "fax_number": null, "expansion": {"count": null, "uri": null}, "impression_id": "000b000000d29fafc8cc374e249eea9eec366e209c", "profile": "http://www.citysearch.com/profile/601296783/marietta_ga/subway.html", "address": {"city": "Marietta", "state": "GA", "street": "1871 Cobb Pkwy S # 400", "postal_code": "30060"}, "capProviderId": null, "distance": null, "has_offers": false, "name": "Subway", "longitude": -84.489855, "has_menu": true, "awards": null, "user_review_count": 0}, {"business_operation_status": 0, "rating": null, "neighborhood": "Northside, Northside", "image": null, "scorecard": null, "featured": false, "sample_categories": "Restaurants", "public_id": "peppers-restaurant-atlanta", "id": 33614686, "votes": null, "tagline": null, "has_video": false, "website": null, "offers": null, "latitude": 33.819953, "politanName": "Atlanta, GA Metro ", "phone_number": "4043520770", "tags": [{"primary": true, "id": 1722, "name": "Restaurants"}], "fax_number": null, "expansion": {"count": null, "uri": null}, "impression_id": "000b0000007345dd1f650749d7ad1d6ca9b46757ca", "profile": "http://www.citysearch.com/profile/33614686/atlanta_ga/peppers_restaurant.html", "address": {"city": "Atlanta", "state": "GA", "street": "2611 Bolton Rd NW", "postal_code": "30318"}, "capProviderId": null, "distance": null, "has_offers": false, "name": "Peppers Restaurant", "longitude": -84.449421, "has_menu": true, "awards": null, "user_review_count": 0}, {"business_operation_status": 1, "rating": null, "neighborhood": "Northside, Northside", "image": null, "scorecard": null, "featured": false, "sample_categories": "Restaurants", "public_id": "khima-atlanta", "id": 672957830, "votes": null, "tagline": null, "has_video": false, "website": null, "offers": null, "latitude": 33.807938, "politanName": "Atlanta, GA Metro ", "phone_number": "4046099666", "tags": [{"primary": true, "id": 1722, "name": "Restaurants"}], "fax_number": null, "expansion": {"count": null, "uri": null}, "impression_id": "000b00000068736c1016474e48a0c1fb252004e046", "profile": "http://www.citysearch.com/profile/672957830/atlanta_ga/khima.html", "address": {"city": "Atlanta", "state": "GA", "street": "1954 Howell Mill Rd", "postal_code": "30318"}, "capProviderId": null, "distance": null, "has_offers": false, "name": "Khima", "longitude": -84.412689, "has_menu": false, "awards": null, "user_review_count": 0}, {"business_operation_status": 1, "rating": null, "neighborhood": null, "image": null, "scorecard": null, "featured": false, "sample_categories": "Restaurants", "public_id": "ksun-llc-powder", "id": 768794220, "votes": null, "tagline": null, "has_video": false, "website": null, "offers": null, "latitude": 33.866955, "politanName": "Atlanta, GA Metro ", "phone_number": "7709439399", "tags": [{"primary": true, "id": 1722, "name": "Restaurants"}], "fax_number": null, "expansion": {"count": null, "uri": null}, "impression_id": "000b000000568521ffd5194de7a0141049e309faa8", "profile": "http://www.citysearch.com/profile/768794220/powder_springs_ga/ksun_llc.html", "address": {"city": "Powder Springs", "state": "GA", "street": "2860 East-West Connector SW", "postal_code": "30127"}, "capProviderId": null, "distance": null, "has_offers": false, "name": "Ksun Llc", "longitude": -84.626974, "has_menu": false, "awards": null, "user_review_count": 0}, {"business_operation_status": 1, "rating": null, "neighborhood": null, "image": null, "scorecard": null, "featured": false, "sample_categories": "Restaurants", "public_id": "la-joya-taqueira-mableton", "id": 837082200, "votes": null, "tagline": null, "has_video": false, "website": null, "offers": null, "latitude": 33.783418, "politanName": "Atlanta, GA Metro ", "phone_number": "6788876324", "tags": [{"primary": true, "id": 1722, "name": "Restaurants"}], "fax_number": null, "expansion": {"count": null, "uri": null}, "impression_id": "000b00000030325be293fb4910a914c3fb637da1ea", "profile": "http://www.citysearch.com/profile/837082200/mableton_ga/la_joya_taqueira.html", "address": {"city": "Mableton", "state": "GA", "street": "6960 Mableton Pkwy SE # B", "postal_code": "30126"}, "capProviderId": null, "distance": null, "has_offers": false, "name": "La Joya Taqueira", "longitude": -84.541117, "has_menu": false, "awards": null, "user_review_count": 0}, {"business_operation_status": 0, "rating": null, "neighborhood": null, "image": null, "scorecard": null, "featured": false, "sample_categories": "Restaurants", "public_id": "feeder-of-flocks-rib-chips-marietta", "id": 801084460, "votes": null, "tagline": null, "has_video": false, "website": null, "offers": null, "latitude": 33.880532, "politanName": "Atlanta, GA Metro ", "phone_number": "4046689810", "tags": [{"primary": true, "id": 1722, "name": "Restaurants"}], "fax_number": null, "expansion": {"count": null, "uri": null}, "impression_id": "000b0000009023b1b82e954b3fbc4994fac432acf2", "profile": "http://www.citysearch.com/profile/801084460/marietta_ga/feeder_of_flocks_rib_chips.html", "address": {"city": "Marietta", "state": "GA", "street": "901 Milford Church Rd Sw # G", "postal_code": "30060"}, "capProviderId": null, "distance": null, "has_offers": false, "name": "Feeder of Flocks Rib & Chips", "longitude": -84.580368, "has_menu": false, "awards": null, "user_review_count": 0}, {"business_operation_status": 1, "rating": null, "neighborhood": null, "image": null, "scorecard": null, "featured": false, "sample_categories": "Restaurants", "public_id": "d-k-wings-marietta", "id": 824095540, "votes": null, "tagline": null, "has_video": false, "website": null, "offers": null, "latitude": 33.902356, "politanName": "Atlanta, GA Metro ", "phone_number": "7708030499", "tags": [{"primary": true, "id": 1722, "name": "Restaurants"}], "fax_number": null, "expansion": {"count": null, "uri": null}, "impression_id": "000b0000004369ee9e9b4d4a62bd42fa0016cfdba2", "profile": "http://www.citysearch.com/profile/824095540/marietta_ga/d_k_wings.html", "address": {"city": "Marietta", "state": "GA", "street": "451 Pat Mell Rd SW", "postal_code": "30060"}, "capProviderId": null, "distance": null, "has_offers": false, "name": "D K Wings", "longitude": -84.566142, "has_menu": false, "awards": null, "user_review_count": 0}, {"business_operation_status": 1, "rating": null, "neighborhood": null, "image": null, "scorecard": null, "featured": false, "sample_categories": "Restaurants", "public_id": "leo-franco-chef-marietta", "id": 824426470, "votes": null, "tagline": null, "has_video": false, "website": null, "offers": null, "latitude": 33.948481, "politanName": "Atlanta, GA Metro ", "phone_number": "7704999439", "tags": [{"primary": true, "id": 1722, "name": "Restaurants"}], "fax_number": null, "expansion": {"count": null, "uri": null}, "impression_id": "000b000000c95b7f9b48c04ca7b33c3004e2a359ea", "profile": "http://www.citysearch.com/profile/824426470/marietta_ga/leo_franco_chef.html", "address": {"city": "Marietta", "state": "GA", "street": "20 Emerson Hill Sq", "postal_code": "30060"}, "capProviderId": null, "distance": null, "has_offers": false, "name": "Leo Franco Chef", "longitude": -84.542181, "has_menu": false, "awards": null, "user_review_count": 0}, {"business_operation_status": 1, "rating": null, "neighborhood": "Kenwood", "image": null, "scorecard": null, "featured": false, "sample_categories": "Restaurants", "public_id": "hot-wings-cafe-smyrna", "id": 833637940, "votes": null, "tagline": null, "has_video": false, "website": null, "offers": null, "latitude": 33.831526, "politanName": "Atlanta, GA Metro ", "phone_number": "6783059522", "tags": [{"primary": true, "id": 1722, "name": "Restaurants"}], "fax_number": null, "expansion": {"count": null, "uri": null}, "impression_id": "000b000000a892c190847f4bf69088c4ea91bae3be", "profile": "http://www.citysearch.com/profile/833637940/smyrna_ga/hot_wings_cafe.html", "address": {"city": "Smyrna", "state": "GA", "street": "4924 S Cobb Dr SE # B", "postal_code": "30080"}, "capProviderId": null, "distance": null, "has_offers": false, "name": "Hot Wings Cafe", "longitude": -84.493417, "has_menu": true, "awards": null, "user_review_count": 0}, {"business_operation_status": 0, "rating": null, "neighborhood": null, "image": null, "scorecard": null, "featured": false, "sample_categories": "Restaurants", "public_id": "paris-bistro-atlanta-2", "id": 605601560, "votes": null, "tagline": null, "has_video": false, "website": null, "offers": null, "latitude": 33.867677, "politanName": "Atlanta, GA Metro ", "phone_number": "6788420603", "tags": [{"primary": true, "id": 1722, "name": "Restaurants"}], "fax_number": null, "expansion": {"count": null, "uri": null}, "impression_id": "000b000000c4cdab024d7343d58ec9557b4ab6453f", "profile": "http://www.citysearch.com/profile/605601560/atlanta_ga/paris_bistro.html", "address": {"city": "Atlanta", "state": "GA", "street": "2859 Paces Ferry Rd Se", "postal_code": "30339"}, "capProviderId": null, "distance": null, "has_offers": false, "name": "Paris Bistro", "longitude": -84.468631, "has_menu": false, "awards": null, "user_review_count": 0}, {"business_operation_status": 1, "rating": null, "neighborhood": null, "image": null, "scorecard": null, "featured": false, "sample_categories": "Restaurants", "public_id": "bridge-smoke-grill-marietta", "id": 838772530, "votes": null, "tagline": null, "has_video": false, "website": null, "offers": null, "latitude": 33.927554, "politanName": "Atlanta, GA Metro ", "phone_number": "6789033043", "tags": [{"primary": true, "id": 1722, "name": "Restaurants"}], "fax_number": null, "expansion": {"count": null, "uri": null}, "impression_id": "000b000000dde5e561d5ae4a92b1275b93637ecb29", "profile": "http://www.citysearch.com/profile/838772530/marietta_ga/bridge_smoke_grill.html", "address": {"city": "Marietta", "state": "GA", "street": "1038 Franklin Rd SE", "postal_code": "30067"}, "capProviderId": null, "distance": null, "has_offers": false, "name": "Bridge Smoke Grill", "longitude": -84.493666, "has_menu": false, "awards": null, "user_review_count": 0}, {"business_operation_status": 1, "rating": null, "neighborhood": null, "image": null, "scorecard": null, "featured": false, "sample_categories": "Restaurants, Mexican", "public_id": "restaurante-salvadoreno-santa-mableton", "id": 40944476, "votes": null, "tagline": null, "has_video": false, "website": null, "offers": null, "latitude": 33.801687, "politanName": "Atlanta, GA Metro ", "phone_number": "7707398147", "tags": [{"primary": false, "id": 11208, "name": "Mexican"}, {"primary": true, "id": 1722, "name": "Restaurants"}], "fax_number": null, "expansion": {"count": null, "uri": null}, "impression_id": "000b0000004b2b6c0ea96d46c6839295877d7c1034", "profile": "http://www.citysearch.com/profile/40944476/mableton_ga/restaurante_salvadoreno_santa.html", "address": {"city": "Mableton", "state": "GA", "street": "6231 Mabletn Pkwy SW", "postal_code": "30126"}, "capProviderId": null, "distance": null, "has_offers": false, "name": "Restaurante Salvadoreno Santa", "longitude": -84.566851, "has_menu": false, "awards": null, "user_review_count": 0}, {"business_operation_status": 1, "rating": null, "neighborhood": null, "image": null, "scorecard": null, "featured": false, "sample_categories": "Restaurants, Delis And Delicatessens, Carry Out, Shop Online", "public_id": "jimmy-johns-atlanta-10", "id": 653623400, "votes": null, "tagline": null, "has_video": false, "website": "http://www.citysearch.com/profile/external/653623400/atlanta_ga/jimmy_john_s.html", "offers": null, "latitude": 33.866524, "politanName": "Atlanta, GA Metro ", "phone_number": "7708743285", "tags": [{"primary": false, "id": 1727, "name": "Delis And Delicatessens"}, {"primary": false, "id": 11247, "name": "Carry Out"}, {"primary": false, "id": 11375, "name": "Shop Online"}, {"primary": true, "id": 1722, "name": "Restaurants"}], "fax_number": null, "expansion": {"count": null, "uri": null}, "impression_id": "000b0000009db0e2394eed41a58b9bcf05a2722028", "profile": "http://www.citysearch.com/profile/653623400/atlanta_ga/jimmy_john_s.html", "address": {"city": "Atlanta", "state": "GA", "street": "2941 Paces Ferry Rd Se", "postal_code": "30339"}, "capProviderId": null, "distance": null, "has_offers": false, "name": "Jimmy John's", "longitude": -84.466985, "has_menu": false, "awards": null, "user_review_count": 0}, {"business_operation_status": 1, "rating": null, "neighborhood": null, "image": null, "scorecard": null, "featured": false, "sample_categories": "Restaurants, Catering, Gourmet Foods", "public_id": "masani-gourmet-southern-c-marietta", "id": 682266220, "votes": null, "tagline": null, "has_video": false, "website": "http://www.citysearch.com/profile/external/682266220/marietta_ga/masani_gourmet_southern_c.html", "offers": null, "latitude": 33.886828, "politanName": "Atlanta, GA Metro ", "phone_number": "6785982121", "tags": [{"primary": false, "id": 1705, "name": "Catering"}, {"primary": false, "id": 11169, "name": "Gourmet Foods"}, {"primary": true, "id": 1722, "name": "Restaurants"}], "fax_number": null, "expansion": {"count": null, "uri": null}, "impression_id": "000b0000007f1177f9223044b4a2b0017338357c5d", "profile": "http://www.citysearch.com/profile/682266220/marietta_ga/masani_gourmet_southern_c.html", "address": {"city": "Marietta", "state": "GA", "street": "246 Timber Creek Ln Sw", "postal_code": "30060"}, "capProviderId": null, "distance": null, "has_offers": false, "name": "Masani Gourmet Southern C", "longitude": -84.557713, "has_menu": false, "awards": null, "user_review_count": 0}, {"business_operation_status": 1, "rating": null, "neighborhood": null, "image": null, "scorecard": null, "featured": false, "sample_categories": "Restaurants, Traditional American, Carry Out, American Express, Discover", "public_id": "golden-corral-buffet-grill-marietta", "id": 682491030, "votes": null, "tagline": null, "has_video": false, "website": "http://www.citysearch.com/profile/external/682491030/marietta_ga/golden_corral_buffet_grill.html", "offers": null, "latitude": 33.858906, "politanName": "Atlanta, GA Metro ", "phone_number": "7707328014", "tags": [{"primary": false, "id": 11190, "name": "Traditional American"}, {"primary": false, "id": 11247, "name": "Carry Out"}, {"primary": false, "id": 11333, "name": "American Express"}, {"primary": false, "id": 11349, "name": "Discover"}, {"primary": false, "id": 11361, "name": "MasterCard"}, {"primary": false, "id": 11382, "name": "Visa"}, {"primary": true, "id": 1722, "name": "Restaurants"}], "fax_number": null, "expansion": {"count": null, "uri": null}, "impression_id": "000b000000ff434d8346de47f893e14d19a0d95968", "profile": "http://www.citysearch.com/profile/682491030/marietta_ga/golden_corral_buffet_grill.html", "address": {"city": "Marietta", "state": "GA", "street": "3845 Austell Rd Sw", "postal_code": "30008"}, "capProviderId": null, "distance": null, "has_offers": false, "name": "Golden Corral Buffet & Grill", "longitude": -84.598385, "has_menu": false, "awards": null, "user_review_count": 0}, {"business_operation_status": 1, "rating": null, "neighborhood": null, "image": null, "scorecard": null, "featured": false, "sample_categories": "Ice Cream Parlors", "public_id": "slush-puppie-of-atlanta-atlanta", "id": 612214754, "votes": null, "tagline": null, "has_video": false, "website": null, "offers": null, "latitude": 33.836397, "politanName": "Atlanta, GA Metro ", "phone_number": "4047924330", "tags": [{"primary": true, "id": 1730, "name": "Ice Cream Parlors"}], "fax_number": null, "expansion": {"count": null, "uri": null}, "impression_id": "000b0000002071dd39b4c949a7b62fe8dcffefd67d", "profile": "http://www.citysearch.com/profile/612214754/atlanta_ga/slush_puppie_of_atlanta.html", "address": {"city": "Atlanta", "state": "GA", "street": "4820 N Church Ln SE", "postal_code": "30339"}, "capProviderId": null, "distance": null, "has_offers": false, "name": "Slush Puppie Of Atlanta", "longitude": -84.482929, "has_menu": false, "awards": null, "user_review_count": 0}, {"business_operation_status": 1, "rating": null, "neighborhood": null, "image": null, "scorecard": null, "featured": false, "sample_categories": "Bars & Clubs, Restaurants", "public_id": "two-monkeys-llc-marietta", "id": 823894470, "votes": null, "tagline": null, "has_video": false, "website": null, "offers": null, "latitude": 33.951907, "politanName": "Atlanta, GA Metro ", "phone_number": "7704220108", "tags": [{"primary": false, "id": 1722, "name": "Restaurants"}, {"primary": true, "id": 164, "name": "Bars & Clubs"}], "fax_number": null, "expansion": {"count": null, "uri": null}, "impression_id": "000b0000003465c31ae986410795e66d4fba647465", "profile": "http://www.citysearch.com/profile/823894470/marietta_ga/two_monkeys_llc.html", "address": {"city": "Marietta", "state": "GA", "street": "688 Whitlock Ave NW # G", "postal_code": "30064"}, "capProviderId": null, "distance": null, "has_offers": false, "name": "Two Monkeys LLC", "longitude": -84.572199, "has_menu": false, "awards": null, "user_review_count": 0}, {"business_operation_status": 1, "rating": null, "neighborhood": "Northside, Northside", "image": null, "scorecard": null, "featured": false, "sample_categories": "Restaurants", "public_id": "good-eats-restaurants-atlanta", "id": 820069120, "votes": null, "tagline": null, "has_video": false, "website": null, "offers": null, "latitude": 33.811491, "politanName": "Atlanta, GA Metro ", "phone_number": "4043520008", "tags": [{"primary": true, "id": 1722, "name": "Restaurants"}], "fax_number": null, "expansion": {"count": null, "uri": null}, "impression_id": "000b0000004dbc9d55302341a1b3e0484186b113be", "profile": "http://www.citysearch.com/profile/820069120/atlanta_ga/good_eats_restaurants.html", "address": {"city": "Atlanta", "state": "GA", "street": "1341 Collier Rd NW", "postal_code": "30318"}, "capProviderId": null, "distance": null, "has_offers": false, "name": "Good Eats Restaurants", "longitude": -84.431673, "has_menu": true, "awards": null, "user_review_count": 0}], "histograms": [], "tag_ids": [1722], "uri": "http://api.citygridmedia.com:8080/search/places/v2/search/where?has_offers=false&type=restaurant&format=json&page=18&where=30082&rpp=50&histograms=false&publisher=10000009598&region_type=circle", "did_you_mean": "", "regions": [{"latitude": 33.854375999999995, "default_radius": 3.24, "type": "postal_code", "name": "30082", "longitude": -84.535215}], "call_id": "000b00000080f5b3b033544117bb4c5b32fbcc0eb6", "first_hit": 851, "total_hits": 1174, "geo_ids": [26331], "page": 18, "last_hit": 900}}