{"results": {"rpp": 50, "locations": [{"business_operation_status": 1, "rating": null, "neighborhood": null, "image": null, "scorecard": null, "featured": false, "sample_categories": "Restaurants, Greek", "public_id": "milos-restaurant-greek-tavern-marietta", "id": 793388790, "votes": null, "tagline": null, "has_video": false, "website": null, "offers": null, "latitude": 33.953276, "politanName": "Atlanta, GA Metro ", "phone_number": "6789033148", "tags": [{"primary": false, "id": 11268, "name": "Greek"}, {"primary": true, "id": 1722, "name": "Restaurants"}], "fax_number": null, "expansion": {"count": null, "uri": null}, "impression_id": "000b000000cefa55315b3e420294b9112a410cf5e7", "profile": "http://www.citysearch.com/profile/793388790/marietta_ga/milos_restaurant_greek_tavern.html", "address": {"city": "Marietta", "state": "GA", "street": "26 Mill St Ne", "postal_code": "30060"}, "capProviderId": null, "distance": null, "has_offers": false, "name": "Milos Restaurant Greek Tavern", "longitude": -84.551885, "has_menu": false, "awards": null, "user_review_count": 0}, {"business_operation_status": 1, "rating": null, "neighborhood": "Northside, Northside, Bolton", "image": null, "scorecard": null, "featured": false, "sample_categories": "Restaurants, Fast Food", "public_id": "churchs-chicken-atlanta-10", "id": 43878172, "votes": null, "tagline": null, "has_video": false, "website": null, "offers": null, "latitude": 33.821432, "politanName": "Atlanta, GA Metro ", "phone_number": "4043556808", "tags": [{"primary": false, "id": 11199, "name": "Fast Food"}, {"primary": true, "id": 1722, "name": "Restaurants"}], "fax_number": null, "expansion": {"count": null, "uri": null}, "impression_id": "000b00000005ca17c942b1454686ca942bc806bfab", "profile": "http://www.citysearch.com/profile/43878172/atlanta_ga/church_s_chicken.html", "address": {"city": "Atlanta", "state": "GA", "street": "2418 Bolton Rd NW", "postal_code": "30318"}, "capProviderId": null, "distance": null, "has_offers": false, "name": "Church's Chicken", "longitude": -84.455746, "has_menu": true, "awards": null, "user_review_count": 0}, {"business_operation_status": 1, "rating": 6.0, "neighborhood": null, "image": null, "scorecard": null, "featured": false, "sample_categories": "Restaurants, Family-Friendly Dining", "public_id": "our-place-restaurant-marietta", "id": 43842559, "votes": null, "tagline": null, "has_video": false, "website": null, "offers": null, "latitude": 33.941343, "politanName": "Atlanta, GA Metro ", "phone_number": "7704223796", "tags": [{"primary": false, "id": 1722, "name": "Restaurants"}, {"primary": true, "id": 11263, "name": "Family-Friendly Dining"}], "fax_number": null, "expansion": {"count": null, "uri": null}, "impression_id": "000b0000002ae6dbf154024a08a62a9fd33ab32608", "profile": "http://www.citysearch.com/profile/43842559/marietta_ga/our_place_restaurant.html", "address": {"city": "Marietta", "state": "GA", "street": "940 S Marietta Pkwy SE", "postal_code": "30060"}, "capProviderId": null, "distance": null, "has_offers": false, "name": "Our Place Restaurant", "longitude": -84.523114, "has_menu": false, "awards": null, "user_review_count": 2}, {"business_operation_status": 1, "rating": null, "neighborhood": null, "image": null, "scorecard": null, "featured": false, "sample_categories": "Restaurants", "public_id": "cantons-donuts-marietta", "id": 805665440, "votes": null, "tagline": null, "has_video": false, "website": null, "offers": null, "latitude": 33.951218, "politanName": "Atlanta, GA Metro ", "phone_number": "7705792399", "tags": [{"primary": true, "id": 1722, "name": "Restaurants"}], "fax_number": null, "expansion": {"count": null, "uri": null}, "impression_id": "000b000000936ad082512a453a89e48bdd5fc5f0d0", "profile": "http://www.citysearch.com/profile/805665440/marietta_ga/canton_s_donuts.html", "address": {"city": "Marietta", "state": "GA", "street": "1516 Roswell Rd", "postal_code": "30062"}, "capProviderId": null, "distance": null, "has_offers": false, "name": "Canton's Donuts", "longitude": -84.508253, "has_menu": false, "awards": null, "user_review_count": 0}, {"business_operation_status": 1, "rating": null, "neighborhood": null, "image": null, "scorecard": null, "featured": false, "sample_categories": "Restaurants, Carry Out", "public_id": "golden-corral-buffet-grill-marietta-2", "id": 811738440, "votes": null, "tagline": null, "has_video": false, "website": null, "offers": null, "latitude": 33.93149, "politanName": "Atlanta, GA Metro ", "phone_number": "7709551779", "tags": [{"primary": false, "id": 11247, "name": "Carry Out"}, {"primary": true, "id": 1722, "name": "Restaurants"}], "fax_number": null, "expansion": {"count": null, "uri": null}, "impression_id": "000b0000009d7324c804c14f2c812a9e2ad50d7847", "profile": "http://www.citysearch.com/profile/811738440/marietta_ga/golden_corral_buffet_grill.html", "address": {"city": "Marietta", "state": "GA", "street": "2024 Powers Ferry Trce SE", "postal_code": "30067"}, "capProviderId": null, "distance": null, "has_offers": false, "name": "Golden Corral Buffet & Grill", "longitude": -84.478299, "has_menu": false, "awards": null, "user_review_count": 0}, {"business_operation_status": 1, "rating": null, "neighborhood": null, "image": null, "scorecard": null, "featured": false, "sample_categories": "Restaurants, Chinese", "public_id": "china-shipping-agency-atlanta", "id": 45568408, "votes": null, "tagline": null, "has_video": false, "website": null, "offers": null, "latitude": 33.902606, "politanName": "Atlanta, GA Metro ", "phone_number": "7708578338", "tags": [{"primary": false, "id": 11252, "name": "Chinese"}, {"primary": true, "id": 1722, "name": "Restaurants"}], "fax_number": null, "expansion": {"count": null, "uri": null}, "impression_id": "000b0000009c4a9e7f66d44774b7cf46c8cffd2ee4", "profile": "http://www.citysearch.com/profile/45568408/atlanta_ga/china_shipping_agency.html", "address": {"city": "Atlanta", "state": "GA", "street": "2000 Powers Ferry Rd SE", "postal_code": "30339"}, "capProviderId": null, "distance": null, "has_offers": false, "name": "China Shipping Agency", "longitude": -84.457878, "has_menu": false, "awards": null, "user_review_count": 0}, {"business_operation_status": 1, "rating": null, "neighborhood": null, "image": null, "scorecard": null, "featured": false, "sample_categories": "Restaurants", "public_id": "bjs-country-cooking-mableton", "id": 828752570, "votes": null, "tagline": null, "has_video": false, "website": null, "offers": null, "latitude": 33.81695, "politanName": "Atlanta, GA Metro ", "phone_number": "7708199232", "tags": [{"primary": true, "id": 1722, "name": "Restaurants"}], "fax_number": null, "expansion": {"count": null, "uri": null}, "impression_id": "000b000000ff1124669c2c46a888a862ea6b03ed9d", "profile": "http://www.citysearch.com/profile/828752570/mableton_ga/bjs_country_cooking.html", "address": {"city": "Mableton", "state": "GA", "street": "499 Veterans Memorial Hwy SW", "postal_code": "30126"}, "capProviderId": null, "distance": null, "has_offers": false, "name": "Bjs Country Cooking", "longitude": -84.568566, "has_menu": false, "awards": null, "user_review_count": 0}, {"business_operation_status": 1, "rating": null, "neighborhood": null, "image": null, "scorecard": null, "featured": false, "sample_categories": "Restaurants, Carry Out, American Express, Discover, MasterCard", "public_id": "chickfila-marietta-4", "id": 621935420, "votes": null, "tagline": null, "has_video": false, "website": "http://www.citysearch.com/profile/external/621935420/marietta_ga/chick_fil_a.html", "offers": null, "latitude": 33.904224, "politanName": "Atlanta, GA Metro ", "phone_number": "6783555297", "tags": [{"primary": false, "id": 11247, "name": "Carry Out"}, {"primary": false, "id": 11333, "name": "American Express"}, {"primary": false, "id": 11349, "name": "Discover"}, {"primary": false, "id": 11361, "name": "MasterCard"}, {"primary": false, "id": 11382, "name": "Visa"}, {"primary": false, "id": 12839, "name": "Chicken"}, {"primary": true, "id": 1722, "name": "Restaurants"}], "fax_number": null, "expansion": {"count": null, "uri": null}, "impression_id": "000b0000002caa49d692894ddca3a4ff5605af0ecc", "profile": "http://www.citysearch.com/profile/621935420/marietta_ga/chick_fil_a.html", "address": {"city": "Marietta", "state": "GA", "street": "2005 Macland Rd Sw", "postal_code": "30064"}, "capProviderId": null, "distance": null, "has_offers": false, "name": "Chick-Fil-A", "longitude": -84.610996, "has_menu": true, "awards": null, "user_review_count": 0}, {"business_operation_status": 1, "rating": null, "neighborhood": null, "image": null, "scorecard": null, "featured": false, "sample_categories": "Sandwich Shops, Restaurants, Delis And Delicatessens", "public_id": "deli-planet-atlanta", "id": 3030563, "votes": null, "tagline": null, "has_video": false, "website": null, "offers": null, "latitude": 33.879395, "politanName": "Atlanta, GA Metro ", "phone_number": "7709514994", "tags": [{"primary": false, "id": 1722, "name": "Restaurants"}, {"primary": false, "id": 1727, "name": "Delis And Delicatessens"}, {"primary": true, "id": 1736, "name": "Sandwich Shops"}], "fax_number": null, "expansion": {"count": null, "uri": null}, "impression_id": "000b0000000127051e47d64225a1149fa365ff3b8b", "profile": "http://www.citysearch.com/profile/3030563/atlanta_ga/deli_planet.html", "address": {"city": "Atlanta", "state": "GA", "street": "3051 Akers Mill Rd SE", "postal_code": "30339"}, "capProviderId": null, "distance": null, "has_offers": false, "name": "Deli Planet", "longitude": -84.463912, "has_menu": false, "awards": null, "user_review_count": 1}, {"business_operation_status": 1, "rating": null, "neighborhood": null, "image": null, "scorecard": null, "featured": false, "sample_categories": "Restaurants, Fast Food, Carry Out, MasterCard, Visa", "public_id": "bojangles-famous-chicken-marietta", "id": 43849344, "votes": null, "tagline": null, "has_video": false, "website": "http://www.citysearch.com/profile/external/43849344/marietta_ga/bojangles_famous_chicken.html", "offers": null, "latitude": 33.935998, "politanName": "Atlanta, GA Metro ", "phone_number": "7704226222", "tags": [{"primary": false, "id": 11199, "name": "Fast Food"}, {"primary": false, "id": 11247, "name": "Carry Out"}, {"primary": false, "id": 11361, "name": "MasterCard"}, {"primary": false, "id": 11382, "name": "Visa"}, {"primary": false, "id": 12839, "name": "Chicken"}, {"primary": true, "id": 1722, "name": "Restaurants"}], "fax_number": null, "expansion": {"count": null, "uri": null}, "impression_id": "000b000000863996f584204955841388d240dbdc12", "profile": "http://www.citysearch.com/profile/43849344/marietta_ga/bojangles_famous_chicken.html", "address": {"city": "Marietta", "state": "GA", "street": "681 Cobb Pkwy N", "postal_code": "30062"}, "capProviderId": null, "distance": null, "has_offers": false, "name": "Bojangles' Famous Chicken", "longitude": -84.511888, "has_menu": false, "awards": null, "user_review_count": 0}, {"business_operation_status": 1, "rating": 8.0, "neighborhood": null, "image": null, "scorecard": null, "featured": false, "sample_categories": "Translators & Interpreters, Bakeries, Restaurants", "public_id": "progreso-latino-marietta", "id": 44772942, "votes": null, "tagline": null, "has_video": false, "website": null, "offers": null, "latitude": 33.936757, "politanName": "Atlanta, GA Metro ", "phone_number": "7707941110", "tags": [{"primary": false, "id": 3744, "name": "Translators & Interpreters"}, {"primary": false, "id": 1685, "name": "Bakeries"}, {"primary": false, "id": 1722, "name": "Restaurants"}], "fax_number": null, "expansion": {"count": null, "uri": null}, "impression_id": "000b000000c1882c6ef9864d459dcb946b45ce7f19", "profile": "http://www.citysearch.com/profile/44772942/marietta_ga/progreso_latino.html", "address": {"city": "Marietta", "state": "GA", "street": "680 Powder Springs St", "postal_code": "30064"}, "capProviderId": null, "distance": null, "has_offers": false, "name": "Progreso Latino", "longitude": -84.557357, "has_menu": false, "awards": null, "user_review_count": 0}, {"business_operation_status": 1, "rating": null, "neighborhood": null, "image": null, "scorecard": null, "featured": false, "sample_categories": "Restaurants", "public_id": "cafe-the-pointe-atlanta", "id": 3020367, "votes": null, "tagline": null, "has_video": false, "website": null, "offers": null, "latitude": 33.908964, "politanName": "Atlanta, GA Metro ", "phone_number": "7709515553", "tags": [{"primary": true, "id": 1722, "name": "Restaurants"}], "fax_number": null, "expansion": {"count": null, "uri": null}, "impression_id": "000b0000004ece4b134f024dec93f15bfc074e6995", "profile": "http://www.citysearch.com/profile/3020367/atlanta_ga/cafe_the_pointe.html", "address": {"city": "Atlanta", "state": "GA", "street": "5660 New Northside Dr NW Ste 180", "postal_code": "30328"}, "capProviderId": null, "distance": null, "has_offers": false, "name": "Cafe The Pointe", "longitude": -84.431126, "has_menu": false, "awards": null, "user_review_count": 0}, {"business_operation_status": 1, "rating": null, "neighborhood": null, "image": null, "scorecard": null, "featured": false, "sample_categories": "Restaurants, Barbecue Restaurants", "public_id": "st-louis-barbeque-blues-mableton", "id": 638803040, "votes": null, "tagline": null, "has_video": false, "website": null, "offers": null, "latitude": 33.805377, "politanName": "Atlanta, GA Metro ", "phone_number": "6783985055", "tags": [{"primary": false, "id": 1724, "name": "Barbecue Restaurants"}, {"primary": true, "id": 1722, "name": "Restaurants"}], "fax_number": null, "expansion": {"count": null, "uri": null}, "impression_id": "000b000000bc6e18646c784a17b63e35d9a444c5a4", "profile": "http://www.citysearch.com/profile/638803040/mableton_ga/st_louis_barbeque_blues.html", "address": {"city": "Mableton", "state": "GA", "street": "1025 Veterans Memorial Hwy Se", "postal_code": "30126"}, "capProviderId": null, "distance": null, "has_offers": false, "name": "St Louis Barbeque & Blues", "longitude": -84.52581, "has_menu": false, "awards": null, "user_review_count": 0}, {"business_operation_status": 1, "rating": null, "neighborhood": null, "image": null, "scorecard": null, "featured": false, "sample_categories": "Restaurants", "public_id": "wing-it-cafe-marietta", "id": 610478634, "votes": null, "tagline": null, "has_video": false, "website": null, "offers": null, "latitude": 33.883197, "politanName": "Atlanta, GA Metro ", "phone_number": "7702189100", "tags": [{"primary": true, "id": 1722, "name": "Restaurants"}], "fax_number": null, "expansion": {"count": null, "uri": null}, "impression_id": "000b0000008fafcbf553fa47df8dc5c7e811d5d8eb", "profile": "http://www.citysearch.com/profile/610478634/marietta_ga/wing_it_cafe.html", "address": {"city": "Marietta", "state": "GA", "street": "2200 Powder Springs Rd SW", "postal_code": "30064"}, "capProviderId": null, "distance": null, "has_offers": false, "name": "Wing It Cafe", "longitude": -84.61985, "has_menu": false, "awards": null, "user_review_count": 0}, {"business_operation_status": 1, "rating": null, "neighborhood": "Bolton, Northside, Northside", "image": null, "scorecard": null, "featured": false, "sample_categories": "Restaurants", "public_id": "el-pastor-atlanta", "id": 3011734, "votes": null, "tagline": null, "has_video": false, "website": null, "offers": null, "latitude": 33.817964, "politanName": "Atlanta, GA Metro ", "phone_number": "4043670502", "tags": [{"primary": true, "id": 1722, "name": "Restaurants"}], "fax_number": null, "expansion": {"count": null, "uri": null}, "impression_id": "000b0000009f804e178f5346b98d1be12a68fabfea", "profile": "http://www.citysearch.com/profile/3011734/atlanta_ga/el_pastor.html", "address": {"city": "Atlanta", "state": "GA", "street": "2225 Marietta Blvd NW", "postal_code": "30318"}, "capProviderId": null, "distance": null, "has_offers": false, "name": "El Pastor", "longitude": -84.448078, "has_menu": false, "awards": null, "user_review_count": 0}, {"business_operation_status": 1, "rating": null, "neighborhood": null, "image": null, "scorecard": null, "featured": false, "sample_categories": "Restaurants", "public_id": "parkside-cafe-atlanta", "id": 3030526, "votes": null, "tagline": null, "has_video": false, "website": null, "offers": null, "latitude": 33.906442, "politanName": "Atlanta, GA Metro ", "phone_number": "7709330089", "tags": [{"primary": true, "id": 1722, "name": "Restaurants"}], "fax_number": null, "expansion": {"count": null, "uri": null}, "impression_id": "000b000000026d4d2f81d544e989aca9b4d3eea5a8", "profile": "http://www.citysearch.com/profile/3030526/atlanta_ga/parkside_cafe.html", "address": {"city": "Atlanta", "state": "GA", "street": "2500 Windy Ridge Pkwy SE Ste 100", "postal_code": "30339"}, "capProviderId": null, "distance": null, "has_offers": false, "name": "Parkside Cafe", "longitude": -84.46162, "has_menu": true, "awards": null, "user_review_count": 1}, {"business_operation_status": 1, "rating": null, "neighborhood": null, "image": null, "scorecard": null, "featured": false, "sample_categories": "Restaurants", "public_id": "galleria-100-cafe-atlanta", "id": 3030544, "votes": null, "tagline": null, "has_video": false, "website": null, "offers": null, "latitude": 33.885006, "politanName": "Atlanta, GA Metro ", "phone_number": "7709569773", "tags": [{"primary": true, "id": 1722, "name": "Restaurants"}], "fax_number": null, "expansion": {"count": null, "uri": null}, "impression_id": "000b0000007c6d1ba5699c4ec0bfe39249bd52aabe", "profile": "http://www.citysearch.com/profile/3030544/atlanta_ga/galleria_100_cafe.html", "address": {"city": "Atlanta", "state": "GA", "street": "100 Galleria Pkwy SE Ste 120", "postal_code": "30339"}, "capProviderId": null, "distance": null, "has_offers": false, "name": "Galleria 100 Cafe", "longitude": -84.462612, "has_menu": false, "awards": null, "user_review_count": 0}, {"business_operation_status": 1, "rating": null, "neighborhood": null, "image": null, "scorecard": null, "featured": false, "sample_categories": "Restaurants, Delis And Delicatessens", "public_id": "shadowood-cafe-atlanta", "id": 3030562, "votes": null, "tagline": null, "has_video": false, "website": null, "offers": null, "latitude": 33.901114, "politanName": "Atlanta, GA Metro ", "phone_number": "7709333265", "tags": [{"primary": false, "id": 1727, "name": "Delis And Delicatessens"}, {"primary": true, "id": 1722, "name": "Restaurants"}], "fax_number": null, "expansion": {"count": null, "uri": null}, "impression_id": "000b000000436eb1fe25544e49b225b0e92c6cac7c", "profile": "http://www.citysearch.com/profile/3030562/atlanta_ga/shadowood_cafe.html", "address": {"city": "Atlanta", "state": "GA", "street": "2110 Powers Ferry Rd SE 120", "postal_code": "30339"}, "capProviderId": null, "distance": null, "has_offers": false, "name": "Shadowood Cafe", "longitude": -84.45113, "has_menu": false, "awards": null, "user_review_count": 0}, {"business_operation_status": 1, "rating": null, "neighborhood": null, "image": null, "scorecard": null, "featured": false, "sample_categories": "Restaurants, Bakeries, Doughnut Shops", "public_id": "powers-ferry-donuts-holdings-atlanta", "id": 622334470, "votes": null, "tagline": null, "has_video": false, "website": null, "offers": null, "latitude": 33.901856, "politanName": "Atlanta, GA Metro ", "phone_number": "7708591677", "tags": [{"primary": false, "id": 1685, "name": "Bakeries"}, {"primary": false, "id": 1734, "name": "Doughnut Shops"}, {"primary": true, "id": 1722, "name": "Restaurants"}], "fax_number": null, "expansion": {"count": null, "uri": null}, "impression_id": "000b0000000a62ede9dd2a4bd9bb63c11302e14fb6", "profile": "http://www.citysearch.com/profile/622334470/atlanta_ga/powers_ferry_donuts_holdings.html", "address": {"city": "Atlanta", "state": "GA", "street": "2022 Powers Ferry Rd Se", "postal_code": "30339"}, "capProviderId": null, "distance": null, "has_offers": false, "name": "Powers Ferry Donuts Holdings", "longitude": -84.455034, "has_menu": false, "awards": null, "user_review_count": 0}, {"business_operation_status": 1, "rating": null, "neighborhood": null, "image": null, "scorecard": null, "featured": false, "sample_categories": "Coffeehouses", "public_id": "pet-pet-ltd-smyrna", "id": 732184890, "votes": null, "tagline": null, "has_video": false, "website": null, "offers": null, "latitude": 33.851216, "politanName": "Atlanta, GA Metro ", "phone_number": "7708198835", "tags": [{"primary": true, "id": 1726, "name": "Coffeehouses"}], "fax_number": null, "expansion": {"count": null, "uri": null}, "impression_id": "000b000000644e056737d24ca798ca93b479eb17d8", "profile": "http://www.citysearch.com/profile/732184890/smyrna_ga/pet_pet_ltd.html", "address": {"city": "Smyrna", "state": "GA", "street": "4131 Gregory Manor Cir SW", "postal_code": "30082"}, "capProviderId": null, "distance": null, "has_offers": false, "name": "Pet Pet Ltd", "longitude": -84.568419, "has_menu": false, "awards": null, "user_review_count": 0}, {"business_operation_status": 1, "rating": null, "neighborhood": "Northside, Northside", "image": null, "scorecard": null, "featured": false, "sample_categories": "Restaurants", "public_id": "sampan-restaurant-atlanta", "id": 811485080, "votes": null, "tagline": null, "has_video": false, "website": null, "offers": null, "latitude": 33.786925, "politanName": "Atlanta, GA Metro ", "phone_number": "4043678333", "tags": [{"primary": true, "id": 1722, "name": "Restaurants"}], "fax_number": null, "expansion": {"count": null, "uri": null}, "impression_id": "000b000000da750549f7fe4e558425da18057375ca", "profile": "http://www.citysearch.com/profile/811485080/atlanta_ga/sampan_restaurant.html", "address": {"city": "Atlanta", "state": "GA", "street": "1198 Howell Mill Rd NW", "postal_code": "30318"}, "capProviderId": null, "distance": null, "has_offers": false, "name": "Sampan Restaurant", "longitude": -84.411761, "has_menu": false, "awards": null, "user_review_count": 0}, {"business_operation_status": 1, "rating": null, "neighborhood": null, "image": null, "scorecard": null, "featured": false, "sample_categories": "Restaurants, Barbecue Restaurants", "public_id": "wing-zone-marietta", "id": 37646631, "votes": null, "tagline": null, "has_video": false, "website": "http://www.citysearch.com/profile/external/37646631/marietta_ga/wing_zone.html", "offers": null, "latitude": 33.920106, "politanName": "Atlanta, GA Metro ", "phone_number": "7709889464", "tags": [{"primary": false, "id": 1724, "name": "Barbecue Restaurants"}, {"primary": true, "id": 1722, "name": "Restaurants"}], "fax_number": null, "expansion": {"count": null, "uri": null}, "impression_id": "000b000000e187a2811aa941e2b66b1a0c89d8cd94", "profile": "http://www.citysearch.com/profile/37646631/marietta_ga/wing_zone.html", "address": {"city": "Marietta", "state": "GA", "street": "1309 Powers Ferry Rd SE", "postal_code": "30067"}, "capProviderId": null, "distance": null, "has_offers": false, "name": "Wing Zone", "longitude": -84.467252, "has_menu": true, "awards": null, "user_review_count": 0}, {"business_operation_status": 1, "rating": null, "neighborhood": null, "image": null, "scorecard": null, "featured": false, "sample_categories": "Restaurants, Fast Food, Carry Out, Hamburgers, American Express", "public_id": "mc-donalds-austell-2", "id": 37648233, "votes": null, "tagline": null, "has_video": false, "website": "http://www.citysearch.com/profile/external/37648233/austell_ga/mc_donald_s.html", "offers": null, "latitude": 33.856577, "politanName": "Atlanta, GA Metro ", "phone_number": "7704344002", "tags": [{"primary": false, "id": 11199, "name": "Fast Food"}, {"primary": false, "id": 11247, "name": "Carry Out"}, {"primary": false, "id": 11270, "name": "Hamburgers"}, {"primary": false, "id": 11333, "name": "American Express"}, {"primary": false, "id": 11349, "name": "Discover"}, {"primary": false, "id": 11361, "name": "MasterCard"}, {"primary": false, "id": 11382, "name": "Visa"}, {"primary": true, "id": 1722, "name": "Restaurants"}], "fax_number": null, "expansion": {"count": null, "uri": null}, "impression_id": "000b00000032d3679b91eb49e5b8f20dcb87ffa411", "profile": "http://www.citysearch.com/profile/37648233/austell_ga/mc_donald_s.html", "address": {"city": "Austell", "state": "GA", "street": "1133 E West Connector", "postal_code": "30106"}, "capProviderId": null, "distance": null, "has_offers": false, "name": "Mc Donald's", "longitude": -84.58945, "has_menu": true, "awards": null, "user_review_count": 0}, {"business_operation_status": 1, "rating": null, "neighborhood": null, "image": null, "scorecard": null, "featured": false, "sample_categories": "Restaurants, Pizza", "public_id": "pizza-zone-inc-marietta", "id": 820298830, "votes": null, "tagline": null, "has_video": false, "website": null, "offers": null, "latitude": 33.904063, "politanName": "Atlanta, GA Metro ", "phone_number": "7704329364", "tags": [{"primary": false, "id": 1722, "name": "Restaurants"}, {"primary": true, "id": 11299, "name": "Pizza"}], "fax_number": null, "expansion": {"count": null, "uri": null}, "impression_id": "000b0000003ee17587503649a28fcd466d90c7d176", "profile": "http://www.citysearch.com/profile/820298830/marietta_ga/pizza_zone_inc.html", "address": {"city": "Marietta", "state": "GA", "street": "2022 S Cobb Dr SE", "postal_code": "30060"}, "capProviderId": null, "distance": null, "has_offers": false, "name": "Pizza Zone Inc", "longitude": -84.542723, "has_menu": false, "awards": null, "user_review_count": 0}, {"business_operation_status": 1, "rating": null, "neighborhood": null, "image": null, "scorecard": null, "featured": false, "sample_categories": "Restaurants", "public_id": "slate-grill-marietta-2", "id": 820825960, "votes": null, "tagline": null, "has_video": false, "website": null, "offers": null, "latitude": 33.953111, "politanName": "Atlanta, GA Metro ", "phone_number": "7704269777", "tags": [{"primary": true, "id": 1722, "name": "Restaurants"}], "fax_number": null, "expansion": {"count": null, "uri": null}, "impression_id": "000b000000de960fcc7e694ceb9f470759df9141cb", "profile": "http://www.citysearch.com/profile/820825960/marietta_ga/slate_grill.html", "address": {"city": "Marietta", "state": "GA", "street": "1000 Whitlock Ave NW # 410", "postal_code": "30064"}, "capProviderId": null, "distance": null, "has_offers": false, "name": "Slate Grill", "longitude": -84.581272, "has_menu": true, "awards": null, "user_review_count": 0}, {"business_operation_status": 1, "rating": null, "neighborhood": null, "image": null, "scorecard": null, "featured": false, "sample_categories": "Restaurants", "public_id": "larrys-country-kitchen-marietta", "id": 827346130, "votes": null, "tagline": null, "has_video": false, "website": null, "offers": null, "latitude": 33.943185, "politanName": "Atlanta, GA Metro ", "phone_number": "7704269522", "tags": [{"primary": true, "id": 1722, "name": "Restaurants"}], "fax_number": null, "expansion": {"count": null, "uri": null}, "impression_id": "000b000000d9cb385ca8704714906dfb826a235fa1", "profile": "http://www.citysearch.com/profile/827346130/marietta_ga/larry_s_country_kitchen.html", "address": {"city": "Marietta", "state": "GA", "street": "625 S Marietta Pkwy SE", "postal_code": "30060"}, "capProviderId": null, "distance": null, "has_offers": false, "name": "Larry's Country Kitchen", "longitude": -84.533806, "has_menu": false, "awards": null, "user_review_count": 0}, {"business_operation_status": 1, "rating": null, "neighborhood": null, "image": null, "scorecard": null, "featured": false, "sample_categories": "Restaurants", "public_id": "grand-champion-bbq-marietta", "id": 836972670, "votes": null, "tagline": null, "has_video": false, "website": null, "offers": null, "latitude": 33.952602, "politanName": "Atlanta, GA Metro ", "phone_number": "7709934227", "tags": [{"primary": true, "id": 1722, "name": "Restaurants"}], "fax_number": null, "expansion": {"count": null, "uri": null}, "impression_id": "000b00000029565ffd09f743ad9159698291b121fa", "profile": "http://www.citysearch.com/profile/836972670/marietta_ga/grand_champion_bbq.html", "address": {"city": "Marietta", "state": "GA", "street": "[empty]", "postal_code": "30062"}, "capProviderId": null, "distance": null, "has_offers": false, "name": "Grand Champion BBQ", "longitude": -84.549933, "has_menu": false, "awards": null, "user_review_count": 0}, {"business_operation_status": 0, "rating": null, "neighborhood": null, "image": null, "scorecard": null, "featured": false, "sample_categories": "Restaurants, Delis And Delicatessens, Sandwich Shops, Carry Out", "public_id": "subway-marietta-49", "id": 764879600, "votes": null, "tagline": null, "has_video": false, "website": "http://www.citysearch.com/profile/external/764879600/marietta_ga/subway.html", "offers": null, "latitude": 33.900569, "politanName": "Atlanta, GA Metro ", "phone_number": "7708500296", "tags": [{"primary": false, "id": 1727, "name": "Delis And Delicatessens"}, {"primary": false, "id": 1736, "name": "Sandwich Shops"}, {"primary": false, "id": 11247, "name": "Carry Out"}, {"primary": true, "id": 1722, "name": "Restaurants"}], "fax_number": null, "expansion": {"count": null, "uri": null}, "impression_id": "000b0000008923ddf370964a5eb9305bedc0e9796c", "profile": "http://www.citysearch.com/profile/764879600/marietta_ga/subway.html", "address": {"city": "Marietta", "state": "GA", "street": "2145 Powers Ferry Rd SE", "postal_code": "30067"}, "capProviderId": null, "distance": null, "has_offers": false, "name": "SUBWAY", "longitude": -84.448686, "has_menu": true, "awards": null, "user_review_count": 0}, {"business_operation_status": 1, "rating": null, "neighborhood": null, "image": null, "scorecard": null, "featured": false, "sample_categories": "Restaurants, Pizza", "public_id": "stevi-bs-pizza-marietta-5", "id": 766799650, "votes": null, "tagline": null, "has_video": false, "website": "http://www.citysearch.com/profile/external/766799650/marietta_ga/stevi_b_s_pizza.html", "offers": null, "latitude": 33.925343, "politanName": "Atlanta, GA Metro ", "phone_number": "7705411450", "tags": [{"primary": false, "id": 11299, "name": "Pizza"}, {"primary": true, "id": 1722, "name": "Restaurants"}], "fax_number": null, "expansion": {"count": null, "uri": null}, "impression_id": "000b000000e0cd75effef741c1a9e5c0641b52d36f", "profile": "http://www.citysearch.com/profile/766799650/marietta_ga/stevi_b_s_pizza.html", "address": {"city": "Marietta", "state": "GA", "street": "1165 Northchase Pkwy SE # 220", "postal_code": "30067"}, "capProviderId": null, "distance": null, "has_offers": false, "name": "Stevi B's Pizza", "longitude": -84.480479, "has_menu": true, "awards": null, "user_review_count": 0}, {"business_operation_status": 1, "rating": null, "neighborhood": null, "image": null, "scorecard": null, "featured": false, "sample_categories": "Restaurants", "public_id": "restaurant-concepts-inc-marietta", "id": 775223410, "votes": null, "tagline": null, "has_video": false, "website": null, "offers": null, "latitude": 33.930134, "politanName": "Atlanta, GA Metro ", "phone_number": "7709525943", "tags": [{"primary": true, "id": 1722, "name": "Restaurants"}], "fax_number": null, "expansion": {"count": null, "uri": null}, "impression_id": "000b00000085395a0b47a4411f833c639147e5c9ff", "profile": "http://www.citysearch.com/profile/775223410/marietta_ga/restaurant_concepts_inc.html", "address": {"city": "Marietta", "state": "GA", "street": "2120 Powers Ferry Dr SE", "postal_code": "30067"}, "capProviderId": null, "distance": null, "has_offers": false, "name": "Restaurant Concepts Inc", "longitude": -84.486864, "has_menu": false, "awards": null, "user_review_count": 0}, {"business_operation_status": 0, "rating": null, "neighborhood": null, "image": null, "scorecard": null, "featured": false, "sample_categories": "Restaurants", "public_id": "aspen-west-cobb-marietta", "id": 41283282, "votes": null, "tagline": null, "has_video": false, "website": "http://www.citysearch.com/profile/external/41283282/marietta_ga/aspens.html", "offers": null, "latitude": 33.952164, "politanName": "Atlanta, GA Metro ", "phone_number": "7704191744", "tags": [{"primary": true, "id": 1722, "name": "Restaurants"}], "fax_number": null, "expansion": {"count": null, "uri": null}, "impression_id": "000b0000006a3b8b90706a4f75a5b22ba1e5423ba4", "profile": "http://www.citysearch.com/profile/41283282/marietta_ga/aspens.html", "address": {"city": "Marietta", "state": "GA", "street": "3625 Dallas Hwy SW Ste 715", "postal_code": "30064"}, "capProviderId": null, "distance": null, "has_offers": false, "name": "Aspens", "longitude": -84.657799, "has_menu": false, "awards": null, "user_review_count": 1}, {"business_operation_status": 1, "rating": null, "neighborhood": null, "image": null, "scorecard": null, "featured": false, "sample_categories": "Restaurants, Grocery Stores, Indian, American Express, Debit Card", "public_id": "amrutha-groceries-norcross", "id": 43841746, "votes": null, "tagline": null, "has_video": false, "website": null, "offers": null, "latitude": 33.878815, "politanName": "Atlanta, GA Metro ", "phone_number": "7709567589", "tags": [{"primary": false, "id": 1713, "name": "Grocery Stores"}, {"primary": false, "id": 11277, "name": "Indian"}, {"primary": false, "id": 11333, "name": "American Express"}, {"primary": false, "id": 11347, "name": "Debit Card"}, {"primary": false, "id": 11349, "name": "Discover"}, {"primary": false, "id": 11361, "name": "MasterCard"}, {"primary": false, "id": 11382, "name": "Visa"}, {"primary": true, "id": 1722, "name": "Restaurants"}], "fax_number": null, "expansion": {"count": null, "uri": null}, "impression_id": "000b0000000867fb019005489fbb49698fc24ce032", "profile": "http://www.citysearch.com/profile/43841746/norcross_ga/amrutha_groceries.html", "address": {"city": "Norcross", "state": "GA", "street": "2655 Car Pkwy", "postal_code": "30339"}, "capProviderId": null, "distance": null, "has_offers": false, "name": "Amrutha Groceries", "longitude": -84.464518, "has_menu": false, "awards": null, "user_review_count": 0}, {"business_operation_status": 1, "rating": null, "neighborhood": "Northside, Northside", "image": null, "scorecard": null, "featured": false, "sample_categories": "Restaurants", "public_id": "melting-pot-restaurant-atlanta-2", "id": 805904900, "votes": null, "tagline": null, "has_video": false, "website": null, "offers": null, "latitude": 33.809801, "politanName": "Atlanta, GA Metro ", "phone_number": "4043511811", "tags": [{"primary": true, "id": 1722, "name": "Restaurants"}], "fax_number": null, "expansion": {"count": null, "uri": null}, "impression_id": "000b000000b8e3695788ce42708e051cd9fbfd410e", "profile": "http://www.citysearch.com/profile/805904900/atlanta_ga/melting_pot_restaurant.html", "address": {"city": "Atlanta", "state": "GA", "street": "857 Collier Rd NW # 1", "postal_code": "30318"}, "capProviderId": null, "distance": null, "has_offers": false, "name": "Melting Pot Restaurant", "longitude": -84.416377, "has_menu": true, "awards": null, "user_review_count": 0}, {"business_operation_status": 1, "rating": null, "neighborhood": null, "image": null, "scorecard": null, "featured": false, "sample_categories": "Restaurants", "public_id": "smoothies-more-austell", "id": 43863527, "votes": null, "tagline": null, "has_video": false, "website": null, "offers": null, "latitude": 33.855384, "politanName": "Atlanta, GA Metro ", "phone_number": "6783099699", "tags": [{"primary": true, "id": 1722, "name": "Restaurants"}], "fax_number": null, "expansion": {"count": null, "uri": null}, "impression_id": "000b00000008ccc25a6ae34681993c68cda0eababb", "profile": "http://www.citysearch.com/profile/43863527/austell_ga/smoothies_more.html", "address": {"city": "Austell", "state": "GA", "street": "1025 E West Connector", "postal_code": "30106"}, "capProviderId": null, "distance": null, "has_offers": false, "name": "Smoothies & More", "longitude": -84.583167, "has_menu": false, "awards": null, "user_review_count": 0}, {"business_operation_status": 1, "rating": null, "neighborhood": "Northside, Northside", "image": null, "scorecard": null, "featured": false, "sample_categories": "Restaurants", "public_id": "ruben-goycochea-atlanta", "id": 43873760, "votes": null, "tagline": null, "has_video": false, "website": null, "offers": null, "latitude": 33.819953, "politanName": "Atlanta, GA Metro ", "phone_number": "4046030275", "tags": [{"primary": true, "id": 1722, "name": "Restaurants"}], "fax_number": null, "expansion": {"count": null, "uri": null}, "impression_id": "000b000000680df845901945a3b54d58df79b4ac71", "profile": "http://www.citysearch.com/profile/43873760/atlanta_ga/ruben_goycochea.html", "address": {"city": "Atlanta", "state": "GA", "street": "2611 Bolton Rd NW", "postal_code": "30318"}, "capProviderId": null, "distance": null, "has_offers": false, "name": "Ruben Goycochea", "longitude": -84.449421, "has_menu": false, "awards": null, "user_review_count": 0}, {"business_operation_status": 0, "rating": null, "neighborhood": null, "image": null, "scorecard": null, "featured": false, "sample_categories": "Restaurants, Health Food Stores", "public_id": "smoothie-king-atlanta-9", "id": 44776703, "votes": null, "tagline": null, "has_video": false, "website": "http://www.citysearch.com/profile/external/44776703/atlanta_ga/smoothie_king.html", "offers": null, "latitude": 33.864337, "politanName": "Atlanta, GA Metro ", "phone_number": "7704345987", "tags": [{"primary": false, "id": 1716, "name": "Health Food Stores"}, {"primary": true, "id": 1722, "name": "Restaurants"}], "fax_number": null, "expansion": {"count": null, "uri": null}, "impression_id": "000b0000003e8c24f69de14e14ac73c78aecca60aa", "profile": "http://www.citysearch.com/profile/44776703/atlanta_ga/smoothie_king.html", "address": {"city": "Atlanta", "state": "GA", "street": "4338 Paces Ferry Rd SE", "postal_code": "30339"}, "capProviderId": null, "distance": null, "has_offers": false, "name": "Smoothie King", "longitude": -84.464965, "has_menu": false, "awards": null, "user_review_count": 0}, {"business_operation_status": 1, "rating": null, "neighborhood": null, "image": null, "scorecard": null, "featured": false, "sample_categories": "Restaurants", "public_id": "real-pit-bbq-breakfast-mableton", "id": 672307600, "votes": null, "tagline": null, "has_video": false, "website": null, "offers": null, "latitude": 33.783418, "politanName": "Atlanta, GA Metro ", "phone_number": null, "tags": [{"primary": true, "id": 1722, "name": "Restaurants"}], "fax_number": null, "expansion": {"count": null, "uri": null}, "impression_id": "000b00000046e0ac1c160f42a2b7cf8ee4eb31a2bf", "profile": "http://www.citysearch.com/profile/672307600/mableton_ga/real_pit_bbq_breakfast.html", "address": {"city": "Mableton", "state": "GA", "street": "6960 Mableton Parkway", "postal_code": "30126"}, "capProviderId": null, "distance": null, "has_offers": false, "name": "Real Pit BBQ & Breakfast", "longitude": -84.541117, "has_menu": false, "awards": null, "user_review_count": 0}, {"business_operation_status": 1, "rating": null, "neighborhood": null, "image": null, "scorecard": null, "featured": false, "sample_categories": "Restaurants", "public_id": "jbones-mableton", "id": 672571120, "votes": null, "tagline": null, "has_video": false, "website": null, "offers": null, "latitude": 33.816965, "politanName": "Atlanta, GA Metro ", "phone_number": null, "tags": [{"primary": true, "id": 1722, "name": "Restaurants"}], "fax_number": null, "expansion": {"count": null, "uri": null}, "impression_id": "000b0000008171fe5dc2af43209b4b2922055d0276", "profile": "http://www.citysearch.com/profile/672571120/mableton_ga/j_bones.html", "address": {"city": "Mableton", "state": "GA", "street": "499 Veterans Memorial Hwy SW", "postal_code": "30126"}, "capProviderId": null, "distance": null, "has_offers": false, "name": "J-Bones", "longitude": -84.568558, "has_menu": false, "awards": null, "user_review_count": 0}, {"business_operation_status": 1, "rating": null, "neighborhood": null, "image": null, "scorecard": null, "featured": false, "sample_categories": "Restaurants", "public_id": "silver-lodestone-inc-marietta", "id": 2873989, "votes": null, "tagline": null, "has_video": false, "website": "http://www.citysearch.com/profile/external/2873989/marietta_ga/silver_lodestone_inc.html", "offers": null, "latitude": 33.936462, "politanName": "Atlanta, GA Metro ", "phone_number": "7705907778", "tags": [{"primary": true, "id": 1722, "name": "Restaurants"}], "fax_number": null, "expansion": {"count": null, "uri": null}, "impression_id": "000b000000d366f1c11b5e499cabe9f640d31bbbf0", "profile": "http://www.citysearch.com/profile/2873989/marietta_ga/silver_lodestone_inc.html", "address": {"city": "Marietta", "state": "GA", "street": "191 Garrison Rd SE Ste A", "postal_code": "30008"}, "capProviderId": null, "distance": null, "has_offers": false, "name": "Silver Lodestone Inc", "longitude": -84.547583, "has_menu": false, "awards": null, "user_review_count": 0}, {"business_operation_status": 1, "rating": null, "neighborhood": null, "image": null, "scorecard": null, "featured": false, "sample_categories": "Food Stores, Restaurants", "public_id": "halal-meats-marietta", "id": 696523330, "votes": null, "tagline": null, "has_video": false, "website": null, "offers": null, "latitude": 33.937797, "politanName": "Atlanta, GA Metro ", "phone_number": "6782900211", "tags": [{"primary": false, "id": 1722, "name": "Restaurants"}, {"primary": true, "id": 1706, "name": "Food Stores"}], "fax_number": null, "expansion": {"count": null, "uri": null}, "impression_id": "000b00000009d7919d59a249d092b77dec51da075c", "profile": "http://www.citysearch.com/profile/696523330/marietta_ga/halal_meats.html", "address": {"city": "Marietta", "state": "GA", "street": "585 Franklin Rd Se", "postal_code": "30067"}, "capProviderId": null, "distance": null, "has_offers": false, "name": "Halal Meats", "longitude": -84.506993, "has_menu": false, "awards": null, "user_review_count": 0}, {"business_operation_status": 1, "rating": null, "neighborhood": "Riverside, Northside, Northside", "image": null, "scorecard": null, "featured": false, "sample_categories": "Restaurants, Carry Out", "public_id": "waffle-house-atlanta-32", "id": 621730054, "votes": null, "tagline": null, "has_video": false, "website": "http://www.citysearch.com/profile/external/621730054/atlanta_ga/waffle_house.html", "offers": null, "latitude": 33.81087, "politanName": "Atlanta, GA Metro ", "phone_number": "4047929009", "tags": [{"primary": false, "id": 11247, "name": "Carry Out"}, {"primary": true, "id": 1722, "name": "Restaurants"}], "fax_number": null, "expansion": {"count": null, "uri": null}, "impression_id": "000b000000f4badb29edf04598bac9ac5ded447f47", "profile": "http://www.citysearch.com/profile/621730054/atlanta_ga/waffle_house.html", "address": {"city": "Atlanta", "state": "GA", "street": "2025 Bolton Rd NW", "postal_code": "30318"}, "capProviderId": null, "distance": null, "has_offers": false, "name": "Waffle House", "longitude": -84.476265, "has_menu": false, "awards": null, "user_review_count": 0}, {"business_operation_status": 1, "rating": null, "neighborhood": null, "image": null, "scorecard": null, "featured": false, "sample_categories": "Restaurants, Diners", "public_id": "classic-stainless-steel-diners-atlanta", "id": 739045320, "votes": null, "tagline": null, "has_video": false, "website": null, "offers": null, "latitude": 33.885476, "politanName": "Atlanta, GA Metro ", "phone_number": "4042375170", "tags": [{"primary": false, "id": 1732, "name": "Diners"}, {"primary": true, "id": 1722, "name": "Restaurants"}], "fax_number": null, "expansion": {"count": null, "uri": null}, "impression_id": "000b0000001c52b4435d234145a8f55958a827c8c9", "profile": "http://www.citysearch.com/profile/739045320/atlanta_ga/classic_stainless_steel_diners.html", "address": {"city": "Atlanta", "state": "GA", "street": "600 Galleria Pkwy SE # 995", "postal_code": "30339"}, "capProviderId": null, "distance": null, "has_offers": false, "name": "Classic Stainless Steel Diners", "longitude": -84.461662, "has_menu": false, "awards": null, "user_review_count": 0}, {"business_operation_status": 1, "rating": null, "neighborhood": null, "image": null, "scorecard": null, "featured": false, "sample_categories": "Restaurants, Bars & Clubs, Traditional American", "public_id": "padella-marietta", "id": 748352460, "votes": null, "tagline": null, "has_video": false, "website": null, "offers": null, "latitude": 33.905983, "politanName": "Atlanta, GA Metro ", "phone_number": "7709561234", "tags": [{"primary": false, "id": 164, "name": "Bars & Clubs"}, {"primary": false, "id": 11190, "name": "Traditional American"}, {"primary": true, "id": 1722, "name": "Restaurants"}], "fax_number": null, "expansion": {"count": null, "uri": null}, "impression_id": "000b0000002b085081a3fe43abaca4d26c86fe8ec3", "profile": "http://www.citysearch.com/profile/748352460/marietta_ga/padella.html", "address": {"city": "Marietta", "state": "GA", "street": "2999 Windy Hill Rd SE", "postal_code": "30067"}, "capProviderId": null, "distance": null, "has_offers": false, "name": "Padella", "longitude": -84.466315, "has_menu": true, "awards": null, "user_review_count": 0}, {"business_operation_status": 1, "rating": null, "neighborhood": null, "image": null, "scorecard": null, "featured": false, "sample_categories": "Restaurants", "public_id": "canyon-cafe-marietta", "id": 732199900, "votes": null, "tagline": null, "has_video": false, "website": null, "offers": null, "latitude": 33.949881, "politanName": "Atlanta, GA Metro ", "phone_number": "6784693379", "tags": [{"primary": true, "id": 1722, "name": "Restaurants"}], "fax_number": null, "expansion": {"count": null, "uri": null}, "impression_id": "000b00000010a3e29f93ad45699f8b8912b6fb4937", "profile": "http://www.citysearch.com/profile/732199900/marietta_ga/canyon_cafe.html", "address": {"city": "Marietta", "state": "GA", "street": "3486 Sheridan Chase SE", "postal_code": "30067"}, "capProviderId": null, "distance": null, "has_offers": false, "name": "Canyon Cafe", "longitude": -84.446848, "has_menu": false, "awards": null, "user_review_count": 0}, {"business_operation_status": 1, "rating": null, "neighborhood": null, "image": null, "scorecard": null, "featured": false, "sample_categories": "Restaurants", "public_id": "hans-new-mableton", "id": 748335370, "votes": null, "tagline": null, "has_video": false, "website": null, "offers": null, "latitude": 33.835173, "politanName": "Atlanta, GA Metro ", "phone_number": "7709412314", "tags": [{"primary": true, "id": 1722, "name": "Restaurants"}], "fax_number": null, "expansion": {"count": null, "uri": null}, "impression_id": "000b00000076c4fc06b1e541cbaab0db7e2b2de11e", "profile": "http://www.citysearch.com/profile/748335370/mableton_ga/hans_new.html", "address": {"city": "Mableton", "state": "GA", "street": "4875 Floyd Rd SW # 108", "postal_code": "30126"}, "capProviderId": null, "distance": null, "has_offers": false, "name": "Hans New", "longitude": -84.574622, "has_menu": false, "awards": null, "user_review_count": 0}, {"business_operation_status": 1, "rating": null, "neighborhood": null, "image": null, "scorecard": null, "featured": false, "sample_categories": "Restaurants, Bars & Pubs", "public_id": "tigers-sports-bar-grill-mableton", "id": 764894490, "votes": null, "tagline": null, "has_video": false, "website": null, "offers": null, "latitude": 33.791516, "politanName": "Atlanta, GA Metro ", "phone_number": "7709415349", "tags": [{"primary": false, "id": 1686, "name": "Bars & Pubs"}, {"primary": true, "id": 1722, "name": "Restaurants"}], "fax_number": null, "expansion": {"count": null, "uri": null}, "impression_id": "000b000000493f483dec814d1f83938ed49cb75f85", "profile": "http://www.citysearch.com/profile/764894490/mableton_ga/tigers_sports_bar_grill.html", "address": {"city": "Mableton", "state": "GA", "street": "6175 Mableton Pkwy SE", "postal_code": "30126"}, "capProviderId": null, "distance": null, "has_offers": false, "name": "Tigers Sports Bar & Grill", "longitude": -84.555393, "has_menu": false, "awards": null, "user_review_count": 0}, {"business_operation_status": 1, "rating": null, "neighborhood": null, "image": null, "scorecard": null, "featured": false, "sample_categories": "Restaurants, Eclectic & International", "public_id": "eagle-cafe-intl-marietta", "id": 775215710, "votes": null, "tagline": null, "has_video": false, "website": null, "offers": null, "latitude": 33.924963, "politanName": "Atlanta, GA Metro ", "phone_number": "7704222056", "tags": [{"primary": false, "id": 11259, "name": "Eclectic & International"}, {"primary": true, "id": 1722, "name": "Restaurants"}], "fax_number": null, "expansion": {"count": null, "uri": null}, "impression_id": "000b0000009064b52efb294fe1be75f57de4e5f425", "profile": "http://www.citysearch.com/profile/775215710/marietta_ga/eagle_cafe_intl.html", "address": {"city": "Marietta", "state": "GA", "street": "1150 Powder Springs St", "postal_code": "30064"}, "capProviderId": null, "distance": null, "has_offers": false, "name": "Eagle Cafe Intl", "longitude": -84.573919, "has_menu": false, "awards": null, "user_review_count": 0}, {"business_operation_status": 1, "rating": null, "neighborhood": null, "image": null, "scorecard": null, "featured": false, "sample_categories": "Restaurants, Carry Out", "public_id": "burger-king-powder", "id": 764855980, "votes": null, "tagline": null, "has_video": false, "website": null, "offers": null, "latitude": 33.906794, "politanName": "Atlanta, GA Metro ", "phone_number": "7704391489", "tags": [{"primary": false, "id": 11247, "name": "Carry Out"}, {"primary": true, "id": 1722, "name": "Restaurants"}], "fax_number": null, "expansion": {"count": null, "uri": null}, "impression_id": "000b000000d93535975d79428ba1148d429149da13", "profile": "http://www.citysearch.com/profile/764855980/powder_springs_ga/burger_king.html", "address": {"city": "Powder Springs", "state": "GA", "street": "3640 Velma Dr", "postal_code": "30127"}, "capProviderId": null, "distance": null, "has_offers": false, "name": "Burger King", "longitude": -84.660285, "has_menu": false, "awards": null, "user_review_count": 0}, {"business_operation_status": 1, "rating": null, "neighborhood": null, "image": null, "scorecard": null, "featured": false, "sample_categories": "Restaurants", "public_id": "w-k-r-d-the-blaze-power-house-marietta", "id": 779694540, "votes": null, "tagline": null, "has_video": false, "website": null, "offers": null, "latitude": 33.938913, "politanName": "Atlanta, GA Metro ", "phone_number": "6784018567", "tags": [{"primary": true, "id": 1722, "name": "Restaurants"}], "fax_number": null, "expansion": {"count": null, "uri": null}, "impression_id": "000b000000e3e4c9c71e624133ba93b9a5066ee019", "profile": "http://www.citysearch.com/profile/779694540/marietta_ga/w_k_r_d_the_blaze_power_house.html", "address": {"city": "Marietta", "state": "GA", "street": "550 Franklin Rd Se", "postal_code": "30067"}, "capProviderId": null, "distance": null, "has_offers": false, "name": "W K R D The Blaze Power House", "longitude": -84.507658, "has_menu": false, "awards": null, "user_review_count": 0}, {"business_operation_status": 1, "rating": null, "neighborhood": null, "image": null, "scorecard": null, "featured": false, "sample_categories": "Restaurants", "public_id": "sliders-burger-joint-mableton", "id": 617721644, "votes": null, "tagline": null, "has_video": false, "website": null, "offers": null, "latitude": 33.783961, "politanName": "Atlanta, GA Metro ", "phone_number": "6782478895", "tags": [{"primary": true, "id": 1722, "name": "Restaurants"}], "fax_number": null, "expansion": {"count": null, "uri": null}, "impression_id": "000b0000009d7c80a7a2104b7a97ddac85b7622861", "profile": "http://www.citysearch.com/profile/617721644/mableton_ga/sliders_burger_joint.html", "address": {"city": "Mableton", "state": "GA", "street": "6981 Mableton Pkwy SE", "postal_code": "30126"}, "capProviderId": null, "distance": null, "has_offers": false, "name": "Sliders Burger Joint", "longitude": -84.540201, "has_menu": false, "awards": null, "user_review_count": 0}], "histograms": [], "tag_ids": [1722], "uri": "http://api.citygridmedia.com:8080/search/places/v2/search/where?has_offers=false&type=restaurant&format=json&page=30&where=30080&rpp=50&histograms=false&publisher=10000009598&region_type=circle", "did_you_mean": "", "regions": [{"latitude": 33.870107, "default_radius": 3.76, "type": "postal_code", "name": "30080", "longitude": -84.499867}], "call_id": "000b0000006343d61431a84e23a61a392b15843534", "first_hit": 1451, "total_hits": 1580, "geo_ids": [26330], "page": 30, "last_hit": 1500}}