{"results": {"rpp": 50, "locations": [{"business_operation_status": 1, "rating": null, "neighborhood": null, "image": null, "scorecard": null, "featured": false, "sample_categories": "Ice Cream Parlors, Frozen Yogurt Shops", "public_id": "baskinrobbins-marietta-3", "id": 627672950, "votes": null, "tagline": null, "has_video": false, "website": "http://www.citysearch.com/profile/external/627672950/marietta_ga/baskin_robbins.html", "offers": null, "latitude": 33.942999, "politanName": "Atlanta, GA Metro ", "phone_number": "7704235947", "tags": [{"primary": false, "id": 1729, "name": "Frozen Yogurt Shops"}, {"primary": true, "id": 1730, "name": "Ice Cream Parlors"}], "fax_number": null, "expansion": {"count": null, "uri": null}, "impression_id": "000b0000005796ebc2f37b43108cc0ce28533cc839", "profile": "http://www.citysearch.com/profile/627672950/marietta_ga/baskin_robbins.html", "address": {"city": "Marietta", "state": "GA", "street": "670 S Marietta Pkwy Se", "postal_code": "30060"}, "capProviderId": null, "distance": null, "has_offers": false, "name": "Baskin-Robbins", "longitude": -84.533601, "has_menu": true, "awards": null, "user_review_count": 0}, {"business_operation_status": 1, "rating": null, "neighborhood": null, "image": null, "scorecard": null, "featured": false, "sample_categories": "Catering, Restaurants, Cafes", "public_id": "yeon-ahn-inc-atlanta", "id": 754863130, "votes": null, "tagline": null, "has_video": false, "website": null, "offers": null, "latitude": 33.90496, "politanName": "Atlanta, GA Metro ", "phone_number": "7705410057", "tags": [{"primary": false, "id": 1722, "name": "Restaurants"}, {"primary": false, "id": 6190, "name": "Cafes"}, {"primary": true, "id": 1705, "name": "Catering"}], "fax_number": null, "expansion": {"count": null, "uri": null}, "impression_id": "000b000000ffc5f317cc634fc199878945db211359", "profile": "http://www.citysearch.com/profile/754863130/atlanta_ga/yeon_ahn_inc.html", "address": {"city": "Atlanta", "state": "GA", "street": "2100 Riveredge Pkwy NW # C1", "postal_code": "30328"}, "capProviderId": null, "distance": null, "has_offers": false, "name": "Yeon Ahn Inc", "longitude": -84.439737, "has_menu": false, "awards": null, "user_review_count": 0}, {"business_operation_status": 0, "rating": null, "neighborhood": null, "image": null, "scorecard": null, "featured": false, "sample_categories": "Restaurants, Carry Out, Pizza", "public_id": "jets-pizza-mableton", "id": 764891790, "votes": null, "tagline": null, "has_video": false, "website": null, "offers": null, "latitude": 33.79697, "politanName": "Atlanta, GA Metro ", "phone_number": "4046966091", "tags": [{"primary": false, "id": 11247, "name": "Carry Out"}, {"primary": false, "id": 11299, "name": "Pizza"}, {"primary": true, "id": 1722, "name": "Restaurants"}], "fax_number": null, "expansion": {"count": null, "uri": null}, "impression_id": "000b0000001b4130160e4948ca97772808ee632dd5", "profile": "http://www.citysearch.com/profile/764891790/mableton_ga/jet_s_pizza.html", "address": {"city": "Mableton", "state": "GA", "street": "6375 Discovery Blvd", "postal_code": "30126"}, "capProviderId": null, "distance": null, "has_offers": false, "name": "Jet's Pizza", "longitude": -84.515016, "has_menu": true, "awards": null, "user_review_count": 0}, {"business_operation_status": 1, "rating": null, "neighborhood": null, "image": null, "scorecard": null, "featured": false, "sample_categories": "Restaurants", "public_id": "monicas-restaurant-mableton", "id": 777643360, "votes": null, "tagline": null, "has_video": false, "website": null, "offers": null, "latitude": 33.783418, "politanName": "Atlanta, GA Metro ", "phone_number": "7704850955", "tags": [{"primary": true, "id": 1722, "name": "Restaurants"}], "fax_number": null, "expansion": {"count": null, "uri": null}, "impression_id": "000b000000edbc01ffb1904eea9a2f7bfd8dca0e64", "profile": "http://www.citysearch.com/profile/777643360/mableton_ga/monica_s_restaurant.html", "address": {"city": "Mableton", "state": "GA", "street": "6960 Mableton Pkwy Se", "postal_code": "30126"}, "capProviderId": null, "distance": null, "has_offers": false, "name": "Monica's Restaurant", "longitude": -84.541117, "has_menu": false, "awards": null, "user_review_count": 0}, {"business_operation_status": 1, "rating": null, "neighborhood": null, "image": null, "scorecard": null, "featured": false, "sample_categories": "Restaurants", "public_id": "hot-skillet-marietta", "id": 798833310, "votes": null, "tagline": null, "has_video": false, "website": null, "offers": null, "latitude": 33.883313, "politanName": "Atlanta, GA Metro ", "phone_number": "4043746897", "tags": [{"primary": true, "id": 1722, "name": "Restaurants"}], "fax_number": null, "expansion": {"count": null, "uri": null}, "impression_id": "000b0000002edf5b0ce9b745e7bcabfd722b09622f", "profile": "http://www.citysearch.com/profile/798833310/marietta_ga/hot_skillet.html", "address": {"city": "Marietta", "state": "GA", "street": "2200 Powder Springs Rd Sw", "postal_code": "30064"}, "capProviderId": null, "distance": null, "has_offers": false, "name": "Hot Skillet", "longitude": -84.620092, "has_menu": false, "awards": null, "user_review_count": 0}, {"business_operation_status": 1, "rating": null, "neighborhood": null, "image": null, "scorecard": null, "featured": false, "sample_categories": "Restaurants", "public_id": "loya-soriano-llc-marietta", "id": 790674770, "votes": null, "tagline": null, "has_video": false, "website": null, "offers": null, "latitude": 33.904705, "politanName": "Atlanta, GA Metro ", "phone_number": "7704348888", "tags": [{"primary": true, "id": 1722, "name": "Restaurants"}], "fax_number": null, "expansion": {"count": null, "uri": null}, "impression_id": "000b0000003d3a254b72a24c4998429aa3cf98b069", "profile": "http://www.citysearch.com/profile/790674770/marietta_ga/loya_soriano_llc.html", "address": {"city": "Marietta", "state": "GA", "street": "2359 Windy Hill Rd Se # 340", "postal_code": "30067"}, "capProviderId": null, "distance": null, "has_offers": false, "name": "Loya Soriano LLC", "longitude": -84.484545, "has_menu": false, "awards": null, "user_review_count": 0}, {"business_operation_status": 1, "rating": null, "neighborhood": null, "image": null, "scorecard": null, "featured": false, "sample_categories": "Restaurants, Catering", "public_id": "corner-cafe-atlanta-3", "id": 790747850, "votes": null, "tagline": null, "has_video": false, "website": null, "offers": null, "latitude": 33.909561, "politanName": "Atlanta, GA Metro ", "phone_number": "7705410057", "tags": [{"primary": false, "id": 1705, "name": "Catering"}, {"primary": true, "id": 1722, "name": "Restaurants"}], "fax_number": null, "expansion": {"count": null, "uri": null}, "impression_id": "000b000000a179cf301b4b480fb7981883a2bc50c9", "profile": "http://www.citysearch.com/profile/790747850/atlanta_ga/corner_cafe.html", "address": {"city": "Atlanta", "state": "GA", "street": "2100 Riveredge Pkwy # C1", "postal_code": "30328"}, "capProviderId": null, "distance": null, "has_offers": false, "name": "Corner Cafe", "longitude": -84.44041, "has_menu": true, "awards": null, "user_review_count": 0}, {"business_operation_status": 1, "rating": null, "neighborhood": null, "image": null, "scorecard": null, "featured": false, "sample_categories": "Restaurants, Bakeries", "public_id": "brooklyn-water-bagels-atlanta", "id": 790809680, "votes": null, "tagline": null, "has_video": false, "website": null, "offers": null, "latitude": 33.883196, "politanName": "Atlanta, GA Metro ", "phone_number": "7709889991", "tags": [{"primary": false, "id": 1685, "name": "Bakeries"}, {"primary": true, "id": 1722, "name": "Restaurants"}], "fax_number": null, "expansion": {"count": null, "uri": null}, "impression_id": "000b000000aee50681df91474c830fdcc25dd21d50", "profile": "http://www.citysearch.com/profile/790809680/atlanta_ga/brooklyn_water_bagels.html", "address": {"city": "Atlanta", "state": "GA", "street": "2955 Cobb Pkwy Se # 240", "postal_code": "30339"}, "capProviderId": null, "distance": null, "has_offers": false, "name": "Brooklyn Water Bagels", "longitude": -84.461616, "has_menu": false, "awards": null, "user_review_count": 0}, {"business_operation_status": 1, "rating": null, "neighborhood": null, "image": null, "scorecard": null, "featured": false, "sample_categories": "Restaurants", "public_id": "nuccis-italian-ice-gelato-marietta", "id": 810739460, "votes": null, "tagline": null, "has_video": false, "website": null, "offers": null, "latitude": 33.976739, "politanName": "Atlanta, GA Metro ", "phone_number": "7703210954", "tags": [{"primary": true, "id": 1722, "name": "Restaurants"}], "fax_number": null, "expansion": {"count": null, "uri": null}, "impression_id": "000b000000338daf042fc242b5890349f8d3f03070", "profile": "http://www.citysearch.com/profile/810739460/marietta_ga/nucci_s_italian_ice_gelato.html", "address": {"city": "Marietta", "state": "GA", "street": "1050 E Piedmont Rd # 146", "postal_code": "30062"}, "capProviderId": null, "distance": null, "has_offers": false, "name": "Nucci's Italian Ice & Gelato", "longitude": -84.479676, "has_menu": true, "awards": null, "user_review_count": 1}, {"business_operation_status": 1, "rating": null, "neighborhood": null, "image": null, "scorecard": null, "featured": false, "sample_categories": "Restaurants, Carry Out", "public_id": "red-lobster-marietta-2", "id": 823429220, "votes": null, "tagline": null, "has_video": false, "website": null, "offers": null, "latitude": 33.933612, "politanName": "Atlanta, GA Metro ", "phone_number": "7704276554", "tags": [{"primary": false, "id": 11247, "name": "Carry Out"}, {"primary": true, "id": 1722, "name": "Restaurants"}], "fax_number": null, "expansion": {"count": null, "uri": null}, "impression_id": "000b00000074a30a628d544bc78619ff859dd42b20", "profile": "http://www.citysearch.com/profile/823429220/marietta_ga/red_lobster.html", "address": {"city": "Marietta", "state": "GA", "street": "780 Cobb Pkwy S", "postal_code": "30060"}, "capProviderId": null, "distance": null, "has_offers": false, "name": "Red Lobster", "longitude": -84.512296, "has_menu": true, "awards": null, "user_review_count": 0}, {"business_operation_status": 1, "rating": null, "neighborhood": "Northside, Northside", "image": null, "scorecard": null, "featured": false, "sample_categories": "Restaurants", "public_id": "carlyles-atlanta-3", "id": 787123100, "votes": null, "tagline": null, "has_video": false, "website": "http://www.citysearch.com/profile/external/787123100/atlanta_ga/carlyle_s.html", "offers": null, "latitude": 33.79921, "politanName": "Atlanta, GA Metro ", "phone_number": "4048724231", "tags": [{"primary": true, "id": 1722, "name": "Restaurants"}], "fax_number": null, "expansion": {"count": null, "uri": null}, "impression_id": "000b0000008f3fa5e081034ceaa7c6f474cb5d1b37", "profile": "http://www.citysearch.com/profile/787123100/atlanta_ga/carlyle_s.html", "address": {"city": "Atlanta", "state": "GA", "street": "1500 Southland Cir NW # M", "postal_code": "30318"}, "capProviderId": null, "distance": null, "has_offers": false, "name": "Carlyle's", "longitude": -84.432104, "has_menu": false, "awards": null, "user_review_count": 0}, {"business_operation_status": 1, "rating": null, "neighborhood": null, "image": null, "scorecard": null, "featured": false, "sample_categories": "Coffeehouses", "public_id": "barista-express-gourmet-coffee-atlanta", "id": 802523940, "votes": null, "tagline": null, "has_video": false, "website": null, "offers": null, "latitude": 33.886437, "politanName": "Atlanta, GA Metro ", "phone_number": "4046971006", "tags": [{"primary": true, "id": 1726, "name": "Coffeehouses"}], "fax_number": null, "expansion": {"count": null, "uri": null}, "impression_id": "000b000000161a136ec75f42929dd2292d290f26ad", "profile": "http://www.citysearch.com/profile/802523940/atlanta_ga/barista_express_gourmet_coffee.html", "address": {"city": "Atlanta", "state": "GA", "street": "4756 Woodvale Dr", "postal_code": "30327"}, "capProviderId": null, "distance": null, "has_offers": false, "name": "Barista Express Gourmet Coffee", "longitude": -84.421372, "has_menu": false, "awards": null, "user_review_count": 0}, {"business_operation_status": 0, "rating": null, "neighborhood": null, "image": null, "scorecard": null, "featured": false, "sample_categories": "Restaurants, Delis And Delicatessens, Sandwich Shops, Carry Out", "public_id": "subway-marietta-5", "id": 631969710, "votes": null, "tagline": null, "has_video": false, "website": "http://www.citysearch.com/profile/external/631969710/marietta_ga/subway.html", "offers": null, "latitude": 33.9495, "politanName": "Atlanta, GA Metro ", "phone_number": "7704240520", "tags": [{"primary": false, "id": 1727, "name": "Delis And Delicatessens"}, {"primary": false, "id": 1736, "name": "Sandwich Shops"}, {"primary": false, "id": 11247, "name": "Carry Out"}, {"primary": true, "id": 1722, "name": "Restaurants"}], "fax_number": null, "expansion": {"count": null, "uri": null}, "impression_id": "000b0000009c9ea012dedd49078b792af8032b0f70", "profile": "http://www.citysearch.com/profile/631969710/marietta_ga/subway.html", "address": {"city": "Marietta", "state": "GA", "street": "51 Cobb Pkwy S", "postal_code": "30060"}, "capProviderId": null, "distance": null, "has_offers": false, "name": "Subway", "longitude": -84.519437, "has_menu": true, "awards": null, "user_review_count": 0}, {"business_operation_status": 1, "rating": null, "neighborhood": null, "image": null, "scorecard": null, "featured": false, "sample_categories": "Barbecue Restaurants, Restaurants", "public_id": "sherrals-bbq-marietta", "id": 601297218, "votes": null, "tagline": null, "has_video": false, "website": null, "offers": null, "latitude": 33.952909, "politanName": "Atlanta, GA Metro ", "phone_number": "6782752014", "tags": [{"primary": false, "id": 1722, "name": "Restaurants"}, {"primary": true, "id": 1724, "name": "Barbecue Restaurants"}], "fax_number": null, "expansion": {"count": null, "uri": null}, "impression_id": "000b0000007b2317d96a1146e78973958ddebe3f0a", "profile": "http://www.citysearch.com/profile/601297218/marietta_ga/sherral_s_bbq.html", "address": {"city": "Marietta", "state": "GA", "street": "79 N Fairground St Ne", "postal_code": "30060"}, "capProviderId": null, "distance": null, "has_offers": false, "name": "Sherral's Bbq", "longitude": -84.53505, "has_menu": false, "awards": null, "user_review_count": 0}, {"business_operation_status": 1, "rating": null, "neighborhood": null, "image": null, "scorecard": null, "featured": false, "sample_categories": "Restaurants, Pizza, American Express, Discover, MasterCard", "public_id": "pizza-more-marietta", "id": 601298901, "votes": null, "tagline": null, "has_video": false, "website": null, "offers": null, "latitude": 33.90778, "politanName": "Atlanta, GA Metro ", "phone_number": "7706122922", "tags": [{"primary": false, "id": 1722, "name": "Restaurants"}, {"primary": false, "id": 11333, "name": "American Express"}, {"primary": false, "id": 11349, "name": "Discover"}, {"primary": false, "id": 11361, "name": "MasterCard"}, {"primary": false, "id": 11382, "name": "Visa"}, {"primary": true, "id": 11299, "name": "Pizza"}], "fax_number": null, "expansion": {"count": null, "uri": null}, "impression_id": "000b000000a4ec8bac13c04f4ea0aba0e8ba3fe3dc", "profile": "http://www.citysearch.com/profile/601298901/marietta_ga/pizza_more.html", "address": {"city": "Marietta", "state": "GA", "street": "1853 Terrell Mill Rd Se", "postal_code": "30067"}, "capProviderId": null, "distance": null, "has_offers": false, "name": "Pizza & More", "longitude": -84.487669, "has_menu": false, "awards": null, "user_review_count": 0}, {"business_operation_status": 1, "rating": 6.0, "neighborhood": null, "image": null, "scorecard": null, "featured": false, "sample_categories": "Delis And Delicatessens", "public_id": "wildwood-cafe-atlanta", "id": 2911217, "votes": null, "tagline": null, "has_video": false, "website": null, "offers": null, "latitude": 33.906254, "politanName": "Atlanta, GA Metro ", "phone_number": "7709160069", "tags": [{"primary": true, "id": 1727, "name": "Delis And Delicatessens"}], "fax_number": null, "expansion": {"count": null, "uri": null}, "impression_id": "000b000000c6a2e6643a6847da9fc19da5adbbd376", "profile": "http://www.citysearch.com/profile/2911217/atlanta_ga/wildwood_cafe.html", "address": {"city": "Atlanta", "state": "GA", "street": "2300 Windy Ridge Pkwy SE Ste 3", "postal_code": "30339"}, "capProviderId": null, "distance": null, "has_offers": false, "name": "Wildwood Cafe", "longitude": -84.460402, "has_menu": true, "awards": null, "user_review_count": 1}, {"business_operation_status": 0, "rating": null, "neighborhood": null, "image": null, "scorecard": null, "featured": false, "sample_categories": "Restaurants", "public_id": "atlanta-ribs-smyrna", "id": 672295420, "votes": null, "tagline": null, "has_video": false, "website": null, "offers": null, "latitude": 33.841827, "politanName": "Atlanta, GA Metro ", "phone_number": "7704382886", "tags": [{"primary": true, "id": 1722, "name": "Restaurants"}], "fax_number": null, "expansion": {"count": null, "uri": null}, "impression_id": "000b0000003086503f90e14f1c8b4845f8c5e58e12", "profile": "http://www.citysearch.com/profile/672295420/smyrna_ga/atlanta_ribs.html", "address": {"city": "Smyrna", "state": "GA", "street": "4624 Camp Highland Rd SE # 700", "postal_code": "30082"}, "capProviderId": null, "distance": null, "has_offers": false, "name": "Atlanta Ribs", "longitude": -84.505595, "has_menu": false, "awards": null, "user_review_count": 1}, {"business_operation_status": 1, "rating": null, "neighborhood": null, "image": null, "scorecard": null, "featured": false, "sample_categories": "Catering, Restaurants", "public_id": "sweet-art-of-cateringparkside-atlanta", "id": 3030557, "votes": null, "tagline": null, "has_video": false, "website": null, "offers": null, "latitude": 33.906442, "politanName": "Atlanta, GA Metro ", "phone_number": "7709330089", "tags": [{"primary": false, "id": 1722, "name": "Restaurants"}, {"primary": true, "id": 1705, "name": "Catering"}], "fax_number": null, "expansion": {"count": null, "uri": null}, "impression_id": "000b00000094ccde63bcd34b9fb97d31c863fb0f7b", "profile": "http://www.citysearch.com/profile/3030557/atlanta_ga/sweet_art_of_catering_parkside.html", "address": {"city": "Atlanta", "state": "GA", "street": "2500 Windy Rdg Pkwy SE Ste 100", "postal_code": "30339"}, "capProviderId": null, "distance": null, "has_offers": false, "name": "Sweet Art Of Catering-Parkside", "longitude": -84.46162, "has_menu": false, "awards": null, "user_review_count": 0}, {"business_operation_status": 1, "rating": null, "neighborhood": "Northwest, Northwest", "image": null, "scorecard": null, "featured": false, "sample_categories": "Delis And Delicatessens, Restaurants", "public_id": "tillmans-deli-catering-atlanta", "id": 3024951, "votes": null, "tagline": null, "has_video": false, "website": null, "offers": null, "latitude": 33.791998, "politanName": "Atlanta, GA Metro ", "phone_number": "4046961302", "tags": [{"primary": false, "id": 1727, "name": "Delis And Delicatessens"}, {"primary": true, "id": 1722, "name": "Restaurants"}], "fax_number": null, "expansion": {"count": null, "uri": null}, "impression_id": "000b0000006bd91e9d8ff14399b215c5948ef2bb45", "profile": "http://www.citysearch.com/profile/3024951/atlanta_ga/tillman_s_deli_catering.html", "address": {"city": "Atlanta", "state": "GA", "street": "3201 Atlanta Industrial Pkwy NW", "postal_code": "30331"}, "capProviderId": null, "distance": null, "has_offers": false, "name": "Tillman's Deli & Catering", "longitude": -84.494999, "has_menu": false, "awards": null, "user_review_count": 0}, {"business_operation_status": 1, "rating": null, "neighborhood": null, "image": null, "scorecard": null, "featured": false, "sample_categories": "Restaurants, Mexican", "public_id": "wuvm-atlanta", "id": 622267360, "votes": null, "tagline": null, "has_video": false, "website": null, "offers": null, "latitude": 33.894187, "politanName": "Atlanta, GA Metro ", "phone_number": "7706616188", "tags": [{"primary": false, "id": 11208, "name": "Mexican"}, {"primary": true, "id": 1722, "name": "Restaurants"}], "fax_number": null, "expansion": {"count": null, "uri": null}, "impression_id": "000b00000078952c2299874556b2e43a0df6b3a265", "profile": "http://www.citysearch.com/profile/622267360/atlanta_ga/wuvm.html", "address": {"city": "Atlanta", "state": "GA", "street": "400 Interstate North Pkwy Se", "postal_code": "30339"}, "capProviderId": null, "distance": null, "has_offers": false, "name": "Wuvm", "longitude": -84.456313, "has_menu": false, "awards": null, "user_review_count": 0}, {"business_operation_status": 1, "rating": null, "neighborhood": null, "image": null, "scorecard": null, "featured": false, "sample_categories": "Bars & Pubs, Bars & Clubs, Restaurants", "public_id": "abiy-cool-spot-bar-marietta", "id": 742214720, "votes": null, "tagline": null, "has_video": false, "website": null, "offers": null, "latitude": 33.901926, "politanName": "Atlanta, GA Metro ", "phone_number": "7706938314", "tags": [{"primary": false, "id": 164, "name": "Bars & Clubs"}, {"primary": false, "id": 1722, "name": "Restaurants"}, {"primary": true, "id": 1686, "name": "Bars & Pubs"}], "fax_number": null, "expansion": {"count": null, "uri": null}, "impression_id": "000b0000006078c4a35cf64a8b9324a88b7b1b9b45", "profile": "http://www.citysearch.com/profile/742214720/marietta_ga/abiy_cool_spot_bar.html", "address": {"city": "Marietta", "state": "GA", "street": "495 Pat Mell Rd SW", "postal_code": "30060"}, "capProviderId": null, "distance": null, "has_offers": false, "name": "Abiy Cool Spot & Bar", "longitude": -84.567429, "has_menu": false, "awards": null, "user_review_count": 0}, {"business_operation_status": 1, "rating": 10.0, "neighborhood": null, "image": null, "scorecard": null, "featured": false, "sample_categories": "Catering, Restaurants", "public_id": "a-delightful-bitefull-catering-marietta", "id": 43855795, "votes": null, "tagline": null, "has_video": false, "website": "http://www.citysearch.com/profile/external/43855795/marietta_ga/a_delightful_bitefull_catering.html", "offers": null, "latitude": 33.973087, "politanName": "Atlanta, GA Metro ", "phone_number": "7705654146", "tags": [{"primary": false, "id": 1705, "name": "Catering"}, {"primary": true, "id": 1722, "name": "Restaurants"}], "fax_number": null, "expansion": {"count": null, "uri": null}, "impression_id": "000b00000070f3fd06ceb540a79a77539b3a6fd3d2", "profile": "http://www.citysearch.com/profile/43855795/marietta_ga/a_delightful_bitefull_catering.html", "address": {"city": "Marietta", "state": "GA", "street": "2235 Sewell Mill Rd", "postal_code": "30062"}, "capProviderId": null, "distance": null, "has_offers": false, "name": "A Delightful Bitefull Catering", "longitude": -84.486914, "has_menu": false, "awards": null, "user_review_count": 1}, {"business_operation_status": 1, "rating": null, "neighborhood": null, "image": null, "scorecard": null, "featured": false, "sample_categories": "Ice Cream Parlors, Restaurants, Dessert Shops", "public_id": "dairylicious-treats-marietta", "id": 43855993, "votes": null, "tagline": null, "has_video": false, "website": null, "offers": null, "latitude": 33.947264, "politanName": "Atlanta, GA Metro ", "phone_number": "7702185744", "tags": [{"primary": false, "id": 1722, "name": "Restaurants"}, {"primary": false, "id": 1728, "name": "Dessert Shops"}, {"primary": true, "id": 1730, "name": "Ice Cream Parlors"}], "fax_number": null, "expansion": {"count": null, "uri": null}, "impression_id": "000b0000000d065832d5aa43b6bf47e16086a67f4c", "profile": "http://www.citysearch.com/profile/43855993/marietta_ga/dairylicious_treats.html", "address": {"city": "Marietta", "state": "GA", "street": "270 Martin Ridge Dr SW", "postal_code": "30064"}, "capProviderId": null, "distance": null, "has_offers": false, "name": "Dairylicious Treats", "longitude": -84.617328, "has_menu": false, "awards": null, "user_review_count": 0}, {"business_operation_status": 1, "rating": null, "neighborhood": null, "image": null, "scorecard": null, "featured": false, "sample_categories": "Restaurants, Cajun & Creole", "public_id": "cajun-johns-restaurant-marietta", "id": 45988795, "votes": null, "tagline": null, "has_video": false, "website": null, "offers": null, "latitude": 33.937014, "politanName": "Atlanta, GA Metro ", "phone_number": "7704998700", "tags": [{"primary": false, "id": 11245, "name": "Cajun & Creole"}, {"primary": true, "id": 1722, "name": "Restaurants"}], "fax_number": null, "expansion": {"count": null, "uri": null}, "impression_id": "000b0000009eb056e44bb143b3a8162194373a302b", "profile": "http://www.citysearch.com/profile/45988795/marietta_ga/cajun_john_s_restaurant.html", "address": {"city": "Marietta", "state": "GA", "street": "1123 Powder Springs St", "postal_code": "30064"}, "capProviderId": null, "distance": null, "has_offers": false, "name": "Cajun John's Restaurant", "longitude": -84.554706, "has_menu": false, "awards": null, "user_review_count": 0}, {"business_operation_status": 1, "rating": null, "neighborhood": null, "image": null, "scorecard": null, "featured": false, "sample_categories": "Restaurants, Delis And Delicatessens, Sandwich Shops, Carry Out", "public_id": "subway-marietta-56", "id": 609620714, "votes": null, "tagline": null, "has_video": false, "website": "http://www.citysearch.com/profile/external/609620714/marietta_ga/subway.html", "offers": null, "latitude": 33.901237, "politanName": "Atlanta, GA Metro ", "phone_number": "7706937005", "tags": [{"primary": false, "id": 1727, "name": "Delis And Delicatessens"}, {"primary": false, "id": 1736, "name": "Sandwich Shops"}, {"primary": false, "id": 11247, "name": "Carry Out"}, {"primary": true, "id": 1722, "name": "Restaurants"}], "fax_number": null, "expansion": {"count": null, "uri": null}, "impression_id": "000b000000e2e932e4cd8243e893674ad2699e48cf", "profile": "http://www.citysearch.com/profile/609620714/marietta_ga/subway.html", "address": {"city": "Marietta", "state": "GA", "street": "2697 Windy Hill Rd SE", "postal_code": "30067"}, "capProviderId": null, "distance": null, "has_offers": false, "name": "Subway", "longitude": -84.476184, "has_menu": false, "awards": null, "user_review_count": 0}, {"business_operation_status": 1, "rating": null, "neighborhood": null, "image": null, "scorecard": null, "featured": false, "sample_categories": "Catering, Restaurants, Chinese", "public_id": "china-king-marietta", "id": 604719482, "votes": null, "tagline": null, "has_video": false, "website": null, "offers": null, "latitude": 33.882452, "politanName": "Atlanta, GA Metro ", "phone_number": "7704326688", "tags": [{"primary": false, "id": 1722, "name": "Restaurants"}, {"primary": false, "id": 11252, "name": "Chinese"}, {"primary": true, "id": 1705, "name": "Catering"}], "fax_number": null, "expansion": {"count": null, "uri": null}, "impression_id": "000b000000f6cafcc585fe46448438597c3803dc72", "profile": "http://www.citysearch.com/profile/604719482/marietta_ga/china_king.html", "address": {"city": "Marietta", "state": "GA", "street": "2909 Austell Rd SW", "postal_code": "30008"}, "capProviderId": null, "distance": null, "has_offers": false, "name": "China King", "longitude": -84.58798, "has_menu": false, "awards": null, "user_review_count": 0}, {"business_operation_status": 1, "rating": null, "neighborhood": null, "image": null, "scorecard": null, "featured": false, "sample_categories": "Restaurants, Carry Out, Hamburgers", "public_id": "mc-donalds-marietta-6", "id": 621871240, "votes": null, "tagline": null, "has_video": false, "website": "http://www.citysearch.com/profile/external/621871240/marietta_ga/mc_donald_s.html", "offers": null, "latitude": 33.908723, "politanName": "Atlanta, GA Metro ", "phone_number": "7709801194", "tags": [{"primary": false, "id": 11247, "name": "Carry Out"}, {"primary": false, "id": 11270, "name": "Hamburgers"}, {"primary": true, "id": 1722, "name": "Restaurants"}], "fax_number": null, "expansion": {"count": null, "uri": null}, "impression_id": "000b0000001628c4c5141e4bd7a28bfa03ee6ce23e", "profile": "http://www.citysearch.com/profile/621871240/marietta_ga/mc_donald_s.html", "address": {"city": "Marietta", "state": "GA", "street": "1785 Cobb Pkwy S", "postal_code": "30060"}, "capProviderId": null, "distance": null, "has_offers": false, "name": "Mc Donald's", "longitude": -84.492745, "has_menu": true, "awards": null, "user_review_count": 0}, {"business_operation_status": 1, "rating": null, "neighborhood": null, "image": null, "scorecard": null, "featured": false, "sample_categories": "Ice Cream Parlors, Restaurants", "public_id": "yoforia-sandy", "id": 748336750, "votes": null, "tagline": null, "has_video": false, "website": null, "offers": null, "latitude": 33.899687, "politanName": "Atlanta, GA Metro ", "phone_number": "7703529555", "tags": [{"primary": false, "id": 1722, "name": "Restaurants"}, {"primary": true, "id": 1730, "name": "Ice Cream Parlors"}], "fax_number": null, "expansion": {"count": null, "uri": null}, "impression_id": "000b0000000fb1b0a130a24092a0bde94625f2e8f0", "profile": "http://www.citysearch.com/profile/748336750/sandy_springs_ga/yoforia.html", "address": {"city": "Sandy Springs", "state": "GA", "street": "1155 Mount Vernon Hwy NW", "postal_code": "30327"}, "capProviderId": null, "distance": null, "has_offers": false, "name": "Yoforia", "longitude": -84.423806, "has_menu": false, "awards": null, "user_review_count": 0}, {"business_operation_status": 1, "rating": null, "neighborhood": "Northside, Northside, Paces", "image": null, "scorecard": null, "featured": false, "sample_categories": "Restaurants", "public_id": "cafe-at-the-stalls-llc-atlanta", "id": 757939880, "votes": null, "tagline": null, "has_video": false, "website": null, "offers": null, "latitude": 33.829497, "politanName": "Atlanta, GA Metro ", "phone_number": "4043517505", "tags": [{"primary": true, "id": 1722, "name": "Restaurants"}], "fax_number": null, "expansion": {"count": null, "uri": null}, "impression_id": "000b000000ff1b8dad50524306ac612ae8b603938d", "profile": "http://www.citysearch.com/profile/757939880/atlanta_ga/cafe_at_the_stalls_llc.html", "address": {"city": "Atlanta", "state": "GA", "street": "2731 Ridgewood Rd NW", "postal_code": "30327"}, "capProviderId": null, "distance": null, "has_offers": false, "name": "Cafe At the Stalls Llc", "longitude": -84.448313, "has_menu": false, "awards": null, "user_review_count": 0}, {"business_operation_status": 1, "rating": null, "neighborhood": null, "image": null, "scorecard": null, "featured": false, "sample_categories": "Coffeehouses", "public_id": "starbucks-atlanta-62", "id": 775185230, "votes": null, "tagline": null, "has_video": false, "website": "http://www.citysearch.com/profile/external/775185230/atlanta_ga/starbucks.html", "offers": null, "latitude": 33.878815, "politanName": "Atlanta, GA Metro ", "phone_number": "4044614129", "tags": [{"primary": true, "id": 1726, "name": "Coffeehouses"}], "fax_number": null, "expansion": {"count": null, "uri": null}, "impression_id": "000b0000005f88f300221b42fa8cb5872e006fc8e8", "profile": "http://www.citysearch.com/profile/775185230/atlanta_ga/starbucks.html", "address": {"city": "Atlanta", "state": "GA", "street": "6000 N Atlanta Hartsfield Airp", "postal_code": "30339"}, "capProviderId": null, "distance": null, "has_offers": false, "name": "Starbucks", "longitude": -84.464518, "has_menu": false, "awards": null, "user_review_count": 0}, {"business_operation_status": 1, "rating": null, "neighborhood": null, "image": null, "scorecard": null, "featured": false, "sample_categories": "Restaurants", "public_id": "la-pachanga-marietta", "id": 775202790, "votes": null, "tagline": null, "has_video": false, "website": null, "offers": null, "latitude": 33.905088, "politanName": "Atlanta, GA Metro ", "phone_number": "7708054048", "tags": [{"primary": true, "id": 1722, "name": "Restaurants"}], "fax_number": null, "expansion": {"count": null, "uri": null}, "impression_id": "000b0000008edba2fb37d14688994342a2678a1e29", "profile": "http://www.citysearch.com/profile/775202790/marietta_ga/la_pachanga.html", "address": {"city": "Marietta", "state": "GA", "street": "1977 S Cobb Dr SE", "postal_code": "30060"}, "capProviderId": null, "distance": null, "has_offers": false, "name": "La Pachanga", "longitude": -84.542528, "has_menu": false, "awards": null, "user_review_count": 0}, {"business_operation_status": 1, "rating": null, "neighborhood": null, "image": null, "scorecard": null, "featured": false, "sample_categories": "Restaurants, Steakhouse", "public_id": "copacabana-steakhouse-marietta", "id": 775221780, "votes": null, "tagline": null, "has_video": false, "website": null, "offers": null, "latitude": 33.923141, "politanName": "Atlanta, GA Metro ", "phone_number": "7709840057", "tags": [{"primary": false, "id": 11316, "name": "Steakhouse"}, {"primary": true, "id": 1722, "name": "Restaurants"}], "fax_number": null, "expansion": {"count": null, "uri": null}, "impression_id": "000b00000029ec0c87f10a49b6a4f7c7fb3e5386f6", "profile": "http://www.citysearch.com/profile/775221780/marietta_ga/copacabana_steakhouse.html", "address": {"city": "Marietta", "state": "GA", "street": "2555 Delk Rd SE # A7", "postal_code": "30067"}, "capProviderId": null, "distance": null, "has_offers": false, "name": "Copacabana Steakhouse", "longitude": -84.478026, "has_menu": false, "awards": null, "user_review_count": 0}, {"business_operation_status": 1, "rating": null, "neighborhood": null, "image": null, "scorecard": null, "featured": false, "sample_categories": "Restaurants", "public_id": "cajun-johns-marietta", "id": 672215460, "votes": null, "tagline": null, "has_video": false, "website": null, "offers": null, "latitude": 33.937014, "politanName": "Atlanta, GA Metro ", "phone_number": null, "tags": [{"primary": true, "id": 1722, "name": "Restaurants"}], "fax_number": null, "expansion": {"count": null, "uri": null}, "impression_id": "000b000000e07912becf274dd0b4db312d78f16b9c", "profile": "http://www.citysearch.com/profile/672215460/marietta_ga/cajun_john_s.html", "address": {"city": "Marietta", "state": "GA", "street": "1123 Powder Springs St. SE", "postal_code": "30064"}, "capProviderId": null, "distance": null, "has_offers": false, "name": "Cajun John's", "longitude": -84.554706, "has_menu": false, "awards": null, "user_review_count": 0}, {"business_operation_status": 1, "rating": null, "neighborhood": null, "image": null, "scorecard": null, "featured": false, "sample_categories": "Restaurants, Pizza, Carry Out", "public_id": "mellow-mushroom-marietta-4", "id": 777735910, "votes": null, "tagline": null, "has_video": false, "website": "http://www.citysearch.com/profile/external/777735910/marietta_ga/mellow_mushroom.html", "offers": null, "latitude": 33.908085, "politanName": "Atlanta, GA Metro ", "phone_number": "7704255511", "tags": [{"primary": false, "id": 1722, "name": "Restaurants"}, {"primary": false, "id": 11247, "name": "Carry Out"}, {"primary": true, "id": 11299, "name": "Pizza"}], "fax_number": null, "expansion": {"count": null, "uri": null}, "impression_id": "000b000000d38e0592493248a59f95dafac502abd3", "profile": "http://www.citysearch.com/profile/777735910/marietta_ga/mellow_mushroom.html", "address": {"city": "Marietta", "state": "GA", "street": "1690 Powder Springs Rd Sw #214", "postal_code": "30064"}, "capProviderId": null, "distance": null, "has_offers": false, "name": "Mellow Mushroom", "longitude": -84.602757, "has_menu": true, "awards": null, "user_review_count": 0}, {"business_operation_status": 1, "rating": null, "neighborhood": null, "image": null, "scorecard": null, "featured": false, "sample_categories": "Restaurants, Barbecue Restaurants", "public_id": "hot-wings-marietta", "id": 682287680, "votes": null, "tagline": null, "has_video": false, "website": null, "offers": null, "latitude": 33.941419, "politanName": "Atlanta, GA Metro ", "phone_number": "7702181589", "tags": [{"primary": false, "id": 1724, "name": "Barbecue Restaurants"}, {"primary": true, "id": 1722, "name": "Restaurants"}], "fax_number": null, "expansion": {"count": null, "uri": null}, "impression_id": "000b0000005c3c6e1ff1334261a2f781d357125c83", "profile": "http://www.citysearch.com/profile/682287680/marietta_ga/hot_wings.html", "address": {"city": "Marietta", "state": "GA", "street": "981 S Marietta Pkwy Se", "postal_code": "30060"}, "capProviderId": null, "distance": null, "has_offers": false, "name": "Hot Wings", "longitude": -84.522978, "has_menu": true, "awards": null, "user_review_count": 2}, {"business_operation_status": 1, "rating": null, "neighborhood": null, "image": null, "scorecard": null, "featured": false, "sample_categories": "Restaurants, Cajun & Creole", "public_id": "ji-bou-te-marietta", "id": 777783530, "votes": null, "tagline": null, "has_video": false, "website": null, "offers": null, "latitude": 33.952594, "politanName": "Atlanta, GA Metro ", "phone_number": "7707940772", "tags": [{"primary": false, "id": 11245, "name": "Cajun & Creole"}, {"primary": true, "id": 1722, "name": "Restaurants"}], "fax_number": null, "expansion": {"count": null, "uri": null}, "impression_id": "000b000000fdf0a7b4b4294c62b1d2fa4d13658c59", "profile": "http://www.citysearch.com/profile/777783530/marietta_ga/ji_bou_te.html", "address": {"city": "Marietta", "state": "GA", "street": "800 Whitlock Ave NW # 103", "postal_code": "30064"}, "capProviderId": null, "distance": null, "has_offers": false, "name": "Ji Bou Te", "longitude": -84.575881, "has_menu": false, "awards": null, "user_review_count": 0}, {"business_operation_status": 1, "rating": null, "neighborhood": null, "image": null, "scorecard": null, "featured": false, "sample_categories": "Restaurants", "public_id": "slate-grill-marietta", "id": 777808910, "votes": null, "tagline": null, "has_video": false, "website": null, "offers": null, "latitude": 33.940805, "politanName": "Atlanta, GA Metro ", "phone_number": "7704269777", "tags": [{"primary": true, "id": 1722, "name": "Restaurants"}], "fax_number": null, "expansion": {"count": null, "uri": null}, "impression_id": "000b000000fc6b9b62f9dc41e3a2ad088d3aa9eb63", "profile": "http://www.citysearch.com/profile/777808910/marietta_ga/slate_grill.html", "address": {"city": "Marietta", "state": "GA", "street": "3348 Farrier Walk Se", "postal_code": "30067"}, "capProviderId": null, "distance": null, "has_offers": false, "name": "Slate Grill", "longitude": -84.45506, "has_menu": false, "awards": null, "user_review_count": 0}, {"business_operation_status": 1, "rating": null, "neighborhood": null, "image": null, "scorecard": null, "featured": false, "sample_categories": "Restaurants, South American", "public_id": "el-hondureno-billares-marietta", "id": 777670670, "votes": null, "tagline": null, "has_video": false, "website": null, "offers": null, "latitude": 33.928458, "politanName": "Atlanta, GA Metro ", "phone_number": "7709532737", "tags": [{"primary": false, "id": 15490, "name": "South American"}, {"primary": true, "id": 1722, "name": "Restaurants"}], "fax_number": null, "expansion": {"count": null, "uri": null}, "impression_id": "000b000000e258f5940c6d436484c42d32b59cd292", "profile": "http://www.citysearch.com/profile/777670670/marietta_ga/el_hondureno_billares.html", "address": {"city": "Marietta", "state": "GA", "street": "1033 Franklin Rd Se", "postal_code": "30067"}, "capProviderId": null, "distance": null, "has_offers": false, "name": "El Hondureno Billares", "longitude": -84.492995, "has_menu": false, "awards": null, "user_review_count": 0}, {"business_operation_status": 1, "rating": null, "neighborhood": "Northside, Northside", "image": null, "scorecard": null, "featured": false, "sample_categories": "Ice Cream Parlors", "public_id": "jennis-splend-ice-cream-atlanta", "id": 793231030, "votes": null, "tagline": null, "has_video": false, "website": null, "offers": null, "latitude": 33.78694, "politanName": "Atlanta, GA Metro ", "phone_number": "4043670356", "tags": [{"primary": true, "id": 1730, "name": "Ice Cream Parlors"}], "fax_number": null, "expansion": {"count": null, "uri": null}, "impression_id": "000b000000133e833a3f494b8e89ad584649d66059", "profile": "http://www.citysearch.com/profile/793231030/atlanta_ga/jennis_splend_ice_cream.html", "address": {"city": "Atlanta", "state": "GA", "street": "1198 Howell Mill Rd NW", "postal_code": "30318"}, "capProviderId": null, "distance": null, "has_offers": false, "name": "Jennis Splend Ice Cream", "longitude": -84.411763, "has_menu": false, "awards": null, "user_review_count": 0}, {"business_operation_status": 1, "rating": null, "neighborhood": null, "image": null, "scorecard": null, "featured": false, "sample_categories": "Restaurants", "public_id": "chili-dog-factory-marietta", "id": 672271920, "votes": null, "tagline": null, "has_video": false, "website": null, "offers": null, "latitude": 33.940571, "politanName": "Atlanta, GA Metro ", "phone_number": "6782131114", "tags": [{"primary": true, "id": 1722, "name": "Restaurants"}], "fax_number": null, "expansion": {"count": null, "uri": null}, "impression_id": "000b00000095fd15d758ec4eb08d160f98ef7fc238", "profile": "http://www.citysearch.com/profile/672271920/marietta_ga/chili_dog_factory.html", "address": {"city": "Marietta", "state": "GA", "street": "940 South Marietta Parkway", "postal_code": "30060"}, "capProviderId": null, "distance": null, "has_offers": false, "name": "Chili Dog Factory", "longitude": -84.525094, "has_menu": false, "awards": null, "user_review_count": 0}, {"business_operation_status": 1, "rating": null, "neighborhood": null, "image": null, "scorecard": null, "featured": false, "sample_categories": "Restaurants", "public_id": "miyako-hibachi-sushi-steak-house-austell", "id": 672372180, "votes": null, "tagline": null, "has_video": false, "website": null, "offers": null, "latitude": 33.855384, "politanName": "Atlanta, GA Metro ", "phone_number": "7708056336", "tags": [{"primary": true, "id": 1722, "name": "Restaurants"}], "fax_number": null, "expansion": {"count": null, "uri": null}, "impression_id": "000b00000021d75a0f38bd47ccb6f9e2b173ff40eb", "profile": "http://www.citysearch.com/profile/672372180/austell_ga/miyako_hibachi_sushi_steak_house.html", "address": {"city": "Austell", "state": "GA", "street": "1025 East-West Connector", "postal_code": "30106"}, "capProviderId": null, "distance": null, "has_offers": false, "name": "Miyako Hibachi, Sushi & Steak House", "longitude": -84.583167, "has_menu": false, "awards": null, "user_review_count": 0}, {"business_operation_status": 1, "rating": null, "neighborhood": null, "image": null, "scorecard": null, "featured": false, "sample_categories": "Restaurants, Japanese", "public_id": "japanese-engine-line-marietta", "id": 775183550, "votes": null, "tagline": null, "has_video": false, "website": null, "offers": null, "latitude": 33.910751, "politanName": "Atlanta, GA Metro ", "phone_number": "7709521200", "tags": [{"primary": false, "id": 11202, "name": "Japanese"}, {"primary": true, "id": 1722, "name": "Restaurants"}], "fax_number": null, "expansion": {"count": null, "uri": null}, "impression_id": "000b000000e3ac5d8894e44e4e8f4de1083ea0e5dd", "profile": "http://www.citysearch.com/profile/775183550/marietta_ga/japanese_engine_line.html", "address": {"city": "Marietta", "state": "GA", "street": "1735 Cobb Pkwy S", "postal_code": "30060"}, "capProviderId": null, "distance": null, "has_offers": false, "name": "Japanese Engine Line", "longitude": -84.493702, "has_menu": false, "awards": null, "user_review_count": 0}, {"business_operation_status": 1, "rating": null, "neighborhood": null, "image": null, "scorecard": null, "featured": false, "sample_categories": "Catering, Restaurants, Seafood", "public_id": "uncle-buds-catering-smyrna", "id": 33571244, "votes": null, "tagline": null, "has_video": false, "website": null, "offers": null, "latitude": 33.872853, "politanName": "Atlanta, GA Metro ", "phone_number": "4046425066", "tags": [{"primary": false, "id": 1722, "name": "Restaurants"}, {"primary": false, "id": 11228, "name": "Seafood"}, {"primary": true, "id": 1705, "name": "Catering"}], "fax_number": null, "expansion": {"count": null, "uri": null}, "impression_id": "000b000000aa539b5c65b24438a78f6a3b1e1c6e26", "profile": "http://www.citysearch.com/profile/33571244/smyrna_ga/uncle_bud_s_catering.html", "address": {"city": "Smyrna", "state": "GA", "street": "725 Concord Rd SE", "postal_code": "30082"}, "capProviderId": null, "distance": null, "has_offers": false, "name": "Uncle Bud's Catering", "longitude": -84.533536, "has_menu": false, "awards": null, "user_review_count": 0}, {"business_operation_status": 1, "rating": null, "neighborhood": null, "image": null, "scorecard": null, "featured": false, "sample_categories": "Restaurants", "public_id": "box-lunch-express-atlanta", "id": 33572135, "votes": null, "tagline": null, "has_video": false, "website": null, "offers": null, "latitude": 33.879395, "politanName": "Atlanta, GA Metro ", "phone_number": "7709514994", "tags": [{"primary": true, "id": 1722, "name": "Restaurants"}], "fax_number": null, "expansion": {"count": null, "uri": null}, "impression_id": "000b0000002d008d26a2c248a797b9f5bcf004ade1", "profile": "http://www.citysearch.com/profile/33572135/atlanta_ga/box_lunch_express.html", "address": {"city": "Atlanta", "state": "GA", "street": "3051 Akers Mill Rd SE", "postal_code": "30339"}, "capProviderId": null, "distance": null, "has_offers": false, "name": "Box Lunch Express", "longitude": -84.463912, "has_menu": false, "awards": null, "user_review_count": 0}, {"business_operation_status": 1, "rating": null, "neighborhood": null, "image": null, "scorecard": null, "featured": false, "sample_categories": "Restaurants, Bars & Clubs, Traditional American, Carry Out", "public_id": "chilis-grill-bar-atlanta-8", "id": 775225760, "votes": null, "tagline": null, "has_video": false, "website": null, "offers": null, "latitude": 33.878815, "politanName": "Atlanta, GA Metro ", "phone_number": "4044614122", "tags": [{"primary": false, "id": 164, "name": "Bars & Clubs"}, {"primary": false, "id": 11190, "name": "Traditional American"}, {"primary": false, "id": 11247, "name": "Carry Out"}, {"primary": true, "id": 1722, "name": "Restaurants"}], "fax_number": null, "expansion": {"count": null, "uri": null}, "impression_id": "000b0000007d267a310bf645a68db30da20732d944", "profile": "http://www.citysearch.com/profile/775225760/atlanta_ga/chili_s_grill_bar.html", "address": {"city": "Atlanta", "state": "GA", "street": "6000 Atlanta Hartsfield Airpt", "postal_code": "30339"}, "capProviderId": null, "distance": null, "has_offers": false, "name": "Chili's Grill & Bar", "longitude": -84.464518, "has_menu": false, "awards": null, "user_review_count": 0}, {"business_operation_status": 1, "rating": null, "neighborhood": "Northside, Northside", "image": null, "scorecard": null, "featured": false, "sample_categories": "Restaurants, Carry Out, Hamburgers", "public_id": "krystal-atlanta-10", "id": 787117020, "votes": null, "tagline": null, "has_video": false, "website": "http://www.citysearch.com/profile/external/787117020/atlanta_ga/krystal.html", "offers": null, "latitude": 33.794633, "politanName": "Atlanta, GA Metro ", "phone_number": "7709442586", "tags": [{"primary": false, "id": 11247, "name": "Carry Out"}, {"primary": false, "id": 11270, "name": "Hamburgers"}, {"primary": true, "id": 1722, "name": "Restaurants"}], "fax_number": null, "expansion": {"count": null, "uri": null}, "impression_id": "000b000000cada2fe4722143228f9f2a82b00c910d", "profile": "http://www.citysearch.com/profile/787117020/atlanta_ga/krystal.html", "address": {"city": "Atlanta", "state": "GA", "street": "725 Hllwell Hwy NW", "postal_code": "30318"}, "capProviderId": null, "distance": null, "has_offers": false, "name": "Krystal", "longitude": -84.448772, "has_menu": true, "awards": null, "user_review_count": 0}, {"business_operation_status": 1, "rating": null, "neighborhood": null, "image": null, "scorecard": null, "featured": false, "sample_categories": "Restaurants, Carry Out", "public_id": "super-suppers-smyrna", "id": 777798500, "votes": null, "tagline": null, "has_video": false, "website": "http://www.citysearch.com/profile/external/777798500/smyrna_ga/super_suppers.html", "offers": null, "latitude": 33.840772, "politanName": "Atlanta, GA Metro ", "phone_number": "7708035466", "tags": [{"primary": false, "id": 11247, "name": "Carry Out"}, {"primary": true, "id": 1722, "name": "Restaurants"}], "fax_number": null, "expansion": {"count": null, "uri": null}, "impression_id": "000b000000b273e62da6344e3191f3456b02b179c3", "profile": "http://www.citysearch.com/profile/777798500/smyrna_ga/super_suppers.html", "address": {"city": "Smyrna", "state": "GA", "street": "1385 Highlands Ridge Rd Se # A", "postal_code": "30082"}, "capProviderId": null, "distance": null, "has_offers": false, "name": "Super Suppers", "longitude": -84.519704, "has_menu": true, "awards": null, "user_review_count": 0}, {"business_operation_status": 0, "rating": null, "neighborhood": null, "image": null, "scorecard": null, "featured": false, "sample_categories": "Restaurants", "public_id": "big-apple-cafe-atlanta-2", "id": 777818390, "votes": null, "tagline": null, "has_video": false, "website": null, "offers": null, "latitude": 33.901896, "politanName": "Atlanta, GA Metro ", "phone_number": "7708580088", "tags": [{"primary": true, "id": 1722, "name": "Restaurants"}], "fax_number": null, "expansion": {"count": null, "uri": null}, "impression_id": "000b00000016777c99e229418d87ec0b9c404c81fd", "profile": "http://www.citysearch.com/profile/777818390/atlanta_ga/big_apple_cafe.html", "address": {"city": "Atlanta", "state": "GA", "street": "1000 Parkwood Cir Se # 175", "postal_code": "30339"}, "capProviderId": null, "distance": null, "has_offers": false, "name": "Big Apple Cafe", "longitude": -84.459791, "has_menu": false, "awards": null, "user_review_count": 0}, {"business_operation_status": 1, "rating": null, "neighborhood": null, "image": null, "scorecard": null, "featured": false, "sample_categories": "Restaurants", "public_id": "cosmopolitan-marietta", "id": 793243310, "votes": null, "tagline": null, "has_video": false, "website": null, "offers": null, "latitude": 33.92362, "politanName": "Atlanta, GA Metro ", "phone_number": "7704859213", "tags": [{"primary": true, "id": 1722, "name": "Restaurants"}], "fax_number": null, "expansion": {"count": null, "uri": null}, "impression_id": "000b000000c9c1a52707084d6a94df0738d84e0502", "profile": "http://www.citysearch.com/profile/793243310/marietta_ga/cosmopolitan.html", "address": {"city": "Marietta", "state": "GA", "street": "2475 Delk Rd Se", "postal_code": "30067"}, "capProviderId": null, "distance": null, "has_offers": false, "name": "Cosmopolitan", "longitude": -84.479496, "has_menu": false, "awards": null, "user_review_count": 0}, {"business_operation_status": 1, "rating": null, "neighborhood": "Northwest, Northwest", "image": null, "scorecard": null, "featured": false, "sample_categories": "Restaurants, Spices", "public_id": "georgia-spice-co-inc-atlanta", "id": 713521050, "votes": null, "tagline": null, "has_video": false, "website": null, "offers": null, "latitude": 33.799035, "politanName": "Atlanta, GA Metro ", "phone_number": "4046966200", "tags": [{"primary": false, "id": 1722, "name": "Restaurants"}, {"primary": true, "id": 11175, "name": "Spices"}], "fax_number": null, "expansion": {"count": null, "uri": null}, "impression_id": "000b0000006d49e972f56a46d8a7177beadc405515", "profile": "http://www.citysearch.com/profile/713521050/atlanta_ga/georgia_spice_co_inc.html", "address": {"city": "Atlanta", "state": "GA", "street": "3600 Atlanta Industrial Pkwy N", "postal_code": "30331"}, "capProviderId": null, "distance": null, "has_offers": false, "name": "Georgia Spice Co INC", "longitude": -84.497102, "has_menu": false, "awards": null, "user_review_count": 0}], "histograms": [], "tag_ids": [1722], "uri": "http://api.citygridmedia.com:8080/search/places/v2/search/where?has_offers=false&type=restaurant&format=json&page=24&where=30080&rpp=50&histograms=false&publisher=10000009598&region_type=circle", "did_you_mean": "", "regions": [{"latitude": 33.870107, "default_radius": 3.76, "type": "postal_code", "name": "30080", "longitude": -84.499867}], "call_id": "000b000000ff8e93e408a64fa491f839b273b59607", "first_hit": 1151, "total_hits": 1580, "geo_ids": [26330], "page": 24, "last_hit": 1200}}