{"results": {"rpp": 50, "locations": [{"business_operation_status": 1, "rating": null, "neighborhood": null, "image": null, "scorecard": null, "featured": false, "sample_categories": "Restaurants, Japanese, Asian", "public_id": "sushi-nobo-in-vinings-smyrna", "id": 655895920, "votes": null, "tagline": null, "has_video": false, "website": null, "offers": null, "latitude": 33.842892, "politanName": "Atlanta, GA Metro ", "phone_number": "6784027893", "tags": [{"primary": false, "id": 11202, "name": "Japanese"}, {"primary": false, "id": 11235, "name": "Asian"}, {"primary": true, "id": 1722, "name": "Restaurants"}], "fax_number": null, "expansion": {"count": null, "uri": null}, "impression_id": "000b0000003aedf3c1864040498e81e1cd908b0bcd", "profile": "http://www.citysearch.com/profile/655895920/smyrna_ga/sushi_nobo_in_vinings.html", "address": {"city": "Smyrna", "state": "GA", "street": "4500 West Village Pl Se", "postal_code": "30080"}, "capProviderId": null, "distance": null, "has_offers": false, "name": "Sushi Nobo In Vinings", "longitude": -84.490261, "has_menu": false, "awards": null, "user_review_count": 0}, {"business_operation_status": 1, "rating": null, "neighborhood": null, "image": null, "scorecard": null, "featured": false, "sample_categories": "Restaurants, Greek", "public_id": "milos-restaurant-greek-tavern-marietta", "id": 793388790, "votes": null, "tagline": null, "has_video": false, "website": null, "offers": null, "latitude": 33.953276, "politanName": "Atlanta, GA Metro ", "phone_number": "6789033148", "tags": [{"primary": false, "id": 11268, "name": "Greek"}, {"primary": true, "id": 1722, "name": "Restaurants"}], "fax_number": null, "expansion": {"count": null, "uri": null}, "impression_id": "000b000000490fed7d04d54ff69f89da7558d81003", "profile": "http://www.citysearch.com/profile/793388790/marietta_ga/milos_restaurant_greek_tavern.html", "address": {"city": "Marietta", "state": "GA", "street": "26 Mill St Ne", "postal_code": "30060"}, "capProviderId": null, "distance": null, "has_offers": false, "name": "Milos Restaurant Greek Tavern", "longitude": -84.551885, "has_menu": false, "awards": null, "user_review_count": 0}, {"business_operation_status": 1, "rating": 8.0, "neighborhood": null, "image": null, "scorecard": null, "featured": false, "sample_categories": "Restaurants, Barbecue Restaurants, MasterCard, Visa", "public_id": "wing-factory-smyrna", "id": 39887521, "votes": null, "tagline": null, "has_video": false, "website": null, "offers": null, "latitude": 33.886503, "politanName": "Atlanta, GA Metro ", "phone_number": "7704259533", "tags": [{"primary": false, "id": 1724, "name": "Barbecue Restaurants"}, {"primary": false, "id": 11361, "name": "MasterCard"}, {"primary": false, "id": 11382, "name": "Visa"}, {"primary": true, "id": 1722, "name": "Restaurants"}], "fax_number": null, "expansion": {"count": null, "uri": null}, "impression_id": "000b000000e0993168bfa047daab5244f8f9879cd9", "profile": "http://www.citysearch.com/profile/39887521/smyrna_ga/wing_factory.html", "address": {"city": "Smyrna", "state": "GA", "street": "1150 Powder Springs St SE", "postal_code": "30080"}, "capProviderId": null, "distance": null, "has_offers": false, "name": "Wing Factory", "longitude": -84.519854, "has_menu": false, "awards": null, "user_review_count": 0}, {"business_operation_status": 1, "rating": 6.0, "neighborhood": null, "image": null, "scorecard": null, "featured": false, "sample_categories": "Restaurants, Family-Friendly Dining", "public_id": "our-place-restaurant-marietta", "id": 43842559, "votes": null, "tagline": null, "has_video": false, "website": null, "offers": null, "latitude": 33.941343, "politanName": "Atlanta, GA Metro ", "phone_number": "7704223796", "tags": [{"primary": false, "id": 1722, "name": "Restaurants"}, {"primary": true, "id": 11263, "name": "Family-Friendly Dining"}], "fax_number": null, "expansion": {"count": null, "uri": null}, "impression_id": "000b00000034591e47d3f44c35bd07b4b13656fe76", "profile": "http://www.citysearch.com/profile/43842559/marietta_ga/our_place_restaurant.html", "address": {"city": "Marietta", "state": "GA", "street": "940 S Marietta Pkwy SE", "postal_code": "30060"}, "capProviderId": null, "distance": null, "has_offers": false, "name": "Our Place Restaurant", "longitude": -84.523114, "has_menu": false, "awards": null, "user_review_count": 2}, {"business_operation_status": 1, "rating": null, "neighborhood": null, "image": null, "scorecard": null, "featured": false, "sample_categories": "Restaurants", "public_id": "cantons-donuts-marietta", "id": 805665440, "votes": null, "tagline": null, "has_video": false, "website": null, "offers": null, "latitude": 33.951218, "politanName": "Atlanta, GA Metro ", "phone_number": "7705792399", "tags": [{"primary": true, "id": 1722, "name": "Restaurants"}], "fax_number": null, "expansion": {"count": null, "uri": null}, "impression_id": "000b0000001fc307e45cff450f832426aaee1832b7", "profile": "http://www.citysearch.com/profile/805665440/marietta_ga/canton_s_donuts.html", "address": {"city": "Marietta", "state": "GA", "street": "1516 Roswell Rd", "postal_code": "30062"}, "capProviderId": null, "distance": null, "has_offers": false, "name": "Canton's Donuts", "longitude": -84.508253, "has_menu": false, "awards": null, "user_review_count": 0}, {"business_operation_status": 1, "rating": 5.0, "neighborhood": null, "image": null, "scorecard": null, "featured": false, "sample_categories": "Restaurants, Carry Out, American Express, MasterCard, Visa", "public_id": "zaxbys-smyrna-3", "id": 43841885, "votes": null, "tagline": null, "has_video": false, "website": "http://www.citysearch.com/profile/external/43841885/smyrna_ga/zaxby_s.html", "offers": null, "latitude": 33.826513, "politanName": "Atlanta, GA Metro ", "phone_number": "4047922288", "tags": [{"primary": false, "id": 11247, "name": "Carry Out"}, {"primary": false, "id": 11333, "name": "American Express"}, {"primary": false, "id": 11361, "name": "MasterCard"}, {"primary": false, "id": 11382, "name": "Visa"}, {"primary": false, "id": 12839, "name": "Chicken"}, {"primary": true, "id": 1722, "name": "Restaurants"}], "fax_number": null, "expansion": {"count": null, "uri": null}, "impression_id": "000b000000b334767f23bf4e9d80e0bb55fce8efba", "profile": "http://www.citysearch.com/profile/43841885/smyrna_ga/zaxby_s.html", "address": {"city": "Smyrna", "state": "GA", "street": "5201 S Cobb Dr SE", "postal_code": "30080"}, "capProviderId": null, "distance": null, "has_offers": false, "name": "Zaxby's", "longitude": -84.490726, "has_menu": true, "awards": null, "user_review_count": 2}, {"business_operation_status": 1, "rating": null, "neighborhood": null, "image": null, "scorecard": null, "featured": false, "sample_categories": "Restaurants, Pizza", "public_id": "bellas-pizzeria-austell", "id": 44775455, "votes": null, "tagline": null, "has_video": false, "website": null, "offers": null, "latitude": 33.860912, "politanName": "Atlanta, GA Metro ", "phone_number": "7064399555", "tags": [{"primary": false, "id": 11299, "name": "Pizza"}, {"primary": true, "id": 1722, "name": "Restaurants"}], "fax_number": null, "expansion": {"count": null, "uri": null}, "impression_id": "000b000000518504e595c44821a07720723d90067a", "profile": "http://www.citysearch.com/profile/44775455/austell_ga/bellas_pizzeria.html", "address": {"city": "Austell", "state": "GA", "street": "2495 E West Connector", "postal_code": "30106"}, "capProviderId": null, "distance": null, "has_offers": false, "name": "Bellas Pizzeria", "longitude": -84.620637, "has_menu": true, "awards": null, "user_review_count": 0}, {"business_operation_status": 1, "rating": null, "neighborhood": null, "image": null, "scorecard": null, "featured": false, "sample_categories": "Carry Out", "public_id": "jamaican-amer-kitchen-take-austell", "id": 826577100, "votes": null, "tagline": null, "has_video": false, "website": null, "offers": null, "latitude": 33.790432, "politanName": "Atlanta, GA Metro ", "phone_number": "7708190034", "tags": [{"primary": true, "id": 11247, "name": "Carry Out"}], "fax_number": null, "expansion": {"count": null, "uri": null}, "impression_id": "000b0000009766e1f5381a4d50ab88c88d86c0b196", "profile": "http://www.citysearch.com/profile/826577100/austell_ga/jamaican_amer_kitchen_take.html", "address": {"city": "Austell", "state": "GA", "street": "530 Thornton Rd # A", "postal_code": "30106"}, "capProviderId": null, "distance": null, "has_offers": false, "name": "Jamaican & Amer Kitchen Take", "longitude": -84.621192, "has_menu": false, "awards": null, "user_review_count": 0}, {"business_operation_status": 1, "rating": null, "neighborhood": null, "image": null, "scorecard": null, "featured": false, "sample_categories": "Restaurants", "public_id": "bjs-country-cooking-mableton", "id": 828752570, "votes": null, "tagline": null, "has_video": false, "website": null, "offers": null, "latitude": 33.81695, "politanName": "Atlanta, GA Metro ", "phone_number": "7708199232", "tags": [{"primary": true, "id": 1722, "name": "Restaurants"}], "fax_number": null, "expansion": {"count": null, "uri": null}, "impression_id": "000b000000da8db3887ce7484c8c178bee5f59f820", "profile": "http://www.citysearch.com/profile/828752570/mableton_ga/bjs_country_cooking.html", "address": {"city": "Mableton", "state": "GA", "street": "499 Veterans Memorial Hwy SW", "postal_code": "30126"}, "capProviderId": null, "distance": null, "has_offers": false, "name": "Bjs Country Cooking", "longitude": -84.568566, "has_menu": false, "awards": null, "user_review_count": 0}, {"business_operation_status": 1, "rating": null, "neighborhood": null, "image": null, "scorecard": null, "featured": false, "sample_categories": "Restaurants", "public_id": "jen-pal-smyrna", "id": 611103124, "votes": null, "tagline": null, "has_video": false, "website": null, "offers": null, "latitude": 33.884162, "politanName": "Atlanta, GA Metro ", "phone_number": "7704319620", "tags": [{"primary": true, "id": 1722, "name": "Restaurants"}], "fax_number": null, "expansion": {"count": null, "uri": null}, "impression_id": "000b0000007ff723c3ea3146a2afe214f0fa22cb80", "profile": "http://www.citysearch.com/profile/611103124/smyrna_ga/jen_pal.html", "address": {"city": "Smyrna", "state": "GA", "street": "1260 W Spring St SE # D", "postal_code": "30080"}, "capProviderId": null, "distance": null, "has_offers": false, "name": "Jen Pal", "longitude": -84.515885, "has_menu": false, "awards": null, "user_review_count": 0}, {"business_operation_status": 1, "rating": null, "neighborhood": null, "image": null, "scorecard": null, "featured": false, "sample_categories": "Restaurants, Delis And Delicatessens", "public_id": "sub-station-ii-smyrna", "id": 2922311, "votes": null, "tagline": null, "has_video": false, "website": "http://www.citysearch.com/profile/external/2922311/smyrna_ga/sub_station_ii.html", "offers": null, "latitude": 33.890368, "politanName": "Atlanta, GA Metro ", "phone_number": "4044356027", "tags": [{"primary": false, "id": 1727, "name": "Delis And Delicatessens"}, {"primary": true, "id": 1722, "name": "Restaurants"}], "fax_number": null, "expansion": {"count": null, "uri": null}, "impression_id": "000b00000015e35e7f53ab454391a467a01ee2bc24", "profile": "http://www.citysearch.com/profile/2922311/smyrna_ga/sub_station_ii.html", "address": {"city": "Smyrna", "state": "GA", "street": "2538 Atlanta Rd SE Ste B", "postal_code": "30080"}, "capProviderId": null, "distance": null, "has_offers": false, "name": "Sub Station II", "longitude": -84.51719, "has_menu": true, "awards": null, "user_review_count": 1}, {"business_operation_status": 1, "rating": null, "neighborhood": null, "image": null, "scorecard": null, "featured": false, "sample_categories": "Restaurants, Carry Out, American Express, Discover, MasterCard", "public_id": "chickfila-marietta-4", "id": 621935420, "votes": null, "tagline": null, "has_video": false, "website": "http://www.citysearch.com/profile/external/621935420/marietta_ga/chick_fil_a.html", "offers": null, "latitude": 33.904224, "politanName": "Atlanta, GA Metro ", "phone_number": "6783555297", "tags": [{"primary": false, "id": 11247, "name": "Carry Out"}, {"primary": false, "id": 11333, "name": "American Express"}, {"primary": false, "id": 11349, "name": "Discover"}, {"primary": false, "id": 11361, "name": "MasterCard"}, {"primary": false, "id": 11382, "name": "Visa"}, {"primary": false, "id": 12839, "name": "Chicken"}, {"primary": true, "id": 1722, "name": "Restaurants"}], "fax_number": null, "expansion": {"count": null, "uri": null}, "impression_id": "000b000000506e56b276a340d4b0d6df475293b0ff", "profile": "http://www.citysearch.com/profile/621935420/marietta_ga/chick_fil_a.html", "address": {"city": "Marietta", "state": "GA", "street": "2005 Macland Rd Sw", "postal_code": "30064"}, "capProviderId": null, "distance": null, "has_offers": false, "name": "Chick-Fil-A", "longitude": -84.610996, "has_menu": true, "awards": null, "user_review_count": 0}, {"business_operation_status": 1, "rating": null, "neighborhood": null, "image": null, "scorecard": null, "featured": false, "sample_categories": "Restaurants", "public_id": "wings-101-smyrna", "id": 621900654, "votes": null, "tagline": null, "has_video": false, "website": null, "offers": null, "latitude": 33.894038, "politanName": "Atlanta, GA Metro ", "phone_number": "7709891520", "tags": [{"primary": true, "id": 1722, "name": "Restaurants"}], "fax_number": null, "expansion": {"count": null, "uri": null}, "impression_id": "000b00000071b64effcf77428b87eb55e6477dfd6b", "profile": "http://www.citysearch.com/profile/621900654/smyrna_ga/wings_101.html", "address": {"city": "Smyrna", "state": "GA", "street": "998 Windy Hill Rd SE", "postal_code": "30080"}, "capProviderId": null, "distance": null, "has_offers": false, "name": "Wings 101", "longitude": -84.524382, "has_menu": false, "awards": null, "user_review_count": 0}, {"business_operation_status": 1, "rating": null, "neighborhood": null, "image": null, "scorecard": null, "featured": false, "sample_categories": "Restaurants, Fast Food, Carry Out, MasterCard, Visa", "public_id": "bojangles-famous-chicken-marietta", "id": 43849344, "votes": null, "tagline": null, "has_video": false, "website": "http://www.citysearch.com/profile/external/43849344/marietta_ga/bojangles_famous_chicken.html", "offers": null, "latitude": 33.935998, "politanName": "Atlanta, GA Metro ", "phone_number": "7704226222", "tags": [{"primary": false, "id": 11199, "name": "Fast Food"}, {"primary": false, "id": 11247, "name": "Carry Out"}, {"primary": false, "id": 11361, "name": "MasterCard"}, {"primary": false, "id": 11382, "name": "Visa"}, {"primary": false, "id": 12839, "name": "Chicken"}, {"primary": true, "id": 1722, "name": "Restaurants"}], "fax_number": null, "expansion": {"count": null, "uri": null}, "impression_id": "000b0000000e46c6fe3bde4b59a95e07250287ac7f", "profile": "http://www.citysearch.com/profile/43849344/marietta_ga/bojangles_famous_chicken.html", "address": {"city": "Marietta", "state": "GA", "street": "681 Cobb Pkwy N", "postal_code": "30062"}, "capProviderId": null, "distance": null, "has_offers": false, "name": "Bojangles' Famous Chicken", "longitude": -84.511888, "has_menu": false, "awards": null, "user_review_count": 0}, {"business_operation_status": 1, "rating": null, "neighborhood": null, "image": null, "scorecard": null, "featured": false, "sample_categories": "Restaurants, Japanese, Asian", "public_id": "blusushi-smyrna", "id": 621946410, "votes": null, "tagline": null, "has_video": false, "website": null, "offers": null, "latitude": 33.887059, "politanName": "Atlanta, GA Metro ", "phone_number": "7704379900", "tags": [{"primary": false, "id": 11202, "name": "Japanese"}, {"primary": false, "id": 11235, "name": "Asian"}, {"primary": true, "id": 1722, "name": "Restaurants"}], "fax_number": null, "expansion": {"count": null, "uri": null}, "impression_id": "000b0000002c1d1a75530e48108f2edaa8e998ae11", "profile": "http://www.citysearch.com/profile/621946410/smyrna_ga/blusushi.html", "address": {"city": "Smyrna", "state": "GA", "street": "2700 Cumberland Blvd Se", "postal_code": "30080"}, "capProviderId": null, "distance": null, "has_offers": false, "name": "Blusushi", "longitude": -84.476087, "has_menu": false, "awards": null, "user_review_count": 1}, {"business_operation_status": 1, "rating": 8.0, "neighborhood": null, "image": null, "scorecard": null, "featured": false, "sample_categories": "Translators & Interpreters, Bakeries, Restaurants", "public_id": "progreso-latino-marietta", "id": 44772942, "votes": null, "tagline": null, "has_video": false, "website": null, "offers": null, "latitude": 33.936757, "politanName": "Atlanta, GA Metro ", "phone_number": "7707941110", "tags": [{"primary": false, "id": 3744, "name": "Translators & Interpreters"}, {"primary": false, "id": 1685, "name": "Bakeries"}, {"primary": false, "id": 1722, "name": "Restaurants"}], "fax_number": null, "expansion": {"count": null, "uri": null}, "impression_id": "000b0000005daa8adb862044bb99bec0784f02fc3e", "profile": "http://www.citysearch.com/profile/44772942/marietta_ga/progreso_latino.html", "address": {"city": "Marietta", "state": "GA", "street": "680 Powder Springs St", "postal_code": "30064"}, "capProviderId": null, "distance": null, "has_offers": false, "name": "Progreso Latino", "longitude": -84.557357, "has_menu": false, "awards": null, "user_review_count": 0}, {"business_operation_status": 1, "rating": null, "neighborhood": null, "image": null, "scorecard": null, "featured": false, "sample_categories": "Restaurants, Barbecue Restaurants", "public_id": "st-louis-barbeque-blues-mableton", "id": 638803040, "votes": null, "tagline": null, "has_video": false, "website": null, "offers": null, "latitude": 33.805377, "politanName": "Atlanta, GA Metro ", "phone_number": "6783985055", "tags": [{"primary": false, "id": 1724, "name": "Barbecue Restaurants"}, {"primary": true, "id": 1722, "name": "Restaurants"}], "fax_number": null, "expansion": {"count": null, "uri": null}, "impression_id": "000b00000033ed2d2d4b364fd2808418e57c08b48b", "profile": "http://www.citysearch.com/profile/638803040/mableton_ga/st_louis_barbeque_blues.html", "address": {"city": "Mableton", "state": "GA", "street": "1025 Veterans Memorial Hwy Se", "postal_code": "30126"}, "capProviderId": null, "distance": null, "has_offers": false, "name": "St Louis Barbeque & Blues", "longitude": -84.52581, "has_menu": false, "awards": null, "user_review_count": 0}, {"business_operation_status": 1, "rating": null, "neighborhood": null, "image": null, "scorecard": null, "featured": false, "sample_categories": "Restaurants", "public_id": "wing-it-cafe-marietta", "id": 610478634, "votes": null, "tagline": null, "has_video": false, "website": null, "offers": null, "latitude": 33.883197, "politanName": "Atlanta, GA Metro ", "phone_number": "7702189100", "tags": [{"primary": true, "id": 1722, "name": "Restaurants"}], "fax_number": null, "expansion": {"count": null, "uri": null}, "impression_id": "000b0000000d02350840f54d85884fb61f46eba8cd", "profile": "http://www.citysearch.com/profile/610478634/marietta_ga/wing_it_cafe.html", "address": {"city": "Marietta", "state": "GA", "street": "2200 Powder Springs Rd SW", "postal_code": "30064"}, "capProviderId": null, "distance": null, "has_offers": false, "name": "Wing It Cafe", "longitude": -84.61985, "has_menu": false, "awards": null, "user_review_count": 0}, {"business_operation_status": 1, "rating": null, "neighborhood": null, "image": null, "scorecard": null, "featured": false, "sample_categories": "Restaurants, Fast Food, Carry Out, Hamburgers, American Express", "public_id": "mc-donalds-austell-2", "id": 37648233, "votes": null, "tagline": null, "has_video": false, "website": "http://www.citysearch.com/profile/external/37648233/austell_ga/mc_donald_s.html", "offers": null, "latitude": 33.856577, "politanName": "Atlanta, GA Metro ", "phone_number": "7704344002", "tags": [{"primary": false, "id": 11199, "name": "Fast Food"}, {"primary": false, "id": 11247, "name": "Carry Out"}, {"primary": false, "id": 11270, "name": "Hamburgers"}, {"primary": false, "id": 11333, "name": "American Express"}, {"primary": false, "id": 11349, "name": "Discover"}, {"primary": false, "id": 11361, "name": "MasterCard"}, {"primary": false, "id": 11382, "name": "Visa"}, {"primary": true, "id": 1722, "name": "Restaurants"}], "fax_number": null, "expansion": {"count": null, "uri": null}, "impression_id": "000b0000007096cc8179da4c1ead30669e7cbb3984", "profile": "http://www.citysearch.com/profile/37648233/austell_ga/mc_donald_s.html", "address": {"city": "Austell", "state": "GA", "street": "1133 E West Connector", "postal_code": "30106"}, "capProviderId": null, "distance": null, "has_offers": false, "name": "Mc Donald's", "longitude": -84.58945, "has_menu": true, "awards": null, "user_review_count": 0}, {"business_operation_status": 1, "rating": null, "neighborhood": null, "image": null, "scorecard": null, "featured": false, "sample_categories": "Restaurants, Pizza", "public_id": "pizza-zone-inc-marietta", "id": 820298830, "votes": null, "tagline": null, "has_video": false, "website": null, "offers": null, "latitude": 33.904063, "politanName": "Atlanta, GA Metro ", "phone_number": "7704329364", "tags": [{"primary": false, "id": 1722, "name": "Restaurants"}, {"primary": true, "id": 11299, "name": "Pizza"}], "fax_number": null, "expansion": {"count": null, "uri": null}, "impression_id": "000b00000034b22d7c74d24d9aa6bebb2df9091e7d", "profile": "http://www.citysearch.com/profile/820298830/marietta_ga/pizza_zone_inc.html", "address": {"city": "Marietta", "state": "GA", "street": "2022 S Cobb Dr SE", "postal_code": "30060"}, "capProviderId": null, "distance": null, "has_offers": false, "name": "Pizza Zone Inc", "longitude": -84.542723, "has_menu": false, "awards": null, "user_review_count": 0}, {"business_operation_status": 1, "rating": null, "neighborhood": null, "image": null, "scorecard": null, "featured": false, "sample_categories": "Restaurants", "public_id": "slate-grill-marietta-2", "id": 820825960, "votes": null, "tagline": null, "has_video": false, "website": null, "offers": null, "latitude": 33.953111, "politanName": "Atlanta, GA Metro ", "phone_number": "7704269777", "tags": [{"primary": true, "id": 1722, "name": "Restaurants"}], "fax_number": null, "expansion": {"count": null, "uri": null}, "impression_id": "000b000000945e3614640646bcbf1b711d663e3c75", "profile": "http://www.citysearch.com/profile/820825960/marietta_ga/slate_grill.html", "address": {"city": "Marietta", "state": "GA", "street": "1000 Whitlock Ave NW # 410", "postal_code": "30064"}, "capProviderId": null, "distance": null, "has_offers": false, "name": "Slate Grill", "longitude": -84.581272, "has_menu": true, "awards": null, "user_review_count": 0}, {"business_operation_status": 1, "rating": null, "neighborhood": null, "image": null, "scorecard": null, "featured": false, "sample_categories": "Restaurants", "public_id": "larrys-country-kitchen-marietta", "id": 827346130, "votes": null, "tagline": null, "has_video": false, "website": null, "offers": null, "latitude": 33.943185, "politanName": "Atlanta, GA Metro ", "phone_number": "7704269522", "tags": [{"primary": true, "id": 1722, "name": "Restaurants"}], "fax_number": null, "expansion": {"count": null, "uri": null}, "impression_id": "000b00000074bfbd83352d40ebbdf50a55db602612", "profile": "http://www.citysearch.com/profile/827346130/marietta_ga/larry_s_country_kitchen.html", "address": {"city": "Marietta", "state": "GA", "street": "625 S Marietta Pkwy SE", "postal_code": "30060"}, "capProviderId": null, "distance": null, "has_offers": false, "name": "Larry's Country Kitchen", "longitude": -84.533806, "has_menu": false, "awards": null, "user_review_count": 0}, {"business_operation_status": 1, "rating": null, "neighborhood": null, "image": null, "scorecard": null, "featured": false, "sample_categories": "Restaurants", "public_id": "grand-champion-bbq-marietta", "id": 836972670, "votes": null, "tagline": null, "has_video": false, "website": null, "offers": null, "latitude": 33.952602, "politanName": "Atlanta, GA Metro ", "phone_number": "7709934227", "tags": [{"primary": true, "id": 1722, "name": "Restaurants"}], "fax_number": null, "expansion": {"count": null, "uri": null}, "impression_id": "000b000000a3a74ed34cdf40fabc72364cd08c2ae7", "profile": "http://www.citysearch.com/profile/836972670/marietta_ga/grand_champion_bbq.html", "address": {"city": "Marietta", "state": "GA", "street": "[empty]", "postal_code": "30062"}, "capProviderId": null, "distance": null, "has_offers": false, "name": "Grand Champion BBQ", "longitude": -84.549933, "has_menu": false, "awards": null, "user_review_count": 0}, {"business_operation_status": 1, "rating": null, "neighborhood": null, "image": null, "scorecard": null, "featured": false, "sample_categories": "Restaurants", "public_id": "corner-taqueria-smyrna", "id": 837793660, "votes": null, "tagline": null, "has_video": false, "website": "http://www.citysearch.com/profile/external/837793660/smyrna_ga/corner_taqueria.html", "offers": null, "latitude": 33.883705, "politanName": "Atlanta, GA Metro ", "phone_number": "6788420050", "tags": [{"primary": true, "id": 1722, "name": "Restaurants"}], "fax_number": null, "expansion": {"count": null, "uri": null}, "impression_id": "000b0000001ee18dd7d3d14f7b8bb227681dd9bea5", "profile": "http://www.citysearch.com/profile/837793660/smyrna_ga/corner_taqueria.html", "address": {"city": "Smyrna", "state": "GA", "street": "2860 Atlanta Rd SE", "postal_code": "30080"}, "capProviderId": null, "distance": null, "has_offers": false, "name": "Corner Taqueria", "longitude": -84.514807, "has_menu": false, "awards": null, "user_review_count": 0}, {"business_operation_status": 0, "rating": null, "neighborhood": null, "image": null, "scorecard": null, "featured": false, "sample_categories": "Restaurants", "public_id": "aspen-west-cobb-marietta", "id": 41283282, "votes": null, "tagline": null, "has_video": false, "website": "http://www.citysearch.com/profile/external/41283282/marietta_ga/aspens.html", "offers": null, "latitude": 33.952164, "politanName": "Atlanta, GA Metro ", "phone_number": "7704191744", "tags": [{"primary": true, "id": 1722, "name": "Restaurants"}], "fax_number": null, "expansion": {"count": null, "uri": null}, "impression_id": "000b000000fcf55d38d0ff4874af1059aceadc913c", "profile": "http://www.citysearch.com/profile/41283282/marietta_ga/aspens.html", "address": {"city": "Marietta", "state": "GA", "street": "3625 Dallas Hwy SW Ste 715", "postal_code": "30064"}, "capProviderId": null, "distance": null, "has_offers": false, "name": "Aspens", "longitude": -84.657799, "has_menu": false, "awards": null, "user_review_count": 1}, {"business_operation_status": 1, "rating": null, "neighborhood": null, "image": null, "scorecard": null, "featured": false, "sample_categories": "Restaurants, Bars & Clubs", "public_id": "tio-bar-grill-smyrna", "id": 802510740, "votes": null, "tagline": null, "has_video": false, "website": null, "offers": null, "latitude": 33.886772, "politanName": "Atlanta, GA Metro ", "phone_number": "7709891065", "tags": [{"primary": false, "id": 164, "name": "Bars & Clubs"}, {"primary": true, "id": 1722, "name": "Restaurants"}], "fax_number": null, "expansion": {"count": null, "uri": null}, "impression_id": "000b00000080aabbfb9cdd4391a464f5329d5ebf6d", "profile": "http://www.citysearch.com/profile/802510740/smyrna_ga/tio_bar_grill.html", "address": {"city": "Smyrna", "state": "GA", "street": "2731 S Cobb Dr Se", "postal_code": "30080"}, "capProviderId": null, "distance": null, "has_offers": false, "name": "Tio Bar & Grill", "longitude": -84.534827, "has_menu": false, "awards": null, "user_review_count": 0}, {"business_operation_status": 1, "rating": null, "neighborhood": "Northside, Northside", "image": null, "scorecard": null, "featured": false, "sample_categories": "Restaurants", "public_id": "melting-pot-restaurant-atlanta-2", "id": 805904900, "votes": null, "tagline": null, "has_video": false, "website": null, "offers": null, "latitude": 33.809801, "politanName": "Atlanta, GA Metro ", "phone_number": "4043511811", "tags": [{"primary": true, "id": 1722, "name": "Restaurants"}], "fax_number": null, "expansion": {"count": null, "uri": null}, "impression_id": "000b000000472d8cc7030a46bfacf46e7a50ee7876", "profile": "http://www.citysearch.com/profile/805904900/atlanta_ga/melting_pot_restaurant.html", "address": {"city": "Atlanta", "state": "GA", "street": "857 Collier Rd NW # 1", "postal_code": "30318"}, "capProviderId": null, "distance": null, "has_offers": false, "name": "Melting Pot Restaurant", "longitude": -84.416377, "has_menu": true, "awards": null, "user_review_count": 0}, {"business_operation_status": 0, "rating": null, "neighborhood": null, "image": null, "scorecard": null, "featured": false, "sample_categories": "Ice Cream Parlors, Restaurants, Dessert Shops, Traditional American, Fast Food", "public_id": "dairy-queen-smyrna", "id": 43853384, "votes": null, "tagline": null, "has_video": false, "website": "http://www.citysearch.com/profile/external/43853384/smyrna_ga/dairy_queen.html", "offers": null, "latitude": 33.838977, "politanName": "Atlanta, GA Metro ", "phone_number": "4047920120", "tags": [{"primary": false, "id": 1722, "name": "Restaurants"}, {"primary": false, "id": 1728, "name": "Dessert Shops"}, {"primary": false, "id": 11190, "name": "Traditional American"}, {"primary": false, "id": 11199, "name": "Fast Food"}, {"primary": true, "id": 1730, "name": "Ice Cream Parlors"}], "fax_number": null, "expansion": {"count": null, "uri": null}, "impression_id": "000b00000005e2734e2ed6470895f114e94a01dbfe", "profile": "http://www.citysearch.com/profile/43853384/smyrna_ga/dairy_queen.html", "address": {"city": "Smyrna", "state": "GA", "street": "4715 S Atlanta Rd SE", "postal_code": "30080"}, "capProviderId": null, "distance": null, "has_offers": false, "name": "Dairy Queen", "longitude": -84.481545, "has_menu": true, "awards": null, "user_review_count": 0}, {"business_operation_status": 1, "rating": null, "neighborhood": null, "image": null, "scorecard": null, "featured": false, "sample_categories": "Restaurants", "public_id": "smoothies-more-austell", "id": 43863527, "votes": null, "tagline": null, "has_video": false, "website": null, "offers": null, "latitude": 33.855384, "politanName": "Atlanta, GA Metro ", "phone_number": "6783099699", "tags": [{"primary": true, "id": 1722, "name": "Restaurants"}], "fax_number": null, "expansion": {"count": null, "uri": null}, "impression_id": "000b00000074dd9e08c89745c9b5fe0d77a6d64f78", "profile": "http://www.citysearch.com/profile/43863527/austell_ga/smoothies_more.html", "address": {"city": "Austell", "state": "GA", "street": "1025 E West Connector", "postal_code": "30106"}, "capProviderId": null, "distance": null, "has_offers": false, "name": "Smoothies & More", "longitude": -84.583167, "has_menu": false, "awards": null, "user_review_count": 0}, {"business_operation_status": 1, "rating": null, "neighborhood": "Northside, Northside", "image": null, "scorecard": null, "featured": false, "sample_categories": "Restaurants", "public_id": "ruben-goycochea-atlanta", "id": 43873760, "votes": null, "tagline": null, "has_video": false, "website": null, "offers": null, "latitude": 33.819953, "politanName": "Atlanta, GA Metro ", "phone_number": "4046030275", "tags": [{"primary": true, "id": 1722, "name": "Restaurants"}], "fax_number": null, "expansion": {"count": null, "uri": null}, "impression_id": "000b0000007dde99431613462e957a9a0830a15724", "profile": "http://www.citysearch.com/profile/43873760/atlanta_ga/ruben_goycochea.html", "address": {"city": "Atlanta", "state": "GA", "street": "2611 Bolton Rd NW", "postal_code": "30318"}, "capProviderId": null, "distance": null, "has_offers": false, "name": "Ruben Goycochea", "longitude": -84.449421, "has_menu": false, "awards": null, "user_review_count": 0}, {"business_operation_status": 0, "rating": null, "neighborhood": null, "image": null, "scorecard": null, "featured": false, "sample_categories": "Restaurants, Health Food Stores", "public_id": "smoothie-king-atlanta-9", "id": 44776703, "votes": null, "tagline": null, "has_video": false, "website": "http://www.citysearch.com/profile/external/44776703/atlanta_ga/smoothie_king.html", "offers": null, "latitude": 33.864337, "politanName": "Atlanta, GA Metro ", "phone_number": "7704345987", "tags": [{"primary": false, "id": 1716, "name": "Health Food Stores"}, {"primary": true, "id": 1722, "name": "Restaurants"}], "fax_number": null, "expansion": {"count": null, "uri": null}, "impression_id": "000b000000df357761dd2041839f17ac9eaa54009a", "profile": "http://www.citysearch.com/profile/44776703/atlanta_ga/smoothie_king.html", "address": {"city": "Atlanta", "state": "GA", "street": "4338 Paces Ferry Rd SE", "postal_code": "30339"}, "capProviderId": null, "distance": null, "has_offers": false, "name": "Smoothie King", "longitude": -84.464965, "has_menu": false, "awards": null, "user_review_count": 0}, {"business_operation_status": 1, "rating": null, "neighborhood": null, "image": null, "scorecard": null, "featured": false, "sample_categories": "Restaurants", "public_id": "filimons-restaurant-smyrna", "id": 811872330, "votes": null, "tagline": null, "has_video": false, "website": null, "offers": null, "latitude": 33.887574, "politanName": "Atlanta, GA Metro ", "phone_number": "6782131556", "tags": [{"primary": true, "id": 1722, "name": "Restaurants"}], "fax_number": null, "expansion": {"count": null, "uri": null}, "impression_id": "000b000000c2a7bc9d02354de7a8b08348a10ed570", "profile": "http://www.citysearch.com/profile/811872330/smyrna_ga/filimon_s_restaurant.html", "address": {"city": "Smyrna", "state": "GA", "street": "601 Powder Springs St SE", "postal_code": "30080"}, "capProviderId": null, "distance": null, "has_offers": false, "name": "Filimon's Restaurant", "longitude": -84.535901, "has_menu": false, "awards": null, "user_review_count": 0}, {"business_operation_status": 1, "rating": null, "neighborhood": null, "image": null, "scorecard": null, "featured": false, "sample_categories": "Restaurants", "public_id": "real-pit-bbq-breakfast-mableton", "id": 672307600, "votes": null, "tagline": null, "has_video": false, "website": null, "offers": null, "latitude": 33.783418, "politanName": "Atlanta, GA Metro ", "phone_number": null, "tags": [{"primary": true, "id": 1722, "name": "Restaurants"}], "fax_number": null, "expansion": {"count": null, "uri": null}, "impression_id": "000b0000007860c13313df4e0283389476fdbc9bd8", "profile": "http://www.citysearch.com/profile/672307600/mableton_ga/real_pit_bbq_breakfast.html", "address": {"city": "Mableton", "state": "GA", "street": "6960 Mableton Parkway", "postal_code": "30126"}, "capProviderId": null, "distance": null, "has_offers": false, "name": "Real Pit BBQ & Breakfast", "longitude": -84.541117, "has_menu": false, "awards": null, "user_review_count": 0}, {"business_operation_status": 1, "rating": null, "neighborhood": null, "image": null, "scorecard": null, "featured": false, "sample_categories": "Restaurants", "public_id": "jbones-mableton", "id": 672571120, "votes": null, "tagline": null, "has_video": false, "website": null, "offers": null, "latitude": 33.816965, "politanName": "Atlanta, GA Metro ", "phone_number": null, "tags": [{"primary": true, "id": 1722, "name": "Restaurants"}], "fax_number": null, "expansion": {"count": null, "uri": null}, "impression_id": "000b000000374859e6148441289b6c7c5560b4ce07", "profile": "http://www.citysearch.com/profile/672571120/mableton_ga/j_bones.html", "address": {"city": "Mableton", "state": "GA", "street": "499 Veterans Memorial Hwy SW", "postal_code": "30126"}, "capProviderId": null, "distance": null, "has_offers": false, "name": "J-Bones", "longitude": -84.568558, "has_menu": false, "awards": null, "user_review_count": 0}, {"business_operation_status": 1, "rating": null, "neighborhood": null, "image": null, "scorecard": null, "featured": false, "sample_categories": "Restaurants, Delis And Delicatessens, Sandwich Shops, Carry Out", "public_id": "subway-smyrna-18", "id": 682667190, "votes": null, "tagline": null, "has_video": false, "website": "http://www.citysearch.com/profile/external/682667190/smyrna_ga/subway.html", "offers": null, "latitude": 33.827294, "politanName": "Atlanta, GA Metro ", "phone_number": "4047924294", "tags": [{"primary": false, "id": 1727, "name": "Delis And Delicatessens"}, {"primary": false, "id": 1736, "name": "Sandwich Shops"}, {"primary": false, "id": 11247, "name": "Carry Out"}, {"primary": true, "id": 1722, "name": "Restaurants"}], "fax_number": null, "expansion": {"count": null, "uri": null}, "impression_id": "000b000000526336af5d584b0096c3205ee5febe04", "profile": "http://www.citysearch.com/profile/682667190/smyrna_ga/subway.html", "address": {"city": "Smyrna", "state": "GA", "street": "5185 S Cobb Dr Se", "postal_code": "30080"}, "capProviderId": null, "distance": null, "has_offers": false, "name": "Subway", "longitude": -84.491362, "has_menu": true, "awards": null, "user_review_count": 0}, {"business_operation_status": 1, "rating": null, "neighborhood": null, "image": null, "scorecard": null, "featured": false, "sample_categories": "Restaurants", "public_id": "silver-lodestone-inc-marietta", "id": 2873989, "votes": null, "tagline": null, "has_video": false, "website": "http://www.citysearch.com/profile/external/2873989/marietta_ga/silver_lodestone_inc.html", "offers": null, "latitude": 33.936462, "politanName": "Atlanta, GA Metro ", "phone_number": "7705907778", "tags": [{"primary": true, "id": 1722, "name": "Restaurants"}], "fax_number": null, "expansion": {"count": null, "uri": null}, "impression_id": "000b000000de1a36da52a0457d83438b724879cdba", "profile": "http://www.citysearch.com/profile/2873989/marietta_ga/silver_lodestone_inc.html", "address": {"city": "Marietta", "state": "GA", "street": "191 Garrison Rd SE Ste A", "postal_code": "30008"}, "capProviderId": null, "distance": null, "has_offers": false, "name": "Silver Lodestone Inc", "longitude": -84.547583, "has_menu": false, "awards": null, "user_review_count": 0}, {"business_operation_status": 1, "rating": null, "neighborhood": null, "image": null, "scorecard": null, "featured": false, "sample_categories": "Food Stores, Restaurants", "public_id": "halal-meats-marietta", "id": 696523330, "votes": null, "tagline": null, "has_video": false, "website": null, "offers": null, "latitude": 33.937797, "politanName": "Atlanta, GA Metro ", "phone_number": "6782900211", "tags": [{"primary": false, "id": 1722, "name": "Restaurants"}, {"primary": true, "id": 1706, "name": "Food Stores"}], "fax_number": null, "expansion": {"count": null, "uri": null}, "impression_id": "000b00000080543707cce741b69ed7c3404cefaf26", "profile": "http://www.citysearch.com/profile/696523330/marietta_ga/halal_meats.html", "address": {"city": "Marietta", "state": "GA", "street": "585 Franklin Rd Se", "postal_code": "30067"}, "capProviderId": null, "distance": null, "has_offers": false, "name": "Halal Meats", "longitude": -84.506993, "has_menu": false, "awards": null, "user_review_count": 0}, {"business_operation_status": 1, "rating": null, "neighborhood": null, "image": null, "scorecard": null, "featured": false, "sample_categories": "Restaurants", "public_id": "the-fillin-station-smyrna", "id": 672118610, "votes": null, "tagline": null, "has_video": false, "website": null, "offers": null, "latitude": 33.844657, "politanName": "Atlanta, GA Metro ", "phone_number": "6782390399", "tags": [{"primary": true, "id": 1722, "name": "Restaurants"}], "fax_number": null, "expansion": {"count": null, "uri": null}, "impression_id": "000b0000009240f7713a95454bb21c38f9c05bf6df", "profile": "http://www.citysearch.com/profile/672118610/smyrna_ga/the_fillin_station.html", "address": {"city": "Smyrna", "state": "GA", "street": "4425 South Cobb Drive", "postal_code": "30080"}, "capProviderId": null, "distance": null, "has_offers": false, "name": "The Fillin Station", "longitude": -84.501961, "has_menu": false, "awards": null, "user_review_count": 0}, {"business_operation_status": 1, "rating": null, "neighborhood": null, "image": null, "scorecard": null, "featured": false, "sample_categories": "Restaurants", "public_id": "wings-factory-austell", "id": 673030580, "votes": null, "tagline": null, "has_video": false, "website": null, "offers": null, "latitude": 33.859727, "politanName": "Atlanta, GA Metro ", "phone_number": "6782134040", "tags": [{"primary": true, "id": 1722, "name": "Restaurants"}], "fax_number": null, "expansion": {"count": null, "uri": null}, "impression_id": "000b000000094a06c694f34bcba92dbb76f69c1c2f", "profile": "http://www.citysearch.com/profile/673030580/austell_ga/wings_factory.html", "address": {"city": "Austell", "state": "GA", "street": "4180 Austell Rd SW", "postal_code": "30106"}, "capProviderId": null, "distance": null, "has_offers": false, "name": "Wings Factory", "longitude": -84.59921, "has_menu": false, "awards": null, "user_review_count": 0}, {"business_operation_status": 1, "rating": null, "neighborhood": null, "image": null, "scorecard": null, "featured": false, "sample_categories": "Restaurants", "public_id": "el-pollo-dorado-llc-lithia", "id": 607566664, "votes": null, "tagline": null, "has_video": false, "website": null, "offers": null, "latitude": 33.78703, "politanName": "Atlanta, GA Metro ", "phone_number": "6783248398", "tags": [{"primary": true, "id": 1722, "name": "Restaurants"}], "fax_number": null, "expansion": {"count": null, "uri": null}, "impression_id": "000b00000071d0a3aa3a3f412f824917a607307320", "profile": "http://www.citysearch.com/profile/607566664/lithia_springs_ga/el_pollo_dorado_llc.html", "address": {"city": "Lithia Springs", "state": "GA", "street": "639 Thornton Rd", "postal_code": "30122"}, "capProviderId": null, "distance": null, "has_offers": false, "name": "El Pollo Dorado LLC", "longitude": -84.619446, "has_menu": false, "awards": null, "user_review_count": 0}, {"business_operation_status": 1, "rating": null, "neighborhood": null, "image": null, "scorecard": null, "featured": false, "sample_categories": "Delis And Delicatessens", "public_id": "kroger-deli-marietta-7", "id": 702370900, "votes": null, "tagline": null, "has_video": false, "website": "http://www.citysearch.com/profile/external/702370900/marietta_ga/kroger_deli.html", "offers": null, "latitude": 33.908085, "politanName": "Atlanta, GA Metro ", "phone_number": "7702185699", "tags": [{"primary": true, "id": 1727, "name": "Delis And Delicatessens"}], "fax_number": null, "expansion": {"count": null, "uri": null}, "impression_id": "000b000000ff74dcf40e8b4a5a8d5aec8d5bb1c619", "profile": "http://www.citysearch.com/profile/702370900/marietta_ga/kroger_deli.html", "address": {"city": "Marietta", "state": "GA", "street": "1690 Powder Springs Rd Sw #200", "postal_code": "30064"}, "capProviderId": null, "distance": null, "has_offers": false, "name": "Kroger Deli", "longitude": -84.602757, "has_menu": false, "awards": null, "user_review_count": 0}, {"business_operation_status": 1, "rating": null, "neighborhood": null, "image": null, "scorecard": null, "featured": false, "sample_categories": "Personal Trainers, Dancing, Yoga", "public_id": "lailahs-studio-austell", "id": 724382250, "votes": null, "tagline": null, "has_video": false, "website": null, "offers": null, "latitude": 33.833377, "politanName": "Atlanta, GA Metro ", "phone_number": "6784010866", "tags": [{"primary": false, "id": 11255, "name": "Dancing"}, {"primary": false, "id": 12606, "name": "Yoga"}, {"primary": true, "id": 3999, "name": "Personal Trainers"}], "fax_number": null, "expansion": {"count": null, "uri": null}, "impression_id": "000b000000a117376176c945b89027e5aece0d6696", "profile": "http://www.citysearch.com/profile/724382250/austell_ga/lailah_s_studio.html", "address": {"city": "Austell", "state": "GA", "street": "4968 Austell Rd", "postal_code": "30106"}, "capProviderId": null, "distance": null, "has_offers": false, "name": "Lailah's Studio", "longitude": -84.611891, "has_menu": false, "awards": null, "user_review_count": 0}, {"business_operation_status": 1, "rating": null, "neighborhood": "Riverside, Northside, Northside", "image": null, "scorecard": null, "featured": false, "sample_categories": "Restaurants, Carry Out", "public_id": "waffle-house-atlanta-32", "id": 621730054, "votes": null, "tagline": null, "has_video": false, "website": "http://www.citysearch.com/profile/external/621730054/atlanta_ga/waffle_house.html", "offers": null, "latitude": 33.81087, "politanName": "Atlanta, GA Metro ", "phone_number": "4047929009", "tags": [{"primary": false, "id": 11247, "name": "Carry Out"}, {"primary": true, "id": 1722, "name": "Restaurants"}], "fax_number": null, "expansion": {"count": null, "uri": null}, "impression_id": "000b00000043c51b95504b4907bd477db2d824fbb8", "profile": "http://www.citysearch.com/profile/621730054/atlanta_ga/waffle_house.html", "address": {"city": "Atlanta", "state": "GA", "street": "2025 Bolton Rd NW", "postal_code": "30318"}, "capProviderId": null, "distance": null, "has_offers": false, "name": "Waffle House", "longitude": -84.476265, "has_menu": false, "awards": null, "user_review_count": 0}, {"business_operation_status": 1, "rating": null, "neighborhood": null, "image": null, "scorecard": null, "featured": false, "sample_categories": "Restaurants", "public_id": "grill-boss-austell", "id": 627583724, "votes": null, "tagline": null, "has_video": false, "website": null, "offers": null, "latitude": 33.817547, "politanName": "Atlanta, GA Metro ", "phone_number": "6785038054", "tags": [{"primary": true, "id": 1722, "name": "Restaurants"}], "fax_number": null, "expansion": {"count": null, "uri": null}, "impression_id": "000b000000351f896768364abb8b62c2825889401b", "profile": "http://www.citysearch.com/profile/627583724/austell_ga/grill_boss.html", "address": {"city": "Austell", "state": "GA", "street": "1768 Veterans Memorial Hwy SW", "postal_code": "30168"}, "capProviderId": null, "distance": null, "has_offers": false, "name": "Grill Boss", "longitude": -84.605747, "has_menu": false, "awards": null, "user_review_count": 0}, {"business_operation_status": 1, "rating": null, "neighborhood": null, "image": null, "scorecard": null, "featured": false, "sample_categories": "Bars & Pubs, Bars & Clubs, Restaurants, Grill Restaurants, Carry Out", "public_id": "philippopolis-tavern-smyrna", "id": 748253380, "votes": null, "tagline": null, "has_video": false, "website": null, "offers": null, "latitude": 33.901006, "politanName": "Atlanta, GA Metro ", "phone_number": "6783836164", "tags": [{"primary": false, "id": 164, "name": "Bars & Clubs"}, {"primary": false, "id": 1722, "name": "Restaurants"}, {"primary": false, "id": 6191, "name": "Grill Restaurants"}, {"primary": false, "id": 11247, "name": "Carry Out"}, {"primary": false, "id": 11289, "name": "Mediterranean"}, {"primary": true, "id": 1686, "name": "Bars & Pubs"}], "fax_number": null, "expansion": {"count": null, "uri": null}, "impression_id": "000b000000def24127309e451481d17c987b7f69a6", "profile": "http://www.citysearch.com/profile/748253380/smyrna_ga/philippopolis_tavern.html", "address": {"city": "Smyrna", "state": "GA", "street": "1995 Windy Hill Rd SE", "postal_code": "30080"}, "capProviderId": null, "distance": null, "has_offers": false, "name": "Philippopolis Tavern", "longitude": -84.491036, "has_menu": false, "awards": null, "user_review_count": 0}, {"business_operation_status": 1, "rating": null, "neighborhood": null, "image": null, "scorecard": null, "featured": false, "sample_categories": "Restaurants", "public_id": "hans-new-mableton", "id": 748335370, "votes": null, "tagline": null, "has_video": false, "website": null, "offers": null, "latitude": 33.835173, "politanName": "Atlanta, GA Metro ", "phone_number": "7709412314", "tags": [{"primary": true, "id": 1722, "name": "Restaurants"}], "fax_number": null, "expansion": {"count": null, "uri": null}, "impression_id": "000b00000048a4ba0db3334c6081e66f82414d4ea2", "profile": "http://www.citysearch.com/profile/748335370/mableton_ga/hans_new.html", "address": {"city": "Mableton", "state": "GA", "street": "4875 Floyd Rd SW # 108", "postal_code": "30126"}, "capProviderId": null, "distance": null, "has_offers": false, "name": "Hans New", "longitude": -84.574622, "has_menu": false, "awards": null, "user_review_count": 0}, {"business_operation_status": 1, "rating": null, "neighborhood": null, "image": null, "scorecard": null, "featured": false, "sample_categories": "Restaurants, Southwestern", "public_id": "tico-joes-southwest-gril-lithia", "id": 764846790, "votes": null, "tagline": null, "has_video": false, "website": null, "offers": null, "latitude": 33.78703, "politanName": "Atlanta, GA Metro ", "phone_number": "7706939699", "tags": [{"primary": false, "id": 11313, "name": "Southwestern"}, {"primary": true, "id": 1722, "name": "Restaurants"}], "fax_number": null, "expansion": {"count": null, "uri": null}, "impression_id": "000b000000f12f3040629c492aa8f2b3157c170f2b", "profile": "http://www.citysearch.com/profile/764846790/lithia_springs_ga/tico_joe_s_southwest_gril.html", "address": {"city": "Lithia Springs", "state": "GA", "street": "639 Thornton Rd # 101", "postal_code": "30122"}, "capProviderId": null, "distance": null, "has_offers": false, "name": "Tico Joe's Southwest Gril", "longitude": -84.619446, "has_menu": false, "awards": null, "user_review_count": 0}, {"business_operation_status": 1, "rating": null, "neighborhood": null, "image": null, "scorecard": null, "featured": false, "sample_categories": "Restaurants, Bars & Pubs", "public_id": "tigers-sports-bar-grill-mableton", "id": 764894490, "votes": null, "tagline": null, "has_video": false, "website": null, "offers": null, "latitude": 33.791516, "politanName": "Atlanta, GA Metro ", "phone_number": "7709415349", "tags": [{"primary": false, "id": 1686, "name": "Bars & Pubs"}, {"primary": true, "id": 1722, "name": "Restaurants"}], "fax_number": null, "expansion": {"count": null, "uri": null}, "impression_id": "000b000000ab2d1d572bb8489ba88e6e0a2b376753", "profile": "http://www.citysearch.com/profile/764894490/mableton_ga/tigers_sports_bar_grill.html", "address": {"city": "Mableton", "state": "GA", "street": "6175 Mableton Pkwy SE", "postal_code": "30126"}, "capProviderId": null, "distance": null, "has_offers": false, "name": "Tigers Sports Bar & Grill", "longitude": -84.555393, "has_menu": false, "awards": null, "user_review_count": 0}, {"business_operation_status": 1, "rating": null, "neighborhood": null, "image": null, "scorecard": null, "featured": false, "sample_categories": "Restaurants, Mexican", "public_id": "paqueria-la-pasadita-mableton", "id": 653586340, "votes": null, "tagline": null, "has_video": false, "website": null, "offers": null, "latitude": 33.801202, "politanName": "Atlanta, GA Metro ", "phone_number": "6787385332", "tags": [{"primary": false, "id": 11208, "name": "Mexican"}, {"primary": true, "id": 1722, "name": "Restaurants"}], "fax_number": null, "expansion": {"count": null, "uri": null}, "impression_id": "000b0000006b55f8b16bba453e87308f58b9d4cd97", "profile": "http://www.citysearch.com/profile/653586340/mableton_ga/paqueria_la_pasadita.html", "address": {"city": "Mableton", "state": "GA", "street": "6260 Mableton Pkwy Sw", "postal_code": "30126"}, "capProviderId": null, "distance": null, "has_offers": false, "name": "Paqueria La Pasadita", "longitude": -84.567423, "has_menu": false, "awards": null, "user_review_count": 0}, {"business_operation_status": 1, "rating": null, "neighborhood": null, "image": null, "scorecard": null, "featured": false, "sample_categories": "Restaurants, Eclectic & International", "public_id": "eagle-cafe-intl-marietta", "id": 775215710, "votes": null, "tagline": null, "has_video": false, "website": null, "offers": null, "latitude": 33.924963, "politanName": "Atlanta, GA Metro ", "phone_number": "7704222056", "tags": [{"primary": false, "id": 11259, "name": "Eclectic & International"}, {"primary": true, "id": 1722, "name": "Restaurants"}], "fax_number": null, "expansion": {"count": null, "uri": null}, "impression_id": "000b000000e1611f6c3ed3416abc11130ba5cdb1c8", "profile": "http://www.citysearch.com/profile/775215710/marietta_ga/eagle_cafe_intl.html", "address": {"city": "Marietta", "state": "GA", "street": "1150 Powder Springs St", "postal_code": "30064"}, "capProviderId": null, "distance": null, "has_offers": false, "name": "Eagle Cafe Intl", "longitude": -84.573919, "has_menu": false, "awards": null, "user_review_count": 0}], "histograms": [], "tag_ids": [1722], "uri": "http://api.citygridmedia.com:8080/search/places/v2/search/where?has_offers=false&type=restaurant&format=json&page=22&where=30082&rpp=50&histograms=false&publisher=10000009598&region_type=circle", "did_you_mean": "", "regions": [{"latitude": 33.854375999999995, "default_radius": 3.24, "type": "postal_code", "name": "30082", "longitude": -84.535215}], "call_id": "000b0000006ca91c1586b1483fbb6abf6bef5a8882", "first_hit": 1051, "total_hits": 1174, "geo_ids": [26331], "page": 22, "last_hit": 1100}}