{"results": {"rpp": 50, "locations": [{"business_operation_status": 1, "rating": null, "neighborhood": null, "image": "http://o1.aolcdn.com/dims-shared/dims3/PATCH/resize/600x450/http://hss-prod.hss.aol.com/hss/storage/patch/f28c2f3d406df69e9f7744bbc095044c", "scorecard": null, "featured": false, "sample_categories": "Bakeries, Restaurants", "public_id": "la-suprema-bakery-marietta-3", "id": 601297233, "votes": null, "tagline": null, "has_video": false, "website": "http://www.citysearch.com/profile/external/601297233/marietta_ga/la_suprema_bakery.html", "offers": null, "latitude": 33.950847, "politanName": "Atlanta, GA Metro ", "phone_number": "6787971120", "tags": [{"primary": false, "id": 1722, "name": "Restaurants"}, {"primary": true, "id": 1685, "name": "Bakeries"}], "fax_number": null, "expansion": {"count": null, "uri": null}, "impression_id": "000b000000916e33481d864844a38fc947ed076dce", "profile": "http://www.citysearch.com/profile/601297233/marietta_ga/la_suprema_bakery.html", "address": {"city": "Marietta", "state": "GA", "street": "815 Roswell St Ne", "postal_code": "30060"}, "capProviderId": null, "distance": null, "has_offers": false, "name": "La Suprema Bakery", "longitude": -84.527654, "has_menu": false, "awards": null, "user_review_count": 1}, {"business_operation_status": 1, "rating": null, "neighborhood": null, "image": "http://o2.aolcdn.com/dims-shared/dims3/PATCH/resize/600x450/http://hss-prod.hss.aol.com/hss/storage/patch/b4cb36e88b398f983d8c9cc355fa9bd9", "scorecard": null, "featured": false, "sample_categories": "Restaurants", "public_id": "b-js-country-cooking-marietta", "id": 601297154, "votes": null, "tagline": null, "has_video": false, "website": null, "offers": null, "latitude": 33.943248, "politanName": "Atlanta, GA Metro ", "phone_number": "6783547035", "tags": [{"primary": true, "id": 1722, "name": "Restaurants"}], "fax_number": null, "expansion": {"count": null, "uri": null}, "impression_id": "000b000000e5e472c3f956482aa39d3f5aed207fc6", "profile": "http://www.citysearch.com/profile/601297154/marietta_ga/b_j_s_country_cooking.html", "address": {"city": "Marietta", "state": "GA", "street": "611 S Marietta Pkwy Se", "postal_code": "30060"}, "capProviderId": null, "distance": null, "has_offers": false, "name": "B J's Country Cooking", "longitude": -84.534062, "has_menu": false, "awards": null, "user_review_count": 0}, {"business_operation_status": 1, "rating": null, "neighborhood": null, "image": "http://o4.aolcdn.com/dims-shared/dims3/PATCH/resize/600x450/http://hss-prod.hss.aol.com/hss/storage/patch/d4b21cc452388eb9cb3c997703fb011e", "scorecard": null, "featured": false, "sample_categories": "Restaurants", "public_id": "red-train-marietta", "id": 621940580, "votes": null, "tagline": null, "has_video": false, "website": "http://www.citysearch.com/profile/external/621940580/marietta_ga/red_train.html", "offers": null, "latitude": 33.928458, "politanName": "Atlanta, GA Metro ", "phone_number": "7706909988", "tags": [{"primary": true, "id": 1722, "name": "Restaurants"}], "fax_number": null, "expansion": {"count": null, "uri": null}, "impression_id": "000b000000bc68ec3d41b940b5bd473407534eff18", "profile": "http://www.citysearch.com/profile/621940580/marietta_ga/red_train.html", "address": {"city": "Marietta", "state": "GA", "street": "1033 Franklin Rd Se", "postal_code": "30067"}, "capProviderId": null, "distance": null, "has_offers": false, "name": "Red Train", "longitude": -84.492995, "has_menu": false, "awards": null, "user_review_count": 0}, {"business_operation_status": 1, "rating": null, "neighborhood": null, "image": "http://o5.aolcdn.com/dims-shared/dims3/PATCH/resize/600x450/http://hss-prod.hss.aol.com/hss/storage/patch/27acb4e4c0f04a7912b09bfd53b7f804", "scorecard": null, "featured": false, "sample_categories": "Doughnut Shops, Coffeehouses", "public_id": "dunkin-donuts-marietta-2", "id": 647356890, "votes": null, "tagline": null, "has_video": false, "website": "http://www.citysearch.com/profile/external/647356890/marietta_ga/dunkin_donuts.html", "offers": null, "latitude": 33.974656, "politanName": "Atlanta, GA Metro ", "phone_number": "7709718360", "tags": [{"primary": false, "id": 1726, "name": "Coffeehouses"}, {"primary": true, "id": 1734, "name": "Doughnut Shops"}], "fax_number": null, "expansion": {"count": null, "uri": null}, "impression_id": "000b000000cd3b5ec31a76484fba9c369d11baddc0", "profile": "http://www.citysearch.com/profile/647356890/marietta_ga/dunkin_donuts.html", "address": {"city": "Marietta", "state": "GA", "street": "980 E Piedmont Rd", "postal_code": "30062"}, "capProviderId": null, "distance": null, "has_offers": false, "name": "Dunkin' Donuts", "longitude": -84.479091, "has_menu": false, "awards": null, "user_review_count": 0}, {"business_operation_status": 1, "rating": null, "neighborhood": null, "image": "http://o4.aolcdn.com/dims-shared/dims3/PATCH/resize/600x450/http://hss-prod.hss.aol.com/hss/storage/patch/994e9e47bf6ea0af6d8fc3abbdab59b1", "scorecard": null, "featured": false, "sample_categories": "Restaurants, Delis And Delicatessens", "public_id": "american-deli-mableton", "id": 33606128, "votes": null, "tagline": null, "has_video": false, "website": "http://www.citysearch.com/profile/external/33606128/mableton_ga/american_deli.html", "offers": null, "latitude": 33.830898, "politanName": "Atlanta, GA Metro ", "phone_number": "7707451995", "tags": [{"primary": false, "id": 1727, "name": "Delis And Delicatessens"}, {"primary": true, "id": 1722, "name": "Restaurants"}], "fax_number": null, "expansion": {"count": null, "uri": null}, "impression_id": "000b00000046fbad62b4d747f992d5c5e1b78df354", "profile": "http://www.citysearch.com/profile/33606128/mableton_ga/american_deli.html", "address": {"city": "Mableton", "state": "GA", "street": "5005 Floyd Rd SW", "postal_code": "30126"}, "capProviderId": null, "distance": null, "has_offers": false, "name": "American Deli", "longitude": -84.575902, "has_menu": true, "awards": null, "user_review_count": 0}, {"business_operation_status": 1, "rating": null, "neighborhood": null, "image": "http://o1.aolcdn.com/dims-shared/dims3/PATCH/resize/600x450/http://hss-prod.hss.aol.com/hss/storage/patch/b843a26fc44a1b9659257f0e05a16427", "scorecard": null, "featured": false, "sample_categories": "Restaurants, Barbecue Restaurants", "public_id": "wing-fish-georgia-marietta", "id": 633013910, "votes": null, "tagline": null, "has_video": false, "website": null, "offers": null, "latitude": 33.936645, "politanName": "Atlanta, GA Metro ", "phone_number": "7704273339", "tags": [{"primary": false, "id": 1724, "name": "Barbecue Restaurants"}, {"primary": true, "id": 1722, "name": "Restaurants"}], "fax_number": null, "expansion": {"count": null, "uri": null}, "impression_id": "000b0000003952ebf833924637afff064852a0379c", "profile": "http://www.citysearch.com/profile/633013910/marietta_ga/wing_fish_georgia.html", "address": {"city": "Marietta", "state": "GA", "street": "690 Powder Springs St", "postal_code": "30064"}, "capProviderId": null, "distance": null, "has_offers": false, "name": "Wing & Fish Georgia", "longitude": -84.555916, "has_menu": false, "awards": null, "user_review_count": 0}, {"business_operation_status": 1, "rating": null, "neighborhood": null, "image": "http://o2.aolcdn.com/dims-shared/dims3/PATCH/resize/600x450/http://hss-prod.hss.aol.com/hss/storage/patch/dc41ba81151e25f28394cc96b0823444", "scorecard": null, "featured": false, "sample_categories": "Restaurants", "public_id": "taste-of-chicago-marietta", "id": 2906509, "votes": null, "tagline": null, "has_video": false, "website": null, "offers": null, "latitude": 33.937398, "politanName": "Atlanta, GA Metro ", "phone_number": "7705907174", "tags": [{"primary": true, "id": 1722, "name": "Restaurants"}], "fax_number": null, "expansion": {"count": null, "uri": null}, "impression_id": "000b0000007b9d288524224d58a425f40a0bf75088", "profile": "http://www.citysearch.com/profile/2906509/marietta_ga/taste_of_chicago.html", "address": {"city": "Marietta", "state": "GA", "street": "678 Powder Springs St SE", "postal_code": "30064"}, "capProviderId": null, "distance": null, "has_offers": false, "name": "Taste Of Chicago", "longitude": -84.555073, "has_menu": false, "awards": null, "user_review_count": 0}, {"business_operation_status": 1, "rating": null, "neighborhood": null, "image": "http://o3.aolcdn.com/dims-shared/dims3/PATCH/resize/600x450/http://hss-prod.hss.aol.com/hss/storage/patch/311290373fbf55fe0c8d07ea67ad48b6", "scorecard": null, "featured": false, "sample_categories": "Restaurants", "public_id": "san-luis-restaurant-marietta", "id": 2901674, "votes": null, "tagline": null, "has_video": false, "website": null, "offers": null, "latitude": 33.94125, "politanName": "Atlanta, GA Metro ", "phone_number": "7707959888", "tags": [{"primary": true, "id": 1722, "name": "Restaurants"}], "fax_number": null, "expansion": {"count": null, "uri": null}, "impression_id": "000b000000d08056d67ece436ab0b81d38ecc2b5a0", "profile": "http://www.citysearch.com/profile/2901674/marietta_ga/san_luis_restaurant.html", "address": {"city": "Marietta", "state": "GA", "street": "951 S Marietta Pkwy SE", "postal_code": "30060"}, "capProviderId": null, "distance": null, "has_offers": false, "name": "San Luis Restaurant", "longitude": -84.523286, "has_menu": false, "awards": null, "user_review_count": 0}, {"business_operation_status": 1, "rating": null, "neighborhood": null, "image": "http://o3.aolcdn.com/dims-shared/dims3/PATCH/resize/600x450/http://hss-prod.hss.aol.com/hss/storage/patch/88da6c1d846a47c4f10cdb9f63f5e2a3", "scorecard": null, "featured": false, "sample_categories": "Restaurants, Carry Out, American Express, Discover, MasterCard", "public_id": "zaxbys-mableton-2", "id": 601310582, "votes": null, "tagline": null, "has_video": false, "website": "http://www.citysearch.com/profile/external/601310582/mableton_ga/zaxby_s.html", "offers": null, "latitude": 33.830606, "politanName": "Atlanta, GA Metro ", "phone_number": "7709410551", "tags": [{"primary": false, "id": 11247, "name": "Carry Out"}, {"primary": false, "id": 11333, "name": "American Express"}, {"primary": false, "id": 11349, "name": "Discover"}, {"primary": false, "id": 11361, "name": "MasterCard"}, {"primary": false, "id": 11382, "name": "Visa"}, {"primary": false, "id": 12839, "name": "Chicken"}, {"primary": true, "id": 1722, "name": "Restaurants"}], "fax_number": null, "expansion": {"count": null, "uri": null}, "impression_id": "000b000000d6e7d89b94d24c8f80d3b687bc87551d", "profile": "http://www.citysearch.com/profile/601310582/mableton_ga/zaxby_s.html", "address": {"city": "Mableton", "state": "GA", "street": "5090 Floyd Rd Sw", "postal_code": "30126"}, "capProviderId": null, "distance": null, "has_offers": false, "name": "Zaxby's", "longitude": -84.576501, "has_menu": true, "awards": null, "user_review_count": 0}, {"business_operation_status": 1, "rating": null, "neighborhood": null, "image": "http://o1.aolcdn.com/dims-shared/dims3/PATCH/resize/600x450/http://hss-prod.hss.aol.com/hss/storage/patch/d5033c72bbc128c2ffd926737dc6d13d", "scorecard": null, "featured": false, "sample_categories": "Restaurants, Seafood, Carry Out, American Express, Debit Card", "public_id": "captain-ds-seafood-marietta-4", "id": 2873787, "votes": null, "tagline": null, "has_video": false, "website": "http://www.citysearch.com/profile/external/2873787/marietta_ga/captain_d_s_seafood.html", "offers": null, "latitude": 33.881658, "politanName": "Atlanta, GA Metro ", "phone_number": "7707321269", "tags": [{"primary": false, "id": 11228, "name": "Seafood"}, {"primary": false, "id": 11247, "name": "Carry Out"}, {"primary": false, "id": 11333, "name": "American Express"}, {"primary": false, "id": 11347, "name": "Debit Card"}, {"primary": false, "id": 11349, "name": "Discover"}, {"primary": false, "id": 11361, "name": "MasterCard"}, {"primary": false, "id": 11382, "name": "Visa"}, {"primary": true, "id": 1722, "name": "Restaurants"}], "fax_number": null, "expansion": {"count": null, "uri": null}, "impression_id": "000b000000210fcdcecea34c76bf0aa91a4ac9a697", "profile": "http://www.citysearch.com/profile/2873787/marietta_ga/captain_d_s_seafood.html", "address": {"city": "Marietta", "state": "GA", "street": "3856 Austell Rd SW", "postal_code": "30008"}, "capProviderId": null, "distance": null, "has_offers": false, "name": "Captain D's Seafood", "longitude": -84.588389, "has_menu": true, "awards": null, "user_review_count": 0}, {"business_operation_status": 1, "rating": null, "neighborhood": null, "image": "http://o2.aolcdn.com/dims-shared/dims3/PATCH/resize/600x450/http://hss-prod.hss.aol.com/hss/storage/patch/5d5d3a90d7e9fe625c137d62d018af49", "scorecard": null, "featured": false, "sample_categories": "Barbecue Restaurants, Restaurants", "public_id": "williamson-bros-sauce-marietta", "id": 621925020, "votes": null, "tagline": null, "has_video": false, "website": "http://www.citysearch.com/profile/external/621925020/marietta_ga/williamson_bros_sauce.html", "offers": null, "latitude": 33.948472, "politanName": "Atlanta, GA Metro ", "phone_number": "7704999797", "tags": [{"primary": false, "id": 1722, "name": "Restaurants"}, {"primary": true, "id": 1724, "name": "Barbecue Restaurants"}], "fax_number": null, "expansion": {"count": null, "uri": null}, "impression_id": "000b000000c8ac7bb950c04e05adf08bc8c475a115", "profile": "http://www.citysearch.com/profile/621925020/marietta_ga/williamson_bros_sauce.html", "address": {"city": "Marietta", "state": "GA", "street": "136 Dodd St Se", "postal_code": "30060"}, "capProviderId": null, "distance": null, "has_offers": false, "name": "Williamson Bros Sauce", "longitude": -84.524195, "has_menu": false, "awards": null, "user_review_count": 0}, {"business_operation_status": 1, "rating": null, "neighborhood": null, "image": "http://o5.aolcdn.com/dims-shared/dims3/PATCH/resize/600x450/http://hss-prod.hss.aol.com/hss/storage/patch/2f7acbd5fc7a6a76f47d2bfffae0518", "scorecard": null, "featured": false, "sample_categories": "Restaurants", "public_id": "martins-restaurant-mableton-2", "id": 2949731, "votes": null, "tagline": null, "has_video": false, "website": "http://www.citysearch.com/profile/external/2949731/mableton_ga/martin_s_restaurant.html", "offers": null, "latitude": 33.826748, "politanName": "Atlanta, GA Metro ", "phone_number": "7709483922", "tags": [{"primary": true, "id": 1722, "name": "Restaurants"}], "fax_number": null, "expansion": {"count": null, "uri": null}, "impression_id": "000b00000082955e6ce6a24c20bcf496944967fa98", "profile": "http://www.citysearch.com/profile/2949731/mableton_ga/martin_s_restaurant.html", "address": {"city": "Mableton", "state": "GA", "street": "5222 Floyd Rd SW", "postal_code": "30126"}, "capProviderId": null, "distance": null, "has_offers": false, "name": "Martin's Restaurant", "longitude": -84.576221, "has_menu": true, "awards": null, "user_review_count": 0}, {"business_operation_status": 1, "rating": 2.0, "neighborhood": null, "image": "http://o1.aolcdn.com/dims-shared/dims3/PATCH/resize/600x450/http://hss-prod.hss.aol.com/hss/storage/patch/ee9e9a47c5fed9343138174f1d111ba5", "scorecard": null, "featured": false, "sample_categories": "Restaurants, Chinese, American Express, MasterCard, Visa", "public_id": "china-kitchen-marietta", "id": 2910510, "votes": null, "tagline": null, "has_video": false, "website": null, "offers": null, "latitude": 33.939938, "politanName": "Atlanta, GA Metro ", "phone_number": "7704299020", "tags": [{"primary": false, "id": 11252, "name": "Chinese"}, {"primary": false, "id": 11333, "name": "American Express"}, {"primary": false, "id": 11361, "name": "MasterCard"}, {"primary": false, "id": 11382, "name": "Visa"}, {"primary": true, "id": 1722, "name": "Restaurants"}], "fax_number": null, "expansion": {"count": null, "uri": null}, "impression_id": "000b0000007e2dc5ff83a748468c51661f7a6dec4e", "profile": "http://www.citysearch.com/profile/2910510/marietta_ga/china_kitchen.html", "address": {"city": "Marietta", "state": "GA", "street": "470 Franklin Rd SE Ste 102", "postal_code": "30067"}, "capProviderId": null, "distance": null, "has_offers": false, "name": "China Kitchen", "longitude": -84.508824, "has_menu": true, "awards": null, "user_review_count": 2}, {"business_operation_status": 1, "rating": null, "neighborhood": null, "image": "http://o4.aolcdn.com/dims-shared/dims3/PATCH/resize/600x450/http://hss-prod.hss.aol.com/hss/storage/patch/cfb0368e6c06be1c5ce0c25cc6ff020a", "scorecard": null, "featured": false, "sample_categories": "Restaurants, Delis And Delicatessens, Sandwich Shops, Soups, American Express", "public_id": "philly-connection-atlanta-4", "id": 3029511, "votes": null, "tagline": null, "has_video": false, "website": "http://www.citysearch.com/profile/external/3029511/atlanta_ga/philly_connection.html", "offers": null, "latitude": 33.879854, "politanName": "Atlanta, GA Metro ", "phone_number": "7709550086", "tags": [{"primary": false, "id": 1727, "name": "Delis And Delicatessens"}, {"primary": false, "id": 1736, "name": "Sandwich Shops"}, {"primary": false, "id": 11311, "name": "Soups"}, {"primary": false, "id": 11333, "name": "American Express"}, {"primary": false, "id": 11349, "name": "Discover"}, {"primary": false, "id": 11361, "name": "MasterCard"}, {"primary": false, "id": 11382, "name": "Visa"}, {"primary": true, "id": 1722, "name": "Restaurants"}], "fax_number": null, "expansion": {"count": null, "uri": null}, "impression_id": "000b000000bb36fec09fe74037b7d65af499bfc7c8", "profile": "http://www.citysearch.com/profile/3029511/atlanta_ga/philly_connection.html", "address": {"city": "Atlanta", "state": "GA", "street": "2980 Cobb Pkwy Ste 200", "postal_code": "30339"}, "capProviderId": null, "distance": null, "has_offers": false, "name": "Philly Connection", "longitude": -84.461999, "has_menu": true, "awards": null, "user_review_count": 0}, {"business_operation_status": 1, "rating": null, "neighborhood": null, "image": "http://o5.aolcdn.com/dims-shared/dims3/PATCH/resize/600x450/http://hss-prod.hss.aol.com/hss/storage/patch/d9e67ce7e77ee299a6dd4f772674ce67", "scorecard": null, "featured": false, "sample_categories": "Restaurants, Mexican", "public_id": "julias-taqueria-marietta", "id": 45556667, "votes": null, "tagline": null, "has_video": false, "website": null, "offers": null, "latitude": 33.951285, "politanName": "Atlanta, GA Metro ", "phone_number": "7704211598", "tags": [{"primary": false, "id": 11208, "name": "Mexican"}, {"primary": true, "id": 1722, "name": "Restaurants"}], "fax_number": null, "expansion": {"count": null, "uri": null}, "impression_id": "000b0000006e462ffa50b047948be7a1f69a90e9d0", "profile": "http://www.citysearch.com/profile/45556667/marietta_ga/julia_s_taqueria.html", "address": {"city": "Marietta", "state": "GA", "street": "737 Roswell St NE", "postal_code": "30060"}, "capProviderId": null, "distance": null, "has_offers": false, "name": "Julia's Taqueria", "longitude": -84.530697, "has_menu": false, "awards": null, "user_review_count": 0}, {"business_operation_status": 1, "rating": 3.0, "neighborhood": null, "image": null, "scorecard": null, "featured": false, "sample_categories": "Restaurants", "public_id": "loco-willys-marietta", "id": 655809500, "votes": null, "tagline": null, "has_video": false, "website": null, "offers": null, "latitude": 33.952594, "politanName": "Atlanta, GA Metro ", "phone_number": "7704990077", "tags": [{"primary": true, "id": 1722, "name": "Restaurants"}], "fax_number": null, "expansion": {"count": null, "uri": null}, "impression_id": "000b000000c4afa89bd7f54ce8b2cf0bf8f560cae9", "profile": "http://www.citysearch.com/profile/655809500/marietta_ga/loco_willy_s.html", "address": {"city": "Marietta", "state": "GA", "street": "800 Whitlock Ave Nw", "postal_code": "30064"}, "capProviderId": null, "distance": null, "has_offers": false, "name": "Loco Willy's", "longitude": -84.575881, "has_menu": false, "awards": null, "user_review_count": 2}, {"business_operation_status": 1, "rating": 2.0, "neighborhood": null, "image": null, "scorecard": null, "featured": false, "sample_categories": "Restaurants, Asian Fusion, Asian", "public_id": "zyng-marietta", "id": 43857180, "votes": null, "tagline": null, "has_video": false, "website": null, "offers": null, "latitude": 33.952164, "politanName": "Atlanta, GA Metro ", "phone_number": "7704198808", "tags": [{"primary": false, "id": 1722, "name": "Restaurants"}, {"primary": false, "id": 11235, "name": "Asian"}, {"primary": true, "id": 12838, "name": "Asian Fusion"}], "fax_number": null, "expansion": {"count": null, "uri": null}, "impression_id": "000b000000cab29a3bc5c643988790abb8cd722e5c", "profile": "http://www.citysearch.com/profile/43857180/marietta_ga/zyng.html", "address": {"city": "Marietta", "state": "GA", "street": "3625 Dallas Hwy SW Ste 690", "postal_code": "30064"}, "capProviderId": null, "distance": null, "has_offers": false, "name": "Zyng", "longitude": -84.657799, "has_menu": false, "awards": null, "user_review_count": 2}, {"business_operation_status": 0, "rating": 2.0, "neighborhood": null, "image": "http://o5.aolcdn.com/dims-shared/dims3/PATCH/resize/600x450/http://hss-prod.hss.aol.com/hss/storage/patch/b11e4de092f7716a4a31448533d2462a", "scorecard": null, "featured": false, "sample_categories": "Restaurants, Barbecue Restaurants", "public_id": "old-ephraims-restaurant-marietta", "id": 621888180, "votes": null, "tagline": null, "has_video": false, "website": "http://www.citysearch.com/profile/external/621888180/marietta_ga/old_ephraims_restaurant.html", "offers": null, "latitude": 33.952302, "politanName": "Atlanta, GA Metro ", "phone_number": "7704250073", "tags": [{"primary": false, "id": 1724, "name": "Barbecue Restaurants"}, {"primary": true, "id": 1722, "name": "Restaurants"}], "fax_number": null, "expansion": {"count": null, "uri": null}, "impression_id": "000b0000007e82457f179d4ff59d35151198a0600b", "profile": "http://www.citysearch.com/profile/621888180/marietta_ga/old_ephraims_restaurant.html", "address": {"city": "Marietta", "state": "GA", "street": "70 S Park Sq Ne", "postal_code": "30060"}, "capProviderId": null, "distance": null, "has_offers": false, "name": "Old Ephraims Restaurant", "longitude": -84.549841, "has_menu": false, "awards": null, "user_review_count": 1}, {"business_operation_status": 1, "rating": null, "neighborhood": null, "image": "http://o4.aolcdn.com/dims-shared/dims3/PATCH/resize/600x450/http://hss-prod.hss.aol.com/hss/storage/patch/9aa1779e8e0b913f4367e768b7ecfced", "scorecard": null, "featured": false, "sample_categories": "Restaurants", "public_id": "cafe-copper-top-atlanta", "id": 601369895, "votes": null, "tagline": null, "has_video": false, "website": "http://www.citysearch.com/profile/external/601369895/atlanta_ga/cafe_copper_top.html", "offers": null, "latitude": 33.877346, "politanName": "Atlanta, GA Metro ", "phone_number": "7709555076", "tags": [{"primary": true, "id": 1722, "name": "Restaurants"}], "fax_number": null, "expansion": {"count": null, "uri": null}, "impression_id": "000b000000ccd72b39d9394d57896eae186edf6c83", "profile": "http://www.citysearch.com/profile/601369895/atlanta_ga/cafe_copper_top.html", "address": {"city": "Atlanta", "state": "GA", "street": "3100 Cumberland Blvd Se # 180", "postal_code": "30339"}, "capProviderId": null, "distance": null, "has_offers": false, "name": "Cafe Copper Top", "longitude": -84.465229, "has_menu": false, "awards": null, "user_review_count": 0}, {"business_operation_status": 1, "rating": null, "neighborhood": null, "image": "http://o5.aolcdn.com/dims-shared/dims3/PATCH/resize/600x450/http://hss-prod.hss.aol.com/hss/storage/patch/2d29d59abce2a7f4ce3700dca5556aef", "scorecard": null, "featured": false, "sample_categories": "Restaurants, Carry Out, Hamburgers", "public_id": "wendys-atlanta-29", "id": 713357300, "votes": null, "tagline": null, "has_video": false, "website": "http://www.citysearch.com/profile/external/713357300/atlanta_ga/wendy_s.html", "offers": null, "latitude": 33.885111, "politanName": "Atlanta, GA Metro ", "phone_number": "7709524553", "tags": [{"primary": false, "id": 11247, "name": "Carry Out"}, {"primary": false, "id": 11270, "name": "Hamburgers"}, {"primary": true, "id": 1722, "name": "Restaurants"}], "fax_number": null, "expansion": {"count": null, "uri": null}, "impression_id": "000b000000dd44a86ad0a046f9b72dfc668c97c8dd", "profile": "http://www.citysearch.com/profile/713357300/atlanta_ga/wendy_s.html", "address": {"city": "Atlanta", "state": "GA", "street": "2808 Spring Rd Se", "postal_code": "30339"}, "capProviderId": null, "distance": null, "has_offers": false, "name": "Wendy's", "longitude": -84.472637, "has_menu": true, "awards": null, "user_review_count": 0}, {"business_operation_status": 1, "rating": null, "neighborhood": null, "image": "http://o1.aolcdn.com/dims-shared/dims3/PATCH/resize/600x450/http://hss-prod.hss.aol.com/hss/storage/patch/8f06130d7a0d260a45b4f9ad6073d686", "scorecard": null, "featured": false, "sample_categories": "Restaurants, Mexican", "public_id": "el-tejanito-mexican-grill-marietta-2", "id": 682513710, "votes": null, "tagline": null, "has_video": false, "website": null, "offers": null, "latitude": 33.908921, "politanName": "Atlanta, GA Metro ", "phone_number": "7704360303", "tags": [{"primary": false, "id": 11208, "name": "Mexican"}, {"primary": true, "id": 1722, "name": "Restaurants"}], "fax_number": null, "expansion": {"count": null, "uri": null}, "impression_id": "000b000000bc89bbe9143448ed84b6132f5e54ca03", "profile": "http://www.citysearch.com/profile/682513710/marietta_ga/el_tejanito_mexican_grill.html", "address": {"city": "Marietta", "state": "GA", "street": "1815 S Cobb Dr Se # 107", "postal_code": "30060"}, "capProviderId": null, "distance": null, "has_offers": false, "name": "El Tejanito Mexican Grill", "longitude": -84.544065, "has_menu": false, "awards": null, "user_review_count": 0}, {"business_operation_status": 1, "rating": null, "neighborhood": null, "image": "http://o3.aolcdn.com/dims-shared/dims3/PATCH/resize/600x450/http://hss-prod.hss.aol.com/hss/storage/patch/fe2a44167f2e42b6bd5515f1b6809720", "scorecard": null, "featured": false, "sample_categories": "Restaurants, American Express, Discover, MasterCard, Visa", "public_id": "martins-restaurant-marietta", "id": 2906492, "votes": null, "tagline": null, "has_video": false, "website": "http://www.citysearch.com/profile/external/2906492/marietta_ga/martin_s_restaurant.html", "offers": null, "latitude": 33.922948, "politanName": "Atlanta, GA Metro ", "phone_number": "7704251495", "tags": [{"primary": false, "id": 11333, "name": "American Express"}, {"primary": false, "id": 11349, "name": "Discover"}, {"primary": false, "id": 11361, "name": "MasterCard"}, {"primary": false, "id": 11382, "name": "Visa"}, {"primary": true, "id": 1722, "name": "Restaurants"}], "fax_number": null, "expansion": {"count": null, "uri": null}, "impression_id": "000b0000007f16731979fc4bc68a9865e5f6f41b4d", "profile": "http://www.citysearch.com/profile/2906492/marietta_ga/martin_s_restaurant.html", "address": {"city": "Marietta", "state": "GA", "street": "1215 Powder Springs Rd SW", "postal_code": "30064"}, "capProviderId": null, "distance": null, "has_offers": false, "name": "Martin's Restaurant", "longitude": -84.576821, "has_menu": false, "awards": null, "user_review_count": 0}, {"business_operation_status": 1, "rating": null, "neighborhood": null, "image": "http://o1.aolcdn.com/dims-shared/dims3/PATCH/resize/600x450/http://hss-prod.hss.aol.com/hss/storage/patch/b62dbd58c78d53df00b78f731a10bc88", "scorecard": null, "featured": false, "sample_categories": "Bakeries, Restaurants, Gift Baskets", "public_id": "cornerstone-cake-co-marietta", "id": 3027938, "votes": null, "tagline": null, "has_video": false, "website": "http://www.citysearch.com/profile/external/3027938/marietta_ga/cornerstone_cake_co.html", "offers": null, "latitude": 33.944038, "politanName": "Atlanta, GA Metro ", "phone_number": "7702182549", "tags": [{"primary": false, "id": 1722, "name": "Restaurants"}, {"primary": false, "id": 12321, "name": "Gift Baskets"}, {"primary": true, "id": 1685, "name": "Bakeries"}], "fax_number": null, "expansion": {"count": null, "uri": null}, "impression_id": "000b000000a87d51bfa26d4a6094bc0f5d864fbf56", "profile": "http://www.citysearch.com/profile/3027938/marietta_ga/cornerstone_cake_co.html", "address": {"city": "Marietta", "state": "GA", "street": "330 Franklin Rd SE Ste A", "postal_code": "30067"}, "capProviderId": null, "distance": null, "has_offers": false, "name": "Cornerstone Cake Co", "longitude": -84.512153, "has_menu": false, "awards": null, "user_review_count": 0}, {"business_operation_status": 1, "rating": null, "neighborhood": null, "image": "http://o3.aolcdn.com/dims-shared/dims3/PATCH/resize/600x450/http://hss-prod.hss.aol.com/hss/storage/patch/fa1b7cb3007490d3bb7a7d1bb26641da", "scorecard": null, "featured": false, "sample_categories": "Restaurants, Pizza, Carry Out", "public_id": "little-caesars-pizza-marietta-11", "id": 631963010, "votes": null, "tagline": null, "has_video": false, "website": "http://www.citysearch.com/profile/external/631963010/marietta_ga/little_caesars_pizza.html", "offers": null, "latitude": 33.969856, "politanName": "Atlanta, GA Metro ", "phone_number": "7709715210", "tags": [{"primary": false, "id": 1722, "name": "Restaurants"}, {"primary": false, "id": 11247, "name": "Carry Out"}, {"primary": true, "id": 11299, "name": "Pizza"}], "fax_number": null, "expansion": {"count": null, "uri": null}, "impression_id": "000b0000005083fa71b73b45e39f2a0e97e3eb0560", "profile": "http://www.citysearch.com/profile/631963010/marietta_ga/little_caesars_pizza.html", "address": {"city": "Marietta", "state": "GA", "street": "2200 Roswell Rd", "postal_code": "30062"}, "capProviderId": null, "distance": null, "has_offers": false, "name": "Little Caesars Pizza", "longitude": -84.488427, "has_menu": true, "awards": null, "user_review_count": 0}, {"business_operation_status": 1, "rating": null, "neighborhood": null, "image": "http://o4.aolcdn.com/dims-shared/dims3/PATCH/resize/600x450/http://hss-prod.hss.aol.com/hss/storage/patch/59965abfd4cee0fa0c71359666725948", "scorecard": null, "featured": false, "sample_categories": "Restaurants", "public_id": "big-apple-cafe-atlanta", "id": 622093000, "votes": null, "tagline": null, "has_video": false, "website": null, "offers": null, "latitude": 33.877927, "politanName": "Atlanta, GA Metro ", "phone_number": "7709842234", "tags": [{"primary": true, "id": 1722, "name": "Restaurants"}], "fax_number": null, "expansion": {"count": null, "uri": null}, "impression_id": "000b000000f3cefd3e911f40f0ada3f3ea2657a369", "profile": "http://www.citysearch.com/profile/622093000/atlanta_ga/big_apple_cafe.html", "address": {"city": "Atlanta", "state": "GA", "street": "3350 Riverwood Pkwy Se # Gl30", "postal_code": "30339"}, "capProviderId": null, "distance": null, "has_offers": false, "name": "Big Apple Cafe", "longitude": -84.458245, "has_menu": false, "awards": null, "user_review_count": 1}, {"business_operation_status": 1, "rating": null, "neighborhood": null, "image": "http://o3.aolcdn.com/dims-shared/dims3/PATCH/resize/600x450/http://hss-prod.hss.aol.com/hss/storage/patch/d1a60a7c653912b4ea1a438560d0bb88", "scorecard": null, "featured": false, "sample_categories": "Restaurants, Ice Cream Parlors, Mexican", "public_id": "don-chilitos-marietta", "id": 766774450, "votes": null, "tagline": null, "has_video": false, "website": null, "offers": null, "latitude": 33.90796, "politanName": "Atlanta, GA Metro ", "phone_number": "7709531006", "tags": [{"primary": false, "id": 1730, "name": "Ice Cream Parlors"}, {"primary": false, "id": 11208, "name": "Mexican"}, {"primary": true, "id": 1722, "name": "Restaurants"}], "fax_number": null, "expansion": {"count": null, "uri": null}, "impression_id": "000b0000000cbc5ab77e0a4c45af615b12c810faad", "profile": "http://www.citysearch.com/profile/766774450/marietta_ga/don_chilito_s.html", "address": {"city": "Marietta", "state": "GA", "street": "1853 Terrell Mill Rd SE", "postal_code": "30067"}, "capProviderId": null, "distance": null, "has_offers": false, "name": "Don Chilito's", "longitude": -84.48792, "has_menu": false, "awards": null, "user_review_count": 0}, {"business_operation_status": 1, "rating": 8.0, "neighborhood": null, "image": "http://o1.aolcdn.com/dims-shared/dims3/PATCH/resize/600x450/http://hss-prod.hss.aol.com/hss/storage/patch/693d89665e0cb37a0d8cbb121229dbcc", "scorecard": null, "featured": false, "sample_categories": "Restaurants, Chinese, American Express, MasterCard, Visa", "public_id": "china-house-marietta", "id": 2905981, "votes": null, "tagline": null, "has_video": false, "website": null, "offers": null, "latitude": 33.976739, "politanName": "Atlanta, GA Metro ", "phone_number": "7705796623", "tags": [{"primary": false, "id": 11252, "name": "Chinese"}, {"primary": false, "id": 11333, "name": "American Express"}, {"primary": false, "id": 11361, "name": "MasterCard"}, {"primary": false, "id": 11382, "name": "Visa"}, {"primary": true, "id": 1722, "name": "Restaurants"}], "fax_number": null, "expansion": {"count": null, "uri": null}, "impression_id": "000b0000002ee8b39c19dd447689d74eb0cf136cb1", "profile": "http://www.citysearch.com/profile/2905981/marietta_ga/china_house.html", "address": {"city": "Marietta", "state": "GA", "street": "1050 E Piedmont Rd Ste V", "postal_code": "30062"}, "capProviderId": null, "distance": null, "has_offers": false, "name": "China House", "longitude": -84.479676, "has_menu": true, "awards": null, "user_review_count": 1}, {"business_operation_status": 1, "rating": null, "neighborhood": null, "image": "http://o4.aolcdn.com/dims-shared/dims3/PATCH/resize/600x450/http://hss-prod.hss.aol.com/hss/storage/patch/b2676596f503ea296032be9f70558b31", "scorecard": null, "featured": false, "sample_categories": "Restaurants, Delis And Delicatessens, Sandwich Shops", "public_id": "le-place-sandwich-shop-atlanta", "id": 37653135, "votes": null, "tagline": null, "has_video": false, "website": null, "offers": null, "latitude": 33.877631, "politanName": "Atlanta, GA Metro ", "phone_number": "7702269660", "tags": [{"primary": false, "id": 1727, "name": "Delis And Delicatessens"}, {"primary": false, "id": 1736, "name": "Sandwich Shops"}, {"primary": true, "id": 1722, "name": "Restaurants"}], "fax_number": null, "expansion": {"count": null, "uri": null}, "impression_id": "000b0000008d8bcd1f47f8445eb464760676f62d32", "profile": "http://www.citysearch.com/profile/37653135/atlanta_ga/le_place_sandwich_shop.html", "address": {"city": "Atlanta", "state": "GA", "street": "3225 Cumberland Blvd SE", "postal_code": "30339"}, "capProviderId": null, "distance": null, "has_offers": false, "name": "Le Place Sandwich Shop", "longitude": -84.461174, "has_menu": false, "awards": null, "user_review_count": 0}, {"business_operation_status": 1, "rating": null, "neighborhood": null, "image": "http://o3.aolcdn.com/dims-shared/dims3/PATCH/resize/600x450/http://hss-prod.hss.aol.com/hss/storage/patch/896e4cbc0fff3f60b2b1e989a2a6dade", "scorecard": null, "featured": false, "sample_categories": "Restaurants, Bars & Clubs, Bars & Pubs", "public_id": "texano-bar-grill-marietta", "id": 732177110, "votes": null, "tagline": null, "has_video": false, "website": null, "offers": null, "latitude": 33.928458, "politanName": "Atlanta, GA Metro ", "phone_number": "7709525139", "tags": [{"primary": false, "id": 164, "name": "Bars & Clubs"}, {"primary": false, "id": 1686, "name": "Bars & Pubs"}, {"primary": true, "id": 1722, "name": "Restaurants"}], "fax_number": null, "expansion": {"count": null, "uri": null}, "impression_id": "000b000000ec8289c0d0564d0e9b1f0662e1ee3535", "profile": "http://www.citysearch.com/profile/732177110/marietta_ga/texano_bar_grill.html", "address": {"city": "Marietta", "state": "GA", "street": "1033 Franklin Rd SE # 13", "postal_code": "30067"}, "capProviderId": null, "distance": null, "has_offers": false, "name": "Texano Bar & Grill", "longitude": -84.492995, "has_menu": false, "awards": null, "user_review_count": 0}, {"business_operation_status": 1, "rating": null, "neighborhood": null, "image": "http://o2.aolcdn.com/dims-shared/dims3/PATCH/resize/600x450/http://hss-prod.hss.aol.com/hss/storage/patch/e802bd295b1d47e92acb88ec4495bf9c", "scorecard": null, "featured": false, "sample_categories": "Restaurants, Mexican", "public_id": "taqueria-mi-pueblito-marietta", "id": 43854124, "votes": null, "tagline": null, "has_video": false, "website": null, "offers": null, "latitude": 33.928458, "politanName": "Atlanta, GA Metro ", "phone_number": "7709551133", "tags": [{"primary": false, "id": 11208, "name": "Mexican"}, {"primary": true, "id": 1722, "name": "Restaurants"}], "fax_number": null, "expansion": {"count": null, "uri": null}, "impression_id": "000b000000338500f7368e45c6bb9acf4edddb98da", "profile": "http://www.citysearch.com/profile/43854124/marietta_ga/taqueria_mi_pueblito.html", "address": {"city": "Marietta", "state": "GA", "street": "1033 Franklin Rd SE", "postal_code": "30067"}, "capProviderId": null, "distance": null, "has_offers": false, "name": "Taqueria Mi Pueblito", "longitude": -84.492995, "has_menu": false, "awards": null, "user_review_count": 0}, {"business_operation_status": 1, "rating": null, "neighborhood": null, "image": "http://o1.aolcdn.com/dims-shared/dims3/PATCH/resize/600x450/http://hss-prod.hss.aol.com/hss/storage/patch/ee2b876ec9e2cca965dc0c2fb8dbcb46", "scorecard": null, "featured": false, "sample_categories": "Restaurants, Grill Restaurants, Seafood", "public_id": "seafood-flavors-grill-mableton", "id": 632036490, "votes": null, "tagline": null, "has_video": false, "website": null, "offers": null, "latitude": 33.812658, "politanName": "Atlanta, GA Metro ", "phone_number": "7707450070", "tags": [{"primary": false, "id": 6191, "name": "Grill Restaurants"}, {"primary": false, "id": 11228, "name": "Seafood"}, {"primary": true, "id": 1722, "name": "Restaurants"}], "fax_number": null, "expansion": {"count": null, "uri": null}, "impression_id": "000b0000008d3b879aa6664c02ac947fd5388da46b", "profile": "http://www.citysearch.com/profile/632036490/mableton_ga/seafood_flavors_grill.html", "address": {"city": "Mableton", "state": "GA", "street": "185 Veterans Memorial Hwy Sw", "postal_code": "30126"}, "capProviderId": null, "distance": null, "has_offers": false, "name": "Seafood Flavors Grill", "longitude": -84.560882, "has_menu": false, "awards": null, "user_review_count": 0}, {"business_operation_status": 1, "rating": null, "neighborhood": null, "image": "http://o3.aolcdn.com/dims-shared/dims3/PATCH/resize/600x450/http://hss-prod.hss.aol.com/hss/storage/patch/8bb21d05c1106fe5dc3169590c967350", "scorecard": null, "featured": false, "sample_categories": "Restaurants, Traditional American, MasterCard, Visa", "public_id": "huddle-house-marietta", "id": 2900953, "votes": null, "tagline": null, "has_video": false, "website": "http://www.citysearch.com/profile/external/2900953/marietta_ga/huddle_house.html", "offers": null, "latitude": 33.943063, "politanName": "Atlanta, GA Metro ", "phone_number": "7704243784", "tags": [{"primary": false, "id": 11190, "name": "Traditional American"}, {"primary": false, "id": 11361, "name": "MasterCard"}, {"primary": false, "id": 11382, "name": "Visa"}, {"primary": true, "id": 1722, "name": "Restaurants"}], "fax_number": null, "expansion": {"count": null, "uri": null}, "impression_id": "000b000000d4d2e5f1c8ed42a3b466a0a7dbe91af9", "profile": "http://www.citysearch.com/profile/2900953/marietta_ga/huddle_house.html", "address": {"city": "Marietta", "state": "GA", "street": "430 S Marietta Pkwy SE", "postal_code": "30060"}, "capProviderId": null, "distance": null, "has_offers": false, "name": "Huddle House", "longitude": -84.540341, "has_menu": true, "awards": null, "user_review_count": 0}, {"business_operation_status": 1, "rating": null, "neighborhood": null, "image": "http://o1.aolcdn.com/dims-shared/dims3/PATCH/resize/600x450/http://hss-prod.hss.aol.com/hss/storage/patch/4088e61d27b4a6ee2cea17477d976ede", "scorecard": null, "featured": false, "sample_categories": "Restaurants, Mexican", "public_id": "taco-loco-marietta-2", "id": 621933330, "votes": null, "tagline": null, "has_video": false, "website": null, "offers": null, "latitude": 33.938267, "politanName": "Atlanta, GA Metro ", "phone_number": "6784025838", "tags": [{"primary": false, "id": 11208, "name": "Mexican"}, {"primary": true, "id": 1722, "name": "Restaurants"}], "fax_number": null, "expansion": {"count": null, "uri": null}, "impression_id": "000b000000d2511f88cc864f078224b91ad7c29f57", "profile": "http://www.citysearch.com/profile/621933330/marietta_ga/taco_loco.html", "address": {"city": "Marietta", "state": "GA", "street": "601 Powder Springs St", "postal_code": "30064"}, "capProviderId": null, "distance": null, "has_offers": false, "name": "Taco Loco", "longitude": -84.553758, "has_menu": true, "awards": null, "user_review_count": 1}, {"business_operation_status": 0, "rating": null, "neighborhood": null, "image": "http://o3.aolcdn.com/dims-shared/dims3/PATCH/resize/600x450/http://hss-prod.hss.aol.com/hss/storage/patch/3cdbdfffc62c030f1857f026d82f0bc9", "scorecard": null, "featured": false, "sample_categories": "Ice Cream Parlors", "public_id": "southern-ice-cream-specialties-marietta", "id": 632998180, "votes": null, "tagline": null, "has_video": false, "website": "http://www.citysearch.com/profile/external/632998180/marietta_ga/southern_ice_cream_specialties.html", "offers": null, "latitude": 33.978127, "politanName": "Atlanta, GA Metro ", "phone_number": "7704190209", "tags": [{"primary": true, "id": 1730, "name": "Ice Cream Parlors"}], "fax_number": null, "expansion": {"count": null, "uri": null}, "impression_id": "000b000000f8a9d5a5049e40bbba8c82be22470058", "profile": "http://www.citysearch.com/profile/632998180/marietta_ga/southern_ice_cream_specialties.html", "address": {"city": "Marietta", "state": "GA", "street": "1095 Marietta Industrial Dr", "postal_code": "30062"}, "capProviderId": null, "distance": null, "has_offers": false, "name": "Southern Ice Cream Specialties", "longitude": -84.538728, "has_menu": false, "awards": null, "user_review_count": 0}, {"business_operation_status": 1, "rating": null, "neighborhood": null, "image": "http://o4.aolcdn.com/dims-shared/dims3/PATCH/resize/600x450/http://hss-prod.hss.aol.com/hss/storage/patch/f020e7c3f214aed1cac877fd4b1f798f", "scorecard": null, "featured": false, "sample_categories": "Restaurants", "public_id": "stevi-bs-pizza-marietta-2", "id": 672604550, "votes": null, "tagline": null, "has_video": false, "website": "http://www.citysearch.com/profile/external/672604550/marietta_ga/stevi_b_s_pizza.html", "offers": null, "latitude": 33.908275, "politanName": "Atlanta, GA Metro ", "phone_number": "6783840052", "tags": [{"primary": true, "id": 1722, "name": "Restaurants"}], "fax_number": null, "expansion": {"count": null, "uri": null}, "impression_id": "000b000000e290f79782b349f3a352a126e4614dca", "profile": "http://www.citysearch.com/profile/672604550/marietta_ga/stevi_b_s_pizza.html", "address": {"city": "Marietta", "state": "GA", "street": "2667 Powder Springs Road", "postal_code": "30064"}, "capProviderId": null, "distance": null, "has_offers": false, "name": "Stevi B's Pizza", "longitude": -84.600952, "has_menu": false, "awards": null, "user_review_count": 0}, {"business_operation_status": 1, "rating": null, "neighborhood": null, "image": "http://o2.aolcdn.com/dims-shared/dims3/PATCH/resize/600x450/http://hss-prod.hss.aol.com/hss/storage/patch/2cf0415ec8433e2ce05f200b003cd177", "scorecard": null, "featured": false, "sample_categories": "Restaurants, Vanities, American Express, Discover, MasterCard", "public_id": "m-j-home-cooking-marietta", "id": 43853558, "votes": null, "tagline": null, "has_video": false, "website": null, "offers": null, "latitude": 33.903742, "politanName": "Atlanta, GA Metro ", "phone_number": "7709199259", "tags": [{"primary": false, "id": 26280, "name": "Vanities"}, {"primary": false, "id": 11333, "name": "American Express"}, {"primary": false, "id": 11349, "name": "Discover"}, {"primary": false, "id": 11361, "name": "MasterCard"}, {"primary": false, "id": 11382, "name": "Visa"}, {"primary": true, "id": 1722, "name": "Restaurants"}], "fax_number": null, "expansion": {"count": null, "uri": null}, "impression_id": "000b000000eb8ca1e7634f494fa9792bcd3da807eb", "profile": "http://www.citysearch.com/profile/43853558/marietta_ga/m_j_home_cooking.html", "address": {"city": "Marietta", "state": "GA", "street": "1750 Powder Springs Rd SW # 320", "postal_code": "30064"}, "capProviderId": null, "distance": null, "has_offers": false, "name": "M & J Home Cooking", "longitude": -84.606517, "has_menu": false, "awards": null, "user_review_count": 0}, {"business_operation_status": 1, "rating": null, "neighborhood": null, "image": "http://o2.aolcdn.com/dims-shared/dims3/PATCH/resize/600x450/http://hss-prod.hss.aol.com/hss/storage/patch/e1e44a52395d41109854f9462768ce85", "scorecard": null, "featured": false, "sample_categories": "Restaurants, Barbecue Restaurants, American Express, Discover, MasterCard", "public_id": "wings-bbq-smyrna-2", "id": 45555728, "votes": null, "tagline": null, "has_video": false, "website": "http://www.citysearch.com/profile/external/45555728/smyrna_ga/wings_bbq.html", "offers": null, "latitude": 33.895716, "politanName": "Atlanta, GA Metro ", "phone_number": "7709888283", "tags": [{"primary": false, "id": 1724, "name": "Barbecue Restaurants"}, {"primary": false, "id": 11333, "name": "American Express"}, {"primary": false, "id": 11349, "name": "Discover"}, {"primary": false, "id": 11361, "name": "MasterCard"}, {"primary": false, "id": 11382, "name": "Visa"}, {"primary": true, "id": 1722, "name": "Restaurants"}], "fax_number": null, "expansion": {"count": null, "uri": null}, "impression_id": "000b0000009c1d97c73d4f49cbaf74da7bd0dbe6c3", "profile": "http://www.citysearch.com/profile/45555728/smyrna_ga/wings_bbq.html", "address": {"city": "Smyrna", "state": "GA", "street": "2331 Cobb Pkwy SE", "postal_code": "30080"}, "capProviderId": null, "distance": null, "has_offers": false, "name": "Wings & Bbq", "longitude": -84.480732, "has_menu": true, "awards": null, "user_review_count": 2}, {"business_operation_status": 1, "rating": null, "neighborhood": null, "image": "http://o1.aolcdn.com/dims-shared/dims3/PATCH/resize/600x450/http://hss-prod.hss.aol.com/hss/storage/patch/e17b563d08d4be37d47d513039c65efb", "scorecard": null, "featured": false, "sample_categories": "Restaurants, Catering, Fast Food, Carry Out, American Express", "public_id": "chickfila-atlanta-10", "id": 601369427, "votes": null, "tagline": null, "has_video": false, "website": "http://www.citysearch.com/profile/external/601369427/atlanta_ga/chick_fil_a.html", "offers": null, "latitude": 33.863985, "politanName": "Atlanta, GA Metro ", "phone_number": "7704449376", "tags": [{"primary": false, "id": 1705, "name": "Catering"}, {"primary": false, "id": 11199, "name": "Fast Food"}, {"primary": false, "id": 11247, "name": "Carry Out"}, {"primary": false, "id": 11333, "name": "American Express"}, {"primary": false, "id": 11349, "name": "Discover"}, {"primary": false, "id": 11361, "name": "MasterCard"}, {"primary": false, "id": 11382, "name": "Visa"}, {"primary": false, "id": 12839, "name": "Chicken"}, {"primary": true, "id": 1722, "name": "Restaurants"}], "fax_number": null, "expansion": {"count": null, "uri": null}, "impression_id": "000b0000009d701b8da40d477898a59d93c31af951", "profile": "http://www.citysearch.com/profile/601369427/atlanta_ga/chick_fil_a.html", "address": {"city": "Atlanta", "state": "GA", "street": "2485 Cumberland Pkwy SE", "postal_code": "30339"}, "capProviderId": null, "distance": null, "has_offers": false, "name": "Chick-fil-A", "longitude": -84.477504, "has_menu": true, "awards": null, "user_review_count": 1}, {"business_operation_status": 1, "rating": null, "neighborhood": null, "image": "http://o4.aolcdn.com/dims-shared/dims3/PATCH/resize/600x450/http://hss-prod.hss.aol.com/hss/storage/patch/9fce2cc8503d44ca8754319369fa6ff8", "scorecard": null, "featured": false, "sample_categories": "Restaurants, Diners, Traditional American, Carry Out", "public_id": "waffle-house-marietta-2", "id": 601298083, "votes": null, "tagline": null, "has_video": false, "website": "http://www.citysearch.com/profile/external/601298083/marietta_ga/waffle_house.html", "offers": null, "latitude": 33.951934, "politanName": "Atlanta, GA Metro ", "phone_number": "6783547741", "tags": [{"primary": false, "id": 1732, "name": "Diners"}, {"primary": false, "id": 11190, "name": "Traditional American"}, {"primary": false, "id": 11247, "name": "Carry Out"}, {"primary": true, "id": 1722, "name": "Restaurants"}], "fax_number": null, "expansion": {"count": null, "uri": null}, "impression_id": "000b00000040d6d45237c54cfaa39da02f349d1175", "profile": "http://www.citysearch.com/profile/601298083/marietta_ga/waffle_house.html", "address": {"city": "Marietta", "state": "GA", "street": "650 Whitlock Ave Nw", "postal_code": "30064"}, "capProviderId": null, "distance": null, "has_offers": false, "name": "Waffle House", "longitude": -84.571232, "has_menu": true, "awards": null, "user_review_count": 1}, {"business_operation_status": 1, "rating": null, "neighborhood": null, "image": "http://o1.aolcdn.com/dims-shared/dims3/PATCH/resize/600x450/http://hss-prod.hss.aol.com/hss/storage/patch/fc1bc0900a5627de873b27d8d7d89e56", "scorecard": null, "featured": false, "sample_categories": "Restaurants, Mexican, American Express, Debit Card, Discover", "public_id": "la-paz-restaurants-catering-atlanta", "id": 622347650, "votes": null, "tagline": null, "has_video": false, "website": "http://www.citysearch.com/profile/external/622347650/atlanta_ga/la_paz_mexican_restaurant_and_cantina.html", "offers": null, "latitude": 33.865206, "politanName": "Atlanta, GA Metro ", "phone_number": "7708010020", "tags": [{"primary": false, "id": 11208, "name": "Mexican"}, {"primary": false, "id": 11333, "name": "American Express"}, {"primary": false, "id": 11347, "name": "Debit Card"}, {"primary": false, "id": 11349, "name": "Discover"}, {"primary": false, "id": 11361, "name": "MasterCard"}, {"primary": false, "id": 11382, "name": "Visa"}, {"primary": true, "id": 1722, "name": "Restaurants"}], "fax_number": null, "expansion": {"count": null, "uri": null}, "impression_id": "000b00000090a760eed06b4d3cb357762774ad7cdc", "profile": "http://www.citysearch.com/profile/622347650/atlanta_ga/la_paz_mexican_restaurant_and_cantina.html", "address": {"city": "Atlanta", "state": "GA", "street": "2950 New Paces Ferry Rd SE A", "postal_code": "30339"}, "capProviderId": null, "distance": null, "has_offers": false, "name": "La Paz Mexican Restaurant and Cantina", "longitude": -84.467465, "has_menu": true, "awards": null, "user_review_count": 7}, {"business_operation_status": 1, "rating": null, "neighborhood": null, "image": "http://o5.aolcdn.com/dims-shared/dims3/PATCH/resize/600x450/http://hss-prod.hss.aol.com/hss/storage/patch/44f94ae2dc3ec59a6d20bddf5c387248", "scorecard": null, "featured": false, "sample_categories": "Restaurants, Mexican", "public_id": "tortilla-el-maisal-marietta", "id": 45988475, "votes": null, "tagline": null, "has_video": false, "website": null, "offers": null, "latitude": 33.978487, "politanName": "Atlanta, GA Metro ", "phone_number": "7704190546", "tags": [{"primary": false, "id": 11208, "name": "Mexican"}, {"primary": true, "id": 1722, "name": "Restaurants"}], "fax_number": null, "expansion": {"count": null, "uri": null}, "impression_id": "000b000000e7d335789b99492f86e904987e476a91", "profile": "http://www.citysearch.com/profile/45988475/marietta_ga/tortilla_el_maisal.html", "address": {"city": "Marietta", "state": "GA", "street": "1092 Marietta Industrial Dr", "postal_code": "30062"}, "capProviderId": null, "distance": null, "has_offers": false, "name": "Tortilla El Maisal", "longitude": -84.538597, "has_menu": false, "awards": null, "user_review_count": 0}, {"business_operation_status": 1, "rating": null, "neighborhood": null, "image": "http://o3.aolcdn.com/dims-shared/dims3/PATCH/resize/600x450/http://hss-prod.hss.aol.com/hss/storage/patch/2ce9ceefabf6ad41ebd346a50e0eaf1e", "scorecard": null, "featured": false, "sample_categories": "Restaurants", "public_id": "starlight-cafe-marietta", "id": 672361670, "votes": null, "tagline": null, "has_video": false, "website": null, "offers": null, "latitude": 33.952296, "politanName": "Atlanta, GA Metro ", "phone_number": "7704194668", "tags": [{"primary": true, "id": 1722, "name": "Restaurants"}], "fax_number": null, "expansion": {"count": null, "uri": null}, "impression_id": "000b0000006d8355b5cb86441395f692ab88d75c1a", "profile": "http://www.citysearch.com/profile/672361670/marietta_ga/starlight_cafe.html", "address": {"city": "Marietta", "state": "GA", "street": "166 Roswell Street", "postal_code": "30060"}, "capProviderId": null, "distance": null, "has_offers": false, "name": "Starlight Cafe", "longitude": -84.548467, "has_menu": false, "awards": null, "user_review_count": 0}, {"business_operation_status": 1, "rating": null, "neighborhood": null, "image": "http://o2.aolcdn.com/dims-shared/dims3/PATCH/resize/600x450/http://hss-prod.hss.aol.com/hss/storage/patch/c50aa460df688e8c7b4dfdbfb3c55554", "scorecard": null, "featured": false, "sample_categories": "Restaurants, Carry Out, Hamburgers, American Express, Discover", "public_id": "fatburger-marietta-2", "id": 601299076, "votes": null, "tagline": null, "has_video": false, "website": "http://www.citysearch.com/profile/external/601299076/marietta_ga/fatburger.html", "offers": null, "latitude": 33.900638, "politanName": "Atlanta, GA Metro ", "phone_number": "6784535100", "tags": [{"primary": false, "id": 11247, "name": "Carry Out"}, {"primary": false, "id": 11270, "name": "Hamburgers"}, {"primary": false, "id": 11333, "name": "American Express"}, {"primary": false, "id": 11349, "name": "Discover"}, {"primary": false, "id": 11361, "name": "MasterCard"}, {"primary": false, "id": 11382, "name": "Visa"}, {"primary": true, "id": 1722, "name": "Restaurants"}], "fax_number": null, "expansion": {"count": null, "uri": null}, "impression_id": "000b000000316c459ff754423eb9085f9338f6296a", "profile": "http://www.citysearch.com/profile/601299076/marietta_ga/fatburger.html", "address": {"city": "Marietta", "state": "GA", "street": "2580 Windy Hill Rd Se", "postal_code": "30067"}, "capProviderId": null, "distance": null, "has_offers": false, "name": "Fatburger", "longitude": -84.477994, "has_menu": true, "awards": null, "user_review_count": 0}, {"business_operation_status": 1, "rating": null, "neighborhood": null, "image": "http://o3.aolcdn.com/dims-shared/dims3/PATCH/resize/600x450/http://hss-prod.hss.aol.com/hss/storage/patch/7b36d66c26d6f03a72d98ebd23725c41", "scorecard": null, "featured": false, "sample_categories": "Restaurants", "public_id": "city-view-cafe-atlanta", "id": 33644522, "votes": null, "tagline": null, "has_video": false, "website": null, "offers": null, "latitude": 33.874101, "politanName": "Atlanta, GA Metro ", "phone_number": "6782132262", "tags": [{"primary": true, "id": 1722, "name": "Restaurants"}], "fax_number": null, "expansion": {"count": null, "uri": null}, "impression_id": "000b000000b1ac8ea18c41479dbae2a73bddbe3018", "profile": "http://www.citysearch.com/profile/33644522/atlanta_ga/city_view_cafe.html", "address": {"city": "Atlanta", "state": "GA", "street": "3330 Cumberland Blvd SE 150", "postal_code": "30339"}, "capProviderId": null, "distance": null, "has_offers": false, "name": "City View Cafe", "longitude": -84.45825, "has_menu": false, "awards": null, "user_review_count": 0}, {"business_operation_status": 1, "rating": null, "neighborhood": null, "image": "http://o3.aolcdn.com/dims-shared/dims3/PATCH/resize/600x450/http://hss-prod.hss.aol.com/hss/storage/patch/f86f2b3c888f83bb32e3b1e925ea25e1", "scorecard": null, "featured": false, "sample_categories": "Restaurants, Catering, Mexican", "public_id": "monterrey-mexican-restaurant-marietta", "id": 642190950, "votes": null, "tagline": null, "has_video": false, "website": null, "offers": null, "latitude": 33.919221, "politanName": "Atlanta, GA Metro ", "phone_number": "6789962898", "tags": [{"primary": false, "id": 1705, "name": "Catering"}, {"primary": false, "id": 11208, "name": "Mexican"}, {"primary": true, "id": 1722, "name": "Restaurants"}], "fax_number": null, "expansion": {"count": null, "uri": null}, "impression_id": "000b000000c5b9349f99a840ba963754c2050b135a", "profile": "http://www.citysearch.com/profile/642190950/marietta_ga/monterrey_mexican_restaurant.html", "address": {"city": "Marietta", "state": "GA", "street": "1368 Atlanta Rd Se # 120", "postal_code": "30060"}, "capProviderId": null, "distance": null, "has_offers": false, "name": "Monterrey Mexican Restaurant", "longitude": -84.542534, "has_menu": true, "awards": null, "user_review_count": 0}, {"business_operation_status": 1, "rating": null, "neighborhood": null, "image": "http://o5.aolcdn.com/dims-shared/dims3/PATCH/resize/600x450/http://hss-prod.hss.aol.com/hss/storage/patch/34d184899c09c5c3ab85ce9e5cd9fedc", "scorecard": null, "featured": false, "sample_categories": "Restaurants, Hispanic Food Products, Mexican", "public_id": "taco-mac-austell", "id": 693750630, "votes": null, "tagline": null, "has_video": false, "website": "http://www.citysearch.com/profile/external/693750630/austell_ga/taco_mac.html", "offers": null, "latitude": 33.855384, "politanName": "Atlanta, GA Metro ", "phone_number": "7708018773", "tags": [{"primary": false, "id": 1722, "name": "Restaurants"}, {"primary": false, "id": 11208, "name": "Mexican"}, {"primary": true, "id": 11153, "name": "Hispanic Food Products"}], "fax_number": null, "expansion": {"count": null, "uri": null}, "impression_id": "000b0000004187d938f29d4840b137ab7e293f2e14", "profile": "http://www.citysearch.com/profile/693750630/austell_ga/taco_mac.html", "address": {"city": "Austell", "state": "GA", "street": "1025 E West Connector # 1", "postal_code": "30106"}, "capProviderId": null, "distance": null, "has_offers": false, "name": "Taco Mac", "longitude": -84.583167, "has_menu": true, "awards": null, "user_review_count": 1}, {"business_operation_status": 1, "rating": null, "neighborhood": null, "image": "http://o1.aolcdn.com/dims-shared/dims3/PATCH/resize/600x450/http://hss-prod.hss.aol.com/hss/storage/patch/697aea21aae902224a018db122138b15", "scorecard": null, "featured": false, "sample_categories": "Restaurants, Diners, Cuban", "public_id": "cuban-diner-marietta", "id": 621875780, "votes": null, "tagline": null, "has_video": false, "website": "http://www.citysearch.com/profile/external/621875780/marietta_ga/cuban_diner.html", "offers": null, "latitude": 33.951107, "politanName": "Atlanta, GA Metro ", "phone_number": "7705092576", "tags": [{"primary": false, "id": 1732, "name": "Diners"}, {"primary": false, "id": 11192, "name": "Cuban"}, {"primary": true, "id": 1722, "name": "Restaurants"}], "fax_number": null, "expansion": {"count": null, "uri": null}, "impression_id": "000b000000557310c63346411880907eac7f70136d", "profile": "http://www.citysearch.com/profile/621875780/marietta_ga/cuban_diner.html", "address": {"city": "Marietta", "state": "GA", "street": "1484 Roswell Rd", "postal_code": "30062"}, "capProviderId": null, "distance": null, "has_offers": false, "name": "Cuban Diner", "longitude": -84.508501, "has_menu": true, "awards": null, "user_review_count": 1}, {"business_operation_status": 1, "rating": null, "neighborhood": null, "image": "http://o2.aolcdn.com/dims-shared/dims3/PATCH/resize/600x450/http://hss-prod.hss.aol.com/hss/storage/patch/24bd66836917b12a6f00937a9e8c18d4", "scorecard": null, "featured": false, "sample_categories": "Restaurants, Delis And Delicatessens", "public_id": "american-deli-marietta-2", "id": 601298748, "votes": null, "tagline": null, "has_video": false, "website": "http://www.citysearch.com/profile/external/601298748/marietta_ga/american_deli.html", "offers": null, "latitude": 33.922406, "politanName": "Atlanta, GA Metro ", "phone_number": "7709524311", "tags": [{"primary": false, "id": 1727, "name": "Delis And Delicatessens"}, {"primary": true, "id": 1722, "name": "Restaurants"}], "fax_number": null, "expansion": {"count": null, "uri": null}, "impression_id": "000b0000009b6ca43482664db4bed81ab669cdd33f", "profile": "http://www.citysearch.com/profile/601298748/marietta_ga/american_deli.html", "address": {"city": "Marietta", "state": "GA", "street": "1230 Powers Ferry Rd Se", "postal_code": "30067"}, "capProviderId": null, "distance": null, "has_offers": false, "name": "American Deli", "longitude": -84.46818, "has_menu": true, "awards": null, "user_review_count": 0}, {"business_operation_status": 1, "rating": null, "neighborhood": null, "image": "http://o1.aolcdn.com/dims-shared/dims3/PATCH/resize/600x450/http://hss-prod.hss.aol.com/hss/storage/patch/32747be73bc8f662d96d7dcf50a0e731", "scorecard": null, "featured": false, "sample_categories": "Restaurants, Mexican, American Express, Discover, MasterCard", "public_id": "los-bravos-mexican-restaurant-marietta-3", "id": 682238140, "votes": null, "tagline": null, "has_video": false, "website": "http://www.citysearch.com/profile/external/682238140/marietta_ga/los_bravos_mexican_restaurant.html", "offers": null, "latitude": 33.967272, "politanName": "Atlanta, GA Metro ", "phone_number": "7705658919", "tags": [{"primary": false, "id": 11208, "name": "Mexican"}, {"primary": false, "id": 11333, "name": "American Express"}, {"primary": false, "id": 11349, "name": "Discover"}, {"primary": false, "id": 11361, "name": "MasterCard"}, {"primary": false, "id": 11382, "name": "Visa"}, {"primary": true, "id": 1722, "name": "Restaurants"}], "fax_number": null, "expansion": {"count": null, "uri": null}, "impression_id": "000b0000009010d22d316d4b5d90fe2ff84ae844e9", "profile": "http://www.citysearch.com/profile/682238140/marietta_ga/los_bravos_mexican_restaurant.html", "address": {"city": "Marietta", "state": "GA", "street": "2125 Roswell Rd # 40", "postal_code": "30062"}, "capProviderId": null, "distance": null, "has_offers": false, "name": "Los Bravos Mexican Restaurant", "longitude": -84.491705, "has_menu": true, "awards": null, "user_review_count": 4}, {"business_operation_status": 1, "rating": null, "neighborhood": null, "image": "http://o2.aolcdn.com/dims-shared/dims3/PATCH/resize/600x450/http://hss-prod.hss.aol.com/hss/storage/patch/7c46ad71757f775e746022c36c4f7c8d", "scorecard": null, "featured": false, "sample_categories": "Ice Cream Parlors, Restaurants", "public_id": "paleteria-michoacana-ice-cream-marietta", "id": 605546720, "votes": null, "tagline": null, "has_video": false, "website": null, "offers": null, "latitude": 33.951285, "politanName": "Atlanta, GA Metro ", "phone_number": "7704228893", "tags": [{"primary": false, "id": 1722, "name": "Restaurants"}, {"primary": true, "id": 1730, "name": "Ice Cream Parlors"}], "fax_number": null, "expansion": {"count": null, "uri": null}, "impression_id": "000b000000158c6858360f4fe8b2553560a9b62877", "profile": "http://www.citysearch.com/profile/605546720/marietta_ga/paleteria_michoacana_ice_cream.html", "address": {"city": "Marietta", "state": "GA", "street": "737 Roswell St Ne # 202", "postal_code": "30060"}, "capProviderId": null, "distance": null, "has_offers": false, "name": "Paleteria Michoacana Ice Cream", "longitude": -84.530697, "has_menu": false, "awards": null, "user_review_count": 0}], "histograms": [], "tag_ids": [1722], "uri": "http://api.citygridmedia.com:8080/search/places/v2/search/where?has_offers=false&type=restaurant&format=json&page=16&where=30080&rpp=50&histograms=false&publisher=10000009598&region_type=circle", "did_you_mean": "", "regions": [{"latitude": 33.870107, "default_radius": 3.76, "type": "postal_code", "name": "30080", "longitude": -84.499867}], "call_id": "000b0000008a0185913d144af2a9061f29f5caa20a", "first_hit": 751, "total_hits": 1580, "geo_ids": [26330], "page": 16, "last_hit": 800}}