{"results": {"rpp": 50, "locations": [{"business_operation_status": 1, "rating": null, "neighborhood": null, "image": null, "scorecard": null, "featured": false, "sample_categories": "Restaurants", "public_id": "w-k-r-d-the-blaze-power-house-marietta", "id": 779694540, "votes": null, "tagline": null, "has_video": false, "website": null, "offers": null, "latitude": 33.938913, "politanName": "Atlanta, GA Metro ", "phone_number": "6784018567", "tags": [{"primary": true, "id": 1722, "name": "Restaurants"}], "fax_number": null, "expansion": {"count": null, "uri": null}, "impression_id": "000b000000549c390b579b4c0c93827dd57f282802", "profile": "http://www.citysearch.com/profile/779694540/marietta_ga/w_k_r_d_the_blaze_power_house.html", "address": {"city": "Marietta", "state": "GA", "street": "550 Franklin Rd Se", "postal_code": "30067"}, "capProviderId": null, "distance": null, "has_offers": false, "name": "W K R D The Blaze Power House", "longitude": -84.507658, "has_menu": false, "awards": null, "user_review_count": 0}, {"business_operation_status": 1, "rating": null, "neighborhood": null, "image": null, "scorecard": null, "featured": false, "sample_categories": "Restaurants, Delis And Delicatessens, Sandwich Shops, Carry Out", "public_id": "firehouse-subs-smyrna-4", "id": 777803930, "votes": null, "tagline": null, "has_video": false, "website": "http://www.citysearch.com/profile/external/777803930/smyrna_ga/firehouse_subs.html", "offers": null, "latitude": 33.841827, "politanName": "Atlanta, GA Metro ", "phone_number": "7703331399", "tags": [{"primary": false, "id": 1727, "name": "Delis And Delicatessens"}, {"primary": false, "id": 1736, "name": "Sandwich Shops"}, {"primary": false, "id": 11247, "name": "Carry Out"}, {"primary": true, "id": 1722, "name": "Restaurants"}], "fax_number": null, "expansion": {"count": null, "uri": null}, "impression_id": "000b000000194a835fa1cf4bd094ef4a6fc9a73cc1", "profile": "http://www.citysearch.com/profile/777803930/smyrna_ga/firehouse_subs.html", "address": {"city": "Smyrna", "state": "GA", "street": "4624 Camp Highland Se # 1000", "postal_code": "30082"}, "capProviderId": null, "distance": null, "has_offers": false, "name": "Firehouse Subs", "longitude": -84.505595, "has_menu": true, "awards": null, "user_review_count": 0}, {"business_operation_status": 1, "rating": null, "neighborhood": null, "image": null, "scorecard": null, "featured": false, "sample_categories": "Restaurants, Traditional American, Carry Out", "public_id": "waffle-house-marietta-16", "id": 777819230, "votes": null, "tagline": null, "has_video": false, "website": "http://www.citysearch.com/profile/external/777819230/marietta_ga/waffle_house.html", "offers": null, "latitude": 33.923768, "politanName": "Atlanta, GA Metro ", "phone_number": "7709526638", "tags": [{"primary": false, "id": 11190, "name": "Traditional American"}, {"primary": false, "id": 11247, "name": "Carry Out"}, {"primary": true, "id": 1722, "name": "Restaurants"}], "fax_number": null, "expansion": {"count": null, "uri": null}, "impression_id": "000b0000001594417dcabd4b099075b731f8ce6665", "profile": "http://www.citysearch.com/profile/777819230/marietta_ga/waffle_house.html", "address": {"city": "Marietta", "state": "GA", "street": "1185 Franklin Rd Se", "postal_code": "30067"}, "capProviderId": null, "distance": null, "has_offers": false, "name": "Waffle House", "longitude": -84.491678, "has_menu": true, "awards": null, "user_review_count": 0}, {"business_operation_status": 1, "rating": null, "neighborhood": null, "image": null, "scorecard": null, "featured": false, "sample_categories": "Restaurants", "public_id": "puntacana-dominican-bargrill-marietta", "id": 802510780, "votes": null, "tagline": null, "has_video": false, "website": null, "offers": null, "latitude": 33.901077, "politanName": "Atlanta, GA Metro ", "phone_number": "7707954500", "tags": [{"primary": true, "id": 1722, "name": "Restaurants"}], "fax_number": null, "expansion": {"count": null, "uri": null}, "impression_id": "000b0000002454ec377ec74bd8988e31b5c8e13e51", "profile": "http://www.citysearch.com/profile/802510780/marietta_ga/puntacana_dominican_bar_grill.html", "address": {"city": "Marietta", "state": "GA", "street": "1812 Powder Springs Rd Sw", "postal_code": "30064"}, "capProviderId": null, "distance": null, "has_offers": false, "name": "Puntacana Dominican Bar-Grill", "longitude": -84.606768, "has_menu": false, "awards": null, "user_review_count": 0}, {"business_operation_status": 1, "rating": null, "neighborhood": null, "image": null, "scorecard": null, "featured": false, "sample_categories": "Restaurants", "public_id": "quick-n-tasty-cafe-smyrna", "id": 732219770, "votes": null, "tagline": null, "has_video": false, "website": null, "offers": null, "latitude": 33.891129, "politanName": "Atlanta, GA Metro ", "phone_number": "7704386170", "tags": [{"primary": true, "id": 1722, "name": "Restaurants"}], "fax_number": null, "expansion": {"count": null, "uri": null}, "impression_id": "000b000000cefa8a7ed379405a89975b7df32f9c49", "profile": "http://www.citysearch.com/profile/732219770/smyrna_ga/quick_n_tasty_cafe.html", "address": {"city": "Smyrna", "state": "GA", "street": "1651 Roswell St SE", "postal_code": "30080"}, "capProviderId": null, "distance": null, "has_offers": false, "name": "Quick N Tasty Cafe", "longitude": -84.504659, "has_menu": false, "awards": null, "user_review_count": 0}, {"business_operation_status": 1, "rating": null, "neighborhood": null, "image": null, "scorecard": null, "featured": false, "sample_categories": "Restaurants", "public_id": "mamafus-smyrna", "id": 828608580, "votes": null, "tagline": null, "has_video": false, "website": null, "offers": null, "latitude": 33.884889, "politanName": "Atlanta, GA Metro ", "phone_number": "6782133663", "tags": [{"primary": true, "id": 1722, "name": "Restaurants"}], "fax_number": null, "expansion": {"count": null, "uri": null}, "impression_id": "000b0000006ec51e2e76314d379e0244ca192a7398", "profile": "http://www.citysearch.com/profile/828608580/smyrna_ga/mamafu_s.html", "address": {"city": "Smyrna", "state": "GA", "street": "400 Village Green Cir SE", "postal_code": "30080"}, "capProviderId": null, "distance": null, "has_offers": false, "name": "Mamafu's", "longitude": -84.516415, "has_menu": false, "awards": null, "user_review_count": 0}, {"business_operation_status": 1, "rating": null, "neighborhood": null, "image": null, "scorecard": null, "featured": false, "sample_categories": "Restaurants, Carry Out", "public_id": "ruby-tuesday-atlanta-6", "id": 833545440, "votes": null, "tagline": null, "has_video": false, "website": null, "offers": null, "latitude": 33.907783, "politanName": "Atlanta, GA Metro ", "phone_number": "6785744550", "tags": [{"primary": false, "id": 11247, "name": "Carry Out"}, {"primary": true, "id": 1722, "name": "Restaurants"}], "fax_number": null, "expansion": {"count": null, "uri": null}, "impression_id": "000b0000001a5152c0ce05469eb8eb0db8a23d65ee", "profile": "http://www.citysearch.com/profile/833545440/atlanta_ga/ruby_tuesday.html", "address": {"city": "Atlanta", "state": "GA", "street": "3318 Cobb Pkwy SE", "postal_code": "30339"}, "capProviderId": null, "distance": null, "has_offers": false, "name": "Ruby Tuesday", "longitude": -84.492298, "has_menu": true, "awards": null, "user_review_count": 0}, {"business_operation_status": 1, "rating": null, "neighborhood": null, "image": null, "scorecard": null, "featured": false, "sample_categories": "Restaurants, Delis And Delicatessens, Sandwich Shops, Carry Out", "public_id": "quiznos-marietta-7", "id": 832339260, "votes": null, "tagline": null, "has_video": false, "website": null, "offers": null, "latitude": 33.905926, "politanName": "Atlanta, GA Metro ", "phone_number": "7709800268", "tags": [{"primary": false, "id": 1727, "name": "Delis And Delicatessens"}, {"primary": false, "id": 1736, "name": "Sandwich Shops"}, {"primary": false, "id": 11247, "name": "Carry Out"}, {"primary": true, "id": 1722, "name": "Restaurants"}], "fax_number": null, "expansion": {"count": null, "uri": null}, "impression_id": "000b000000d7ea981ae5474843b8b85ac3382b3ddb", "profile": "http://www.citysearch.com/profile/832339260/marietta_ga/quiznos.html", "address": {"city": "Marietta", "state": "GA", "street": "2000 Powers Ferry Rd SE # 1-11", "postal_code": "30067"}, "capProviderId": null, "distance": null, "has_offers": false, "name": "Quiznos", "longitude": -84.465323, "has_menu": true, "awards": null, "user_review_count": 0}, {"business_operation_status": 1, "rating": null, "neighborhood": null, "image": null, "scorecard": null, "featured": false, "sample_categories": "Restaurants, Bars & Clubs, Nightclubs", "public_id": "illusion-lounge-dance-club-marietta", "id": 775216060, "votes": null, "tagline": null, "has_video": false, "website": null, "offers": null, "latitude": 33.905926, "politanName": "Atlanta, GA Metro ", "phone_number": "7709569909", "tags": [{"primary": false, "id": 164, "name": "Bars & Clubs"}, {"primary": false, "id": 169, "name": "Nightclubs"}, {"primary": true, "id": 1722, "name": "Restaurants"}], "fax_number": null, "expansion": {"count": null, "uri": null}, "impression_id": "000b000000419cb6123f1244b4a543a6e69100e4df", "profile": "http://www.citysearch.com/profile/775216060/marietta_ga/illusion_lounge_dance_club.html", "address": {"city": "Marietta", "state": "GA", "street": "2000 Powers Ferry Rd SE", "postal_code": "30067"}, "capProviderId": null, "distance": null, "has_offers": false, "name": "Illusion Lounge & Dance Club", "longitude": -84.465323, "has_menu": false, "awards": null, "user_review_count": 0}, {"business_operation_status": 1, "rating": null, "neighborhood": null, "image": null, "scorecard": null, "featured": false, "sample_categories": "Restaurants, Pizza", "public_id": "slice-of-heaven-smyrna", "id": 775222180, "votes": null, "tagline": null, "has_video": false, "website": null, "offers": null, "latitude": 33.873639, "politanName": "Atlanta, GA Metro ", "phone_number": "7704371440", "tags": [{"primary": false, "id": 11299, "name": "Pizza"}, {"primary": true, "id": 1722, "name": "Restaurants"}], "fax_number": null, "expansion": {"count": null, "uri": null}, "impression_id": "000b000000e2e576665ca5447e9aca4406fa6328ff", "profile": "http://www.citysearch.com/profile/775222180/smyrna_ga/slice_of_heaven.html", "address": {"city": "Smyrna", "state": "GA", "street": "3256 Atlanta Rd SE", "postal_code": "30080"}, "capProviderId": null, "distance": null, "has_offers": false, "name": "Slice of Heaven", "longitude": -84.501033, "has_menu": false, "awards": null, "user_review_count": 0}, {"business_operation_status": 1, "rating": null, "neighborhood": null, "image": null, "scorecard": null, "featured": false, "sample_categories": "Restaurants, Ice Cream Parlors", "public_id": "italios-gelato-cafe-inc-smyrna", "id": 777752430, "votes": null, "tagline": null, "has_video": false, "website": null, "offers": null, "latitude": 33.884019, "politanName": "Atlanta, GA Metro ", "phone_number": "7704380941", "tags": [{"primary": false, "id": 1730, "name": "Ice Cream Parlors"}, {"primary": true, "id": 1722, "name": "Restaurants"}], "fax_number": null, "expansion": {"count": null, "uri": null}, "impression_id": "000b000000c23f5b509df3469a982a7c59b63d8c59", "profile": "http://www.citysearch.com/profile/777752430/smyrna_ga/italio_s_gelato_cafe_inc.html", "address": {"city": "Smyrna", "state": "GA", "street": "1265 W Spring St Se", "postal_code": "30080"}, "capProviderId": null, "distance": null, "has_offers": false, "name": "Italio's Gelato & Cafe INC", "longitude": -84.515924, "has_menu": false, "awards": null, "user_review_count": 2}, {"business_operation_status": 1, "rating": null, "neighborhood": null, "image": null, "scorecard": null, "featured": false, "sample_categories": "Restaurants", "public_id": "san-francisco-banquet-hall-marietta", "id": 839721110, "votes": null, "tagline": null, "has_video": false, "website": null, "offers": null, "latitude": 33.904632, "politanName": "Atlanta, GA Metro ", "phone_number": "6785569759", "tags": [{"primary": true, "id": 1722, "name": "Restaurants"}], "fax_number": null, "expansion": {"count": null, "uri": null}, "impression_id": "000b00000003f365a42c2c4840b0e72e382985a07a", "profile": "http://www.citysearch.com/profile/839721110/marietta_ga/san_francisco_banquet_hall.html", "address": {"city": "Marietta", "state": "GA", "street": "1977 S Cobb Dr SE", "postal_code": "30060"}, "capProviderId": null, "distance": null, "has_offers": false, "name": "San Francisco Banquet Hall", "longitude": -84.540946, "has_menu": false, "awards": null, "user_review_count": 0}, {"business_operation_status": 1, "rating": null, "neighborhood": null, "image": null, "scorecard": null, "featured": false, "sample_categories": "Restaurants", "public_id": "filimons-smyrna", "id": 825235510, "votes": null, "tagline": null, "has_video": false, "website": null, "offers": null, "latitude": 33.887574, "politanName": "Atlanta, GA Metro ", "phone_number": "6782131556", "tags": [{"primary": true, "id": 1722, "name": "Restaurants"}], "fax_number": null, "expansion": {"count": null, "uri": null}, "impression_id": "000b0000009390095c3bb9448f9f6df859a414fac3", "profile": "http://www.citysearch.com/profile/825235510/smyrna_ga/filimon_s.html", "address": {"city": "Smyrna", "state": "GA", "street": "601 Powder Springs St SE", "postal_code": "30080"}, "capProviderId": null, "distance": null, "has_offers": false, "name": "Filimon's", "longitude": -84.535901, "has_menu": false, "awards": null, "user_review_count": 0}, {"business_operation_status": 1, "rating": null, "neighborhood": null, "image": null, "scorecard": null, "featured": false, "sample_categories": "Restaurants", "public_id": "taqueria-la-placita-smyrna", "id": 672297410, "votes": null, "tagline": null, "has_video": false, "website": null, "offers": null, "latitude": 33.882797, "politanName": "Atlanta, GA Metro ", "phone_number": null, "tags": [{"primary": true, "id": 1722, "name": "Restaurants"}], "fax_number": null, "expansion": {"count": null, "uri": null}, "impression_id": "000b000000a7a49bf024354ef99aaaa8b6aac31452", "profile": "http://www.citysearch.com/profile/672297410/smyrna_ga/taqueria_la_placita.html", "address": {"city": "Smyrna", "state": "GA", "street": "1669 Spring Rd SE", "postal_code": "30080"}, "capProviderId": null, "distance": null, "has_offers": false, "name": "Taqueria La Placita", "longitude": -84.504883, "has_menu": false, "awards": null, "user_review_count": 0}, {"business_operation_status": 1, "rating": null, "neighborhood": null, "image": null, "scorecard": null, "featured": false, "sample_categories": "Restaurants", "public_id": "la-estrella-smyrna", "id": 696217580, "votes": null, "tagline": null, "has_video": false, "website": null, "offers": null, "latitude": 33.8947, "politanName": "Atlanta, GA Metro ", "phone_number": "6782139023", "tags": [{"primary": true, "id": 1722, "name": "Restaurants"}], "fax_number": null, "expansion": {"count": null, "uri": null}, "impression_id": "000b00000007d6dd893d764e278a88d8f9c5fbd1fb", "profile": "http://www.citysearch.com/profile/696217580/smyrna_ga/la_estrella.html", "address": {"city": "Smyrna", "state": "GA", "street": "575 Windy Hill Rd Se", "postal_code": "30080"}, "capProviderId": null, "distance": null, "has_offers": false, "name": "La Estrella", "longitude": -84.536544, "has_menu": false, "awards": null, "user_review_count": 0}, {"business_operation_status": 1, "rating": null, "neighborhood": null, "image": null, "scorecard": null, "featured": false, "sample_categories": "Restaurants", "public_id": "t-me-enterprises-smyrna", "id": 2923026, "votes": null, "tagline": null, "has_video": false, "website": null, "offers": null, "latitude": 33.894569, "politanName": "Atlanta, GA Metro ", "phone_number": "7709849509", "tags": [{"primary": true, "id": 1722, "name": "Restaurants"}], "fax_number": null, "expansion": {"count": null, "uri": null}, "impression_id": "000b0000009682203368804afe86de183feae43e78", "profile": "http://www.citysearch.com/profile/2923026/smyrna_ga/t_me_enterprises.html", "address": {"city": "Smyrna", "state": "GA", "street": "2400 Herodian Way SE", "postal_code": "30080"}, "capProviderId": null, "distance": null, "has_offers": false, "name": "T Me Enterprises", "longitude": -84.472335, "has_menu": false, "awards": null, "user_review_count": 0}, {"business_operation_status": 1, "rating": null, "neighborhood": null, "image": null, "scorecard": null, "featured": false, "sample_categories": "Restaurants, Carry Out", "public_id": "smyrna-food-court-smyrna", "id": 713490100, "votes": null, "tagline": null, "has_video": false, "website": null, "offers": null, "latitude": 33.882426, "politanName": "Atlanta, GA Metro ", "phone_number": "7704344438", "tags": [{"primary": false, "id": 11247, "name": "Carry Out"}, {"primary": true, "id": 1722, "name": "Restaurants"}], "fax_number": null, "expansion": {"count": null, "uri": null}, "impression_id": "000b000000ab2db6346d474bd59676ed6d15aa2096", "profile": "http://www.citysearch.com/profile/713490100/smyrna_ga/smyrna_food_court.html", "address": {"city": "Smyrna", "state": "GA", "street": "2350 Spring Rd Se", "postal_code": "30080"}, "capProviderId": null, "distance": null, "has_offers": false, "name": "Smyrna Food Court", "longitude": -84.487375, "has_menu": false, "awards": null, "user_review_count": 0}, {"business_operation_status": 1, "rating": null, "neighborhood": null, "image": null, "scorecard": null, "featured": false, "sample_categories": "Restaurants, Caribbean", "public_id": "jerk-caribbean-cafe-smyrna", "id": 742240610, "votes": null, "tagline": null, "has_video": false, "website": null, "offers": null, "latitude": 33.883443, "politanName": "Atlanta, GA Metro ", "phone_number": "6782936723", "tags": [{"primary": false, "id": 11195, "name": "Caribbean"}, {"primary": true, "id": 1722, "name": "Restaurants"}], "fax_number": null, "expansion": {"count": null, "uri": null}, "impression_id": "000b0000006eed731c56384149ae80f3da14e4b244", "profile": "http://www.citysearch.com/profile/742240610/smyrna_ga/jerk_caribbean_cafe.html", "address": {"city": "Smyrna", "state": "GA", "street": "2517 Spring Rd SE", "postal_code": "30080"}, "capProviderId": null, "distance": null, "has_offers": false, "name": "Jerk Caribbean Cafe", "longitude": -84.480608, "has_menu": false, "awards": null, "user_review_count": 0}, {"business_operation_status": 1, "rating": null, "neighborhood": null, "image": null, "scorecard": null, "featured": false, "sample_categories": "Restaurants, Carry Out", "public_id": "zaxbys-smyrna-4", "id": 625733364, "votes": null, "tagline": null, "has_video": false, "website": null, "offers": null, "latitude": 33.879925, "politanName": "Atlanta, GA Metro ", "phone_number": "6788704000", "tags": [{"primary": false, "id": 11247, "name": "Carry Out"}, {"primary": true, "id": 1722, "name": "Restaurants"}], "fax_number": null, "expansion": {"count": null, "uri": null}, "impression_id": "000b000000fda2f39576114baab3cf3a8b94819ad1", "profile": "http://www.citysearch.com/profile/625733364/smyrna_ga/zaxby_s.html", "address": {"city": "Smyrna", "state": "GA", "street": "1420 Spring Rd SE", "postal_code": "30080"}, "capProviderId": null, "distance": null, "has_offers": false, "name": "Zaxby's", "longitude": -84.51175, "has_menu": false, "awards": null, "user_review_count": 0}, {"business_operation_status": 1, "rating": null, "neighborhood": null, "image": null, "scorecard": null, "featured": false, "sample_categories": "Restaurants, Pizza", "public_id": "blue-moon-pizza-marietta-3", "id": 745594000, "votes": null, "tagline": null, "has_video": false, "website": null, "offers": null, "latitude": 33.913381, "politanName": "Atlanta, GA Metro ", "phone_number": "7709842444", "tags": [{"primary": false, "id": 1722, "name": "Restaurants"}, {"primary": true, "id": 11299, "name": "Pizza"}], "fax_number": null, "expansion": {"count": null, "uri": null}, "impression_id": "000b0000008f3fbd8fcf604ee5987ddc83e6070fbf", "profile": "http://www.citysearch.com/profile/745594000/marietta_ga/blue_moon_pizza.html", "address": {"city": "Marietta", "state": "GA", "street": "1307 Wynnes Ridge Cir SE", "postal_code": "30067"}, "capProviderId": null, "distance": null, "has_offers": false, "name": "Blue Moon Pizza", "longitude": -84.468451, "has_menu": false, "awards": null, "user_review_count": 0}, {"business_operation_status": 1, "rating": null, "neighborhood": null, "image": null, "scorecard": null, "featured": false, "sample_categories": "Restaurants", "public_id": "r-cs-southern-cooking-marietta", "id": 754855600, "votes": null, "tagline": null, "has_video": false, "website": null, "offers": null, "latitude": 33.951248, "politanName": "Atlanta, GA Metro ", "phone_number": "7704854668", "tags": [{"primary": true, "id": 1722, "name": "Restaurants"}], "fax_number": null, "expansion": {"count": null, "uri": null}, "impression_id": "000b0000000445e467be9f447f93e50ccf2d34baae", "profile": "http://www.citysearch.com/profile/754855600/marietta_ga/r_c_s_southern_cooking.html", "address": {"city": "Marietta", "state": "GA", "street": "1516 Roswell Rd", "postal_code": "30062"}, "capProviderId": null, "distance": null, "has_offers": false, "name": "R C's Southern Cooking", "longitude": -84.508172, "has_menu": false, "awards": null, "user_review_count": 0}, {"business_operation_status": 1, "rating": null, "neighborhood": null, "image": null, "scorecard": null, "featured": false, "sample_categories": "Restaurants", "public_id": "blue-agave-marietta", "id": 777622960, "votes": null, "tagline": null, "has_video": false, "website": null, "offers": null, "latitude": 33.927644, "politanName": "Atlanta, GA Metro ", "phone_number": "6786641133", "tags": [{"primary": true, "id": 1722, "name": "Restaurants"}], "fax_number": null, "expansion": {"count": null, "uri": null}, "impression_id": "000b0000007accb239b90346e3a2b9dd1e0ab31862", "profile": "http://www.citysearch.com/profile/777622960/marietta_ga/blue_agave.html", "address": {"city": "Marietta", "state": "GA", "street": "1090 Northchase Pkwy Se", "postal_code": "30067"}, "capProviderId": null, "distance": null, "has_offers": false, "name": "Blue Agave", "longitude": -84.482308, "has_menu": false, "awards": null, "user_review_count": 0}, {"business_operation_status": 1, "rating": null, "neighborhood": null, "image": null, "scorecard": null, "featured": false, "sample_categories": "Restaurants", "public_id": "rays-smyrna", "id": 775207470, "votes": null, "tagline": null, "has_video": false, "website": null, "offers": null, "latitude": 33.883027, "politanName": "Atlanta, GA Metro ", "phone_number": "7704379001", "tags": [{"primary": true, "id": 1722, "name": "Restaurants"}], "fax_number": null, "expansion": {"count": null, "uri": null}, "impression_id": "000b000000a87a33ac9a7747be8671475eb3a1a6cd", "profile": "http://www.citysearch.com/profile/775207470/smyrna_ga/ray_s.html", "address": {"city": "Smyrna", "state": "GA", "street": "2930 S Cobb Dr SE", "postal_code": "30080"}, "capProviderId": null, "distance": null, "has_offers": false, "name": "Ray's", "longitude": -84.534643, "has_menu": false, "awards": null, "user_review_count": 0}, {"business_operation_status": 1, "rating": null, "neighborhood": null, "image": null, "scorecard": null, "featured": false, "sample_categories": "Restaurants", "public_id": "d-c-backyard-grill-inc-marietta", "id": 798805340, "votes": null, "tagline": null, "has_video": false, "website": null, "offers": null, "latitude": 33.942612, "politanName": "Atlanta, GA Metro ", "phone_number": "7709198797", "tags": [{"primary": true, "id": 1722, "name": "Restaurants"}], "fax_number": null, "expansion": {"count": null, "uri": null}, "impression_id": "000b00000061e72f14cb2844ce8853ab04e9768165", "profile": "http://www.citysearch.com/profile/798805340/marietta_ga/d_c_backyard_grill_inc.html", "address": {"city": "Marietta", "state": "GA", "street": "547 Atlanta St Se", "postal_code": "30060"}, "capProviderId": null, "distance": null, "has_offers": false, "name": "D C Backyard Grill INC", "longitude": -84.545574, "has_menu": false, "awards": null, "user_review_count": 0}, {"business_operation_status": 1, "rating": null, "neighborhood": null, "image": null, "scorecard": null, "featured": false, "sample_categories": "Restaurants", "public_id": "pete-sneaky-inc-marietta", "id": 821568530, "votes": null, "tagline": null, "has_video": false, "website": null, "offers": null, "latitude": 33.906504, "politanName": "Atlanta, GA Metro ", "phone_number": "7709714838", "tags": [{"primary": true, "id": 1722, "name": "Restaurants"}], "fax_number": null, "expansion": {"count": null, "uri": null}, "impression_id": "000b00000051ba700e3bbf490aab13ce504a3f328f", "profile": "http://www.citysearch.com/profile/821568530/marietta_ga/pete_sneaky_inc.html", "address": {"city": "Marietta", "state": "GA", "street": "PO Box 6572", "postal_code": "30065"}, "capProviderId": null, "distance": null, "has_offers": false, "name": "Pete Sneaky Inc", "longitude": -84.488386, "has_menu": false, "awards": null, "user_review_count": 0}, {"business_operation_status": 1, "rating": null, "neighborhood": null, "image": null, "scorecard": null, "featured": false, "sample_categories": "Restaurants", "public_id": "playa-azul-restaurant-marietta", "id": 822491930, "votes": null, "tagline": null, "has_video": false, "website": null, "offers": null, "latitude": 33.941881, "politanName": "Atlanta, GA Metro ", "phone_number": "6785946635", "tags": [{"primary": true, "id": 1722, "name": "Restaurants"}], "fax_number": null, "expansion": {"count": null, "uri": null}, "impression_id": "000b00000098ae39da57b9400ebbd9697e0ad1bea2", "profile": "http://www.citysearch.com/profile/822491930/marietta_ga/playa_azul_restaurant.html", "address": {"city": "Marietta", "state": "GA", "street": "401 Rose Dr # 201", "postal_code": "30060"}, "capProviderId": null, "distance": null, "has_offers": false, "name": "Playa Azul Restaurant", "longitude": -84.523857, "has_menu": false, "awards": null, "user_review_count": 0}, {"business_operation_status": 1, "rating": null, "neighborhood": null, "image": null, "scorecard": null, "featured": false, "sample_categories": "Restaurants, Carry Out, Hamburgers", "public_id": "five-guys-burgers-fries-atlanta-6", "id": 622023500, "votes": null, "tagline": null, "has_video": false, "website": "http://www.citysearch.com/profile/external/622023500/atlanta_ga/five_guys_burgers_fries.html", "offers": null, "latitude": 33.894565, "politanName": "Atlanta, GA Metro ", "phone_number": "4046296577", "tags": [{"primary": false, "id": 11247, "name": "Carry Out"}, {"primary": false, "id": 11270, "name": "Hamburgers"}, {"primary": true, "id": 1722, "name": "Restaurants"}], "fax_number": null, "expansion": {"count": null, "uri": null}, "impression_id": "000b000000675f521c5d3e4c0a8fb86f3d7fd72628", "profile": "http://www.citysearch.com/profile/622023500/atlanta_ga/five_guys_burgers_fries.html", "address": {"city": "Atlanta", "state": "GA", "street": "2400 Herodian Way", "postal_code": "30331"}, "capProviderId": null, "distance": null, "has_offers": false, "name": "Five Guys Burgers & Fries", "longitude": -84.472334, "has_menu": false, "awards": null, "user_review_count": 0}, {"business_operation_status": 1, "rating": null, "neighborhood": null, "image": null, "scorecard": null, "featured": false, "sample_categories": "Restaurants", "public_id": "chicken-boss-llc-marietta", "id": 627930504, "votes": null, "tagline": null, "has_video": false, "website": null, "offers": null, "latitude": 33.933122, "politanName": "Atlanta, GA Metro ", "phone_number": "7705080980", "tags": [{"primary": true, "id": 1722, "name": "Restaurants"}], "fax_number": null, "expansion": {"count": null, "uri": null}, "impression_id": "000b0000006f4cdc80dc494233a93243263bb238d6", "profile": "http://www.citysearch.com/profile/627930504/marietta_ga/chicken_boss_llc.html", "address": {"city": "Marietta", "state": "GA", "street": "803 Powder Springs St", "postal_code": "30064"}, "capProviderId": null, "distance": null, "has_offers": false, "name": "Chicken Boss LLC", "longitude": -84.559881, "has_menu": false, "awards": null, "user_review_count": 0}, {"business_operation_status": 1, "rating": null, "neighborhood": null, "image": null, "scorecard": null, "featured": false, "sample_categories": "Coffeehouses", "public_id": "mahamosa-llc-atlanta-2", "id": 732217720, "votes": null, "tagline": null, "has_video": false, "website": null, "offers": null, "latitude": 33.881746, "politanName": "Atlanta, GA Metro ", "phone_number": "7704320024", "tags": [{"primary": true, "id": 1726, "name": "Coffeehouses"}], "fax_number": null, "expansion": {"count": null, "uri": null}, "impression_id": "000b000000a2824ff8eead4716a108af839c98f83b", "profile": "http://www.citysearch.com/profile/732217720/atlanta_ga/mahamosa_llc.html", "address": {"city": "Atlanta", "state": "GA", "street": "1000 Cumberland Mall SE", "postal_code": "30339"}, "capProviderId": null, "distance": null, "has_offers": false, "name": "Mahamosa LLC", "longitude": -84.470079, "has_menu": false, "awards": null, "user_review_count": 0}, {"business_operation_status": 1, "rating": null, "neighborhood": null, "image": null, "scorecard": null, "featured": false, "sample_categories": "Grocery Stores, Restaurants", "public_id": "super-la-vila-smyrna", "id": 655917520, "votes": null, "tagline": null, "has_video": false, "website": null, "offers": null, "latitude": 33.892933, "politanName": "Atlanta, GA Metro ", "phone_number": "7709518085", "tags": [{"primary": false, "id": 1722, "name": "Restaurants"}, {"primary": true, "id": 1713, "name": "Grocery Stores"}], "fax_number": null, "expansion": {"count": null, "uri": null}, "impression_id": "000b000000ff719c284b0144ccb95465f709254112", "profile": "http://www.citysearch.com/profile/655917520/smyrna_ga/super_la_vila.html", "address": {"city": "Smyrna", "state": "GA", "street": "2431 Cobb Pkwy Se", "postal_code": "30080"}, "capProviderId": null, "distance": null, "has_offers": false, "name": "Super La Vila", "longitude": -84.478172, "has_menu": false, "awards": null, "user_review_count": 0}, {"business_operation_status": 1, "rating": null, "neighborhood": null, "image": null, "scorecard": null, "featured": false, "sample_categories": "Restaurants, Traditional American, Carry Out, Shop Online", "public_id": "ruby-tuesday-marietta-2", "id": 775209650, "votes": null, "tagline": null, "has_video": false, "website": "http://www.citysearch.com/profile/external/775209650/marietta_ga/ruby_tuesday.html", "offers": null, "latitude": 33.853043, "politanName": "Atlanta, GA Metro ", "phone_number": "7704268061", "tags": [{"primary": false, "id": 11190, "name": "Traditional American"}, {"primary": false, "id": 11247, "name": "Carry Out"}, {"primary": false, "id": 11375, "name": "Shop Online"}, {"primary": true, "id": 1722, "name": "Restaurants"}], "fax_number": null, "expansion": {"count": null, "uri": null}, "impression_id": "000b0000005f71550a8a6e47f78e2353ef7bdaaa06", "profile": "http://www.citysearch.com/profile/775209650/marietta_ga/ruby_tuesday.html", "address": {"city": "Marietta", "state": "GA", "street": "Town Center At Cobb", "postal_code": "30060"}, "capProviderId": null, "distance": null, "has_offers": false, "name": "Ruby Tuesday", "longitude": -84.510989, "has_menu": false, "awards": null, "user_review_count": 0}, {"business_operation_status": 1, "rating": null, "neighborhood": null, "image": null, "scorecard": null, "featured": false, "sample_categories": "Restaurants, Mexican", "public_id": "taqueria-la-guelaguetza-smyrna", "id": 777809650, "votes": null, "tagline": null, "has_video": false, "website": null, "offers": null, "latitude": 33.891089, "politanName": "Atlanta, GA Metro ", "phone_number": "6787660130", "tags": [{"primary": false, "id": 11208, "name": "Mexican"}, {"primary": true, "id": 1722, "name": "Restaurants"}], "fax_number": null, "expansion": {"count": null, "uri": null}, "impression_id": "000b000000c91a21a96f7e4fb2b4df715823c891a8", "profile": "http://www.citysearch.com/profile/777809650/smyrna_ga/taqueria_la_guelaguetza.html", "address": {"city": "Smyrna", "state": "GA", "street": "1651 Roswell St Se", "postal_code": "30080"}, "capProviderId": null, "distance": null, "has_offers": false, "name": "Taqueria La Guelaguetza", "longitude": -84.504679, "has_menu": false, "awards": null, "user_review_count": 0}, {"business_operation_status": 1, "rating": null, "neighborhood": null, "image": null, "scorecard": null, "featured": false, "sample_categories": "Restaurants", "public_id": "smyrna-tme-enterprises-1-ltd-smyrna", "id": 787130620, "votes": null, "tagline": null, "has_video": false, "website": "http://www.citysearch.com/profile/external/787130620/smyrna_ga/smyrna_tme_enterprises_1_ltd.html", "offers": null, "latitude": 33.828878, "politanName": "Atlanta, GA Metro ", "phone_number": "4047942525", "tags": [{"primary": true, "id": 1722, "name": "Restaurants"}], "fax_number": null, "expansion": {"count": null, "uri": null}, "impression_id": "000b0000002b001711ebc64793bcf932cefdee5b65", "profile": "http://www.citysearch.com/profile/787130620/smyrna_ga/smyrna_tme_enterprises_1_ltd.html", "address": {"city": "Smyrna", "state": "GA", "street": "5161 S Cobb Dr Se", "postal_code": "30080"}, "capProviderId": null, "distance": null, "has_offers": false, "name": "Smyrna Tme Enterprises 1 LTD", "longitude": -84.492061, "has_menu": false, "awards": null, "user_review_count": 0}, {"business_operation_status": 1, "rating": null, "neighborhood": null, "image": null, "scorecard": null, "featured": false, "sample_categories": "Restaurants, Barbecue Restaurants", "public_id": "wings-xpress-marietta", "id": 803550980, "votes": null, "tagline": null, "has_video": false, "website": null, "offers": null, "latitude": 33.933132, "politanName": "Atlanta, GA Metro ", "phone_number": "6784621167", "tags": [{"primary": false, "id": 1724, "name": "Barbecue Restaurants"}, {"primary": true, "id": 1722, "name": "Restaurants"}], "fax_number": null, "expansion": {"count": null, "uri": null}, "impression_id": "000b0000009fc0ca74519d4e82a1af8f1f07c89c6f", "profile": "http://www.citysearch.com/profile/803550980/marietta_ga/wings_xpress.html", "address": {"city": "Marietta", "state": "GA", "street": "803 Powder Springs St # 2", "postal_code": "30064"}, "capProviderId": null, "distance": null, "has_offers": false, "name": "Wings Xpress", "longitude": -84.559871, "has_menu": false, "awards": null, "user_review_count": 0}, {"business_operation_status": 1, "rating": null, "neighborhood": null, "image": null, "scorecard": null, "featured": false, "sample_categories": "Restaurants", "public_id": "el-dorado-restaurant-marietta-2", "id": 821705220, "votes": null, "tagline": null, "has_video": false, "website": null, "offers": null, "latitude": 33.902517, "politanName": "Atlanta, GA Metro ", "phone_number": "7704347772", "tags": [{"primary": true, "id": 1722, "name": "Restaurants"}], "fax_number": null, "expansion": {"count": null, "uri": null}, "impression_id": "000b000000722c4dbc62d8458aa368523f58341d62", "profile": "http://www.citysearch.com/profile/821705220/marietta_ga/el_dorado_restaurant.html", "address": {"city": "Marietta", "state": "GA", "street": "371 Pat Mell Rd SE # 125", "postal_code": "30060"}, "capProviderId": null, "distance": null, "has_offers": false, "name": "El Dorado Restaurant", "longitude": -84.543334, "has_menu": false, "awards": null, "user_review_count": 0}, {"business_operation_status": 1, "rating": null, "neighborhood": null, "image": null, "scorecard": null, "featured": false, "sample_categories": "Restaurants", "public_id": "lake-park-2400-llc-smyrna", "id": 775218280, "votes": null, "tagline": null, "has_video": false, "website": null, "offers": null, "latitude": 33.897534, "politanName": "Atlanta, GA Metro ", "phone_number": "7704349336", "tags": [{"primary": true, "id": 1722, "name": "Restaurants"}], "fax_number": null, "expansion": {"count": null, "uri": null}, "impression_id": "000b000000e7b24da133a641f2a261cbb3fd2c8e0c", "profile": "http://www.citysearch.com/profile/775218280/smyrna_ga/lake_park_2400_llc.html", "address": {"city": "Smyrna", "state": "GA", "street": "2400 Lake Park Dr SE", "postal_code": "30080"}, "capProviderId": null, "distance": null, "has_offers": false, "name": "Lake Park 2400 LLC", "longitude": -84.484107, "has_menu": false, "awards": null, "user_review_count": 0}, {"business_operation_status": 1, "rating": null, "neighborhood": null, "image": null, "scorecard": null, "featured": false, "sample_categories": "Restaurants", "public_id": "kenny-rogers-roasters-marietta", "id": 775226560, "votes": null, "tagline": null, "has_video": false, "website": null, "offers": null, "latitude": 33.919492, "politanName": "Atlanta, GA Metro ", "phone_number": "7709551800", "tags": [{"primary": true, "id": 1722, "name": "Restaurants"}], "fax_number": null, "expansion": {"count": null, "uri": null}, "impression_id": "000b0000009fd977b4018e4e2380f7683ba80ada30", "profile": "http://www.citysearch.com/profile/775226560/marietta_ga/kenny_rogers_roasters.html", "address": {"city": "Marietta", "state": "GA", "street": "1325 Powers Ferry Rd SE", "postal_code": "30067"}, "capProviderId": null, "distance": null, "has_offers": false, "name": "Kenny Rogers Roasters", "longitude": -84.466798, "has_menu": false, "awards": null, "user_review_count": 0}, {"business_operation_status": 1, "rating": null, "neighborhood": null, "image": null, "scorecard": null, "featured": false, "sample_categories": "Restaurants", "public_id": "tucker-hospitality-inc-marietta", "id": 819224460, "votes": null, "tagline": null, "has_video": false, "website": null, "offers": null, "latitude": 33.934837, "politanName": "Atlanta, GA Metro ", "phone_number": "6783318222", "tags": [{"primary": true, "id": 1722, "name": "Restaurants"}], "fax_number": null, "expansion": {"count": null, "uri": null}, "impression_id": "000b0000007bdd6f6c06634254b2c1a80542cfa272", "profile": "http://www.citysearch.com/profile/819224460/marietta_ga/tucker_hospitality_inc.html", "address": {"city": "Marietta", "state": "GA", "street": "707 Franklin Rd SE # 3-6", "postal_code": "30067"}, "capProviderId": null, "distance": null, "has_offers": false, "name": "Tucker Hospitality Inc", "longitude": -84.502941, "has_menu": false, "awards": null, "user_review_count": 0}, {"business_operation_status": 1, "rating": null, "neighborhood": null, "image": null, "scorecard": null, "featured": false, "sample_categories": "Catering, Restaurants, Barbecue Restaurants, Carry Out, Family Style Dining", "public_id": "as-sonnys-real-pit-barbq", "id": 793392090, "votes": null, "tagline": null, "has_video": false, "website": null, "offers": null, "latitude": null, "politanName": null, "phone_number": "7703681653", "tags": [{"primary": false, "id": 1705, "name": "Catering"}, {"primary": false, "id": 1722, "name": "Restaurants"}, {"primary": false, "id": 1724, "name": "Barbecue Restaurants"}, {"primary": false, "id": 11262, "name": "Family Style Dining"}, {"primary": true, "id": 11247, "name": "Carry Out"}], "fax_number": null, "expansion": {"count": null, "uri": null}, "impression_id": "000b000000e733e269be544a37a54a167798dc0a46", "profile": "http://www.citysearch.com/profile/793392090/sonny_s_real_pit_bar_b_q.html", "address": {"city": null, "state": null, "street": null, "postal_code": null}, "capProviderId": null, "distance": null, "has_offers": false, "name": "Sonny's Real Pit Bar-B-Q", "longitude": null, "has_menu": false, "awards": null, "user_review_count": 0}, {"business_operation_status": 1, "rating": null, "neighborhood": null, "image": null, "scorecard": null, "featured": false, "sample_categories": "Catering, Personal Chefs, Computer & Internet Services, Wedding Cakes, Seafood", "public_id": "as-glamacook-oad", "id": 801975680, "votes": null, "tagline": null, "has_video": false, "website": null, "offers": null, "latitude": null, "politanName": null, "phone_number": "4043451924", "tags": [{"primary": false, "id": 1705, "name": "Catering"}, {"primary": false, "id": 3534, "name": "Personal Chefs"}, {"primary": false, "id": 674, "name": "Computer & Internet Services"}, {"primary": false, "id": 11057, "name": "Wedding Cakes"}, {"primary": false, "id": 11228, "name": "Seafood"}, {"primary": true, "id": 11267, "name": "Food Delivery"}], "fax_number": null, "expansion": {"count": null, "uri": null}, "impression_id": "000b0000003eb12786047b496ea70a566dbb216011", "profile": "http://www.citysearch.com/profile/801975680/_oad_ga/glamacook.html", "address": {"city": "(Oad)", "state": "GA", "street": null, "postal_code": "30032"}, "capProviderId": null, "distance": null, "has_offers": false, "name": "GlamaCook", "longitude": null, "has_menu": false, "awards": null, "user_review_count": 0}], "histograms": [], "tag_ids": [1722], "uri": "http://api.citygridmedia.com:8080/search/places/v2/search/where?has_offers=false&type=restaurant&format=json&page=9&where=30081&rpp=50&histograms=false&publisher=10000009598&region_type=circle", "did_you_mean": "", "regions": [{"latitude": 33.883700000000005, "default_radius": 0.25, "type": "postal_code", "name": "30081", "longitude": -84.51440000000001}], "call_id": "000b000000ab6dccea09c148bcbe7b215484cfd8c3", "first_hit": 401, "total_hits": 440, "geo_ids": [137030], "page": 9, "last_hit": 440}}