{"results": {"rpp": 50, "locations": [{"business_operation_status": 1, "rating": null, "neighborhood": null, "image": null, "scorecard": null, "featured": false, "sample_categories": "Restaurants, Mexican, Carry Out", "public_id": "taco-bell-marietta-10", "id": 775210570, "votes": null, "tagline": null, "has_video": false, "website": "http://www.citysearch.com/profile/external/775210570/marietta_ga/taco_bell.html", "offers": null, "latitude": 33.924583, "politanName": "Atlanta, GA Metro ", "phone_number": "7705907481", "tags": [{"primary": false, "id": 11208, "name": "Mexican"}, {"primary": false, "id": 11247, "name": "Carry Out"}, {"primary": true, "id": 1722, "name": "Restaurants"}], "fax_number": null, "expansion": {"count": null, "uri": null}, "impression_id": "000b000000212a518dbf604f1aafddb891ce6b6e55", "profile": "http://www.citysearch.com/profile/775210570/marietta_ga/taco_bell.html", "address": {"city": "Marietta", "state": "GA", "street": "1180 Powder Springs St", "postal_code": "30064"}, "capProviderId": null, "distance": null, "has_offers": false, "name": "Taco Bell", "longitude": -84.575231, "has_menu": false, "awards": null, "user_review_count": 0}, {"business_operation_status": 1, "rating": null, "neighborhood": null, "image": null, "scorecard": null, "featured": false, "sample_categories": "Restaurants", "public_id": "cafe-internet-marietta", "id": 775213360, "votes": null, "tagline": null, "has_video": false, "website": null, "offers": null, "latitude": 33.938913, "politanName": "Atlanta, GA Metro ", "phone_number": "6785940304", "tags": [{"primary": true, "id": 1722, "name": "Restaurants"}], "fax_number": null, "expansion": {"count": null, "uri": null}, "impression_id": "000b0000002c7876d91378448882aaa8d7c4b3884d", "profile": "http://www.citysearch.com/profile/775213360/marietta_ga/cafe_internet.html", "address": {"city": "Marietta", "state": "GA", "street": "550 Franklin Rd SE", "postal_code": "30067"}, "capProviderId": null, "distance": null, "has_offers": false, "name": "Cafe Internet", "longitude": -84.507658, "has_menu": false, "awards": null, "user_review_count": 0}, {"business_operation_status": 1, "rating": null, "neighborhood": null, "image": null, "scorecard": null, "featured": false, "sample_categories": "Restaurants", "public_id": "ragazzis-marietta", "id": 775214350, "votes": null, "tagline": null, "has_video": false, "website": null, "offers": null, "latitude": 33.863583, "politanName": "Atlanta, GA Metro ", "phone_number": "7704326846", "tags": [{"primary": true, "id": 1722, "name": "Restaurants"}], "fax_number": null, "expansion": {"count": null, "uri": null}, "impression_id": "000b000000f4c8f1f44ae343e5910ec3d60d2b73dd", "profile": "http://www.citysearch.com/profile/775214350/marietta_ga/ragazzi_s.html", "address": {"city": "Marietta", "state": "GA", "street": "3696 Austell Rd SW", "postal_code": "30008"}, "capProviderId": null, "distance": null, "has_offers": false, "name": "Ragazzi's", "longitude": -84.595971, "has_menu": false, "awards": null, "user_review_count": 0}, {"business_operation_status": 1, "rating": null, "neighborhood": null, "image": null, "scorecard": null, "featured": false, "sample_categories": "Restaurants, Restaurant Management", "public_id": "jimlar-corp-mableton", "id": 37648465, "votes": null, "tagline": null, "has_video": false, "website": null, "offers": null, "latitude": 33.829896, "politanName": "Atlanta, GA Metro ", "phone_number": "7709486558", "tags": [{"primary": false, "id": 1722, "name": "Restaurants"}, {"primary": false, "id": 11122, "name": "Restaurant Management"}], "fax_number": null, "expansion": {"count": null, "uri": null}, "impression_id": "000b000000bf93fb8f469d4415860febdb5f95ba4d", "profile": "http://www.citysearch.com/profile/37648465/mableton_ga/jim_lar_corp.html", "address": {"city": "Mableton", "state": "GA", "street": "665 Vinings Estates Dr SE", "postal_code": "30126"}, "capProviderId": null, "distance": null, "has_offers": false, "name": "Jim-Lar Corp", "longitude": -84.534087, "has_menu": false, "awards": null, "user_review_count": 0}, {"business_operation_status": 1, "rating": null, "neighborhood": null, "image": null, "scorecard": null, "featured": false, "sample_categories": "Restaurants", "public_id": "pressed-marietta", "id": 787100030, "votes": null, "tagline": null, "has_video": false, "website": null, "offers": null, "latitude": 33.952269, "politanName": "Atlanta, GA Metro ", "phone_number": "7704853759", "tags": [{"primary": true, "id": 1722, "name": "Restaurants"}], "fax_number": null, "expansion": {"count": null, "uri": null}, "impression_id": "000b000000f180e2d69c1745828853466e66f44df6", "profile": "http://www.citysearch.com/profile/787100030/marietta_ga/pressed.html", "address": {"city": "Marietta", "state": "GA", "street": "30 S Park Sq Ne", "postal_code": "30060"}, "capProviderId": null, "distance": null, "has_offers": false, "name": "Pressed", "longitude": -84.550109, "has_menu": false, "awards": null, "user_review_count": 0}, {"business_operation_status": 1, "rating": null, "neighborhood": "Northside, Northside", "image": null, "scorecard": null, "featured": false, "sample_categories": "Restaurants", "public_id": "cafe-pavillion-atlanta", "id": 790898050, "votes": null, "tagline": null, "has_video": false, "website": null, "offers": null, "latitude": 33.842181, "politanName": "Atlanta, GA Metro ", "phone_number": "6789745537", "tags": [{"primary": true, "id": 1722, "name": "Restaurants"}], "fax_number": null, "expansion": {"count": null, "uri": null}, "impression_id": "000b00000094a61e0558a7400e9df1870369f9bfd6", "profile": "http://www.citysearch.com/profile/790898050/atlanta_ga/cafe_pavillion.html", "address": {"city": "Atlanta", "state": "GA", "street": "3193 Howell Mill Rd NW", "postal_code": "30327"}, "capProviderId": null, "distance": null, "has_offers": false, "name": "Cafe Pavillion", "longitude": -84.427827, "has_menu": false, "awards": null, "user_review_count": 0}, {"business_operation_status": 1, "rating": null, "neighborhood": null, "image": null, "scorecard": null, "featured": false, "sample_categories": "Ice Cream Parlors, Restaurants, Dessert Shops, Information & Referral Services", "public_id": "j-t-ice-cream-marietta", "id": 43838545, "votes": null, "tagline": null, "has_video": false, "website": null, "offers": null, "latitude": 33.883858, "politanName": "Atlanta, GA Metro ", "phone_number": "7708607124", "tags": [{"primary": false, "id": 1722, "name": "Restaurants"}, {"primary": false, "id": 1728, "name": "Dessert Shops"}, {"primary": false, "id": 624, "name": "Information & Referral Services"}, {"primary": true, "id": 1730, "name": "Ice Cream Parlors"}], "fax_number": null, "expansion": {"count": null, "uri": null}, "impression_id": "000b000000dacf5e114abd4fd99dca4f5730bc62ba", "profile": "http://www.citysearch.com/profile/43838545/marietta_ga/j_t_ice_cream.html", "address": {"city": "Marietta", "state": "GA", "street": "2879 Lakemont Dr SW", "postal_code": "30060"}, "capProviderId": null, "distance": null, "has_offers": false, "name": "J & T Ice Cream", "longitude": -84.554682, "has_menu": false, "awards": null, "user_review_count": 0}, {"business_operation_status": 1, "rating": null, "neighborhood": null, "image": null, "scorecard": null, "featured": false, "sample_categories": "Restaurants", "public_id": "cabana-salvadorian-restaurant-marietta", "id": 810719820, "votes": null, "tagline": null, "has_video": false, "website": null, "offers": null, "latitude": 33.904632, "politanName": "Atlanta, GA Metro ", "phone_number": "7704364070", "tags": [{"primary": true, "id": 1722, "name": "Restaurants"}], "fax_number": null, "expansion": {"count": null, "uri": null}, "impression_id": "000b0000004410b672303a4f77ac697f42d380d3cd", "profile": "http://www.citysearch.com/profile/810719820/marietta_ga/cabana_salvadorian_restaurant.html", "address": {"city": "Marietta", "state": "GA", "street": "1977 S Cobb Dr SE", "postal_code": "30060"}, "capProviderId": null, "distance": null, "has_offers": false, "name": "Cabana Salvadorian Restaurant", "longitude": -84.540946, "has_menu": false, "awards": null, "user_review_count": 0}, {"business_operation_status": 1, "rating": null, "neighborhood": null, "image": null, "scorecard": null, "featured": false, "sample_categories": "Restaurants", "public_id": "houstons-restaurants-del-smyrna", "id": 810805950, "votes": null, "tagline": null, "has_video": false, "website": null, "offers": null, "latitude": 33.852594, "politanName": "Atlanta, GA Metro ", "phone_number": "7703338377", "tags": [{"primary": true, "id": 1722, "name": "Restaurants"}], "fax_number": null, "expansion": {"count": null, "uri": null}, "impression_id": "000b0000008928379065614e79a75a9c07cdea2d25", "profile": "http://www.citysearch.com/profile/810805950/smyrna_ga/houstons_restaurants_del.html", "address": {"city": "Smyrna", "state": "GA", "street": "4112 Oberon Dr SE", "postal_code": "30080"}, "capProviderId": null, "distance": null, "has_offers": false, "name": "Houstons Restaurants Del", "longitude": -84.487327, "has_menu": false, "awards": null, "user_review_count": 0}, {"business_operation_status": 1, "rating": null, "neighborhood": "Northside, Northside", "image": null, "scorecard": null, "featured": false, "sample_categories": "Restaurants, Food Stores, Mexican, MasterCard, Visa", "public_id": "carniceria-ramirez-atlanta", "id": 43873739, "votes": null, "tagline": null, "has_video": false, "website": null, "offers": null, "latitude": 33.820552, "politanName": "Atlanta, GA Metro ", "phone_number": "4043556160", "tags": [{"primary": false, "id": 1706, "name": "Food Stores"}, {"primary": false, "id": 11208, "name": "Mexican"}, {"primary": false, "id": 11361, "name": "MasterCard"}, {"primary": false, "id": 11382, "name": "Visa"}, {"primary": true, "id": 1722, "name": "Restaurants"}], "fax_number": null, "expansion": {"count": null, "uri": null}, "impression_id": "000b000000c4483d6fa97b4a51852d4632f266ee0e", "profile": "http://www.citysearch.com/profile/43873739/atlanta_ga/carniceria_ramirez.html", "address": {"city": "Atlanta", "state": "GA", "street": "2600 Bolton Rd NW", "postal_code": "30318"}, "capProviderId": null, "distance": null, "has_offers": false, "name": "Carniceria Ramirez", "longitude": -84.45, "has_menu": false, "awards": null, "user_review_count": 1}, {"business_operation_status": 1, "rating": null, "neighborhood": null, "image": null, "scorecard": null, "featured": false, "sample_categories": "Restaurants, Delis And Delicatessens, Sandwich Shops, Carry Out, Soups", "public_id": "subway-smyrna-7", "id": 43839574, "votes": null, "tagline": null, "has_video": false, "website": "http://www.citysearch.com/profile/external/43839574/smyrna_ga/subway.html", "offers": null, "latitude": 33.838117, "politanName": "Atlanta, GA Metro ", "phone_number": "4047991300", "tags": [{"primary": false, "id": 1727, "name": "Delis And Delicatessens"}, {"primary": false, "id": 1736, "name": "Sandwich Shops"}, {"primary": false, "id": 11247, "name": "Carry Out"}, {"primary": false, "id": 11311, "name": "Soups"}, {"primary": false, "id": 11333, "name": "American Express"}, {"primary": false, "id": 11349, "name": "Discover"}, {"primary": false, "id": 11361, "name": "MasterCard"}, {"primary": false, "id": 11382, "name": "Visa"}, {"primary": true, "id": 1722, "name": "Restaurants"}], "fax_number": null, "expansion": {"count": null, "uri": null}, "impression_id": "000b00000040056ed0beb64acea0f591818a5e7e3e", "profile": "http://www.citysearch.com/profile/43839574/smyrna_ga/subway.html", "address": {"city": "Smyrna", "state": "GA", "street": "4725 S Atlanta Rd SE Ste D", "postal_code": "30080"}, "capProviderId": null, "distance": null, "has_offers": false, "name": "Subway", "longitude": -84.480226, "has_menu": true, "awards": null, "user_review_count": 0}, {"business_operation_status": 1, "rating": null, "neighborhood": null, "image": null, "scorecard": null, "featured": false, "sample_categories": "Restaurants, Delis And Delicatessens, Sandwich Shops, Carry Out, Soups", "public_id": "subway-marietta-23", "id": 45988791, "votes": null, "tagline": null, "has_video": false, "website": "http://www.citysearch.com/profile/external/45988791/marietta_ga/subway.html", "offers": null, "latitude": 33.868309, "politanName": "Atlanta, GA Metro ", "phone_number": "6783841428", "tags": [{"primary": false, "id": 1727, "name": "Delis And Delicatessens"}, {"primary": false, "id": 1736, "name": "Sandwich Shops"}, {"primary": false, "id": 11247, "name": "Carry Out"}, {"primary": false, "id": 11311, "name": "Soups"}, {"primary": true, "id": 1722, "name": "Restaurants"}], "fax_number": null, "expansion": {"count": null, "uri": null}, "impression_id": "000b0000008a5c3a5abbcd4a79bcb90e2a707cd97c", "profile": "http://www.citysearch.com/profile/45988791/marietta_ga/subway.html", "address": {"city": "Marietta", "state": "GA", "street": "6520 Ernest W Barrett Pkwy SW", "postal_code": "30064"}, "capProviderId": null, "distance": null, "has_offers": false, "name": "Subway", "longitude": -84.632278, "has_menu": true, "awards": null, "user_review_count": 0}, {"business_operation_status": 1, "rating": null, "neighborhood": null, "image": null, "scorecard": null, "featured": false, "sample_categories": "Restaurants", "public_id": "french-table-inc-atlanta", "id": 827584140, "votes": null, "tagline": null, "has_video": false, "website": null, "offers": null, "latitude": 33.865608, "politanName": "Atlanta, GA Metro ", "phone_number": "7708011321", "tags": [{"primary": true, "id": 1722, "name": "Restaurants"}], "fax_number": null, "expansion": {"count": null, "uri": null}, "impression_id": "000b00000057ba805cc53f48c6900c61ce2ec0a234", "profile": "http://www.citysearch.com/profile/827584140/atlanta_ga/french_table_inc.html", "address": {"city": "Atlanta", "state": "GA", "street": "2850 Paces Ferry Rd SE", "postal_code": "30339"}, "capProviderId": null, "distance": null, "has_offers": false, "name": "French Table Inc", "longitude": -84.468568, "has_menu": false, "awards": null, "user_review_count": 1}, {"business_operation_status": 1, "rating": null, "neighborhood": null, "image": null, "scorecard": null, "featured": false, "sample_categories": "Restaurants", "public_id": "caledonian-deli-at-overlook-atlanta", "id": 827404950, "votes": null, "tagline": null, "has_video": false, "website": null, "offers": null, "latitude": 33.865802, "politanName": "Atlanta, GA Metro ", "phone_number": "7704381091", "tags": [{"primary": true, "id": 1722, "name": "Restaurants"}], "fax_number": null, "expansion": {"count": null, "uri": null}, "impression_id": "000b000000dfc83cc8c760483f9bca1d183e3c0abf", "profile": "http://www.citysearch.com/profile/827404950/atlanta_ga/caledonian_deli_at_overlook.html", "address": {"city": "Atlanta", "state": "GA", "street": "2849 Paces Ferry Rd SE", "postal_code": "30339"}, "capProviderId": null, "distance": null, "has_offers": false, "name": "Caledonian Deli At Overlook", "longitude": -84.470462, "has_menu": false, "awards": null, "user_review_count": 0}, {"business_operation_status": 1, "rating": null, "neighborhood": null, "image": null, "scorecard": null, "featured": false, "sample_categories": "Restaurants", "public_id": "birrierias-tepechi-marietta", "id": 829992440, "votes": null, "tagline": null, "has_video": false, "website": null, "offers": null, "latitude": 33.925388, "politanName": "Atlanta, GA Metro ", "phone_number": "7704990470", "tags": [{"primary": true, "id": 1722, "name": "Restaurants"}], "fax_number": null, "expansion": {"count": null, "uri": null}, "impression_id": "000b00000033a697d920e146429e929b654513ad04", "profile": "http://www.citysearch.com/profile/829992440/marietta_ga/birrieria_s_tepechi.html", "address": {"city": "Marietta", "state": "GA", "street": "1135 Powder Springs St", "postal_code": "30064"}, "capProviderId": null, "distance": null, "has_offers": false, "name": "Birrieria's Tepechi", "longitude": -84.573222, "has_menu": false, "awards": null, "user_review_count": 0}, {"business_operation_status": 1, "rating": null, "neighborhood": null, "image": null, "scorecard": null, "featured": false, "sample_categories": "Restaurants", "public_id": "sonnys-home-cooking-mableton", "id": 832454830, "votes": null, "tagline": null, "has_video": false, "website": null, "offers": null, "latitude": 33.791518, "politanName": "Atlanta, GA Metro ", "phone_number": "7707396474", "tags": [{"primary": true, "id": 1722, "name": "Restaurants"}], "fax_number": null, "expansion": {"count": null, "uri": null}, "impression_id": "000b0000007ee0dca74cb44acd88fa213a25127fb3", "profile": "http://www.citysearch.com/profile/832454830/mableton_ga/sonnys_home_cooking.html", "address": {"city": "Mableton", "state": "GA", "street": "6200 Mableton Pkwy SE", "postal_code": "30126"}, "capProviderId": null, "distance": null, "has_offers": false, "name": "Sonnys Home Cooking", "longitude": -84.555588, "has_menu": false, "awards": null, "user_review_count": 1}, {"business_operation_status": 1, "rating": null, "neighborhood": null, "image": null, "scorecard": null, "featured": false, "sample_categories": "Barbecue Restaurants", "public_id": "apple-two-peach-barbecue-marietta", "id": 614162144, "votes": null, "tagline": null, "has_video": false, "website": null, "offers": null, "latitude": 33.936816, "politanName": "Atlanta, GA Metro ", "phone_number": "7706756411", "tags": [{"primary": true, "id": 1724, "name": "Barbecue Restaurants"}], "fax_number": null, "expansion": {"count": null, "uri": null}, "impression_id": "000b000000e854a35c938b4b7996a569a79455d626", "profile": "http://www.citysearch.com/profile/614162144/marietta_ga/apple_two_peach_barbecue.html", "address": {"city": "Marietta", "state": "GA", "street": "680 Powder Springs St", "postal_code": "30064"}, "capProviderId": null, "distance": null, "has_offers": false, "name": "Apple Two Peach Barbecue", "longitude": -84.557309, "has_menu": false, "awards": null, "user_review_count": 0}, {"business_operation_status": 1, "rating": null, "neighborhood": null, "image": null, "scorecard": null, "featured": false, "sample_categories": "Restaurants, Food Service Management", "public_id": "eurest-dining-svc-marietta", "id": 632989390, "votes": null, "tagline": null, "has_video": false, "website": "http://www.citysearch.com/profile/external/632989390/marietta_ga/eurest_dining_svc.html", "offers": null, "latitude": 33.929162, "politanName": "Atlanta, GA Metro ", "phone_number": "7706443211", "tags": [{"primary": false, "id": 11120, "name": "Food Service Management"}, {"primary": true, "id": 1722, "name": "Restaurants"}], "fax_number": null, "expansion": {"count": null, "uri": null}, "impression_id": "000b000000bb1bed52a496478fb3b247959d2ba25c", "profile": "http://www.citysearch.com/profile/632989390/marietta_ga/eurest_dining_svc.html", "address": {"city": "Marietta", "state": "GA", "street": "814 Livingston Ct Se", "postal_code": "30067"}, "capProviderId": null, "distance": null, "has_offers": false, "name": "Eurest Dining Svc", "longitude": -84.499949, "has_menu": false, "awards": null, "user_review_count": 0}, {"business_operation_status": 1, "rating": null, "neighborhood": null, "image": null, "scorecard": null, "featured": false, "sample_categories": "Restaurants, Eclectic & International", "public_id": "presto-latin-intl-cuisine-marietta", "id": 751337040, "votes": null, "tagline": null, "has_video": false, "website": null, "offers": null, "latitude": 33.951043, "politanName": "Atlanta, GA Metro ", "phone_number": "7709731280", "tags": [{"primary": false, "id": 11259, "name": "Eclectic & International"}, {"primary": true, "id": 1722, "name": "Restaurants"}], "fax_number": null, "expansion": {"count": null, "uri": null}, "impression_id": "000b0000006529e7cfa8264e4a97a0697e4259de9b", "profile": "http://www.citysearch.com/profile/751337040/marietta_ga/presto_latin_intl_cuisine.html", "address": {"city": "Marietta", "state": "GA", "street": "1157 Roswell Rd", "postal_code": "30062"}, "capProviderId": null, "distance": null, "has_offers": false, "name": "Presto Latin & Intl Cuisine", "longitude": -84.517842, "has_menu": false, "awards": null, "user_review_count": 0}, {"business_operation_status": 0, "rating": null, "neighborhood": null, "image": null, "scorecard": null, "featured": false, "sample_categories": "Restaurants, Carry Out", "public_id": "cheesecake-factory-marietta", "id": 739060620, "votes": null, "tagline": null, "has_video": false, "website": null, "offers": null, "latitude": 33.879177, "politanName": "Atlanta, GA Metro ", "phone_number": "7704371190", "tags": [{"primary": false, "id": 11247, "name": "Carry Out"}, {"primary": true, "id": 1722, "name": "Restaurants"}], "fax_number": null, "expansion": {"count": null, "uri": null}, "impression_id": "000b000000a9665759c068469fb4542a3d7194d649", "profile": "http://www.citysearch.com/profile/739060620/marietta_ga/cheesecake_factory.html", "address": {"city": "Marietta", "state": "GA", "street": "1562 Milford Creek Ln SW", "postal_code": "30008"}, "capProviderId": null, "distance": null, "has_offers": false, "name": "Cheesecake Factory", "longitude": -84.599961, "has_menu": false, "awards": null, "user_review_count": 0}, {"business_operation_status": 1, "rating": null, "neighborhood": null, "image": null, "scorecard": null, "featured": false, "sample_categories": "Ice Cream Parlors, Frozen Yogurt Shops", "public_id": "baskinrobbins-marietta-3", "id": 627672950, "votes": null, "tagline": null, "has_video": false, "website": "http://www.citysearch.com/profile/external/627672950/marietta_ga/baskin_robbins.html", "offers": null, "latitude": 33.942999, "politanName": "Atlanta, GA Metro ", "phone_number": "7704235947", "tags": [{"primary": false, "id": 1729, "name": "Frozen Yogurt Shops"}, {"primary": true, "id": 1730, "name": "Ice Cream Parlors"}], "fax_number": null, "expansion": {"count": null, "uri": null}, "impression_id": "000b000000a8186add568e41159b76e69a01da9e25", "profile": "http://www.citysearch.com/profile/627672950/marietta_ga/baskin_robbins.html", "address": {"city": "Marietta", "state": "GA", "street": "670 S Marietta Pkwy Se", "postal_code": "30060"}, "capProviderId": null, "distance": null, "has_offers": false, "name": "Baskin-Robbins", "longitude": -84.533601, "has_menu": true, "awards": null, "user_review_count": 0}, {"business_operation_status": 0, "rating": null, "neighborhood": null, "image": null, "scorecard": null, "featured": false, "sample_categories": "Restaurants, Carry Out, Pizza", "public_id": "jets-pizza-mableton", "id": 764891790, "votes": null, "tagline": null, "has_video": false, "website": null, "offers": null, "latitude": 33.79697, "politanName": "Atlanta, GA Metro ", "phone_number": "4046966091", "tags": [{"primary": false, "id": 11247, "name": "Carry Out"}, {"primary": false, "id": 11299, "name": "Pizza"}, {"primary": true, "id": 1722, "name": "Restaurants"}], "fax_number": null, "expansion": {"count": null, "uri": null}, "impression_id": "000b00000077ea04a7c0ed46c19118eabd6e019bb5", "profile": "http://www.citysearch.com/profile/764891790/mableton_ga/jet_s_pizza.html", "address": {"city": "Mableton", "state": "GA", "street": "6375 Discovery Blvd", "postal_code": "30126"}, "capProviderId": null, "distance": null, "has_offers": false, "name": "Jet's Pizza", "longitude": -84.515016, "has_menu": true, "awards": null, "user_review_count": 0}, {"business_operation_status": 1, "rating": null, "neighborhood": null, "image": null, "scorecard": null, "featured": false, "sample_categories": "Restaurants, Pizza, American Express, Debit Card, Discover", "public_id": "stevi-bs-pizza-smyrna", "id": 655867830, "votes": null, "tagline": null, "has_video": false, "website": "http://www.citysearch.com/profile/external/655867830/smyrna_ga/stevi_b_s_pizza.html", "offers": null, "latitude": 33.84362, "politanName": "Atlanta, GA Metro ", "phone_number": "7703198600", "tags": [{"primary": false, "id": 1722, "name": "Restaurants"}, {"primary": false, "id": 11333, "name": "American Express"}, {"primary": false, "id": 11347, "name": "Debit Card"}, {"primary": false, "id": 11349, "name": "Discover"}, {"primary": false, "id": 11361, "name": "MasterCard"}, {"primary": false, "id": 11382, "name": "Visa"}, {"primary": true, "id": 11299, "name": "Pizza"}], "fax_number": null, "expansion": {"count": null, "uri": null}, "impression_id": "000b000000a610dc0d10794fbeab8e1eb536c6d6aa", "profile": "http://www.citysearch.com/profile/655867830/smyrna_ga/stevi_b_s_pizza.html", "address": {"city": "Smyrna", "state": "GA", "street": "4480 S Cobb Dr Se", "postal_code": "30080"}, "capProviderId": null, "distance": null, "has_offers": false, "name": "Stevi B's Pizza", "longitude": -84.503397, "has_menu": true, "awards": null, "user_review_count": 0}, {"business_operation_status": 1, "rating": null, "neighborhood": null, "image": null, "scorecard": null, "featured": false, "sample_categories": "Restaurants", "public_id": "pearls-country-kitchen-mableton", "id": 777716180, "votes": null, "tagline": null, "has_video": false, "website": null, "offers": null, "latitude": 33.817665, "politanName": "Atlanta, GA Metro ", "phone_number": "7707398739", "tags": [{"primary": true, "id": 1722, "name": "Restaurants"}], "fax_number": null, "expansion": {"count": null, "uri": null}, "impression_id": "000b000000fb0fc7bd4c614062ac610d19f2c4665c", "profile": "http://www.citysearch.com/profile/777716180/mableton_ga/pearl_s_country_kitchen.html", "address": {"city": "Mableton", "state": "GA", "street": "1129 Veterans Memorial Hwy Sw", "postal_code": "30126"}, "capProviderId": null, "distance": null, "has_offers": false, "name": "Pearl's Country Kitchen", "longitude": -84.58707, "has_menu": false, "awards": null, "user_review_count": 2}, {"business_operation_status": 1, "rating": null, "neighborhood": null, "image": null, "scorecard": null, "featured": false, "sample_categories": "Restaurants", "public_id": "monicas-restaurant-mableton", "id": 777643360, "votes": null, "tagline": null, "has_video": false, "website": null, "offers": null, "latitude": 33.783418, "politanName": "Atlanta, GA Metro ", "phone_number": "7704850955", "tags": [{"primary": true, "id": 1722, "name": "Restaurants"}], "fax_number": null, "expansion": {"count": null, "uri": null}, "impression_id": "000b0000005d76400ab9ac4ba8b29bfe78adb26fb4", "profile": "http://www.citysearch.com/profile/777643360/mableton_ga/monica_s_restaurant.html", "address": {"city": "Mableton", "state": "GA", "street": "6960 Mableton Pkwy Se", "postal_code": "30126"}, "capProviderId": null, "distance": null, "has_offers": false, "name": "Monica's Restaurant", "longitude": -84.541117, "has_menu": false, "awards": null, "user_review_count": 0}, {"business_operation_status": 1, "rating": null, "neighborhood": null, "image": null, "scorecard": null, "featured": false, "sample_categories": "Restaurants", "public_id": "hot-skillet-marietta", "id": 798833310, "votes": null, "tagline": null, "has_video": false, "website": null, "offers": null, "latitude": 33.883313, "politanName": "Atlanta, GA Metro ", "phone_number": "4043746897", "tags": [{"primary": true, "id": 1722, "name": "Restaurants"}], "fax_number": null, "expansion": {"count": null, "uri": null}, "impression_id": "000b000000978f8cd023724fbba43a973c56c80e38", "profile": "http://www.citysearch.com/profile/798833310/marietta_ga/hot_skillet.html", "address": {"city": "Marietta", "state": "GA", "street": "2200 Powder Springs Rd Sw", "postal_code": "30064"}, "capProviderId": null, "distance": null, "has_offers": false, "name": "Hot Skillet", "longitude": -84.620092, "has_menu": false, "awards": null, "user_review_count": 0}, {"business_operation_status": 1, "rating": null, "neighborhood": null, "image": null, "scorecard": null, "featured": false, "sample_categories": "Restaurants", "public_id": "loya-soriano-llc-marietta", "id": 790674770, "votes": null, "tagline": null, "has_video": false, "website": null, "offers": null, "latitude": 33.904705, "politanName": "Atlanta, GA Metro ", "phone_number": "7704348888", "tags": [{"primary": true, "id": 1722, "name": "Restaurants"}], "fax_number": null, "expansion": {"count": null, "uri": null}, "impression_id": "000b0000007c1bc0a7986f4f709c57af1455e3e724", "profile": "http://www.citysearch.com/profile/790674770/marietta_ga/loya_soriano_llc.html", "address": {"city": "Marietta", "state": "GA", "street": "2359 Windy Hill Rd Se # 340", "postal_code": "30067"}, "capProviderId": null, "distance": null, "has_offers": false, "name": "Loya Soriano LLC", "longitude": -84.484545, "has_menu": false, "awards": null, "user_review_count": 0}, {"business_operation_status": 1, "rating": 6.0, "neighborhood": null, "image": null, "scorecard": null, "featured": false, "sample_categories": "Restaurants", "public_id": "daabha-indian-cafe-smyrna", "id": 35682006, "votes": null, "tagline": null, "has_video": false, "website": null, "offers": null, "latitude": 33.885315, "politanName": "Atlanta, GA Metro ", "phone_number": "7704440940", "tags": [{"primary": true, "id": 1722, "name": "Restaurants"}], "fax_number": null, "expansion": {"count": null, "uri": null}, "impression_id": "000b000000ca76ecdb3a894d21866ef98aaab35a15", "profile": "http://www.citysearch.com/profile/35682006/smyrna_ga/daabha_indian_cafe.html", "address": {"city": "Smyrna", "state": "GA", "street": "2772 Cumberland Blvd SE", "postal_code": "30080"}, "capProviderId": null, "distance": null, "has_offers": false, "name": "Daabha Indian Cafe", "longitude": -84.476776, "has_menu": false, "awards": null, "user_review_count": 1}, {"business_operation_status": 1, "rating": null, "neighborhood": null, "image": null, "scorecard": null, "featured": false, "sample_categories": "Restaurants", "public_id": "cancun-seafood-restaurant-smyrna", "id": 807595980, "votes": null, "tagline": null, "has_video": false, "website": null, "offers": null, "latitude": 33.894868, "politanName": "Atlanta, GA Metro ", "phone_number": "7704360565", "tags": [{"primary": true, "id": 1722, "name": "Restaurants"}], "fax_number": null, "expansion": {"count": null, "uri": null}, "impression_id": "000b000000ac9fdd5582b340fe84a749069423959a", "profile": "http://www.citysearch.com/profile/807595980/smyrna_ga/cancun_seafood_restaurant.html", "address": {"city": "Smyrna", "state": "GA", "street": "1005 Windy Hill Rd SE", "postal_code": "30080"}, "capProviderId": null, "distance": null, "has_offers": false, "name": "Cancun Seafood Restaurant", "longitude": -84.523746, "has_menu": false, "awards": null, "user_review_count": 0}, {"business_operation_status": 1, "rating": null, "neighborhood": null, "image": null, "scorecard": null, "featured": false, "sample_categories": "Restaurants, Carry Out", "public_id": "red-lobster-marietta-2", "id": 823429220, "votes": null, "tagline": null, "has_video": false, "website": null, "offers": null, "latitude": 33.933612, "politanName": "Atlanta, GA Metro ", "phone_number": "7704276554", "tags": [{"primary": false, "id": 11247, "name": "Carry Out"}, {"primary": true, "id": 1722, "name": "Restaurants"}], "fax_number": null, "expansion": {"count": null, "uri": null}, "impression_id": "000b0000001a65d858f44241279825fdbf91e6fa13", "profile": "http://www.citysearch.com/profile/823429220/marietta_ga/red_lobster.html", "address": {"city": "Marietta", "state": "GA", "street": "780 Cobb Pkwy S", "postal_code": "30060"}, "capProviderId": null, "distance": null, "has_offers": false, "name": "Red Lobster", "longitude": -84.512296, "has_menu": true, "awards": null, "user_review_count": 0}, {"business_operation_status": 1, "rating": null, "neighborhood": "Northside, Northside", "image": null, "scorecard": null, "featured": false, "sample_categories": "Restaurants", "public_id": "carlyles-atlanta-3", "id": 787123100, "votes": null, "tagline": null, "has_video": false, "website": "http://www.citysearch.com/profile/external/787123100/atlanta_ga/carlyle_s.html", "offers": null, "latitude": 33.79921, "politanName": "Atlanta, GA Metro ", "phone_number": "4048724231", "tags": [{"primary": true, "id": 1722, "name": "Restaurants"}], "fax_number": null, "expansion": {"count": null, "uri": null}, "impression_id": "000b000000179318b2737f4e08bd14a3c9438fd945", "profile": "http://www.citysearch.com/profile/787123100/atlanta_ga/carlyle_s.html", "address": {"city": "Atlanta", "state": "GA", "street": "1500 Southland Cir NW # M", "postal_code": "30318"}, "capProviderId": null, "distance": null, "has_offers": false, "name": "Carlyle's", "longitude": -84.432104, "has_menu": false, "awards": null, "user_review_count": 0}, {"business_operation_status": 1, "rating": null, "neighborhood": null, "image": null, "scorecard": null, "featured": false, "sample_categories": "Restaurants, Mexican", "public_id": "las-tortas-smyrna", "id": 36642548, "votes": null, "tagline": null, "has_video": false, "website": null, "offers": null, "latitude": 33.894337, "politanName": "Atlanta, GA Metro ", "phone_number": "7708050304", "tags": [{"primary": false, "id": 11208, "name": "Mexican"}, {"primary": true, "id": 1722, "name": "Restaurants"}], "fax_number": null, "expansion": {"count": null, "uri": null}, "impression_id": "000b00000074112e1d9b744977b68ee0db95b6796f", "profile": "http://www.citysearch.com/profile/36642548/smyrna_ga/las_tortas.html", "address": {"city": "Smyrna", "state": "GA", "street": "1026 Windy Hill Rd SE", "postal_code": "30080"}, "capProviderId": null, "distance": null, "has_offers": false, "name": "Las Tortas", "longitude": -84.523128, "has_menu": false, "awards": null, "user_review_count": 0}, {"business_operation_status": 1, "rating": null, "neighborhood": null, "image": null, "scorecard": null, "featured": false, "sample_categories": "Restaurants, Pizza, American Express, Discover, MasterCard", "public_id": "pizza-more-marietta", "id": 601298901, "votes": null, "tagline": null, "has_video": false, "website": null, "offers": null, "latitude": 33.90778, "politanName": "Atlanta, GA Metro ", "phone_number": "7706122922", "tags": [{"primary": false, "id": 1722, "name": "Restaurants"}, {"primary": false, "id": 11333, "name": "American Express"}, {"primary": false, "id": 11349, "name": "Discover"}, {"primary": false, "id": 11361, "name": "MasterCard"}, {"primary": false, "id": 11382, "name": "Visa"}, {"primary": true, "id": 11299, "name": "Pizza"}], "fax_number": null, "expansion": {"count": null, "uri": null}, "impression_id": "000b00000014113e29897b42d99f4098efc9da6f8f", "profile": "http://www.citysearch.com/profile/601298901/marietta_ga/pizza_more.html", "address": {"city": "Marietta", "state": "GA", "street": "1853 Terrell Mill Rd Se", "postal_code": "30067"}, "capProviderId": null, "distance": null, "has_offers": false, "name": "Pizza & More", "longitude": -84.487669, "has_menu": false, "awards": null, "user_review_count": 0}, {"business_operation_status": 1, "rating": null, "neighborhood": null, "image": null, "scorecard": null, "featured": false, "sample_categories": "Health Food Stores, Restaurants, Health Food Stores", "public_id": "smoothie-king-austell", "id": 601307784, "votes": null, "tagline": null, "has_video": false, "website": "http://www.citysearch.com/profile/external/601307784/austell_ga/smoothie_king.html", "offers": null, "latitude": 33.866983, "politanName": "Atlanta, GA Metro ", "phone_number": "7704395464", "tags": [{"primary": false, "id": 1722, "name": "Restaurants"}, {"primary": false, "id": 17570, "name": "Health Food Stores"}, {"primary": true, "id": 1716, "name": "Health Food Stores"}], "fax_number": null, "expansion": {"count": null, "uri": null}, "impression_id": "000b00000028cae4de2d284a1ebf7f12028ce8f4f1", "profile": "http://www.citysearch.com/profile/601307784/austell_ga/smoothie_king.html", "address": {"city": "Austell", "state": "GA", "street": "2840 E West Connector 340", "postal_code": "30106"}, "capProviderId": null, "distance": null, "has_offers": false, "name": "Smoothie King", "longitude": -84.624721, "has_menu": false, "awards": null, "user_review_count": 0}, {"business_operation_status": 0, "rating": null, "neighborhood": null, "image": null, "scorecard": null, "featured": false, "sample_categories": "Restaurants", "public_id": "chez-carmelle-pastry-restaurant-smyrna", "id": 672394340, "votes": null, "tagline": null, "has_video": false, "website": null, "offers": null, "latitude": 33.89429, "politanName": "Atlanta, GA Metro ", "phone_number": "7704384331", "tags": [{"primary": true, "id": 1722, "name": "Restaurants"}], "fax_number": null, "expansion": {"count": null, "uri": null}, "impression_id": "000b0000004856ec7cefa7425ca7998eeb2ab510f3", "profile": "http://www.citysearch.com/profile/672394340/smyrna_ga/chez_carmelle_pastry_restaurant.html", "address": {"city": "Smyrna", "state": "GA", "street": "560 Windy Hill Rd SE", "postal_code": "30080"}, "capProviderId": null, "distance": null, "has_offers": false, "name": "Chez Carmelle Pastry Restaurant", "longitude": -84.536945, "has_menu": false, "awards": null, "user_review_count": 0}, {"business_operation_status": 1, "rating": null, "neighborhood": "Northwest, Northwest", "image": null, "scorecard": null, "featured": false, "sample_categories": "Delis And Delicatessens, Restaurants", "public_id": "tillmans-deli-catering-atlanta", "id": 3024951, "votes": null, "tagline": null, "has_video": false, "website": null, "offers": null, "latitude": 33.791998, "politanName": "Atlanta, GA Metro ", "phone_number": "4046961302", "tags": [{"primary": false, "id": 1727, "name": "Delis And Delicatessens"}, {"primary": true, "id": 1722, "name": "Restaurants"}], "fax_number": null, "expansion": {"count": null, "uri": null}, "impression_id": "000b000000dcd39699f7c84fcf98d128db4c4c039b", "profile": "http://www.citysearch.com/profile/3024951/atlanta_ga/tillman_s_deli_catering.html", "address": {"city": "Atlanta", "state": "GA", "street": "3201 Atlanta Industrial Pkwy NW", "postal_code": "30331"}, "capProviderId": null, "distance": null, "has_offers": false, "name": "Tillman's Deli & Catering", "longitude": -84.494999, "has_menu": false, "awards": null, "user_review_count": 0}, {"business_operation_status": 1, "rating": null, "neighborhood": null, "image": null, "scorecard": null, "featured": false, "sample_categories": "Bars & Pubs, Bars & Clubs, Restaurants", "public_id": "abiy-cool-spot-bar-marietta", "id": 742214720, "votes": null, "tagline": null, "has_video": false, "website": null, "offers": null, "latitude": 33.901926, "politanName": "Atlanta, GA Metro ", "phone_number": "7706938314", "tags": [{"primary": false, "id": 164, "name": "Bars & Clubs"}, {"primary": false, "id": 1722, "name": "Restaurants"}, {"primary": true, "id": 1686, "name": "Bars & Pubs"}], "fax_number": null, "expansion": {"count": null, "uri": null}, "impression_id": "000b00000039cbf74287e947f68aa42f482df43b63", "profile": "http://www.citysearch.com/profile/742214720/marietta_ga/abiy_cool_spot_bar.html", "address": {"city": "Marietta", "state": "GA", "street": "495 Pat Mell Rd SW", "postal_code": "30060"}, "capProviderId": null, "distance": null, "has_offers": false, "name": "Abiy Cool Spot & Bar", "longitude": -84.567429, "has_menu": false, "awards": null, "user_review_count": 0}, {"business_operation_status": 1, "rating": null, "neighborhood": null, "image": null, "scorecard": null, "featured": false, "sample_categories": "Restaurants, Seafood Markets, Italian Food Products, Italian, American Express", "public_id": "mezza-luna-pasta-seafood-smyrna", "id": 801105940, "votes": null, "tagline": null, "has_video": false, "website": "http://www.citysearch.com/profile/external/801105940/smyrna_ga/mezza_luna_pasta_and_seafood.html", "offers": null, "latitude": 33.882797, "politanName": "Atlanta, GA Metro ", "phone_number": "7703190333", "tags": [{"primary": false, "id": 1719, "name": "Seafood Markets"}, {"primary": false, "id": 11154, "name": "Italian Food Products"}, {"primary": false, "id": 11279, "name": "Italian"}, {"primary": false, "id": 11333, "name": "American Express"}, {"primary": false, "id": 11347, "name": "Debit Card"}, {"primary": false, "id": 11349, "name": "Discover"}, {"primary": false, "id": 11361, "name": "MasterCard"}, {"primary": false, "id": 11382, "name": "Visa"}, {"primary": true, "id": 1722, "name": "Restaurants"}], "fax_number": null, "expansion": {"count": null, "uri": null}, "impression_id": "000b000000e902e4c04fd84f0694ccbe5be673ce92", "profile": "http://www.citysearch.com/profile/801105940/smyrna_ga/mezza_luna_pasta_and_seafood.html", "address": {"city": "Smyrna", "state": "GA", "street": "1669 Spring Rd SE", "postal_code": "30080"}, "capProviderId": null, "distance": null, "has_offers": false, "name": "Mezza Luna Pasta and Seafood", "longitude": -84.504883, "has_menu": false, "awards": null, "user_review_count": 0}, {"business_operation_status": 1, "rating": null, "neighborhood": null, "image": null, "scorecard": null, "featured": false, "sample_categories": "Restaurants, Cajun & Creole", "public_id": "cajun-johns-restaurant-marietta", "id": 45988795, "votes": null, "tagline": null, "has_video": false, "website": null, "offers": null, "latitude": 33.937014, "politanName": "Atlanta, GA Metro ", "phone_number": "7704998700", "tags": [{"primary": false, "id": 11245, "name": "Cajun & Creole"}, {"primary": true, "id": 1722, "name": "Restaurants"}], "fax_number": null, "expansion": {"count": null, "uri": null}, "impression_id": "000b00000095abdbf193be4831b3f9f6c0ad8886a4", "profile": "http://www.citysearch.com/profile/45988795/marietta_ga/cajun_john_s_restaurant.html", "address": {"city": "Marietta", "state": "GA", "street": "1123 Powder Springs St", "postal_code": "30064"}, "capProviderId": null, "distance": null, "has_offers": false, "name": "Cajun John's Restaurant", "longitude": -84.554706, "has_menu": false, "awards": null, "user_review_count": 0}, {"business_operation_status": 1, "rating": null, "neighborhood": null, "image": null, "scorecard": null, "featured": false, "sample_categories": "Delis And Delicatessens", "public_id": "kroger-deli-powder-spg-2", "id": 694161420, "votes": null, "tagline": null, "has_video": false, "website": null, "offers": null, "latitude": 33.903473, "politanName": "Atlanta, GA Metro ", "phone_number": "7702225180", "tags": [{"primary": true, "id": 1727, "name": "Delis And Delicatessens"}], "fax_number": null, "expansion": {"count": null, "uri": null}, "impression_id": "000b00000019371d5e00c5478787110b5742965823", "profile": "http://www.citysearch.com/profile/694161420/powder_springs_ga/kroger_deli.html", "address": {"city": "Powder Springs", "state": "GA", "street": "4150 Macland Rd", "postal_code": "30127"}, "capProviderId": null, "distance": null, "has_offers": false, "name": "Kroger Deli", "longitude": -84.67471, "has_menu": false, "awards": null, "user_review_count": 0}, {"business_operation_status": 1, "rating": null, "neighborhood": null, "image": null, "scorecard": null, "featured": false, "sample_categories": "Catering, Restaurants, Chinese", "public_id": "china-king-marietta", "id": 604719482, "votes": null, "tagline": null, "has_video": false, "website": null, "offers": null, "latitude": 33.882452, "politanName": "Atlanta, GA Metro ", "phone_number": "7704326688", "tags": [{"primary": false, "id": 1722, "name": "Restaurants"}, {"primary": false, "id": 11252, "name": "Chinese"}, {"primary": true, "id": 1705, "name": "Catering"}], "fax_number": null, "expansion": {"count": null, "uri": null}, "impression_id": "000b0000007204244d57814bb893b5e8e233915aa2", "profile": "http://www.citysearch.com/profile/604719482/marietta_ga/china_king.html", "address": {"city": "Marietta", "state": "GA", "street": "2909 Austell Rd SW", "postal_code": "30008"}, "capProviderId": null, "distance": null, "has_offers": false, "name": "China King", "longitude": -84.58798, "has_menu": false, "awards": null, "user_review_count": 0}, {"business_operation_status": 1, "rating": null, "neighborhood": null, "image": null, "scorecard": null, "featured": false, "sample_categories": "Restaurants, Carry Out, Hamburgers", "public_id": "mc-donalds-marietta-6", "id": 621871240, "votes": null, "tagline": null, "has_video": false, "website": "http://www.citysearch.com/profile/external/621871240/marietta_ga/mc_donald_s.html", "offers": null, "latitude": 33.908723, "politanName": "Atlanta, GA Metro ", "phone_number": "7709801194", "tags": [{"primary": false, "id": 11247, "name": "Carry Out"}, {"primary": false, "id": 11270, "name": "Hamburgers"}, {"primary": true, "id": 1722, "name": "Restaurants"}], "fax_number": null, "expansion": {"count": null, "uri": null}, "impression_id": "000b0000008f9d6563f36744dcbe2bed01c2e5551b", "profile": "http://www.citysearch.com/profile/621871240/marietta_ga/mc_donald_s.html", "address": {"city": "Marietta", "state": "GA", "street": "1785 Cobb Pkwy S", "postal_code": "30060"}, "capProviderId": null, "distance": null, "has_offers": false, "name": "Mc Donald's", "longitude": -84.492745, "has_menu": true, "awards": null, "user_review_count": 0}, {"business_operation_status": 1, "rating": null, "neighborhood": null, "image": null, "scorecard": null, "featured": false, "sample_categories": "Restaurants, Japanese", "public_id": "musashi-japanese-house-marietta", "id": 732179590, "votes": null, "tagline": null, "has_video": false, "website": null, "offers": null, "latitude": 33.908085, "politanName": "Atlanta, GA Metro ", "phone_number": "7702185691", "tags": [{"primary": false, "id": 11202, "name": "Japanese"}, {"primary": true, "id": 1722, "name": "Restaurants"}], "fax_number": null, "expansion": {"count": null, "uri": null}, "impression_id": "000b000000ea06832fd7414582a8e7d359352a3410", "profile": "http://www.citysearch.com/profile/732179590/marietta_ga/musashi_japanese_house.html", "address": {"city": "Marietta", "state": "GA", "street": "1690 Powder Springs Rd SW", "postal_code": "30064"}, "capProviderId": null, "distance": null, "has_offers": false, "name": "Musashi Japanese House", "longitude": -84.602757, "has_menu": false, "awards": null, "user_review_count": 0}, {"business_operation_status": 1, "rating": null, "neighborhood": null, "image": null, "scorecard": null, "featured": false, "sample_categories": "Restaurants", "public_id": "smoothie-express-marietta-2", "id": 653609590, "votes": null, "tagline": null, "has_video": false, "website": null, "offers": null, "latitude": 33.88207, "politanName": "Atlanta, GA Metro ", "phone_number": "6782969342", "tags": [{"primary": true, "id": 1722, "name": "Restaurants"}], "fax_number": null, "expansion": {"count": null, "uri": null}, "impression_id": "000b00000055bb619f950c43b784f038297857cf5e", "profile": "http://www.citysearch.com/profile/653609590/marietta_ga/smoothie_express.html", "address": {"city": "Marietta", "state": "GA", "street": "1661 Milford Creek Overlook Sw", "postal_code": "30008"}, "capProviderId": null, "distance": null, "has_offers": false, "name": "Smoothie Express", "longitude": -84.59932, "has_menu": false, "awards": null, "user_review_count": 0}, {"business_operation_status": 1, "rating": null, "neighborhood": null, "image": null, "scorecard": null, "featured": false, "sample_categories": "Restaurants", "public_id": "la-pachanga-marietta", "id": 775202790, "votes": null, "tagline": null, "has_video": false, "website": null, "offers": null, "latitude": 33.905088, "politanName": "Atlanta, GA Metro ", "phone_number": "7708054048", "tags": [{"primary": true, "id": 1722, "name": "Restaurants"}], "fax_number": null, "expansion": {"count": null, "uri": null}, "impression_id": "000b0000000d759034c0fe44dba05fcfc1adb9cbee", "profile": "http://www.citysearch.com/profile/775202790/marietta_ga/la_pachanga.html", "address": {"city": "Marietta", "state": "GA", "street": "1977 S Cobb Dr SE", "postal_code": "30060"}, "capProviderId": null, "distance": null, "has_offers": false, "name": "La Pachanga", "longitude": -84.542528, "has_menu": false, "awards": null, "user_review_count": 0}, {"business_operation_status": 1, "rating": null, "neighborhood": null, "image": null, "scorecard": null, "featured": false, "sample_categories": "Restaurants, Carry Out, Chicken", "public_id": "chickfila-atlanta-41", "id": 775192080, "votes": null, "tagline": null, "has_video": false, "website": "http://www.citysearch.com/profile/external/775192080/atlanta_ga/chick_fil_a.html", "offers": null, "latitude": 33.857869, "politanName": "Atlanta, GA Metro ", "phone_number": "7704281230", "tags": [{"primary": false, "id": 11247, "name": "Carry Out"}, {"primary": false, "id": 12839, "name": "Chicken"}, {"primary": true, "id": 1722, "name": "Restaurants"}], "fax_number": null, "expansion": {"count": null, "uri": null}, "impression_id": "000b000000d20cd9cda08d4ffab3dd6a8e5bf082c8", "profile": "http://www.citysearch.com/profile/775192080/atlanta_ga/chick_fil_a.html", "address": {"city": "Atlanta", "state": "GA", "street": "3951 Austell Re SW", "postal_code": "30303"}, "capProviderId": null, "distance": null, "has_offers": false, "name": "Chick-Fil-A", "longitude": -84.59993, "has_menu": false, "awards": null, "user_review_count": 0}, {"business_operation_status": 1, "rating": null, "neighborhood": null, "image": null, "scorecard": null, "featured": false, "sample_categories": "Restaurants", "public_id": "cajun-johns-marietta", "id": 672215460, "votes": null, "tagline": null, "has_video": false, "website": null, "offers": null, "latitude": 33.937014, "politanName": "Atlanta, GA Metro ", "phone_number": null, "tags": [{"primary": true, "id": 1722, "name": "Restaurants"}], "fax_number": null, "expansion": {"count": null, "uri": null}, "impression_id": "000b0000008aff7fe93ec44afbbaa997fc0a0688cc", "profile": "http://www.citysearch.com/profile/672215460/marietta_ga/cajun_john_s.html", "address": {"city": "Marietta", "state": "GA", "street": "1123 Powder Springs St. SE", "postal_code": "30064"}, "capProviderId": null, "distance": null, "has_offers": false, "name": "Cajun John's", "longitude": -84.554706, "has_menu": false, "awards": null, "user_review_count": 0}, {"business_operation_status": 1, "rating": null, "neighborhood": null, "image": null, "scorecard": null, "featured": false, "sample_categories": "Restaurants, Pizza, Carry Out", "public_id": "mellow-mushroom-marietta-4", "id": 777735910, "votes": null, "tagline": null, "has_video": false, "website": "http://www.citysearch.com/profile/external/777735910/marietta_ga/mellow_mushroom.html", "offers": null, "latitude": 33.908085, "politanName": "Atlanta, GA Metro ", "phone_number": "7704255511", "tags": [{"primary": false, "id": 1722, "name": "Restaurants"}, {"primary": false, "id": 11247, "name": "Carry Out"}, {"primary": true, "id": 11299, "name": "Pizza"}], "fax_number": null, "expansion": {"count": null, "uri": null}, "impression_id": "000b00000095e215e641dd4218942b80c0f4f0b950", "profile": "http://www.citysearch.com/profile/777735910/marietta_ga/mellow_mushroom.html", "address": {"city": "Marietta", "state": "GA", "street": "1690 Powder Springs Rd Sw #214", "postal_code": "30064"}, "capProviderId": null, "distance": null, "has_offers": false, "name": "Mellow Mushroom", "longitude": -84.602757, "has_menu": true, "awards": null, "user_review_count": 0}, {"business_operation_status": 1, "rating": null, "neighborhood": null, "image": null, "scorecard": null, "featured": false, "sample_categories": "Restaurants", "public_id": "manna-smyrna", "id": 777817720, "votes": null, "tagline": null, "has_video": false, "website": null, "offers": null, "latitude": 33.879067, "politanName": "Atlanta, GA Metro ", "phone_number": "7704311992", "tags": [{"primary": true, "id": 1722, "name": "Restaurants"}], "fax_number": null, "expansion": {"count": null, "uri": null}, "impression_id": "000b0000007495b2eae836479d9009290addfc05d1", "profile": "http://www.citysearch.com/profile/777817720/smyrna_ga/manna.html", "address": {"city": "Smyrna", "state": "GA", "street": "3120 S Cobb Dr Se", "postal_code": "30080"}, "capProviderId": null, "distance": null, "has_offers": false, "name": "Manna", "longitude": -84.5327, "has_menu": false, "awards": null, "user_review_count": 0}, {"business_operation_status": 1, "rating": null, "neighborhood": null, "image": null, "scorecard": null, "featured": false, "sample_categories": "Restaurants, Barbecue Restaurants", "public_id": "hot-wings-marietta", "id": 682287680, "votes": null, "tagline": null, "has_video": false, "website": null, "offers": null, "latitude": 33.941419, "politanName": "Atlanta, GA Metro ", "phone_number": "7702181589", "tags": [{"primary": false, "id": 1724, "name": "Barbecue Restaurants"}, {"primary": true, "id": 1722, "name": "Restaurants"}], "fax_number": null, "expansion": {"count": null, "uri": null}, "impression_id": "000b000000476292b013f74dd68997b7e79f94ab92", "profile": "http://www.citysearch.com/profile/682287680/marietta_ga/hot_wings.html", "address": {"city": "Marietta", "state": "GA", "street": "981 S Marietta Pkwy Se", "postal_code": "30060"}, "capProviderId": null, "distance": null, "has_offers": false, "name": "Hot Wings", "longitude": -84.522978, "has_menu": true, "awards": null, "user_review_count": 2}], "histograms": [], "tag_ids": [1722], "uri": "http://api.citygridmedia.com:8080/search/places/v2/search/where?has_offers=false&type=restaurant&format=json&page=17&where=30082&rpp=50&histograms=false&publisher=10000009598&region_type=circle", "did_you_mean": "", "regions": [{"latitude": 33.854375999999995, "default_radius": 3.24, "type": "postal_code", "name": "30082", "longitude": -84.535215}], "call_id": "000b00000083aea6138af84002af88a5a68c802673", "first_hit": 801, "total_hits": 1174, "geo_ids": [26331], "page": 17, "last_hit": 850}}