{"results": {"rpp": 50, "locations": [{"business_operation_status": 1, "rating": null, "neighborhood": null, "image": null, "scorecard": null, "featured": false, "sample_categories": "Restaurants, Mexican, Chicken", "public_id": "pollo-tropical-atlanta", "id": 757946800, "votes": null, "tagline": null, "has_video": false, "website": null, "offers": null, "latitude": 33.88074, "politanName": "Atlanta, GA Metro ", "phone_number": "7709800635", "tags": [{"primary": false, "id": 11208, "name": "Mexican"}, {"primary": false, "id": 12839, "name": "Chicken"}, {"primary": true, "id": 1722, "name": "Restaurants"}], "fax_number": null, "expansion": {"count": null, "uri": null}, "impression_id": "000b00000059d05d5f757544058892f5e3263a09a9", "profile": "http://www.citysearch.com/profile/757946800/atlanta_ga/pollo_tropical.html", "address": {"city": "Atlanta", "state": "GA", "street": "2955 Cobb Pkwy SE", "postal_code": "30339"}, "capProviderId": null, "distance": null, "has_offers": false, "name": "Pollo Tropical", "longitude": -84.462229, "has_menu": false, "awards": null, "user_review_count": 0}, {"business_operation_status": 1, "rating": null, "neighborhood": "Northside, Northside", "image": null, "scorecard": null, "featured": false, "sample_categories": "Restaurants, Seafood Markets, Seafood", "public_id": "taste-for-seafood-atlanta", "id": 762806070, "votes": null, "tagline": null, "has_video": false, "website": null, "offers": null, "latitude": 33.788168, "politanName": "Atlanta, GA Metro ", "phone_number": "4043520829", "tags": [{"primary": false, "id": 1719, "name": "Seafood Markets"}, {"primary": false, "id": 11228, "name": "Seafood"}, {"primary": true, "id": 1722, "name": "Restaurants"}], "fax_number": null, "expansion": {"count": null, "uri": null}, "impression_id": "000b0000005d00ecc06b7f44c2981bd14a465fe89e", "profile": "http://www.citysearch.com/profile/762806070/atlanta_ga/taste_for_seafood.html", "address": {"city": "Atlanta", "state": "GA", "street": "1222 Menlo Dr NW", "postal_code": "30318"}, "capProviderId": null, "distance": null, "has_offers": false, "name": "Taste For Seafood", "longitude": -84.424383, "has_menu": false, "awards": null, "user_review_count": 0}, {"business_operation_status": 1, "rating": null, "neighborhood": null, "image": null, "scorecard": null, "featured": false, "sample_categories": "Bars & Clubs, Restaurants, Mexican", "public_id": "three-amigos-mexican-bar-marietta", "id": 764927450, "votes": null, "tagline": null, "has_video": false, "website": null, "offers": null, "latitude": 33.953033, "politanName": "Atlanta, GA Metro ", "phone_number": "7704855947", "tags": [{"primary": false, "id": 164, "name": "Bars & Clubs"}, {"primary": false, "id": 11208, "name": "Mexican"}, {"primary": true, "id": 1722, "name": "Restaurants"}], "fax_number": null, "expansion": {"count": null, "uri": null}, "impression_id": "000b0000001e1ee90239594c6c8ba25a6ddaa256fb", "profile": "http://www.citysearch.com/profile/764927450/marietta_ga/three_amigos_mexican_bar.html", "address": {"city": "Marietta", "state": "GA", "street": "1000 Whitlock Ave NW # 410", "postal_code": "30064"}, "capProviderId": null, "distance": null, "has_offers": false, "name": "Three Amigos Mexican Bar", "longitude": -84.581202, "has_menu": false, "awards": null, "user_review_count": 0}, {"business_operation_status": 1, "rating": null, "neighborhood": null, "image": null, "scorecard": null, "featured": false, "sample_categories": "Restaurants, Bars & Clubs, Bars & Pubs", "public_id": "two-monkies-tavern-marietta", "id": 764934920, "votes": null, "tagline": null, "has_video": false, "website": null, "offers": null, "latitude": 33.951899, "politanName": "Atlanta, GA Metro ", "phone_number": "7704220108", "tags": [{"primary": false, "id": 164, "name": "Bars & Clubs"}, {"primary": false, "id": 1686, "name": "Bars & Pubs"}, {"primary": true, "id": 1722, "name": "Restaurants"}], "fax_number": null, "expansion": {"count": null, "uri": null}, "impression_id": "000b0000007614d1da9e9c4a2e97e43afedcd9ba7b", "profile": "http://www.citysearch.com/profile/764934920/marietta_ga/two_monkies_tavern.html", "address": {"city": "Marietta", "state": "GA", "street": "688 Whitlock Ave NW", "postal_code": "30064"}, "capProviderId": null, "distance": null, "has_offers": false, "name": "Two Monkies Tavern", "longitude": -84.57265, "has_menu": false, "awards": null, "user_review_count": 0}, {"business_operation_status": 0, "rating": null, "neighborhood": "Northside, Northside, Bolton", "image": null, "scorecard": null, "featured": false, "sample_categories": "Restaurants, Delis And Delicatessens, Sandwich Shops, Carry Out", "public_id": "blimpie-subs-salads-atlanta-36", "id": 764834750, "votes": null, "tagline": null, "has_video": false, "website": null, "offers": null, "latitude": 33.820819, "politanName": "Atlanta, GA Metro ", "phone_number": "4043518135", "tags": [{"primary": false, "id": 1727, "name": "Delis And Delicatessens"}, {"primary": false, "id": 1736, "name": "Sandwich Shops"}, {"primary": false, "id": 11247, "name": "Carry Out"}, {"primary": true, "id": 1722, "name": "Restaurants"}], "fax_number": null, "expansion": {"count": null, "uri": null}, "impression_id": "000b000000c4e041a24887456ba6395487dad77a84", "profile": "http://www.citysearch.com/profile/764834750/atlanta_ga/blimpie_subs_salads.html", "address": {"city": "Atlanta", "state": "GA", "street": "2356 Marietta Blvd NW", "postal_code": "30318"}, "capProviderId": null, "distance": null, "has_offers": false, "name": "Blimpie Subs & Salads", "longitude": -84.454528, "has_menu": false, "awards": null, "user_review_count": 0}, {"business_operation_status": 1, "rating": null, "neighborhood": "Northside, Northside", "image": null, "scorecard": null, "featured": false, "sample_categories": "Restaurants, Carry Out", "public_id": "churchs-chicken-atlanta-28", "id": 764836370, "votes": null, "tagline": null, "has_video": false, "website": null, "offers": null, "latitude": 33.794633, "politanName": "Atlanta, GA Metro ", "phone_number": "4047940183", "tags": [{"primary": false, "id": 11247, "name": "Carry Out"}, {"primary": true, "id": 1722, "name": "Restaurants"}], "fax_number": null, "expansion": {"count": null, "uri": null}, "impression_id": "000b000000bf79e6f36f424c46a05c188dc6bdba97", "profile": "http://www.citysearch.com/profile/764836370/atlanta_ga/church_s_chicken.html", "address": {"city": "Atlanta", "state": "GA", "street": "3160 Hllwell Pkwy NW", "postal_code": "30318"}, "capProviderId": null, "distance": null, "has_offers": false, "name": "Church's Chicken", "longitude": -84.448772, "has_menu": false, "awards": null, "user_review_count": 0}, {"business_operation_status": 1, "rating": null, "neighborhood": null, "image": null, "scorecard": null, "featured": false, "sample_categories": "Ice Cream Parlors, Restaurants, Dessert Shops", "public_id": "tongue-slide-water-ice-mableton", "id": 41608412, "votes": null, "tagline": null, "has_video": false, "website": null, "offers": null, "latitude": 33.813153, "politanName": "Atlanta, GA Metro ", "phone_number": "7707452233", "tags": [{"primary": false, "id": 1722, "name": "Restaurants"}, {"primary": false, "id": 1728, "name": "Dessert Shops"}, {"primary": true, "id": 1730, "name": "Ice Cream Parlors"}], "fax_number": null, "expansion": {"count": null, "uri": null}, "impression_id": "000b000000e18cc79971ca44f3bb5f23fc3bcf1392", "profile": "http://www.citysearch.com/profile/41608412/mableton_ga/tongue_slide_water_ice.html", "address": {"city": "Mableton", "state": "GA", "street": "296 Veterans Memorial Hwy SE", "postal_code": "30126"}, "capProviderId": null, "distance": null, "has_offers": false, "name": "Tongue Slide Water Ice", "longitude": -84.54604, "has_menu": false, "awards": null, "user_review_count": 0}, {"business_operation_status": 1, "rating": null, "neighborhood": null, "image": null, "scorecard": null, "featured": false, "sample_categories": "Restaurants, Traditional American, Carry Out", "public_id": "hardees-atlanta-2", "id": 43874171, "votes": null, "tagline": null, "has_video": false, "website": null, "offers": null, "latitude": 33.899543, "politanName": "Atlanta, GA Metro ", "phone_number": "4049829989", "tags": [{"primary": false, "id": 11190, "name": "Traditional American"}, {"primary": false, "id": 11247, "name": "Carry Out"}, {"primary": true, "id": 1722, "name": "Restaurants"}], "fax_number": null, "expansion": {"count": null, "uri": null}, "impression_id": "000b00000024b0f5b9708e4431b0720708b5ed0996", "profile": "http://www.citysearch.com/profile/43874171/atlanta_ga/hardee_s.html", "address": {"city": "Atlanta", "state": "GA", "street": "808 S Powers Ct NW", "postal_code": "30327"}, "capProviderId": null, "distance": null, "has_offers": false, "name": "Hardee's", "longitude": -84.413984, "has_menu": false, "awards": null, "user_review_count": 0}, {"business_operation_status": 1, "rating": 8.0, "neighborhood": null, "image": null, "scorecard": null, "featured": false, "sample_categories": "Restaurants, Traditional American, Carry Out, American Express, Discover", "public_id": "ruby-tuesday-marietta", "id": 43851545, "votes": null, "tagline": null, "has_video": false, "website": "http://www.citysearch.com/profile/external/43851545/marietta_ga/ruby_tuesday.html", "offers": null, "latitude": 33.922906, "politanName": "Atlanta, GA Metro ", "phone_number": "7709339050", "tags": [{"primary": false, "id": 11190, "name": "Traditional American"}, {"primary": false, "id": 11247, "name": "Carry Out"}, {"primary": false, "id": 11333, "name": "American Express"}, {"primary": false, "id": 11349, "name": "Discover"}, {"primary": false, "id": 11361, "name": "MasterCard"}, {"primary": false, "id": 11375, "name": "Shop Online"}, {"primary": false, "id": 11382, "name": "Visa"}, {"primary": true, "id": 1722, "name": "Restaurants"}], "fax_number": null, "expansion": {"count": null, "uri": null}, "impression_id": "000b00000017c0721d327344a4b241f4d743aa12b1", "profile": "http://www.citysearch.com/profile/43851545/marietta_ga/ruby_tuesday.html", "address": {"city": "Marietta", "state": "GA", "street": "2435 Delk Rd SE", "postal_code": "30067"}, "capProviderId": null, "distance": null, "has_offers": false, "name": "Ruby Tuesday", "longitude": -84.485017, "has_menu": true, "awards": null, "user_review_count": 2}, {"business_operation_status": 1, "rating": null, "neighborhood": null, "image": null, "scorecard": null, "featured": false, "sample_categories": "Restaurants, Mexican", "public_id": "maria-ponita-mexican-club-marietta", "id": 45556505, "votes": null, "tagline": null, "has_video": false, "website": null, "offers": null, "latitude": 33.921568, "politanName": "Atlanta, GA Metro ", "phone_number": "6782132254", "tags": [{"primary": false, "id": 11208, "name": "Mexican"}, {"primary": true, "id": 1722, "name": "Restaurants"}], "fax_number": null, "expansion": {"count": null, "uri": null}, "impression_id": "000b0000002788602e240c4dba908277fe7be57493", "profile": "http://www.citysearch.com/profile/45556505/marietta_ga/maria_ponita_mexican_club.html", "address": {"city": "Marietta", "state": "GA", "street": "1177 Bellemeade Dr SW", "postal_code": "30008"}, "capProviderId": null, "distance": null, "has_offers": false, "name": "Maria Ponita Mexican Club", "longitude": -84.574372, "has_menu": false, "awards": null, "user_review_count": 1}, {"business_operation_status": 1, "rating": null, "neighborhood": null, "image": null, "scorecard": null, "featured": false, "sample_categories": "Restaurants, Barbecue Restaurants", "public_id": "smokin-js-bbq-marietta", "id": 809243680, "votes": null, "tagline": null, "has_video": false, "website": "http://www.citysearch.com/profile/external/809243680/marietta_ga/smokin_js_bbq.html", "offers": null, "latitude": 33.969959, "politanName": "Atlanta, GA Metro ", "phone_number": "7709731003", "tags": [{"primary": false, "id": 1724, "name": "Barbecue Restaurants"}, {"primary": true, "id": 1722, "name": "Restaurants"}], "fax_number": null, "expansion": {"count": null, "uri": null}, "impression_id": "000b0000007a6412fc27f041b88b0184b59a2a3b44", "profile": "http://www.citysearch.com/profile/809243680/marietta_ga/smokin_js_bbq.html", "address": {"city": "Marietta", "state": "GA", "street": "2145 Roswell Rd", "postal_code": "30062"}, "capProviderId": null, "distance": null, "has_offers": false, "name": "Smokin Js BBQ", "longitude": -84.490616, "has_menu": true, "awards": null, "user_review_count": 0}, {"business_operation_status": 1, "rating": null, "neighborhood": null, "image": null, "scorecard": null, "featured": false, "sample_categories": "Restaurants", "public_id": "taco-prado-mableton", "id": 839815990, "votes": null, "tagline": null, "has_video": false, "website": null, "offers": null, "latitude": 33.785092, "politanName": "Atlanta, GA Metro ", "phone_number": "7706933459", "tags": [{"primary": true, "id": 1722, "name": "Restaurants"}], "fax_number": null, "expansion": {"count": null, "uri": null}, "impression_id": "000b000000d9dcad51572849c5ab944a66dae0f614", "profile": "http://www.citysearch.com/profile/839815990/mableton_ga/taco_prado.html", "address": {"city": "Mableton", "state": "GA", "street": "6912 Mableton Pkwy SE", "postal_code": "30126"}, "capProviderId": null, "distance": null, "has_offers": false, "name": "Taco Prado", "longitude": -84.543614, "has_menu": false, "awards": null, "user_review_count": 0}, {"business_operation_status": 1, "rating": null, "neighborhood": null, "image": null, "scorecard": null, "featured": false, "sample_categories": "Doughnut Shops, Coffeehouses", "public_id": "dunkin-donuts-atlanta-13", "id": 622351620, "votes": null, "tagline": null, "has_video": false, "website": "http://www.citysearch.com/profile/external/622351620/atlanta_ga/dunkin_donuts.html", "offers": null, "latitude": 33.901856, "politanName": "Atlanta, GA Metro ", "phone_number": "7708592954", "tags": [{"primary": false, "id": 1726, "name": "Coffeehouses"}, {"primary": true, "id": 1734, "name": "Doughnut Shops"}], "fax_number": null, "expansion": {"count": null, "uri": null}, "impression_id": "000b000000a976001023064649a27253fcb1157293", "profile": "http://www.citysearch.com/profile/622351620/atlanta_ga/dunkin_donuts.html", "address": {"city": "Atlanta", "state": "GA", "street": "2022 Powers Ferry Rd Se # 100", "postal_code": "30339"}, "capProviderId": null, "distance": null, "has_offers": false, "name": "Dunkin' Donuts", "longitude": -84.455034, "has_menu": false, "awards": null, "user_review_count": 0}, {"business_operation_status": 0, "rating": 8.0, "neighborhood": null, "image": null, "scorecard": null, "featured": false, "sample_categories": "Catering, Restaurants, Food Delivery", "public_id": "old-hickory-barbeque-mableton", "id": 33652110, "votes": null, "tagline": null, "has_video": false, "website": null, "offers": null, "latitude": 33.816965, "politanName": "Atlanta, GA Metro ", "phone_number": "7709489451", "tags": [{"primary": false, "id": 1722, "name": "Restaurants"}, {"primary": false, "id": 11267, "name": "Food Delivery"}, {"primary": true, "id": 1705, "name": "Catering"}], "fax_number": null, "expansion": {"count": null, "uri": null}, "impression_id": "000b000000789324af29564b1095402627a95baaa9", "profile": "http://www.citysearch.com/profile/33652110/mableton_ga/old_hickory_barbeque.html", "address": {"city": "Mableton", "state": "GA", "street": "499 Veterans Memorial Hwy SW", "postal_code": "30126"}, "capProviderId": null, "distance": null, "has_offers": false, "name": "Old Hickory Barbeque", "longitude": -84.568558, "has_menu": false, "awards": null, "user_review_count": 0}, {"business_operation_status": 1, "rating": null, "neighborhood": null, "image": null, "scorecard": null, "featured": false, "sample_categories": "Restaurants, Delis And Delicatessens, Sandwich Shops, Carry Out, Soups", "public_id": "subway-marietta-41", "id": 43853244, "votes": null, "tagline": null, "has_video": false, "website": "http://www.citysearch.com/profile/external/43853244/marietta_ga/subway.html", "offers": null, "latitude": 33.945791, "politanName": "Atlanta, GA Metro ", "phone_number": "7704277107", "tags": [{"primary": false, "id": 1727, "name": "Delis And Delicatessens"}, {"primary": false, "id": 1736, "name": "Sandwich Shops"}, {"primary": false, "id": 11247, "name": "Carry Out"}, {"primary": false, "id": 11311, "name": "Soups"}, {"primary": false, "id": 11361, "name": "MasterCard"}, {"primary": false, "id": 11382, "name": "Visa"}, {"primary": true, "id": 1722, "name": "Restaurants"}], "fax_number": null, "expansion": {"count": null, "uri": null}, "impression_id": "000b000000e5915f5aa05545c797470ad386ebcc7b", "profile": "http://www.citysearch.com/profile/43853244/marietta_ga/subway.html", "address": {"city": "Marietta", "state": "GA", "street": "2475 Dallas Hwy SW", "postal_code": "30064"}, "capProviderId": null, "distance": null, "has_offers": false, "name": "Subway", "longitude": -84.623056, "has_menu": true, "awards": null, "user_review_count": 0}, {"business_operation_status": 1, "rating": null, "neighborhood": null, "image": null, "scorecard": null, "featured": false, "sample_categories": "Bars & Clubs, Bars & Pubs, Restaurants, Seafood, Hamburgers", "public_id": "burger-lounge-atlanta", "id": 632974730, "votes": null, "tagline": null, "has_video": false, "website": null, "offers": null, "latitude": 33.864803, "politanName": "Atlanta, GA Metro ", "phone_number": "4047544143", "tags": [{"primary": false, "id": 1686, "name": "Bars & Pubs"}, {"primary": false, "id": 1722, "name": "Restaurants"}, {"primary": false, "id": 11228, "name": "Seafood"}, {"primary": false, "id": 11270, "name": "Hamburgers"}, {"primary": true, "id": 164, "name": "Bars & Clubs"}], "fax_number": null, "expansion": {"count": null, "uri": null}, "impression_id": "000b0000003c25ba15c75d46e88a6f10b23f5bd8a4", "profile": "http://www.citysearch.com/profile/632974730/atlanta_ga/burger_lounge.html", "address": {"city": "Atlanta", "state": "GA", "street": "4300 Paces Ferry Rd Se", "postal_code": "30339"}, "capProviderId": null, "distance": null, "has_offers": false, "name": "Burger Lounge", "longitude": -84.46568, "has_menu": false, "awards": null, "user_review_count": 0}, {"business_operation_status": 1, "rating": null, "neighborhood": null, "image": null, "scorecard": null, "featured": false, "sample_categories": "Restaurants, Pizza", "public_id": "aces-chicago-pizza-atlanta", "id": 647324780, "votes": null, "tagline": null, "has_video": false, "website": null, "offers": null, "latitude": 33.886583, "politanName": "Atlanta, GA Metro ", "phone_number": "7707567223", "tags": [{"primary": false, "id": 1722, "name": "Restaurants"}, {"primary": true, "id": 11299, "name": "Pizza"}], "fax_number": null, "expansion": {"count": null, "uri": null}, "impression_id": "000b0000005398696bfbca4fde9573da57fd8381d4", "profile": "http://www.citysearch.com/profile/647324780/atlanta_ga/aces_chicago_pizza.html", "address": {"city": "Atlanta", "state": "GA", "street": "300 Galleria Pkwy Se # 960", "postal_code": "30339"}, "capProviderId": null, "distance": null, "has_offers": false, "name": "Aces Chicago Pizza", "longitude": -84.462614, "has_menu": false, "awards": null, "user_review_count": 0}, {"business_operation_status": 1, "rating": null, "neighborhood": null, "image": null, "scorecard": null, "featured": false, "sample_categories": "Restaurants", "public_id": "mocha-delights-marietta", "id": 45551238, "votes": null, "tagline": null, "has_video": false, "website": null, "offers": null, "latitude": 33.902448, "politanName": "Atlanta, GA Metro ", "phone_number": "7709567612", "tags": [{"primary": true, "id": 1722, "name": "Restaurants"}], "fax_number": null, "expansion": {"count": null, "uri": null}, "impression_id": "000b00000035bd77870c174191bfed5309cf21e281", "profile": "http://www.citysearch.com/profile/45551238/marietta_ga/mocha_delights.html", "address": {"city": "Marietta", "state": "GA", "street": "2470 Windy Hill Rd SE Ste 148", "postal_code": "30067"}, "capProviderId": null, "distance": null, "has_offers": false, "name": "Mocha Delights", "longitude": -84.480786, "has_menu": false, "awards": null, "user_review_count": 0}, {"business_operation_status": 1, "rating": null, "neighborhood": null, "image": null, "scorecard": null, "featured": false, "sample_categories": "Restaurants", "public_id": "bubbalinis-marietta", "id": 672813110, "votes": null, "tagline": null, "has_video": false, "website": "http://www.citysearch.com/profile/external/672813110/marietta_ga/bubbalini_s.html", "offers": null, "latitude": 33.952594, "politanName": "Atlanta, GA Metro ", "phone_number": "6785947770", "tags": [{"primary": true, "id": 1722, "name": "Restaurants"}], "fax_number": null, "expansion": {"count": null, "uri": null}, "impression_id": "000b00000037d84a7a6b01454190adc607818d177b", "profile": "http://www.citysearch.com/profile/672813110/marietta_ga/bubbalini_s.html", "address": {"city": "Marietta", "state": "GA", "street": "800 Whitlock Ave NW", "postal_code": "30064"}, "capProviderId": null, "distance": null, "has_offers": false, "name": "Bubbalini's", "longitude": -84.575881, "has_menu": false, "awards": null, "user_review_count": 0}, {"business_operation_status": 1, "rating": null, "neighborhood": null, "image": null, "scorecard": null, "featured": false, "sample_categories": "Restaurants", "public_id": "obs-bbq-catfish-ribs-mableton", "id": 672612400, "votes": null, "tagline": null, "has_video": false, "website": null, "offers": null, "latitude": 33.816965, "politanName": "Atlanta, GA Metro ", "phone_number": null, "tags": [{"primary": true, "id": 1722, "name": "Restaurants"}], "fax_number": null, "expansion": {"count": null, "uri": null}, "impression_id": "000b000000dd4934f13abe4ffea60d5adfdf2b8da6", "profile": "http://www.citysearch.com/profile/672612400/mableton_ga/o_b_s_bbq_catfish_ribs.html", "address": {"city": "Mableton", "state": "GA", "street": "499 Veterans Memorial Hwy SW", "postal_code": "30126"}, "capProviderId": null, "distance": null, "has_offers": false, "name": "O.B.'s BBQ Catfish & Ribs", "longitude": -84.568558, "has_menu": false, "awards": null, "user_review_count": 0}, {"business_operation_status": 0, "rating": null, "neighborhood": null, "image": null, "scorecard": null, "featured": false, "sample_categories": "Restaurants, Delis And Delicatessens", "public_id": "philly-connection-marietta", "id": 2909538, "votes": null, "tagline": null, "has_video": false, "website": null, "offers": null, "latitude": 33.921284, "politanName": "Atlanta, GA Metro ", "phone_number": "7709849633", "tags": [{"primary": false, "id": 1727, "name": "Delis And Delicatessens"}, {"primary": true, "id": 1722, "name": "Restaurants"}], "fax_number": null, "expansion": {"count": null, "uri": null}, "impression_id": "000b00000030cd0b4beedd473a96dba053d22cab9e", "profile": "http://www.citysearch.com/profile/2909538/marietta_ga/philly_connection.html", "address": {"city": "Marietta", "state": "GA", "street": "1260 Powers Ferry Rd SE Ste E", "postal_code": "30067"}, "capProviderId": null, "distance": null, "has_offers": false, "name": "Philly Connection", "longitude": -84.467848, "has_menu": true, "awards": null, "user_review_count": 0}, {"business_operation_status": 1, "rating": null, "neighborhood": "Northside, Northside", "image": null, "scorecard": null, "featured": false, "sample_categories": "Restaurants, Barbecue Restaurants", "public_id": "b-l-d-wings-express-inc-atlanta", "id": 762723050, "votes": null, "tagline": null, "has_video": false, "website": null, "offers": null, "latitude": 33.785196, "politanName": "Atlanta, GA Metro ", "phone_number": "4047929550", "tags": [{"primary": false, "id": 1724, "name": "Barbecue Restaurants"}, {"primary": true, "id": 1722, "name": "Restaurants"}], "fax_number": null, "expansion": {"count": null, "uri": null}, "impression_id": "000b000000ad21980c202b438dad78a67fa091b092", "profile": "http://www.citysearch.com/profile/762723050/atlanta_ga/b_l_d_wings_express_inc.html", "address": {"city": "Atlanta", "state": "GA", "street": "1015 W Marietta St NW", "postal_code": "30318"}, "capProviderId": null, "distance": null, "has_offers": false, "name": "B L D Wings Express Inc", "longitude": -84.42021, "has_menu": false, "awards": null, "user_review_count": 0}, {"business_operation_status": 1, "rating": null, "neighborhood": "Highlands Park", "image": null, "scorecard": null, "featured": false, "sample_categories": "Coffee & Tea Shops, Restaurants, Coffeehouses", "public_id": "lakehouse-coffee-smyrna", "id": 632033670, "votes": null, "tagline": null, "has_video": false, "website": "http://www.citysearch.com/profile/external/632033670/smyrna_ga/lakehouse_coffee.html", "offers": null, "latitude": 33.832752, "politanName": "Atlanta, GA Metro ", "phone_number": "7704440944", "tags": [{"primary": false, "id": 1711, "name": "Coffee & Tea Shops"}, {"primary": false, "id": 1726, "name": "Coffeehouses"}, {"primary": true, "id": 1722, "name": "Restaurants"}], "fax_number": null, "expansion": {"count": null, "uri": null}, "impression_id": "000b0000006829b95429c742eeb042b4c16ab9dcbf", "profile": "http://www.citysearch.com/profile/632033670/smyrna_ga/lakehouse_coffee.html", "address": {"city": "Smyrna", "state": "GA", "street": "1800 Wilson Way Se", "postal_code": "30082"}, "capProviderId": null, "distance": null, "has_offers": false, "name": "Lakehouse Coffee", "longitude": -84.508822, "has_menu": true, "awards": null, "user_review_count": 0}, {"business_operation_status": 1, "rating": null, "neighborhood": null, "image": null, "scorecard": null, "featured": false, "sample_categories": "Restaurants", "public_id": "el-vaquero-marietta", "id": 764884030, "votes": null, "tagline": null, "has_video": false, "website": null, "offers": null, "latitude": 33.919221, "politanName": "Atlanta, GA Metro ", "phone_number": "7704338558", "tags": [{"primary": true, "id": 1722, "name": "Restaurants"}], "fax_number": null, "expansion": {"count": null, "uri": null}, "impression_id": "000b00000079e8f591b23f4ab2b8cb417dffc38b09", "profile": "http://www.citysearch.com/profile/764884030/marietta_ga/el_vaquero.html", "address": {"city": "Marietta", "state": "GA", "street": "1368 Atlanta Rd SE", "postal_code": "30060"}, "capProviderId": null, "distance": null, "has_offers": false, "name": "El Vaquero", "longitude": -84.542534, "has_menu": false, "awards": null, "user_review_count": 0}, {"business_operation_status": 1, "rating": null, "neighborhood": null, "image": null, "scorecard": null, "featured": false, "sample_categories": "Restaurants, Bars & Clubs, Bars & Pubs, General Government Offices, Traditional American", "public_id": "pub-marietta", "id": 764931910, "votes": null, "tagline": null, "has_video": false, "website": null, "offers": null, "latitude": 33.943645, "politanName": "Atlanta, GA Metro ", "phone_number": "7704272500", "tags": [{"primary": false, "id": 1722, "name": "Restaurants"}, {"primary": false, "id": 164, "name": "Bars & Clubs"}, {"primary": false, "id": 1686, "name": "Bars & Pubs"}, {"primary": false, "id": 1756, "name": "General Government Offices"}, {"primary": false, "id": 11190, "name": "Traditional American"}, {"primary": false, "id": 12736, "name": "Wedding Supplies"}], "fax_number": null, "expansion": {"count": null, "uri": null}, "impression_id": "000b00000068195eefbb8640e686c002c662a1ed00", "profile": "http://www.citysearch.com/profile/764931910/marietta_ga/pub.html", "address": {"city": "Marietta", "state": "GA", "street": "500 Powder Springs St", "postal_code": "30064"}, "capProviderId": null, "distance": null, "has_offers": false, "name": "Pub", "longitude": -84.552498, "has_menu": true, "awards": null, "user_review_count": 0}, {"business_operation_status": 0, "rating": null, "neighborhood": null, "image": null, "scorecard": null, "featured": false, "sample_categories": "Restaurants, Carry Out", "public_id": "back-yard-burgers-marietta-2", "id": 2909690, "votes": null, "tagline": null, "has_video": false, "website": "http://www.citysearch.com/profile/external/2909690/marietta_ga/back_yard_burgers.html", "offers": null, "latitude": 33.914806, "politanName": "Atlanta, GA Metro ", "phone_number": "7709161888", "tags": [{"primary": false, "id": 11247, "name": "Carry Out"}, {"primary": true, "id": 1722, "name": "Restaurants"}], "fax_number": null, "expansion": {"count": null, "uri": null}, "impression_id": "000b00000007ac8a7feb0648a0943d9cb518d7517a", "profile": "http://www.citysearch.com/profile/2909690/marietta_ga/back_yard_burgers.html", "address": {"city": "Marietta", "state": "GA", "street": "2340 Windy Hill Rd SE", "postal_code": "30067"}, "capProviderId": null, "distance": null, "has_offers": false, "name": "Back Yard Burgers", "longitude": -84.459043, "has_menu": true, "awards": null, "user_review_count": 0}, {"business_operation_status": 1, "rating": null, "neighborhood": null, "image": null, "scorecard": null, "featured": false, "sample_categories": "Restaurants", "public_id": "tme-enterprises-i-ltd-marietta-2", "id": 787135780, "votes": null, "tagline": null, "has_video": false, "website": null, "offers": null, "latitude": 33.968654, "politanName": "Atlanta, GA Metro ", "phone_number": "7705652051", "tags": [{"primary": true, "id": 1722, "name": "Restaurants"}], "fax_number": null, "expansion": {"count": null, "uri": null}, "impression_id": "000b0000008d0aa823349347158eca861ea5f753b8", "profile": "http://www.citysearch.com/profile/787135780/marietta_ga/tme_enterprises_i_ltd.html", "address": {"city": "Marietta", "state": "GA", "street": "2169 Roswell Rd", "postal_code": "30062"}, "capProviderId": null, "distance": null, "has_offers": false, "name": "Tme Enterprises I LTD", "longitude": -84.48981, "has_menu": false, "awards": null, "user_review_count": 0}, {"business_operation_status": 1, "rating": null, "neighborhood": "Northside, Northside", "image": null, "scorecard": null, "featured": false, "sample_categories": "Restaurants", "public_id": "j-r-c-monger-inc-atlanta", "id": 764871060, "votes": null, "tagline": null, "has_video": false, "website": "http://www.citysearch.com/profile/external/764871060/atlanta_ga/j_r_c_monger_inc.html", "offers": null, "latitude": 33.794633, "politanName": "Atlanta, GA Metro ", "phone_number": "4047941523", "tags": [{"primary": true, "id": 1722, "name": "Restaurants"}], "fax_number": null, "expansion": {"count": null, "uri": null}, "impression_id": "000b000000bbb9443e294247a0be999eb237cd41a1", "profile": "http://www.citysearch.com/profile/764871060/atlanta_ga/j_r_c_monger_inc.html", "address": {"city": "Atlanta", "state": "GA", "street": "2061 Hllwell Pkwy NW", "postal_code": "30318"}, "capProviderId": null, "distance": null, "has_offers": false, "name": "J R C Monger Inc", "longitude": -84.448772, "has_menu": false, "awards": null, "user_review_count": 0}, {"business_operation_status": 1, "rating": null, "neighborhood": null, "image": null, "scorecard": null, "featured": false, "sample_categories": "Ice Cream Parlors, Frozen Yogurt Shops", "public_id": "baskinrobbins-mableton", "id": 764906520, "votes": null, "tagline": null, "has_video": false, "website": null, "offers": null, "latitude": 33.83335, "politanName": "Atlanta, GA Metro ", "phone_number": "7707329319", "tags": [{"primary": false, "id": 1729, "name": "Frozen Yogurt Shops"}, {"primary": true, "id": 1730, "name": "Ice Cream Parlors"}], "fax_number": null, "expansion": {"count": null, "uri": null}, "impression_id": "000b000000e8a9405da47344e99229d75c01e9adfa", "profile": "http://www.citysearch.com/profile/764906520/mableton_ga/baskin_robbins.html", "address": {"city": "Mableton", "state": "GA", "street": "5005 Floyd Rd SW", "postal_code": "30126"}, "capProviderId": null, "distance": null, "has_offers": false, "name": "Baskin-Robbins", "longitude": -84.575544, "has_menu": false, "awards": null, "user_review_count": 0}, {"business_operation_status": 0, "rating": null, "neighborhood": null, "image": null, "scorecard": null, "featured": false, "sample_categories": "Restaurants, Mexican", "public_id": "maui-tacos-international-inc-atlanta", "id": 3029687, "votes": null, "tagline": null, "has_video": false, "website": null, "offers": null, "latitude": 33.9093, "politanName": "Atlanta, GA Metro ", "phone_number": "4804430200", "tags": [{"primary": false, "id": 11208, "name": "Mexican"}, {"primary": true, "id": 1722, "name": "Restaurants"}], "fax_number": null, "expansion": {"count": null, "uri": null}, "impression_id": "000b00000099c738983a814a0b845ded5fabc99f98", "profile": "http://www.citysearch.com/profile/3029687/atlanta_ga/maui_tacos_international_inc.html", "address": {"city": "Atlanta", "state": "GA", "street": "1775 The Exchange SE", "postal_code": "30339"}, "capProviderId": null, "distance": null, "has_offers": false, "name": "Maui Tacos International INC", "longitude": -84.480035, "has_menu": false, "awards": null, "user_review_count": 0}, {"business_operation_status": 1, "rating": null, "neighborhood": null, "image": null, "scorecard": null, "featured": false, "sample_categories": "Restaurants, Traditional American, Carry Out, Shop Online", "public_id": "ruby-tuesday-atlanta-2", "id": 3029966, "votes": null, "tagline": null, "has_video": false, "website": "http://www.citysearch.com/profile/external/3029966/atlanta_ga/ruby_tuesday.html", "offers": null, "latitude": 33.882119, "politanName": "Atlanta, GA Metro ", "phone_number": "7709552285", "tags": [{"primary": false, "id": 11190, "name": "Traditional American"}, {"primary": false, "id": 11247, "name": "Carry Out"}, {"primary": false, "id": 11375, "name": "Shop Online"}, {"primary": true, "id": 1722, "name": "Restaurants"}], "fax_number": null, "expansion": {"count": null, "uri": null}, "impression_id": "000b00000069f01d25f5c8431f99c223d0b73ee88a", "profile": "http://www.citysearch.com/profile/3029966/atlanta_ga/ruby_tuesday.html", "address": {"city": "Atlanta", "state": "GA", "street": "2460 Galleria Pkwy SE", "postal_code": "30339"}, "capProviderId": null, "distance": null, "has_offers": false, "name": "Ruby Tuesday", "longitude": -84.465955, "has_menu": true, "awards": null, "user_review_count": 0}, {"business_operation_status": 1, "rating": null, "neighborhood": "Kenwood", "image": null, "scorecard": null, "featured": false, "sample_categories": "Restaurants", "public_id": "kheesekake-by-kelli-smyrna", "id": 766764740, "votes": null, "tagline": null, "has_video": false, "website": null, "offers": null, "latitude": 33.830324, "politanName": "Atlanta, GA Metro ", "phone_number": "6785204008", "tags": [{"primary": true, "id": 1722, "name": "Restaurants"}], "fax_number": null, "expansion": {"count": null, "uri": null}, "impression_id": "000b00000085ad232d8b2b40438061f99b0bd7d891", "profile": "http://www.citysearch.com/profile/766764740/smyrna_ga/kheesekake_by_kelli.html", "address": {"city": "Smyrna", "state": "GA", "street": "5056 Fairmont Rd SE", "postal_code": "30082"}, "capProviderId": null, "distance": null, "has_offers": false, "name": "Kheesekake By Kelli", "longitude": -84.494443, "has_menu": false, "awards": null, "user_review_count": 0}, {"business_operation_status": 0, "rating": null, "neighborhood": null, "image": null, "scorecard": null, "featured": false, "sample_categories": "Restaurants, Carry Out, Pizza, American Express, Diners Club", "public_id": "sbarro-atlanta-6", "id": 682264040, "votes": null, "tagline": null, "has_video": false, "website": "http://www.citysearch.com/profile/external/682264040/atlanta_ga/sbarro.html", "offers": null, "latitude": 33.879303, "politanName": "Atlanta, GA Metro ", "phone_number": "7704358468", "tags": [{"primary": false, "id": 11247, "name": "Carry Out"}, {"primary": false, "id": 11299, "name": "Pizza"}, {"primary": false, "id": 11333, "name": "American Express"}, {"primary": false, "id": 11348, "name": "Diners Club"}, {"primary": false, "id": 11349, "name": "Discover"}, {"primary": false, "id": 11361, "name": "MasterCard"}, {"primary": false, "id": 11382, "name": "Visa"}, {"primary": true, "id": 1722, "name": "Restaurants"}], "fax_number": null, "expansion": {"count": null, "uri": null}, "impression_id": "000b0000008dafda57e9b84236ba9cb7d858c66d5a", "profile": "http://www.citysearch.com/profile/682264040/atlanta_ga/sbarro.html", "address": {"city": "Atlanta", "state": "GA", "street": "1326 Cumberland Mall Se", "postal_code": "30339"}, "capProviderId": null, "distance": null, "has_offers": false, "name": "Sbarro", "longitude": -84.471299, "has_menu": false, "awards": null, "user_review_count": 0}, {"business_operation_status": 1, "rating": null, "neighborhood": null, "image": null, "scorecard": null, "featured": false, "sample_categories": "Restaurants", "public_id": "doce-sabor-marietta", "id": 775199690, "votes": null, "tagline": null, "has_video": false, "website": null, "offers": null, "latitude": 33.918554, "politanName": "Atlanta, GA Metro ", "phone_number": "7702260434", "tags": [{"primary": true, "id": 1722, "name": "Restaurants"}], "fax_number": null, "expansion": {"count": null, "uri": null}, "impression_id": "000b0000001f24614aad1647f0ac6ad28d21ed3770", "profile": "http://www.citysearch.com/profile/775199690/marietta_ga/doce_sabor.html", "address": {"city": "Marietta", "state": "GA", "street": "1360 Powers Ferry Rd SE # B165", "postal_code": "30067"}, "capProviderId": null, "distance": null, "has_offers": false, "name": "Doce Sabor", "longitude": -84.468587, "has_menu": false, "awards": null, "user_review_count": 0}, {"business_operation_status": 1, "rating": null, "neighborhood": null, "image": null, "scorecard": null, "featured": false, "sample_categories": "Restaurants, Japanese", "public_id": "mt-fuji-marietta", "id": 779710710, "votes": null, "tagline": null, "has_video": false, "website": null, "offers": null, "latitude": 33.947797, "politanName": "Atlanta, GA Metro ", "phone_number": "7704280955", "tags": [{"primary": false, "id": 11202, "name": "Japanese"}, {"primary": true, "id": 1722, "name": "Restaurants"}], "fax_number": null, "expansion": {"count": null, "uri": null}, "impression_id": "000b000000eab8e0e9c6c74949b52472b4c4cb1b97", "profile": "http://www.citysearch.com/profile/779710710/marietta_ga/mt_fuji.html", "address": {"city": "Marietta", "state": "GA", "street": "180 Cobb Pkwy S # 26", "postal_code": "30060"}, "capProviderId": null, "distance": null, "has_offers": false, "name": "Mt Fuji", "longitude": -84.519997, "has_menu": false, "awards": null, "user_review_count": 4}, {"business_operation_status": 1, "rating": null, "neighborhood": null, "image": null, "scorecard": null, "featured": false, "sample_categories": "Restaurants, Asian", "public_id": "asia-buffet-marietta", "id": 713444490, "votes": null, "tagline": null, "has_video": false, "website": null, "offers": null, "latitude": 33.921568, "politanName": "Atlanta, GA Metro ", "phone_number": "7706358309", "tags": [{"primary": false, "id": 11235, "name": "Asian"}, {"primary": true, "id": 1722, "name": "Restaurants"}], "fax_number": null, "expansion": {"count": null, "uri": null}, "impression_id": "000b0000003aa2d57fc637423fb6575c6c2f90e3bc", "profile": "http://www.citysearch.com/profile/713444490/marietta_ga/asia_buffet.html", "address": {"city": "Marietta", "state": "GA", "street": "1177 Bellemeade Dr Sw", "postal_code": "30008"}, "capProviderId": null, "distance": null, "has_offers": false, "name": "Asia Buffet", "longitude": -84.574372, "has_menu": false, "awards": null, "user_review_count": 0}, {"business_operation_status": 1, "rating": null, "neighborhood": "Northside, Northside", "image": null, "scorecard": null, "featured": false, "sample_categories": "Coffeehouses", "public_id": "joe-muggs-atlanta", "id": 810208510, "votes": null, "tagline": null, "has_video": false, "website": null, "offers": null, "latitude": 33.810148, "politanName": "Atlanta, GA Metro ", "phone_number": "4043500461", "tags": [{"primary": true, "id": 1726, "name": "Coffeehouses"}], "fax_number": null, "expansion": {"count": null, "uri": null}, "impression_id": "000b000000dc33b561c0b1469296a3abde5ed435da", "profile": "http://www.citysearch.com/profile/810208510/atlanta_ga/joe_muggs.html", "address": {"city": "Atlanta", "state": "GA", "street": "2020 Howell Mill Rd NW", "postal_code": "30318"}, "capProviderId": null, "distance": null, "has_offers": false, "name": "Joe Muggs", "longitude": -84.413501, "has_menu": false, "awards": null, "user_review_count": 0}, {"business_operation_status": 1, "rating": null, "neighborhood": null, "image": null, "scorecard": null, "featured": false, "sample_categories": "Restaurants", "public_id": "asian-grill-marietta", "id": 813218910, "votes": null, "tagline": null, "has_video": false, "website": null, "offers": null, "latitude": 33.948939, "politanName": "Atlanta, GA Metro ", "phone_number": "6785602037", "tags": [{"primary": true, "id": 1722, "name": "Restaurants"}], "fax_number": null, "expansion": {"count": null, "uri": null}, "impression_id": "000b00000070a5a6dde011405c8a6f87157803ad4d", "profile": "http://www.citysearch.com/profile/813218910/marietta_ga/asian_grill.html", "address": {"city": "Marietta", "state": "GA", "street": "279 Powers Ferry Rd SE # F", "postal_code": "30067"}, "capProviderId": null, "distance": null, "has_offers": false, "name": "Asian Grill", "longitude": -84.503582, "has_menu": false, "awards": null, "user_review_count": 0}, {"business_operation_status": 1, "rating": null, "neighborhood": null, "image": null, "scorecard": null, "featured": false, "sample_categories": "Restaurants", "public_id": "vuelve-a-la-vida-marietta", "id": 814278210, "votes": null, "tagline": null, "has_video": false, "website": null, "offers": null, "latitude": 33.904786, "politanName": "Atlanta, GA Metro ", "phone_number": "7708019450", "tags": [{"primary": true, "id": 1722, "name": "Restaurants"}], "fax_number": null, "expansion": {"count": null, "uri": null}, "impression_id": "000b000000c1adc8b5a0b94516a9856afbed1ef8ae", "profile": "http://www.citysearch.com/profile/814278210/marietta_ga/vuelve_a_la_vida.html", "address": {"city": "Marietta", "state": "GA", "street": "1991 S Cobb Dr SE", "postal_code": "30060"}, "capProviderId": null, "distance": null, "has_offers": false, "name": "Vuelve A La Vida", "longitude": -84.542421, "has_menu": true, "awards": null, "user_review_count": 0}, {"business_operation_status": 1, "rating": null, "neighborhood": "Northside, Northside, Bolton", "image": null, "scorecard": null, "featured": false, "sample_categories": "Restaurants", "public_id": "la-tapatia-atlanta", "id": 3011710, "votes": null, "tagline": null, "has_video": false, "website": null, "offers": null, "latitude": 33.818435, "politanName": "Atlanta, GA Metro ", "phone_number": "4043515551", "tags": [{"primary": true, "id": 1722, "name": "Restaurants"}], "fax_number": null, "expansion": {"count": null, "uri": null}, "impression_id": "000b000000b138ed540c5f4b6d91f1278eceb37c6f", "profile": "http://www.citysearch.com/profile/3011710/atlanta_ga/la_tapatia.html", "address": {"city": "Atlanta", "state": "GA", "street": "2271 Marietta Blvd NW", "postal_code": "30318"}, "capProviderId": null, "distance": null, "has_offers": false, "name": "LA Tapatia", "longitude": -84.449705, "has_menu": true, "awards": null, "user_review_count": 0}, {"business_operation_status": 1, "rating": null, "neighborhood": null, "image": null, "scorecard": null, "featured": false, "sample_categories": "Restaurants, Office Building Operators", "public_id": "river-edge1-cafe-atlanta", "id": 3020701, "votes": null, "tagline": null, "has_video": false, "website": null, "offers": null, "latitude": 33.906954, "politanName": "Atlanta, GA Metro ", "phone_number": "7709527787", "tags": [{"primary": false, "id": 1722, "name": "Restaurants"}, {"primary": true, "id": 3787, "name": "Office Building Operators"}], "fax_number": null, "expansion": {"count": null, "uri": null}, "impression_id": "000b000000fba412a0510c439ab87a0ba66a9c9122", "profile": "http://www.citysearch.com/profile/3020701/atlanta_ga/river_edge1_cafe.html", "address": {"city": "Atlanta", "state": "GA", "street": "5500 Interstate North Pkwy NW", "postal_code": "30328"}, "capProviderId": null, "distance": null, "has_offers": false, "name": "River Edge1 Cafe", "longitude": -84.434288, "has_menu": false, "awards": null, "user_review_count": 0}, {"business_operation_status": 1, "rating": null, "neighborhood": null, "image": null, "scorecard": null, "featured": false, "sample_categories": "Restaurants", "public_id": "buen-provecho-restaurant-llc-marietta", "id": 626498024, "votes": null, "tagline": null, "has_video": false, "website": "http://www.citysearch.com/profile/external/626498024/marietta_ga/buen_provecho_restaurant_llc.html", "offers": null, "latitude": 33.902637, "politanName": "Atlanta, GA Metro ", "phone_number": "7707123188", "tags": [{"primary": true, "id": 1722, "name": "Restaurants"}], "fax_number": null, "expansion": {"count": null, "uri": null}, "impression_id": "000b00000002ac077d3b1647d7a8ad32a647248153", "profile": "http://www.citysearch.com/profile/626498024/marietta_ga/buen_provecho_restaurant_llc.html", "address": {"city": "Marietta", "state": "GA", "street": "2468 Windy Hill Rd SE Ste 600", "postal_code": "30067"}, "capProviderId": null, "distance": null, "has_offers": false, "name": "Buen Provecho Restaurant LLC", "longitude": -84.48176, "has_menu": false, "awards": null, "user_review_count": 0}, {"business_operation_status": 1, "rating": null, "neighborhood": null, "image": null, "scorecard": null, "featured": false, "sample_categories": "Restaurants", "public_id": "sage-dining-svc-inc-mableton", "id": 632929260, "votes": null, "tagline": null, "has_video": false, "website": null, "offers": null, "latitude": 33.822283, "politanName": "Atlanta, GA Metro ", "phone_number": "6783051413", "tags": [{"primary": true, "id": 1722, "name": "Restaurants"}], "fax_number": null, "expansion": {"count": null, "uri": null}, "impression_id": "000b0000005910198a40dc463bba1a06b976ad0a10", "profile": "http://www.citysearch.com/profile/632929260/mableton_ga/sage_dining_svc_inc.html", "address": {"city": "Mableton", "state": "GA", "street": "1 Whitefield Dr Se", "postal_code": "30126"}, "capProviderId": null, "distance": null, "has_offers": false, "name": "Sage Dining Svc Inc", "longitude": -84.509583, "has_menu": false, "awards": null, "user_review_count": 0}, {"business_operation_status": 1, "rating": null, "neighborhood": "Northside, Northside", "image": null, "scorecard": null, "featured": false, "sample_categories": "Restaurants, Pizza", "public_id": "lee-tomas-atlanta", "id": 762775250, "votes": null, "tagline": null, "has_video": false, "website": null, "offers": null, "latitude": 33.811491, "politanName": "Atlanta, GA Metro ", "phone_number": "4043528881", "tags": [{"primary": false, "id": 11299, "name": "Pizza"}, {"primary": true, "id": 1722, "name": "Restaurants"}], "fax_number": null, "expansion": {"count": null, "uri": null}, "impression_id": "000b000000fa2400c6efe94be582584a6cdeaf8517", "profile": "http://www.citysearch.com/profile/762775250/atlanta_ga/lee_tomas.html", "address": {"city": "Atlanta", "state": "GA", "street": "1341 Collier Rd NW", "postal_code": "30318"}, "capProviderId": null, "distance": null, "has_offers": false, "name": "Lee Tomas", "longitude": -84.431673, "has_menu": false, "awards": null, "user_review_count": 0}, {"business_operation_status": 0, "rating": null, "neighborhood": null, "image": null, "scorecard": null, "featured": false, "sample_categories": "Restaurants, Carry Out", "public_id": "marlin-rays-atlanta", "id": 764844970, "votes": null, "tagline": null, "has_video": false, "website": "http://www.citysearch.com/profile/external/764844970/atlanta_ga/marlin_ray_s.html", "offers": null, "latitude": 33.873659, "politanName": "Atlanta, GA Metro ", "phone_number": "6785744550", "tags": [{"primary": false, "id": 11247, "name": "Carry Out"}, {"primary": true, "id": 1722, "name": "Restaurants"}], "fax_number": null, "expansion": {"count": null, "uri": null}, "impression_id": "000b0000009d8f7fd0ac13493789347b1b72d2706e", "profile": "http://www.citysearch.com/profile/764844970/atlanta_ga/marlin_ray_s.html", "address": {"city": "Atlanta", "state": "GA", "street": "3318 Cobb Pkwy SE", "postal_code": "30339"}, "capProviderId": null, "distance": null, "has_offers": false, "name": "Marlin & Ray's", "longitude": -84.45631, "has_menu": false, "awards": null, "user_review_count": 0}, {"business_operation_status": 1, "rating": null, "neighborhood": null, "image": null, "scorecard": null, "featured": false, "sample_categories": "Delis And Delicatessens", "public_id": "american-deli-austell", "id": 764886810, "votes": null, "tagline": null, "has_video": false, "website": null, "offers": null, "latitude": 33.856949, "politanName": "Atlanta, GA Metro ", "phone_number": "7708018888", "tags": [{"primary": true, "id": 1727, "name": "Delis And Delicatessens"}], "fax_number": null, "expansion": {"count": null, "uri": null}, "impression_id": "000b000000f768aacdbeb9496bb2a3b775fa2b5659", "profile": "http://www.citysearch.com/profile/764886810/austell_ga/american_deli.html", "address": {"city": "Austell", "state": "GA", "street": "3961 Floyd Rd", "postal_code": "30106"}, "capProviderId": null, "distance": null, "has_offers": false, "name": "American Deli", "longitude": -84.590442, "has_menu": false, "awards": null, "user_review_count": 0}, {"business_operation_status": 1, "rating": null, "neighborhood": null, "image": null, "scorecard": null, "featured": false, "sample_categories": "Restaurants, Traditional American, Carry Out", "public_id": "ihop-restaurant-atlanta-10", "id": 777628400, "votes": null, "tagline": null, "has_video": false, "website": null, "offers": null, "latitude": 33.857668, "politanName": "Atlanta, GA Metro ", "phone_number": "6786390600", "tags": [{"primary": false, "id": 11190, "name": "Traditional American"}, {"primary": false, "id": 11247, "name": "Carry Out"}, {"primary": true, "id": 1722, "name": "Restaurants"}], "fax_number": null, "expansion": {"count": null, "uri": null}, "impression_id": "000b000000c4a7acfda47c4adfa3c870733cf3eed2", "profile": "http://www.citysearch.com/profile/777628400/atlanta_ga/ihop_restaurant.html", "address": {"city": "Atlanta", "state": "GA", "street": "2255 Cumberland Pkwy Se # 15", "postal_code": "30339"}, "capProviderId": null, "distance": null, "has_offers": false, "name": "IHOP Restaurant", "longitude": -84.480627, "has_menu": false, "awards": null, "user_review_count": 0}, {"business_operation_status": 0, "rating": null, "neighborhood": null, "image": null, "scorecard": null, "featured": false, "sample_categories": "Ice Cream Parlors", "public_id": "la-michoacana-helados-marietta", "id": 779703880, "votes": null, "tagline": null, "has_video": false, "website": null, "offers": null, "latitude": 33.904406, "politanName": "Atlanta, GA Metro ", "phone_number": "4049179790", "tags": [{"primary": true, "id": 1730, "name": "Ice Cream Parlors"}], "fax_number": null, "expansion": {"count": null, "uri": null}, "impression_id": "000b00000058ceb3e1345e434592e470611bd43197", "profile": "http://www.citysearch.com/profile/779703880/marietta_ga/la_michoacana_helados.html", "address": {"city": "Marietta", "state": "GA", "street": "334 Dink Ln Se", "postal_code": "30060"}, "capProviderId": null, "distance": null, "has_offers": false, "name": "La Michoacana Helados", "longitude": -84.542831, "has_menu": false, "awards": null, "user_review_count": 0}, {"business_operation_status": 1, "rating": null, "neighborhood": null, "image": null, "scorecard": null, "featured": false, "sample_categories": "Restaurants, Chinese", "public_id": "china-moon-marietta", "id": 777713620, "votes": null, "tagline": null, "has_video": false, "website": null, "offers": null, "latitude": 33.952602, "politanName": "Atlanta, GA Metro ", "phone_number": "6782752350", "tags": [{"primary": false, "id": 11252, "name": "Chinese"}, {"primary": true, "id": 1722, "name": "Restaurants"}], "fax_number": null, "expansion": {"count": null, "uri": null}, "impression_id": "000b000000946e5d57a3b8453dbe3b55db4afeecdc", "profile": "http://www.citysearch.com/profile/777713620/marietta_ga/china_moon.html", "address": {"city": "Marietta", "state": "GA", "street": "3960 Mary Eliza Trce NW", "postal_code": "30064"}, "capProviderId": null, "distance": null, "has_offers": false, "name": "China Moon", "longitude": -84.549933, "has_menu": false, "awards": null, "user_review_count": 0}, {"business_operation_status": 1, "rating": null, "neighborhood": null, "image": null, "scorecard": null, "featured": false, "sample_categories": "Restaurants", "public_id": "mocha-delites-marietta-2", "id": 777723340, "votes": null, "tagline": null, "has_video": false, "website": null, "offers": null, "latitude": 33.929888, "politanName": "Atlanta, GA Metro ", "phone_number": "7709568835", "tags": [{"primary": true, "id": 1722, "name": "Restaurants"}], "fax_number": null, "expansion": {"count": null, "uri": null}, "impression_id": "000b0000005ce6cabf03f6490bae6b03e8b844be9b", "profile": "http://www.citysearch.com/profile/777723340/marietta_ga/mocha_delites.html", "address": {"city": "Marietta", "state": "GA", "street": "2944 Chipmunk Trl Se", "postal_code": "30067"}, "capProviderId": null, "distance": null, "has_offers": false, "name": "Mocha Delites", "longitude": -84.472516, "has_menu": false, "awards": null, "user_review_count": 0}], "histograms": [], "tag_ids": [1722], "uri": "http://api.citygridmedia.com:8080/search/places/v2/search/where?has_offers=false&type=restaurant&format=json&page=28&where=30080&rpp=50&histograms=false&publisher=10000009598&region_type=circle", "did_you_mean": "", "regions": [{"latitude": 33.870107, "default_radius": 3.76, "type": "postal_code", "name": "30080", "longitude": -84.499867}], "call_id": "000b000000c8ed7b3b84bc49d791721f37eeb4bd78", "first_hit": 1351, "total_hits": 1580, "geo_ids": [26330], "page": 28, "last_hit": 1400}}