{"results": {"rpp": 50, "locations": [{"business_operation_status": 1, "rating": null, "neighborhood": null, "image": null, "scorecard": null, "featured": false, "sample_categories": "Restaurants", "public_id": "beaver-creek-mableton", "id": 820805410, "votes": null, "tagline": null, "has_video": false, "website": null, "offers": null, "latitude": 33.81695, "politanName": "Atlanta, GA Metro ", "phone_number": "7709489451", "tags": [{"primary": true, "id": 1722, "name": "Restaurants"}], "fax_number": null, "expansion": {"count": null, "uri": null}, "impression_id": "000b000000f317803d2a2848d4a9694676012a0d53", "profile": "http://www.citysearch.com/profile/820805410/mableton_ga/beaver_creek.html", "address": {"city": "Mableton", "state": "GA", "street": "499 Veterans Memorial Hwy SW", "postal_code": "30126"}, "capProviderId": null, "distance": null, "has_offers": false, "name": "Beaver Creek", "longitude": -84.568566, "has_menu": false, "awards": null, "user_review_count": 0}, {"business_operation_status": 1, "rating": null, "neighborhood": null, "image": null, "scorecard": null, "featured": false, "sample_categories": "Doughnut Shops", "public_id": "sublime-doughnuts-marietta", "id": 787115930, "votes": null, "tagline": null, "has_video": false, "website": null, "offers": null, "latitude": 33.918263, "politanName": "Atlanta, GA Metro ", "phone_number": "7704260814", "tags": [{"primary": true, "id": 1734, "name": "Doughnut Shops"}], "fax_number": null, "expansion": {"count": null, "uri": null}, "impression_id": "000b000000eb653686781646c3a2bb2ffdb6bcaf50", "profile": "http://www.citysearch.com/profile/787115930/marietta_ga/sublime_doughnuts.html", "address": {"city": "Marietta", "state": "GA", "street": "1345 Old Coach Rd Sw", "postal_code": "30008"}, "capProviderId": null, "distance": null, "has_offers": false, "name": "Sublime Doughnuts", "longitude": -84.572952, "has_menu": false, "awards": null, "user_review_count": 0}, {"business_operation_status": 1, "rating": null, "neighborhood": null, "image": null, "scorecard": null, "featured": false, "sample_categories": "Restaurants, Catering, Barbecue Restaurants", "public_id": "sonnys-real-pit-barbq-austell", "id": 827597680, "votes": null, "tagline": null, "has_video": false, "website": null, "offers": null, "latitude": 33.854519, "politanName": "Atlanta, GA Metro ", "phone_number": "7707457240", "tags": [{"primary": false, "id": 1705, "name": "Catering"}, {"primary": false, "id": 1724, "name": "Barbecue Restaurants"}, {"primary": true, "id": 1722, "name": "Restaurants"}], "fax_number": null, "expansion": {"count": null, "uri": null}, "impression_id": "000b000000ffc21370d45f485d812264816ae2c267", "profile": "http://www.citysearch.com/profile/827597680/austell_ga/sonny_s_real_pit_bar_b_q.html", "address": {"city": "Austell", "state": "GA", "street": "1804 E West Connector", "postal_code": "30106"}, "capProviderId": null, "distance": null, "has_offers": false, "name": "Sonny's Real Pit Bar-B-Q", "longitude": -84.605012, "has_menu": true, "awards": null, "user_review_count": 0}, {"business_operation_status": 1, "rating": 10.0, "neighborhood": null, "image": null, "scorecard": null, "featured": false, "sample_categories": "Catering, Restaurants", "public_id": "williamson-brothers-catering-marietta", "id": 2901685, "votes": null, "tagline": null, "has_video": false, "website": "http://www.citysearch.com/profile/external/2901685/marietta_ga/williamson_brothers_catering.html", "offers": null, "latitude": 33.942617, "politanName": "Atlanta, GA Metro ", "phone_number": "7704251739", "tags": [{"primary": false, "id": 1705, "name": "Catering"}, {"primary": true, "id": 1722, "name": "Restaurants"}], "fax_number": null, "expansion": {"count": null, "uri": null}, "impression_id": "000b000000615281e6fdf64455af090460e3dd3eb8", "profile": "http://www.citysearch.com/profile/2901685/marietta_ga/williamson_brothers_catering.html", "address": {"city": "Marietta", "state": "GA", "street": "403 Sycamore St SE", "postal_code": "30060"}, "capProviderId": null, "distance": null, "has_offers": false, "name": "Williamson Brothers Catering", "longitude": -84.541082, "has_menu": false, "awards": null, "user_review_count": 1}, {"business_operation_status": 1, "rating": null, "neighborhood": null, "image": null, "scorecard": null, "featured": false, "sample_categories": "Restaurants", "public_id": "drive-time-marrietta", "id": 831886880, "votes": null, "tagline": null, "has_video": false, "website": null, "offers": null, "latitude": 33.939976, "politanName": "Atlanta, GA Metro ", "phone_number": "7705773077", "tags": [{"primary": true, "id": 1722, "name": "Restaurants"}], "fax_number": null, "expansion": {"count": null, "uri": null}, "impression_id": "000b000000ed5eb4c3d0c046c7ba0cc25b58885ce1", "profile": "http://www.citysearch.com/profile/831886880/marrietta_ga/drive_time.html", "address": {"city": "Marrietta", "state": "GA", "street": "502 S Cobb Parkway", "postal_code": "30060"}, "capProviderId": null, "distance": null, "has_offers": false, "name": "Drive Time", "longitude": -84.515396, "has_menu": false, "awards": null, "user_review_count": 0}, {"business_operation_status": 1, "rating": null, "neighborhood": null, "image": null, "scorecard": null, "featured": false, "sample_categories": "Restaurants, Pizza, Carry Out", "public_id": "little-caesars-pizza-marietta-2", "id": 653582070, "votes": null, "tagline": null, "has_video": false, "website": "http://www.citysearch.com/profile/external/653582070/marietta_ga/little_caesars_pizza.html", "offers": null, "latitude": 33.952972, "politanName": "Atlanta, GA Metro ", "phone_number": "6784014181", "tags": [{"primary": false, "id": 1722, "name": "Restaurants"}, {"primary": false, "id": 11247, "name": "Carry Out"}, {"primary": true, "id": 11299, "name": "Pizza"}], "fax_number": null, "expansion": {"count": null, "uri": null}, "impression_id": "000b000000010755caf6ab4e89a19de1726d013b39", "profile": "http://www.citysearch.com/profile/653582070/marietta_ga/little_caesars_pizza.html", "address": {"city": "Marietta", "state": "GA", "street": "3405 Dallas Hwy Sw", "postal_code": "30064"}, "capProviderId": null, "distance": null, "has_offers": false, "name": "Little Caesars Pizza", "longitude": -84.651096, "has_menu": false, "awards": null, "user_review_count": 0}, {"business_operation_status": 1, "rating": null, "neighborhood": null, "image": null, "scorecard": null, "featured": false, "sample_categories": "Restaurants", "public_id": "silver-lodestone-inc-marietta-2", "id": 682289320, "votes": null, "tagline": null, "has_video": false, "website": null, "offers": null, "latitude": 33.938198, "politanName": "Atlanta, GA Metro ", "phone_number": "7705907778", "tags": [{"primary": true, "id": 1722, "name": "Restaurants"}], "fax_number": null, "expansion": {"count": null, "uri": null}, "impression_id": "000b000000cdd033bb8fe44251b560d9ecc52d5359", "profile": "http://www.citysearch.com/profile/682289320/marietta_ga/silver_lodestone_inc.html", "address": {"city": "Marietta", "state": "GA", "street": "10 Garrison Rd Se", "postal_code": "30008"}, "capProviderId": null, "distance": null, "has_offers": false, "name": "Silver Lodestone INC", "longitude": -84.553364, "has_menu": false, "awards": null, "user_review_count": 0}, {"business_operation_status": 1, "rating": null, "neighborhood": null, "image": null, "scorecard": null, "featured": false, "sample_categories": "Coffeehouses", "public_id": "starbucks-smyrna-4", "id": 627612690, "votes": null, "tagline": null, "has_video": false, "website": "http://www.citysearch.com/profile/external/627612690/smyrna_ga/starbucks.html", "offers": null, "latitude": 33.895705, "politanName": "Atlanta, GA Metro ", "phone_number": "7709522241", "tags": [{"primary": true, "id": 1726, "name": "Coffeehouses"}], "fax_number": null, "expansion": {"count": null, "uri": null}, "impression_id": "000b000000001c2bbb020d4c96a3de530eef177507", "profile": "http://www.citysearch.com/profile/627612690/smyrna_ga/starbucks.html", "address": {"city": "Smyrna", "state": "GA", "street": "2201 Cobb Pkwy Se", "postal_code": "30080"}, "capProviderId": null, "distance": null, "has_offers": false, "name": "Starbucks", "longitude": -84.480749, "has_menu": true, "awards": null, "user_review_count": 0}, {"business_operation_status": 1, "rating": null, "neighborhood": null, "image": null, "scorecard": null, "featured": false, "sample_categories": "Restaurants, Fast Food, Carry Out, Hamburgers, American Express", "public_id": "mc-donalds-mableton", "id": 45993503, "votes": null, "tagline": null, "has_video": false, "website": "http://www.citysearch.com/profile/external/45993503/mableton_ga/mc_donald_s.html", "offers": null, "latitude": 33.806368, "politanName": "Atlanta, GA Metro ", "phone_number": "6783988614", "tags": [{"primary": false, "id": 11199, "name": "Fast Food"}, {"primary": false, "id": 11247, "name": "Carry Out"}, {"primary": false, "id": 11270, "name": "Hamburgers"}, {"primary": false, "id": 11333, "name": "American Express"}, {"primary": false, "id": 11349, "name": "Discover"}, {"primary": false, "id": 11361, "name": "MasterCard"}, {"primary": false, "id": 11382, "name": "Visa"}, {"primary": true, "id": 1722, "name": "Restaurants"}], "fax_number": null, "expansion": {"count": null, "uri": null}, "impression_id": "000b000000cf01de58a892402f837f8876aa655087", "profile": "http://www.citysearch.com/profile/45993503/mableton_ga/mc_donald_s.html", "address": {"city": "Mableton", "state": "GA", "street": "840 Veterans Memorial Hwy SE", "postal_code": "30126"}, "capProviderId": null, "distance": null, "has_offers": false, "name": "Mc Donald's", "longitude": -84.530894, "has_menu": true, "awards": null, "user_review_count": 0}, {"business_operation_status": 0, "rating": null, "neighborhood": "Northside, Northside", "image": null, "scorecard": null, "featured": false, "sample_categories": "Barbecue Restaurants, Restaurants", "public_id": "billy-jacks-bar-bq-atlanta", "id": 655939420, "votes": null, "tagline": null, "has_video": false, "website": null, "offers": null, "latitude": 33.809802, "politanName": "Atlanta, GA Metro ", "phone_number": "4043517979", "tags": [{"primary": false, "id": 1722, "name": "Restaurants"}, {"primary": true, "id": 1724, "name": "Barbecue Restaurants"}], "fax_number": null, "expansion": {"count": null, "uri": null}, "impression_id": "000b000000f2218d5e604049deb72b8d7835b061d2", "profile": "http://www.citysearch.com/profile/655939420/atlanta_ga/billy_jack_s_bar_bq.html", "address": {"city": "Atlanta", "state": "GA", "street": "857 Collier Rd Nw", "postal_code": "30318"}, "capProviderId": null, "distance": null, "has_offers": false, "name": "Billy Jack's Bar Bq", "longitude": -84.416381, "has_menu": false, "awards": null, "user_review_count": 0}, {"business_operation_status": 1, "rating": null, "neighborhood": null, "image": null, "scorecard": null, "featured": false, "sample_categories": "Restaurants, Carry Out", "public_id": "waffle-house-mableton-2", "id": 609393684, "votes": null, "tagline": null, "has_video": false, "website": "http://www.citysearch.com/profile/external/609393684/mableton_ga/waffle_house.html", "offers": null, "latitude": 33.799338, "politanName": "Atlanta, GA Metro ", "phone_number": "4046997114", "tags": [{"primary": false, "id": 11247, "name": "Carry Out"}, {"primary": true, "id": 1722, "name": "Restaurants"}], "fax_number": null, "expansion": {"count": null, "uri": null}, "impression_id": "000b000000c8f8029f1b2849ea8dd295baff453bd4", "profile": "http://www.citysearch.com/profile/609393684/mableton_ga/waffle_house.html", "address": {"city": "Mableton", "state": "GA", "street": "1450 Veterans Memorial Hwy SE # 300", "postal_code": "30126"}, "capProviderId": null, "distance": null, "has_offers": false, "name": "Waffle House", "longitude": -84.513029, "has_menu": false, "awards": null, "user_review_count": 0}, {"business_operation_status": 1, "rating": null, "neighborhood": null, "image": null, "scorecard": null, "featured": false, "sample_categories": "Restaurants, Seafood, Carry Out, MasterCard, Visa", "public_id": "captain-ds-seafood-mableton-2", "id": 682515390, "votes": null, "tagline": null, "has_video": false, "website": "http://www.citysearch.com/profile/external/682515390/mableton_ga/captain_d_s_seafood.html", "offers": null, "latitude": 33.819503, "politanName": "Atlanta, GA Metro ", "phone_number": "7709486116", "tags": [{"primary": false, "id": 11228, "name": "Seafood"}, {"primary": false, "id": 11247, "name": "Carry Out"}, {"primary": false, "id": 11361, "name": "MasterCard"}, {"primary": false, "id": 11382, "name": "Visa"}, {"primary": true, "id": 1722, "name": "Restaurants"}], "fax_number": null, "expansion": {"count": null, "uri": null}, "impression_id": "000b000000ebb96044b01d4d5893d179fde6ab02ac", "profile": "http://www.citysearch.com/profile/682515390/mableton_ga/captain_d_s_seafood.html", "address": {"city": "Mableton", "state": "GA", "street": "5545 Floyd Rd Sw", "postal_code": "30126"}, "capProviderId": null, "distance": null, "has_offers": false, "name": "Captain D's Seafood", "longitude": -84.576206, "has_menu": true, "awards": null, "user_review_count": 0}, {"business_operation_status": 1, "rating": null, "neighborhood": null, "image": null, "scorecard": null, "featured": false, "sample_categories": "Restaurants, Delis And Delicatessens, Sandwich Shops, Carry Out", "public_id": "subway-smyrna-8", "id": 621921010, "votes": null, "tagline": null, "has_video": false, "website": "http://www.citysearch.com/profile/external/621921010/smyrna_ga/subway.html", "offers": null, "latitude": 33.883443, "politanName": "Atlanta, GA Metro ", "phone_number": "7708058522", "tags": [{"primary": false, "id": 1727, "name": "Delis And Delicatessens"}, {"primary": false, "id": 1736, "name": "Sandwich Shops"}, {"primary": false, "id": 11247, "name": "Carry Out"}, {"primary": true, "id": 1722, "name": "Restaurants"}], "fax_number": null, "expansion": {"count": null, "uri": null}, "impression_id": "000b000000909c4f18bfd04da9bfb873a4e88fba4d", "profile": "http://www.citysearch.com/profile/621921010/smyrna_ga/subway.html", "address": {"city": "Smyrna", "state": "GA", "street": "2517 Spring Rd Se", "postal_code": "30080"}, "capProviderId": null, "distance": null, "has_offers": false, "name": "Subway", "longitude": -84.480608, "has_menu": true, "awards": null, "user_review_count": 0}, {"business_operation_status": 1, "rating": null, "neighborhood": "Northside, Northside", "image": null, "scorecard": null, "featured": false, "sample_categories": "Bakeries, Restaurants", "public_id": "west-side-pie-atlanta", "id": 748336210, "votes": null, "tagline": null, "has_video": false, "website": null, "offers": null, "latitude": 33.789045, "politanName": "Atlanta, GA Metro ", "phone_number": "4043678410", "tags": [{"primary": false, "id": 1722, "name": "Restaurants"}, {"primary": true, "id": 1685, "name": "Bakeries"}], "fax_number": null, "expansion": {"count": null, "uri": null}, "impression_id": "000b00000096a11046b99a421aa314aa15b6583057", "profile": "http://www.citysearch.com/profile/748336210/atlanta_ga/west_side_pie.html", "address": {"city": "Atlanta", "state": "GA", "street": "1133 Huff Rd NW", "postal_code": "30318"}, "capProviderId": null, "distance": null, "has_offers": false, "name": "West Side Pie", "longitude": -84.425066, "has_menu": false, "awards": null, "user_review_count": 0}, {"business_operation_status": 1, "rating": null, "neighborhood": null, "image": null, "scorecard": null, "featured": false, "sample_categories": "Delis And Delicatessens", "public_id": "us-deli-mableton", "id": 764935400, "votes": null, "tagline": null, "has_video": false, "website": null, "offers": null, "latitude": 33.806264, "politanName": "Atlanta, GA Metro ", "phone_number": "7709484700", "tags": [{"primary": true, "id": 1727, "name": "Delis And Delicatessens"}], "fax_number": null, "expansion": {"count": null, "uri": null}, "impression_id": "000b0000003061259a30cb49a78ae3656ea4253571", "profile": "http://www.citysearch.com/profile/764935400/mableton_ga/us_deli.html", "address": {"city": "Mableton", "state": "GA", "street": "873 Veterans Memorial Hwy SE", "postal_code": "30126"}, "capProviderId": null, "distance": null, "has_offers": false, "name": "US Deli", "longitude": -84.528772, "has_menu": false, "awards": null, "user_review_count": 0}, {"business_operation_status": 1, "rating": null, "neighborhood": null, "image": null, "scorecard": null, "featured": false, "sample_categories": "Restaurants, Carry Out", "public_id": "long-john-silvers-marietta-3", "id": 764851430, "votes": null, "tagline": null, "has_video": false, "website": null, "offers": null, "latitude": 33.950876, "politanName": "Atlanta, GA Metro ", "phone_number": "7704247755", "tags": [{"primary": false, "id": 11247, "name": "Carry Out"}, {"primary": true, "id": 1722, "name": "Restaurants"}], "fax_number": null, "expansion": {"count": null, "uri": null}, "impression_id": "000b000000ec400d88d21f4161a6082a1d5ca0d56d", "profile": "http://www.citysearch.com/profile/764851430/marietta_ga/long_john_silver_s.html", "address": {"city": "Marietta", "state": "GA", "street": "1176 Roswell Rd", "postal_code": "30062"}, "capProviderId": null, "distance": null, "has_offers": false, "name": "Long John Silver's", "longitude": -84.518285, "has_menu": true, "awards": null, "user_review_count": 0}, {"business_operation_status": 1, "rating": null, "neighborhood": null, "image": null, "scorecard": null, "featured": false, "sample_categories": "Restaurants", "public_id": "cafe-210-smyrna", "id": 821687430, "votes": null, "tagline": null, "has_video": false, "website": null, "offers": null, "latitude": 33.89467, "politanName": "Atlanta, GA Metro ", "phone_number": "7704380077", "tags": [{"primary": true, "id": 1722, "name": "Restaurants"}], "fax_number": null, "expansion": {"count": null, "uri": null}, "impression_id": "000b000000d89b9282274140cf921ca23308df333d", "profile": "http://www.citysearch.com/profile/821687430/smyrna_ga/cafe_210.html", "address": {"city": "Smyrna", "state": "GA", "street": "2233 Lake Park Dr SE", "postal_code": "30080"}, "capProviderId": null, "distance": null, "has_offers": false, "name": "Cafe 210", "longitude": -84.484401, "has_menu": false, "awards": null, "user_review_count": 0}, {"business_operation_status": 1, "rating": 8.0, "neighborhood": null, "image": null, "scorecard": null, "featured": false, "sample_categories": "Restaurants, Mexican", "public_id": "la-cabana-marietta", "id": 2906494, "votes": null, "tagline": null, "has_video": false, "website": "http://www.citysearch.com/profile/external/2906494/marietta_ga/la_cabana.html", "offers": null, "latitude": 33.907683, "politanName": "Atlanta, GA Metro ", "phone_number": "7704257756", "tags": [{"primary": false, "id": 11208, "name": "Mexican"}, {"primary": true, "id": 1722, "name": "Restaurants"}], "fax_number": null, "expansion": {"count": null, "uri": null}, "impression_id": "000b00000052eb5ddebcb84448af24a0d1807997b6", "profile": "http://www.citysearch.com/profile/2906494/marietta_ga/la_cabana.html", "address": {"city": "Marietta", "state": "GA", "street": "1651 Powder Springs Rd SW Ste 1", "postal_code": "30064"}, "capProviderId": null, "distance": null, "has_offers": false, "name": "La Cabana", "longitude": -84.601655, "has_menu": true, "awards": null, "user_review_count": 2}, {"business_operation_status": 1, "rating": null, "neighborhood": null, "image": null, "scorecard": null, "featured": false, "sample_categories": "Doughnut Shops, Restaurants", "public_id": "daylight-consulting-group-atlanta", "id": 46008847, "votes": null, "tagline": null, "has_video": false, "website": "http://www.citysearch.com/profile/external/46008847/atlanta_ga/daylight_consulting_group.html", "offers": null, "latitude": 33.863183, "politanName": "Atlanta, GA Metro ", "phone_number": "7708615209", "tags": [{"primary": false, "id": 1734, "name": "Doughnut Shops"}, {"primary": true, "id": 1722, "name": "Restaurants"}], "fax_number": null, "expansion": {"count": null, "uri": null}, "impression_id": "000b000000f2fb700684a44810bc4c1e9064643c64", "profile": "http://www.citysearch.com/profile/46008847/atlanta_ga/daylight_consulting_group.html", "address": {"city": "Atlanta", "state": "GA", "street": "2451 Cumberland Pkwy SE", "postal_code": "30339"}, "capProviderId": null, "distance": null, "has_offers": false, "name": "Daylight Consulting Group", "longitude": -84.478702, "has_menu": false, "awards": null, "user_review_count": 0}, {"business_operation_status": 1, "rating": null, "neighborhood": null, "image": null, "scorecard": null, "featured": false, "sample_categories": "Restaurants", "public_id": "tme-enterprises-i-ltd-mableton", "id": 2949244, "votes": null, "tagline": null, "has_video": false, "website": null, "offers": null, "latitude": 33.818546, "politanName": "Atlanta, GA Metro ", "phone_number": "7709443911", "tags": [{"primary": true, "id": 1722, "name": "Restaurants"}], "fax_number": null, "expansion": {"count": null, "uri": null}, "impression_id": "000b0000006462e857016b4077a34644d9dfe36ad2", "profile": "http://www.citysearch.com/profile/2949244/mableton_ga/tme_enterprises_i_ltd.html", "address": {"city": "Mableton", "state": "GA", "street": "737 Veterans Memorial Hwy SW", "postal_code": "30126"}, "capProviderId": null, "distance": null, "has_offers": false, "name": "Tme Enterprises I Ltd", "longitude": -84.575739, "has_menu": false, "awards": null, "user_review_count": 0}, {"business_operation_status": 1, "rating": null, "neighborhood": null, "image": null, "scorecard": null, "featured": false, "sample_categories": "Ice Cream Parlors, Restaurants, Carry Out", "public_id": "dairy-queen-smyrna-4", "id": 777697890, "votes": null, "tagline": null, "has_video": false, "website": "http://www.citysearch.com/profile/external/777697890/smyrna_ga/dairy_queen.html", "offers": null, "latitude": 33.882258, "politanName": "Atlanta, GA Metro ", "phone_number": "7704323809", "tags": [{"primary": false, "id": 1722, "name": "Restaurants"}, {"primary": false, "id": 11247, "name": "Carry Out"}, {"primary": true, "id": 1730, "name": "Ice Cream Parlors"}], "fax_number": null, "expansion": {"count": null, "uri": null}, "impression_id": "000b000000b71e2c6117ad487082e9f8bb5c72d937", "profile": "http://www.citysearch.com/profile/777697890/smyrna_ga/dairy_queen.html", "address": {"city": "Smyrna", "state": "GA", "street": "1641 Spring Rd Se", "postal_code": "30080"}, "capProviderId": null, "distance": null, "has_offers": false, "name": "Dairy Queen", "longitude": -84.505572, "has_menu": true, "awards": null, "user_review_count": 0}, {"business_operation_status": 1, "rating": null, "neighborhood": null, "image": null, "scorecard": null, "featured": false, "sample_categories": "Restaurants", "public_id": "atlanta-halftime-cafe-marietta", "id": 838782380, "votes": null, "tagline": null, "has_video": false, "website": null, "offers": null, "latitude": 33.900651, "politanName": "Atlanta, GA Metro ", "phone_number": "7708500868", "tags": [{"primary": true, "id": 1722, "name": "Restaurants"}], "fax_number": null, "expansion": {"count": null, "uri": null}, "impression_id": "000b0000001854cd3f9bfb4b5da0a7a189572db111", "profile": "http://www.citysearch.com/profile/838782380/marietta_ga/atlanta_halftime_cafe.html", "address": {"city": "Marietta", "state": "GA", "street": "2580 Windy Hill Rd SE", "postal_code": "30067"}, "capProviderId": null, "distance": null, "has_offers": false, "name": "Atlanta Halftime Cafe", "longitude": -84.477783, "has_menu": false, "awards": null, "user_review_count": 0}, {"business_operation_status": 1, "rating": null, "neighborhood": null, "image": null, "scorecard": null, "featured": false, "sample_categories": "Restaurants, Mexican", "public_id": "lunas-taqueria-marietta", "id": 793347450, "votes": null, "tagline": null, "has_video": false, "website": null, "offers": null, "latitude": 33.905061, "politanName": "Atlanta, GA Metro ", "phone_number": "6785569766", "tags": [{"primary": false, "id": 11208, "name": "Mexican"}, {"primary": true, "id": 1722, "name": "Restaurants"}], "fax_number": null, "expansion": {"count": null, "uri": null}, "impression_id": "000b000000ec6f6b14125041ba82546db7a691510f", "profile": "http://www.citysearch.com/profile/793347450/marietta_ga/luna_s_taqueria.html", "address": {"city": "Marietta", "state": "GA", "street": "1977 S Cobb Dr Se", "postal_code": "30060"}, "capProviderId": null, "distance": null, "has_offers": false, "name": "Luna's Taqueria", "longitude": -84.542525, "has_menu": false, "awards": null, "user_review_count": 0}, {"business_operation_status": 1, "rating": null, "neighborhood": null, "image": null, "scorecard": null, "featured": false, "sample_categories": "Restaurants, Pizza, Carry Out", "public_id": "dominos-pizza-marietta-17", "id": 608562794, "votes": null, "tagline": null, "has_video": false, "website": "http://www.citysearch.com/profile/external/608562794/marietta_ga/domino_s_pizza.html", "offers": null, "latitude": 33.876575, "politanName": "Atlanta, GA Metro ", "phone_number": "7709555585", "tags": [{"primary": false, "id": 1722, "name": "Restaurants"}, {"primary": false, "id": 11247, "name": "Carry Out"}, {"primary": true, "id": 11299, "name": "Pizza"}], "fax_number": null, "expansion": {"count": null, "uri": null}, "impression_id": "000b0000002f7d7a17b88f49d0b2f96fbb82898a7d", "profile": "http://www.citysearch.com/profile/608562794/marietta_ga/domino_s_pizza.html", "address": {"city": "Marietta", "state": "GA", "street": "1230 Pair Rd SW", "postal_code": "30067"}, "capProviderId": null, "distance": null, "has_offers": false, "name": "Domino's Pizza", "longitude": -84.589289, "has_menu": false, "awards": null, "user_review_count": 0}, {"business_operation_status": 1, "rating": null, "neighborhood": null, "image": null, "scorecard": null, "featured": false, "sample_categories": "Restaurants", "public_id": "hollie-guacamole-marietta", "id": 806226200, "votes": null, "tagline": null, "has_video": false, "website": null, "offers": null, "latitude": 33.952258, "politanName": "Atlanta, GA Metro ", "phone_number": "6782732403", "tags": [{"primary": true, "id": 1722, "name": "Restaurants"}], "fax_number": null, "expansion": {"count": null, "uri": null}, "impression_id": "000b0000000c261f34a5554cb19cc444e2acb6069f", "profile": "http://www.citysearch.com/profile/806226200/marietta_ga/hollie_guacamole_.html", "address": {"city": "Marietta", "state": "GA", "street": "154 Roswell St SE", "postal_code": "30060"}, "capProviderId": null, "distance": null, "has_offers": false, "name": "Hollie Guacamole!", "longitude": -84.54874, "has_menu": false, "awards": null, "user_review_count": 0}, {"business_operation_status": 1, "rating": null, "neighborhood": null, "image": null, "scorecard": null, "featured": false, "sample_categories": "Restaurants", "public_id": "cafe-amazonia-marietta", "id": 808265410, "votes": null, "tagline": null, "has_video": false, "website": null, "offers": null, "latitude": 33.952198, "politanName": "Atlanta, GA Metro ", "phone_number": "7705796773", "tags": [{"primary": true, "id": 1722, "name": "Restaurants"}], "fax_number": null, "expansion": {"count": null, "uri": null}, "impression_id": "000b000000a740e17eb73941edbe5a960eeb89ce8a", "profile": "http://www.citysearch.com/profile/808265410/marietta_ga/cafe_amazonia.html", "address": {"city": "Marietta", "state": "GA", "street": "1355 Roswell Rd # 152", "postal_code": "30062"}, "capProviderId": null, "distance": null, "has_offers": false, "name": "Cafe Amazonia", "longitude": -84.512302, "has_menu": false, "awards": null, "user_review_count": 0}, {"business_operation_status": 1, "rating": null, "neighborhood": null, "image": null, "scorecard": null, "featured": false, "sample_categories": "Restaurants", "public_id": "mythos-pizzeria-marietta", "id": 627338904, "votes": null, "tagline": null, "has_video": false, "website": null, "offers": null, "latitude": 33.953414, "politanName": "Atlanta, GA Metro ", "phone_number": "7704255100", "tags": [{"primary": true, "id": 1722, "name": "Restaurants"}], "fax_number": null, "expansion": {"count": null, "uri": null}, "impression_id": "000b0000003f2c39f273a841ddb3499cf3c4d06248", "profile": "http://www.citysearch.com/profile/627338904/marietta_ga/mythos_pizzeria.html", "address": {"city": "Marietta", "state": "GA", "street": "1000 Whitlock Ave NW", "postal_code": "30064"}, "capProviderId": null, "distance": null, "has_offers": false, "name": "Mythos Pizzeria", "longitude": -84.581304, "has_menu": false, "awards": null, "user_review_count": 0}, {"business_operation_status": 1, "rating": null, "neighborhood": null, "image": null, "scorecard": null, "featured": false, "sample_categories": "Restaurants, Fast Food, Carry Out, Hamburgers, American Express", "public_id": "mc-donalds-mableton-2", "id": 601310556, "votes": null, "tagline": null, "has_video": false, "website": "http://www.citysearch.com/profile/external/601310556/mableton_ga/mcdonald_s.html", "offers": null, "latitude": 33.835672, "politanName": "Atlanta, GA Metro ", "phone_number": "7709444853", "tags": [{"primary": false, "id": 11199, "name": "Fast Food"}, {"primary": false, "id": 11247, "name": "Carry Out"}, {"primary": false, "id": 11270, "name": "Hamburgers"}, {"primary": false, "id": 11333, "name": "American Express"}, {"primary": false, "id": 11349, "name": "Discover"}, {"primary": false, "id": 11361, "name": "MasterCard"}, {"primary": false, "id": 11382, "name": "Visa"}, {"primary": true, "id": 1722, "name": "Restaurants"}], "fax_number": null, "expansion": {"count": null, "uri": null}, "impression_id": "000b000000bda338e714e34920b6d3bb58c6b53ab0", "profile": "http://www.citysearch.com/profile/601310556/mableton_ga/mcdonald_s.html", "address": {"city": "Mableton", "state": "GA", "street": "4860 Floyd Rd Sw", "postal_code": "30126"}, "capProviderId": null, "distance": null, "has_offers": false, "name": "McDonald's", "longitude": -84.576914, "has_menu": false, "awards": null, "user_review_count": 0}, {"business_operation_status": 1, "rating": null, "neighborhood": "Northside, Northside", "image": null, "scorecard": null, "featured": false, "sample_categories": "Restaurants, Unclassified", "public_id": "pangaea-atlanta", "id": 672142520, "votes": null, "tagline": null, "has_video": false, "website": "http://www.citysearch.com/profile/external/672142520/atlanta_ga/pangaea.html", "offers": null, "latitude": 33.788597, "politanName": "Atlanta, GA Metro ", "phone_number": "4043508787", "tags": [{"primary": false, "id": 1722, "name": "Restaurants"}, {"primary": false, "id": 6019, "name": "Unclassified"}], "fax_number": null, "expansion": {"count": null, "uri": null}, "impression_id": "000b0000007189b17e76d746c6bd10eb383c216dd5", "profile": "http://www.citysearch.com/profile/672142520/atlanta_ga/pangaea.html", "address": {"city": "Atlanta", "state": "GA", "street": "1082 Huff Rd NW", "postal_code": "30318"}, "capProviderId": null, "distance": null, "has_offers": false, "name": "Pangaea", "longitude": -84.423023, "has_menu": false, "awards": null, "user_review_count": 1}, {"business_operation_status": 1, "rating": null, "neighborhood": null, "image": null, "scorecard": null, "featured": false, "sample_categories": "Restaurants", "public_id": "vaqueros-marietta", "id": 672714020, "votes": null, "tagline": null, "has_video": false, "website": null, "offers": null, "latitude": 33.953033, "politanName": "Atlanta, GA Metro ", "phone_number": "6787385431", "tags": [{"primary": true, "id": 1722, "name": "Restaurants"}], "fax_number": null, "expansion": {"count": null, "uri": null}, "impression_id": "000b000000d8e73834d965418db65cc1c40d32575f", "profile": "http://www.citysearch.com/profile/672714020/marietta_ga/vaqueros.html", "address": {"city": "Marietta", "state": "GA", "street": "1000 Whitlock Ave. #400", "postal_code": "30064"}, "capProviderId": null, "distance": null, "has_offers": false, "name": "Vaqueros", "longitude": -84.581202, "has_menu": false, "awards": null, "user_review_count": 0}, {"business_operation_status": 1, "rating": null, "neighborhood": null, "image": null, "scorecard": null, "featured": false, "sample_categories": "Restaurants", "public_id": "presto-latin-restaurant-marietta", "id": 672230170, "votes": null, "tagline": null, "has_video": false, "website": null, "offers": null, "latitude": 33.951248, "politanName": "Atlanta, GA Metro ", "phone_number": "7709731282", "tags": [{"primary": true, "id": 1722, "name": "Restaurants"}], "fax_number": null, "expansion": {"count": null, "uri": null}, "impression_id": "000b000000bf15e4642c1a43a983f86cff8870e691", "profile": "http://www.citysearch.com/profile/672230170/marietta_ga/presto_latin_restaurant.html", "address": {"city": "Marietta", "state": "GA", "street": "1392-B Roswell Road", "postal_code": "30062"}, "capProviderId": null, "distance": null, "has_offers": false, "name": "Presto Latin Restaurant", "longitude": -84.508172, "has_menu": false, "awards": null, "user_review_count": 0}, {"business_operation_status": 1, "rating": null, "neighborhood": null, "image": null, "scorecard": null, "featured": false, "sample_categories": "Restaurants, Carry Out, American Express, Discover, MasterCard", "public_id": "churchs-chicken-marietta-4", "id": 682647720, "votes": null, "tagline": null, "has_video": false, "website": "http://www.citysearch.com/profile/external/682647720/marietta_ga/church_s_chicken.html", "offers": null, "latitude": 33.94964, "politanName": "Atlanta, GA Metro ", "phone_number": "7704241193", "tags": [{"primary": false, "id": 11247, "name": "Carry Out"}, {"primary": false, "id": 11333, "name": "American Express"}, {"primary": false, "id": 11349, "name": "Discover"}, {"primary": false, "id": 11361, "name": "MasterCard"}, {"primary": false, "id": 11382, "name": "Visa"}, {"primary": false, "id": 12839, "name": "Chicken"}, {"primary": true, "id": 1722, "name": "Restaurants"}], "fax_number": null, "expansion": {"count": null, "uri": null}, "impression_id": "000b000000805647932c1f4b8089bc9503aaa290a5", "profile": "http://www.citysearch.com/profile/682647720/marietta_ga/church_s_chicken.html", "address": {"city": "Marietta", "state": "GA", "street": "75 S Marietta Pkwy Sw", "postal_code": "30064"}, "capProviderId": null, "distance": null, "has_offers": false, "name": "Church's Chicken", "longitude": -84.55079, "has_menu": false, "awards": null, "user_review_count": 0}, {"business_operation_status": 1, "rating": null, "neighborhood": null, "image": null, "scorecard": null, "featured": false, "sample_categories": "Restaurants", "public_id": "niks-place-marietta", "id": 618038054, "votes": null, "tagline": null, "has_video": false, "website": "http://www.citysearch.com/profile/external/618038054/marietta_ga/niks_place.html", "offers": null, "latitude": 33.952096, "politanName": "Atlanta, GA Metro ", "phone_number": "7707926666", "tags": [{"primary": true, "id": 1722, "name": "Restaurants"}], "fax_number": null, "expansion": {"count": null, "uri": null}, "impression_id": "000b0000007b4aee98185045ff83e13178e0617797", "profile": "http://www.citysearch.com/profile/618038054/marietta_ga/niks_place.html", "address": {"city": "Marietta", "state": "GA", "street": "Whitlock Ave NW", "postal_code": "30064"}, "capProviderId": null, "distance": null, "has_offers": false, "name": "Niks Place", "longitude": -84.576903, "has_menu": true, "awards": null, "user_review_count": 0}, {"business_operation_status": 1, "rating": null, "neighborhood": null, "image": null, "scorecard": null, "featured": false, "sample_categories": "Restaurants, Ice Cream Parlors, Carry Out", "public_id": "churchs-chicken-marietta-6", "id": 812139520, "votes": null, "tagline": null, "has_video": false, "website": null, "offers": null, "latitude": 33.95153, "politanName": "Atlanta, GA Metro ", "phone_number": "7704228166", "tags": [{"primary": false, "id": 1730, "name": "Ice Cream Parlors"}, {"primary": false, "id": 11247, "name": "Carry Out"}, {"primary": true, "id": 1722, "name": "Restaurants"}], "fax_number": null, "expansion": {"count": null, "uri": null}, "impression_id": "000b000000f985b6111f094024a9f636d3f9884cd5", "profile": "http://www.citysearch.com/profile/812139520/marietta_ga/church_s_chicken.html", "address": {"city": "Marietta", "state": "GA", "street": "23 Powder Springs St", "postal_code": "30064"}, "capProviderId": null, "distance": null, "has_offers": false, "name": "Church's Chicken", "longitude": -84.550217, "has_menu": false, "awards": null, "user_review_count": 0}, {"business_operation_status": 1, "rating": null, "neighborhood": null, "image": null, "scorecard": null, "featured": false, "sample_categories": "Restaurants", "public_id": "el-barco-mexican-restaurant-marietta-2", "id": 813626580, "votes": null, "tagline": null, "has_video": false, "website": null, "offers": null, "latitude": 33.903309, "politanName": "Atlanta, GA Metro ", "phone_number": "6783555007", "tags": [{"primary": true, "id": 1722, "name": "Restaurants"}], "fax_number": null, "expansion": {"count": null, "uri": null}, "impression_id": "000b000000f1ea6fcde4124468989d5217a33ba4d2", "profile": "http://www.citysearch.com/profile/813626580/marietta_ga/el_barco_mexican_restaurant.html", "address": {"city": "Marietta", "state": "GA", "street": "Arbor Spring CT SW", "postal_code": "30064"}, "capProviderId": null, "distance": null, "has_offers": false, "name": "El Barco Mexican Restaurant", "longitude": -84.629546, "has_menu": false, "awards": null, "user_review_count": 0}, {"business_operation_status": 1, "rating": null, "neighborhood": null, "image": null, "scorecard": null, "featured": false, "sample_categories": "Restaurants", "public_id": "san-luis-marietta-2", "id": 815793680, "votes": null, "tagline": null, "has_video": false, "website": null, "offers": null, "latitude": 33.939122, "politanName": "Atlanta, GA Metro ", "phone_number": "7705147050", "tags": [{"primary": true, "id": 1722, "name": "Restaurants"}], "fax_number": null, "expansion": {"count": null, "uri": null}, "impression_id": "000b000000233539ca90fb48dd848e9b6392072142", "profile": "http://www.citysearch.com/profile/815793680/marietta_ga/san_luis.html", "address": {"city": "Marietta", "state": "GA", "street": "971 S Marietta Pkwy SE", "postal_code": "30060"}, "capProviderId": null, "distance": null, "has_offers": false, "name": "San Luis", "longitude": -84.526386, "has_menu": false, "awards": null, "user_review_count": 0}, {"business_operation_status": 1, "rating": 6.0, "neighborhood": null, "image": null, "scorecard": null, "featured": false, "sample_categories": "Restaurants", "public_id": "back-porch-of-marietta-marietta", "id": 37646043, "votes": null, "tagline": null, "has_video": false, "website": "http://www.citysearch.com/profile/external/37646043/marietta_ga/back_porch_of_marietta.html", "offers": null, "latitude": 33.951281, "politanName": "Atlanta, GA Metro ", "phone_number": "7707926666", "tags": [{"primary": true, "id": 1722, "name": "Restaurants"}], "fax_number": null, "expansion": {"count": null, "uri": null}, "impression_id": "000b0000009ef4c2c871b246dab731cfabb0121b04", "profile": "http://www.citysearch.com/profile/37646043/marietta_ga/back_porch_of_marietta.html", "address": {"city": "Marietta", "state": "GA", "street": "645 Whitlock Ave SW", "postal_code": "30064"}, "capProviderId": null, "distance": null, "has_offers": false, "name": "Back Porch Of Marietta", "longitude": -84.571275, "has_menu": false, "awards": null, "user_review_count": 1}, {"business_operation_status": 1, "rating": null, "neighborhood": null, "image": null, "scorecard": null, "featured": false, "sample_categories": "Restaurants", "public_id": "k-j-fish-chicken-marietta", "id": 816880880, "votes": null, "tagline": null, "has_video": false, "website": null, "offers": null, "latitude": 33.894433, "politanName": "Atlanta, GA Metro ", "phone_number": "7704058877", "tags": [{"primary": true, "id": 1722, "name": "Restaurants"}], "fax_number": null, "expansion": {"count": null, "uri": null}, "impression_id": "000b0000006b874b04c07443218463bdd08eccc42d", "profile": "http://www.citysearch.com/profile/816880880/marietta_ga/k_j_fish_chicken.html", "address": {"city": "Marietta", "state": "GA", "street": "234 Windy Hill Rd SE", "postal_code": "30060"}, "capProviderId": null, "distance": null, "has_offers": false, "name": "K J Fish & Chicken", "longitude": -84.552798, "has_menu": false, "awards": null, "user_review_count": 0}, {"business_operation_status": 1, "rating": null, "neighborhood": "Northside, Northside", "image": null, "scorecard": null, "featured": false, "sample_categories": "Restaurants", "public_id": "green-derby-restaurant-atlanta", "id": 762720750, "votes": null, "tagline": null, "has_video": false, "website": null, "offers": null, "latitude": 33.798942, "politanName": "Atlanta, GA Metro ", "phone_number": "4043529076", "tags": [{"primary": true, "id": 1722, "name": "Restaurants"}], "fax_number": null, "expansion": {"count": null, "uri": null}, "impression_id": "000b0000007541a20874c14ac89543c4d0119bec62", "profile": "http://www.citysearch.com/profile/762720750/atlanta_ga/green_derby_restaurant.html", "address": {"city": "Atlanta", "state": "GA", "street": "1610 Howell Mill Rd NW", "postal_code": "30318"}, "capProviderId": null, "distance": null, "has_offers": false, "name": "Green Derby Restaurant", "longitude": -84.416062, "has_menu": false, "awards": null, "user_review_count": 0}, {"business_operation_status": 0, "rating": null, "neighborhood": null, "image": null, "scorecard": null, "featured": false, "sample_categories": "Restaurants, Delis And Delicatessens, Sandwich Shops, Carry Out", "public_id": "blimpie-subs-salads-mableton", "id": 764922590, "votes": null, "tagline": null, "has_video": false, "website": "http://www.citysearch.com/profile/external/764922590/mableton_ga/blimpie_subs_salads.html", "offers": null, "latitude": 33.816948, "politanName": "Atlanta, GA Metro ", "phone_number": "7709443663", "tags": [{"primary": false, "id": 1727, "name": "Delis And Delicatessens"}, {"primary": false, "id": 1736, "name": "Sandwich Shops"}, {"primary": false, "id": 11247, "name": "Carry Out"}, {"primary": true, "id": 1722, "name": "Restaurants"}], "fax_number": null, "expansion": {"count": null, "uri": null}, "impression_id": "000b000000d1dfb45c87dd471a83fdb62ec70f14f0", "profile": "http://www.citysearch.com/profile/764922590/mableton_ga/blimpie_subs_salads.html", "address": {"city": "Mableton", "state": "GA", "street": "5624 Mableton Pkwy SW", "postal_code": "30126"}, "capProviderId": null, "distance": null, "has_offers": false, "name": "Blimpie Subs & Salads", "longitude": -84.575419, "has_menu": true, "awards": null, "user_review_count": 0}, {"business_operation_status": 1, "rating": null, "neighborhood": null, "image": null, "scorecard": null, "featured": false, "sample_categories": "Restaurants", "public_id": "real-cabana-restaurant-inc-marietta", "id": 764845910, "votes": null, "tagline": null, "has_video": false, "website": null, "offers": null, "latitude": 33.905083, "politanName": "Atlanta, GA Metro ", "phone_number": "7704364079", "tags": [{"primary": true, "id": 1722, "name": "Restaurants"}], "fax_number": null, "expansion": {"count": null, "uri": null}, "impression_id": "000b00000077aee7221d5e438883addb06b8cfd2d4", "profile": "http://www.citysearch.com/profile/764845910/marietta_ga/real_cabana_restaurant_inc.html", "address": {"city": "Marietta", "state": "GA", "street": "1977 S Cobb Dr SE", "postal_code": "30060"}, "capProviderId": null, "distance": null, "has_offers": false, "name": "Real Cabana Restaurant Inc", "longitude": -84.542545, "has_menu": false, "awards": null, "user_review_count": 0}, {"business_operation_status": 1, "rating": null, "neighborhood": null, "image": null, "scorecard": null, "featured": false, "sample_categories": "Restaurants, Bars & Pubs", "public_id": "breaking-point-sports-bar-marietta", "id": 764906570, "votes": null, "tagline": null, "has_video": false, "website": null, "offers": null, "latitude": 33.936757, "politanName": "Atlanta, GA Metro ", "phone_number": "7704264199", "tags": [{"primary": false, "id": 1686, "name": "Bars & Pubs"}, {"primary": true, "id": 1722, "name": "Restaurants"}], "fax_number": null, "expansion": {"count": null, "uri": null}, "impression_id": "000b00000057a6ef6b955a43c68c6654d32c6f6890", "profile": "http://www.citysearch.com/profile/764906570/marietta_ga/breaking_point_sports_bar.html", "address": {"city": "Marietta", "state": "GA", "street": "680 Powder Springs St", "postal_code": "30064"}, "capProviderId": null, "distance": null, "has_offers": false, "name": "Breaking Point Sports Bar", "longitude": -84.557357, "has_menu": false, "awards": null, "user_review_count": 0}, {"business_operation_status": 1, "rating": null, "neighborhood": null, "image": null, "scorecard": null, "featured": false, "sample_categories": "Restaurants", "public_id": "a-t-l-best-wings-mableton", "id": 802512510, "votes": null, "tagline": null, "has_video": false, "website": null, "offers": null, "latitude": 33.833318, "politanName": "Atlanta, GA Metro ", "phone_number": "7709418700", "tags": [{"primary": true, "id": 1722, "name": "Restaurants"}], "fax_number": null, "expansion": {"count": null, "uri": null}, "impression_id": "000b00000055de3421cb854fd59029d21adb9c1912", "profile": "http://www.citysearch.com/profile/802512510/mableton_ga/a_t_l_best_wings.html", "address": {"city": "Mableton", "state": "GA", "street": "5005 Floyd Rd Sw", "postal_code": "30126"}, "capProviderId": null, "distance": null, "has_offers": false, "name": "A T L Best Wings", "longitude": -84.575479, "has_menu": false, "awards": null, "user_review_count": 0}, {"business_operation_status": 1, "rating": null, "neighborhood": null, "image": null, "scorecard": null, "featured": false, "sample_categories": "Restaurants, Pizza", "public_id": "q-pizza-marietta", "id": 812951040, "votes": null, "tagline": null, "has_video": false, "website": null, "offers": null, "latitude": 33.925388, "politanName": "Atlanta, GA Metro ", "phone_number": "7709197026", "tags": [{"primary": false, "id": 1722, "name": "Restaurants"}, {"primary": true, "id": 11299, "name": "Pizza"}], "fax_number": null, "expansion": {"count": null, "uri": null}, "impression_id": "000b0000002e7ee7bc426c4978b0295134a8f90474", "profile": "http://www.citysearch.com/profile/812951040/marietta_ga/q_pizza.html", "address": {"city": "Marietta", "state": "GA", "street": "1135 Powder Springs St", "postal_code": "30064"}, "capProviderId": null, "distance": null, "has_offers": false, "name": "Q Pizza", "longitude": -84.573222, "has_menu": false, "awards": null, "user_review_count": 0}, {"business_operation_status": 1, "rating": null, "neighborhood": null, "image": null, "scorecard": null, "featured": false, "sample_categories": "Restaurants", "public_id": "vito-goldbergs-marietta", "id": 814374650, "votes": null, "tagline": null, "has_video": false, "website": "http://www.citysearch.com/profile/external/814374650/marietta_ga/vito_goldberg_s.html", "offers": null, "latitude": 33.951001, "politanName": "Atlanta, GA Metro ", "phone_number": "7707958631", "tags": [{"primary": true, "id": 1722, "name": "Restaurants"}], "fax_number": null, "expansion": {"count": null, "uri": null}, "impression_id": "000b00000066a15b8ba3f04d32a29719ee1ad783e0", "profile": "http://www.citysearch.com/profile/814374650/marietta_ga/vito_goldberg_s.html", "address": {"city": "Marietta", "state": "GA", "street": "999 Whitlock Ave SW", "postal_code": "30064"}, "capProviderId": null, "distance": null, "has_offers": false, "name": "Vito Goldberg's", "longitude": -84.57917, "has_menu": false, "awards": null, "user_review_count": 0}, {"business_operation_status": 1, "rating": null, "neighborhood": "Longleaf", "image": null, "scorecard": null, "featured": false, "sample_categories": "Restaurants", "public_id": "long-leaf-at-vinings-cafe-smyrna", "id": 45555721, "votes": null, "tagline": null, "has_video": false, "website": null, "offers": null, "latitude": 33.835463, "politanName": "Atlanta, GA Metro ", "phone_number": "4047999721", "tags": [{"primary": true, "id": 1722, "name": "Restaurants"}], "fax_number": null, "expansion": {"count": null, "uri": null}, "impression_id": "000b0000003efd23fba48448afabe4231080fff0cb", "profile": "http://www.citysearch.com/profile/45555721/smyrna_ga/long_leaf_at_vinings_cafe.html", "address": {"city": "Smyrna", "state": "GA", "street": "4829 Longcourt Dr SE", "postal_code": "30080"}, "capProviderId": null, "distance": null, "has_offers": false, "name": "Long Leaf At Vinings Cafe", "longitude": -84.484693, "has_menu": false, "awards": null, "user_review_count": 0}, {"business_operation_status": 1, "rating": null, "neighborhood": null, "image": null, "scorecard": null, "featured": false, "sample_categories": "Ice Cream Parlors", "public_id": "marble-slab-creamery-smyrna", "id": 822378770, "votes": null, "tagline": null, "has_video": false, "website": null, "offers": null, "latitude": 33.884889, "politanName": "Atlanta, GA Metro ", "phone_number": "7704333336", "tags": [{"primary": true, "id": 1730, "name": "Ice Cream Parlors"}], "fax_number": null, "expansion": {"count": null, "uri": null}, "impression_id": "000b000000316db108e6a942319d025114b12bdcf6", "profile": "http://www.citysearch.com/profile/822378770/smyrna_ga/marble_slab_creamery.html", "address": {"city": "Smyrna", "state": "GA", "street": "400 Village Green Cir SE", "postal_code": "30080"}, "capProviderId": null, "distance": null, "has_offers": false, "name": "Marble Slab Creamery", "longitude": -84.516415, "has_menu": false, "awards": null, "user_review_count": 0}, {"business_operation_status": 1, "rating": null, "neighborhood": null, "image": null, "scorecard": null, "featured": false, "sample_categories": "Restaurants", "public_id": "champs-barbq-smyrna", "id": 819797740, "votes": null, "tagline": null, "has_video": false, "website": null, "offers": null, "latitude": 33.896088, "politanName": "Atlanta, GA Metro ", "phone_number": "7704386618", "tags": [{"primary": true, "id": 1722, "name": "Restaurants"}], "fax_number": null, "expansion": {"count": null, "uri": null}, "impression_id": "000b00000085e0d264f37e41cbb05e9dfffea08551", "profile": "http://www.citysearch.com/profile/819797740/smyrna_ga/champs_bar_b_q.html", "address": {"city": "Smyrna", "state": "GA", "street": "2300 S Cobb Dr SE", "postal_code": "30080"}, "capProviderId": null, "distance": null, "has_offers": false, "name": "Champs Bar-B-Q", "longitude": -84.539784, "has_menu": false, "awards": null, "user_review_count": 0}, {"business_operation_status": 1, "rating": null, "neighborhood": null, "image": null, "scorecard": null, "featured": false, "sample_categories": "Restaurants, Seafood, Carry Out", "public_id": "red-lobster-marietta", "id": 787098710, "votes": null, "tagline": null, "has_video": false, "website": null, "offers": null, "latitude": 33.913386, "politanName": "Atlanta, GA Metro ", "phone_number": "4703774938", "tags": [{"primary": false, "id": 11228, "name": "Seafood"}, {"primary": false, "id": 11247, "name": "Carry Out"}, {"primary": true, "id": 1722, "name": "Restaurants"}], "fax_number": null, "expansion": {"count": null, "uri": null}, "impression_id": "000b000000c8fe45db7cc34d0c9c01ffbf5588d2b1", "profile": "http://www.citysearch.com/profile/787098710/marietta_ga/red_lobster.html", "address": {"city": "Marietta", "state": "GA", "street": "699 Crosswinds Cir", "postal_code": "30008"}, "capProviderId": null, "distance": null, "has_offers": false, "name": "Red Lobster", "longitude": -84.575132, "has_menu": false, "awards": null, "user_review_count": 0}, {"business_operation_status": 1, "rating": null, "neighborhood": null, "image": null, "scorecard": null, "featured": false, "sample_categories": "Restaurants, Carry Out, Italian, Pizza", "public_id": "sbarro-smyrna", "id": 45082264, "votes": null, "tagline": null, "has_video": false, "website": "http://www.citysearch.com/profile/external/45082264/smyrna_ga/sbarro.html", "offers": null, "latitude": 33.874593, "politanName": "Atlanta, GA Metro ", "phone_number": "7704358311", "tags": [{"primary": false, "id": 11247, "name": "Carry Out"}, {"primary": false, "id": 11279, "name": "Italian"}, {"primary": false, "id": 11299, "name": "Pizza"}, {"primary": true, "id": 1722, "name": "Restaurants"}], "fax_number": null, "expansion": {"count": null, "uri": null}, "impression_id": "000b00000048e8daeaabdd40c5a164661ddb29f79b", "profile": "http://www.citysearch.com/profile/45082264/smyrna_ga/sbarro.html", "address": {"city": "Smyrna", "state": "GA", "street": "1000 Cumberland Ct SE", "postal_code": "30080"}, "capProviderId": null, "distance": null, "has_offers": false, "name": "Sbarro", "longitude": -84.479034, "has_menu": true, "awards": null, "user_review_count": 0}], "histograms": [], "tag_ids": [1722], "uri": "http://api.citygridmedia.com:8080/search/places/v2/search/where?has_offers=false&type=restaurant&format=json&page=14&where=30082&rpp=50&histograms=false&publisher=10000009598&region_type=circle", "did_you_mean": "", "regions": [{"latitude": 33.854375999999995, "default_radius": 3.24, "type": "postal_code", "name": "30082", "longitude": -84.535215}], "call_id": "000b000000f318edfc5eb24c03bba7d46889071cb4", "first_hit": 651, "total_hits": 1174, "geo_ids": [26331], "page": 14, "last_hit": 700}}