{"results": {"rpp": 50, "locations": [{"business_operation_status": 1, "rating": 8.0, "neighborhood": null, "image": null, "scorecard": null, "featured": false, "sample_categories": "Restaurants", "public_id": "vittles-restaurant-smyrna", "id": 33561245, "votes": null, "tagline": null, "has_video": false, "website": "http://www.citysearch.com/profile/external/33561245/smyrna_ga/vittle_s_restaurant.html", "offers": null, "latitude": 33.890311, "politanName": "Atlanta, GA Metro ", "phone_number": "7704330047", "tags": [{"primary": true, "id": 1722, "name": "Restaurants"}], "fax_number": null, "expansion": {"count": null, "uri": null}, "impression_id": "000b0000006315f207efa745ae9cb6c3b24bf596bf", "profile": "http://www.citysearch.com/profile/33561245/smyrna_ga/vittle_s_restaurant.html", "address": {"city": "Smyrna", "state": "GA", "street": "2579 S Cobb Dr SE", "postal_code": "30080"}, "capProviderId": null, "distance": null, "has_offers": false, "name": "Vittle's Restaurant", "longitude": -84.536797, "has_menu": true, "awards": null, "user_review_count": 0}, {"business_operation_status": 1, "rating": null, "neighborhood": null, "image": null, "scorecard": null, "featured": false, "sample_categories": "Delis And Delicatessens", "public_id": "kroger-deli-smyrna-4", "id": 705897390, "votes": null, "tagline": null, "has_video": false, "website": null, "offers": null, "latitude": 33.873676, "politanName": "Atlanta, GA Metro ", "phone_number": "7704338380", "tags": [{"primary": true, "id": 1727, "name": "Delis And Delicatessens"}], "fax_number": null, "expansion": {"count": null, "uri": null}, "impression_id": "000b00000051377e1ea6bd4cbd95cab44a7cdebc88", "profile": "http://www.citysearch.com/profile/705897390/smyrna_ga/kroger_deli.html", "address": {"city": "Smyrna", "state": "GA", "street": "3315 S Cobb Dr Se # 1", "postal_code": "30080"}, "capProviderId": null, "distance": null, "has_offers": false, "name": "Kroger Deli", "longitude": -84.52868, "has_menu": false, "awards": null, "user_review_count": 0}, {"business_operation_status": 1, "rating": null, "neighborhood": null, "image": null, "scorecard": null, "featured": false, "sample_categories": "Coffeehouses, Doughnut Shops", "public_id": "dunkin-donuts-smyrna-6", "id": 773447620, "votes": null, "tagline": null, "has_video": false, "website": "http://www.citysearch.com/profile/external/773447620/smyrna_ga/dunkin_donuts.html", "offers": null, "latitude": 33.830905, "politanName": "Atlanta, GA Metro ", "phone_number": "7704338033", "tags": [{"primary": false, "id": 1726, "name": "Coffeehouses"}, {"primary": true, "id": 1734, "name": "Doughnut Shops"}], "fax_number": null, "expansion": {"count": null, "uri": null}, "impression_id": "000b00000010cf24ac59cf40b283ea76820e93ebf4", "profile": "http://www.citysearch.com/profile/773447620/smyrna_ga/dunkin_donuts.html", "address": {"city": "Smyrna", "state": "GA", "street": "4928 S Cobb Dr SE", "postal_code": "30080"}, "capProviderId": null, "distance": null, "has_offers": false, "name": "Dunkin' Donuts", "longitude": -84.493221, "has_menu": false, "awards": null, "user_review_count": 0}, {"business_operation_status": 1, "rating": null, "neighborhood": null, "image": null, "scorecard": null, "featured": false, "sample_categories": "Restaurants, Indian", "public_id": "tanvi-indian-cuisine-smyrna", "id": 780476510, "votes": null, "tagline": null, "has_video": false, "website": null, "offers": null, "latitude": 33.882766, "politanName": "Atlanta, GA Metro ", "phone_number": "7703339899", "tags": [{"primary": false, "id": 11277, "name": "Indian"}, {"primary": true, "id": 1722, "name": "Restaurants"}], "fax_number": null, "expansion": {"count": null, "uri": null}, "impression_id": "000b0000003c1be0787a78448d9c070215ea5ee6e9", "profile": "http://www.citysearch.com/profile/780476510/smyrna_ga/tanvi_indian_cuisine.html", "address": {"city": "Smyrna", "state": "GA", "street": "2590 Spring Road Southeast", "postal_code": "30080"}, "capProviderId": null, "distance": null, "has_offers": false, "name": "Tanvi Indian Cuisine", "longitude": -84.478149, "has_menu": false, "awards": null, "user_review_count": 0}, {"business_operation_status": 1, "rating": null, "neighborhood": "Highlands Park", "image": null, "scorecard": null, "featured": false, "sample_categories": "Restaurants", "public_id": "kaysons-grille-smyrna", "id": 673024990, "votes": null, "tagline": null, "has_video": false, "website": null, "offers": null, "latitude": 33.827992, "politanName": "Atlanta, GA Metro ", "phone_number": "6782130238", "tags": [{"primary": true, "id": 1722, "name": "Restaurants"}], "fax_number": null, "expansion": {"count": null, "uri": null}, "impression_id": "000b0000008af9784bfdd7464ea7c4823f4c5e4cfe", "profile": "http://www.citysearch.com/profile/673024990/smyrna_ga/kaysons_grille.html", "address": {"city": "Smyrna", "state": "GA", "street": "3100 Highlands Pky SE", "postal_code": "30082"}, "capProviderId": null, "distance": null, "has_offers": false, "name": "Kaysons Grille", "longitude": -84.495565, "has_menu": false, "awards": null, "user_review_count": 0}, {"business_operation_status": 1, "rating": null, "neighborhood": null, "image": null, "scorecard": null, "featured": false, "sample_categories": "Restaurants, Pizza, Carry Out", "public_id": "dominos-pizza-smyrna-7", "id": 713334440, "votes": null, "tagline": null, "has_video": false, "website": "http://www.citysearch.com/profile/external/713334440/smyrna_ga/domino_s_pizza.html", "offers": null, "latitude": 33.921069, "politanName": "Atlanta, GA Metro ", "phone_number": "7709844540", "tags": [{"primary": false, "id": 1722, "name": "Restaurants"}, {"primary": false, "id": 11247, "name": "Carry Out"}, {"primary": true, "id": 11299, "name": "Pizza"}], "fax_number": null, "expansion": {"count": null, "uri": null}, "impression_id": "000b000000250f2f55e45e4031b53ed7cc08a976f3", "profile": "http://www.citysearch.com/profile/713334440/smyrna_ga/domino_s_pizza.html", "address": {"city": "Smyrna", "state": "GA", "street": "1230 Powers Rd", "postal_code": "30080"}, "capProviderId": null, "distance": null, "has_offers": false, "name": "Domino's Pizza", "longitude": -84.467591, "has_menu": false, "awards": null, "user_review_count": 0}, {"business_operation_status": 1, "rating": null, "neighborhood": null, "image": null, "scorecard": null, "featured": false, "sample_categories": "Restaurants", "public_id": "tropicanna-billards-grill-smyrna", "id": 614750544, "votes": null, "tagline": null, "has_video": false, "website": null, "offers": null, "latitude": 33.891092, "politanName": "Atlanta, GA Metro ", "phone_number": "7704320051", "tags": [{"primary": true, "id": 1722, "name": "Restaurants"}], "fax_number": null, "expansion": {"count": null, "uri": null}, "impression_id": "000b0000006ebe85eaeaca4e268ca4e3ec8075ba3c", "profile": "http://www.citysearch.com/profile/614750544/smyrna_ga/tropicanna_billards_grill.html", "address": {"city": "Smyrna", "state": "GA", "street": "2540 Atlanta Rd SE", "postal_code": "30080"}, "capProviderId": null, "distance": null, "has_offers": false, "name": "Tropicanna Billards & Grill", "longitude": -84.519025, "has_menu": false, "awards": null, "user_review_count": 0}, {"business_operation_status": 1, "rating": null, "neighborhood": null, "image": null, "scorecard": null, "featured": false, "sample_categories": "Restaurants", "public_id": "wings-101-smyrna", "id": 622039784, "votes": null, "tagline": null, "has_video": false, "website": null, "offers": null, "latitude": 33.894038, "politanName": "Atlanta, GA Metro ", "phone_number": "7709891520", "tags": [{"primary": true, "id": 1722, "name": "Restaurants"}], "fax_number": null, "expansion": {"count": null, "uri": null}, "impression_id": "000b000000055ecd775e804c25a49d545b9874a10d", "profile": "http://www.citysearch.com/profile/622039784/smyrna_ga/wings_101.html", "address": {"city": "Smyrna", "state": "GA", "street": "998 Windy Hill Rd SE", "postal_code": "30080"}, "capProviderId": null, "distance": null, "has_offers": false, "name": "Wings 101", "longitude": -84.524382, "has_menu": false, "awards": null, "user_review_count": 0}, {"business_operation_status": 1, "rating": null, "neighborhood": null, "image": null, "scorecard": null, "featured": false, "sample_categories": "Ice Cream Parlors, Deordorant, Soap, Glue, Air Fresheners", "public_id": "ritas-ice-smyrna", "id": 638835090, "votes": null, "tagline": null, "has_video": false, "website": "http://www.citysearch.com/profile/external/638835090/smyrna_ga/rita_s_ice.html", "offers": null, "latitude": 33.842892, "politanName": "Atlanta, GA Metro ", "phone_number": "7706273225", "tags": [{"primary": false, "id": 23400, "name": "Deordorant"}, {"primary": false, "id": 23410, "name": "Soap"}, {"primary": false, "id": 24950, "name": "Glue"}, {"primary": false, "id": 25880, "name": "Air Fresheners"}, {"primary": true, "id": 1730, "name": "Ice Cream Parlors"}], "fax_number": null, "expansion": {"count": null, "uri": null}, "impression_id": "000b0000009ce813da734547fd8d63d40463aa4fc9", "profile": "http://www.citysearch.com/profile/638835090/smyrna_ga/rita_s_ice.html", "address": {"city": "Smyrna", "state": "GA", "street": "4500 West Village Pl Se", "postal_code": "30080"}, "capProviderId": null, "distance": null, "has_offers": false, "name": "Rita's Ice", "longitude": -84.490261, "has_menu": false, "awards": null, "user_review_count": 0}, {"business_operation_status": 1, "rating": null, "neighborhood": null, "image": null, "scorecard": null, "featured": false, "sample_categories": "Restaurants, Barbecue Restaurants", "public_id": "barbeque-bills-smyrna", "id": 825550660, "votes": null, "tagline": null, "has_video": false, "website": null, "offers": null, "latitude": 33.877641, "politanName": "Atlanta, GA Metro ", "phone_number": "7703841227", "tags": [{"primary": false, "id": 1724, "name": "Barbecue Restaurants"}, {"primary": true, "id": 1722, "name": "Restaurants"}], "fax_number": null, "expansion": {"count": null, "uri": null}, "impression_id": "000b0000003463cc4941144810a5cdf4e8f6fb79ca", "profile": "http://www.citysearch.com/profile/825550660/smyrna_ga/barbeque_bill_s.html", "address": {"city": "Smyrna", "state": "GA", "street": "3120 S Cobb Dr SE", "postal_code": "30080"}, "capProviderId": null, "distance": null, "has_offers": false, "name": "Barbeque Bill's", "longitude": -84.532789, "has_menu": false, "awards": null, "user_review_count": 0}, {"business_operation_status": 1, "rating": null, "neighborhood": "Kenwood", "image": null, "scorecard": null, "featured": false, "sample_categories": "Restaurants", "public_id": "hot-wings-cafe-smyrna", "id": 833637940, "votes": null, "tagline": null, "has_video": false, "website": null, "offers": null, "latitude": 33.831526, "politanName": "Atlanta, GA Metro ", "phone_number": "6783059522", "tags": [{"primary": true, "id": 1722, "name": "Restaurants"}], "fax_number": null, "expansion": {"count": null, "uri": null}, "impression_id": "000b000000fa326b11bd1b4245ac614a7459790173", "profile": "http://www.citysearch.com/profile/833637940/smyrna_ga/hot_wings_cafe.html", "address": {"city": "Smyrna", "state": "GA", "street": "4924 S Cobb Dr SE # B", "postal_code": "30080"}, "capProviderId": null, "distance": null, "has_offers": false, "name": "Hot Wings Cafe", "longitude": -84.493417, "has_menu": true, "awards": null, "user_review_count": 0}, {"business_operation_status": 1, "rating": null, "neighborhood": null, "image": null, "scorecard": null, "featured": false, "sample_categories": "Ice Cream Parlors", "public_id": "slush-puppie-of-atlanta-atlanta", "id": 612214754, "votes": null, "tagline": null, "has_video": false, "website": null, "offers": null, "latitude": 33.836397, "politanName": "Atlanta, GA Metro ", "phone_number": "4047924330", "tags": [{"primary": true, "id": 1730, "name": "Ice Cream Parlors"}], "fax_number": null, "expansion": {"count": null, "uri": null}, "impression_id": "000b000000d7ce7d41044f44a582fae5338164ebd4", "profile": "http://www.citysearch.com/profile/612214754/atlanta_ga/slush_puppie_of_atlanta.html", "address": {"city": "Atlanta", "state": "GA", "street": "4820 N Church Ln SE", "postal_code": "30339"}, "capProviderId": null, "distance": null, "has_offers": false, "name": "Slush Puppie Of Atlanta", "longitude": -84.482929, "has_menu": false, "awards": null, "user_review_count": 0}, {"business_operation_status": 1, "rating": null, "neighborhood": null, "image": null, "scorecard": null, "featured": false, "sample_categories": "Restaurants", "public_id": "grain-works-smyrna", "id": 815926420, "votes": null, "tagline": null, "has_video": false, "website": null, "offers": null, "latitude": 33.844924, "politanName": "Atlanta, GA Metro ", "phone_number": "6785030710", "tags": [{"primary": true, "id": 1722, "name": "Restaurants"}], "fax_number": null, "expansion": {"count": null, "uri": null}, "impression_id": "000b00000015f731acc2cc4f52930f5e3f8113d5f9", "profile": "http://www.citysearch.com/profile/815926420/smyrna_ga/grain_works.html", "address": {"city": "Smyrna", "state": "GA", "street": "1270 Winchester Pkwy SE # 219", "postal_code": "30080"}, "capProviderId": null, "distance": null, "has_offers": false, "name": "Grain Works", "longitude": -84.489021, "has_menu": false, "awards": null, "user_review_count": 0}, {"business_operation_status": 1, "rating": null, "neighborhood": null, "image": null, "scorecard": null, "featured": false, "sample_categories": "Restaurants", "public_id": "village-cafe-gourmet-smyrna", "id": 614556564, "votes": null, "tagline": null, "has_video": false, "website": null, "offers": null, "latitude": 33.869097, "politanName": "Atlanta, GA Metro ", "phone_number": "7704319620", "tags": [{"primary": true, "id": 1722, "name": "Restaurants"}], "fax_number": null, "expansion": {"count": null, "uri": null}, "impression_id": "000b000000bb5675936d9a4cbab6655330a4f0b5f7", "profile": "http://www.citysearch.com/profile/614556564/smyrna_ga/village_cafe_gourmet.html", "address": {"city": "Smyrna", "state": "GA", "street": "1265 W Spring St SE", "postal_code": "30080"}, "capProviderId": null, "distance": null, "has_offers": false, "name": "Village Cafe & Gourmet", "longitude": -84.495999, "has_menu": false, "awards": null, "user_review_count": 1}, {"business_operation_status": 1, "rating": null, "neighborhood": null, "image": null, "scorecard": null, "featured": false, "sample_categories": "Restaurants", "public_id": "healthy-eating-restaurant-smyrna", "id": 672835080, "votes": null, "tagline": null, "has_video": false, "website": null, "offers": null, "latitude": 33.883443, "politanName": "Atlanta, GA Metro ", "phone_number": "7704357155", "tags": [{"primary": true, "id": 1722, "name": "Restaurants"}], "fax_number": null, "expansion": {"count": null, "uri": null}, "impression_id": "000b000000d65aa50407454adfa75922c3adbaf06e", "profile": "http://www.citysearch.com/profile/672835080/smyrna_ga/healthy_eating_restaurant.html", "address": {"city": "Smyrna", "state": "GA", "street": "2517 Spring Road", "postal_code": "30080"}, "capProviderId": null, "distance": null, "has_offers": false, "name": "Healthy Eating Restaurant", "longitude": -84.480608, "has_menu": false, "awards": null, "user_review_count": 0}, {"business_operation_status": 1, "rating": null, "neighborhood": null, "image": null, "scorecard": null, "featured": false, "sample_categories": "Restaurants, Chinese", "public_id": "number-one-chinese-restaurant-smyrna", "id": 773448470, "votes": null, "tagline": null, "has_video": false, "website": null, "offers": null, "latitude": 33.873639, "politanName": "Atlanta, GA Metro ", "phone_number": "7703331293", "tags": [{"primary": false, "id": 11252, "name": "Chinese"}, {"primary": true, "id": 1722, "name": "Restaurants"}], "fax_number": null, "expansion": {"count": null, "uri": null}, "impression_id": "000b0000007f5a6ee8530c425b91c75c4dfca49be0", "profile": "http://www.citysearch.com/profile/773448470/smyrna_ga/number_one_chinese_restaurant.html", "address": {"city": "Smyrna", "state": "GA", "street": "3240 S Cobb Dr SE", "postal_code": "30080"}, "capProviderId": null, "distance": null, "has_offers": false, "name": "Number One Chinese Restaurant", "longitude": -84.530478, "has_menu": false, "awards": null, "user_review_count": 0}, {"business_operation_status": 1, "rating": null, "neighborhood": null, "image": null, "scorecard": null, "featured": false, "sample_categories": "Delis And Delicatessens", "public_id": "kroger-deli-smyrna-2", "id": 694352350, "votes": null, "tagline": null, "has_video": false, "website": null, "offers": null, "latitude": 33.838977, "politanName": "Atlanta, GA Metro ", "phone_number": "4047926990", "tags": [{"primary": true, "id": 1727, "name": "Delis And Delicatessens"}], "fax_number": null, "expansion": {"count": null, "uri": null}, "impression_id": "000b000000f5e51fa1ab724784a50aae0de8ec1ffc", "profile": "http://www.citysearch.com/profile/694352350/smyrna_ga/kroger_deli.html", "address": {"city": "Smyrna", "state": "GA", "street": "4715 S Atlanta Rd Se # 100", "postal_code": "30080"}, "capProviderId": null, "distance": null, "has_offers": false, "name": "Kroger Deli", "longitude": -84.481545, "has_menu": false, "awards": null, "user_review_count": 0}, {"business_operation_status": 1, "rating": null, "neighborhood": null, "image": null, "scorecard": null, "featured": false, "sample_categories": "Restaurants", "public_id": "little-china-smyrna", "id": 805796770, "votes": null, "tagline": null, "has_video": false, "website": null, "offers": null, "latitude": 33.894335, "politanName": "Atlanta, GA Metro ", "phone_number": "6783057377", "tags": [{"primary": true, "id": 1722, "name": "Restaurants"}], "fax_number": null, "expansion": {"count": null, "uri": null}, "impression_id": "000b000000873f301144544b2c8d81d72ce2fd53c6", "profile": "http://www.citysearch.com/profile/805796770/smyrna_ga/little_china.html", "address": {"city": "Smyrna", "state": "GA", "street": "1065 Windy Hill Rd SE", "postal_code": "30080"}, "capProviderId": null, "distance": null, "has_offers": false, "name": "Little China", "longitude": -84.522435, "has_menu": false, "awards": null, "user_review_count": 0}, {"business_operation_status": 1, "rating": null, "neighborhood": null, "image": null, "scorecard": null, "featured": false, "sample_categories": "Coffeehouses", "public_id": "hamilton-coffee-co-inc-smyrna", "id": 821080290, "votes": null, "tagline": null, "has_video": false, "website": null, "offers": null, "latitude": 33.869377, "politanName": "Atlanta, GA Metro ", "phone_number": "7704327385", "tags": [{"primary": true, "id": 1726, "name": "Coffeehouses"}], "fax_number": null, "expansion": {"count": null, "uri": null}, "impression_id": "000b000000d763aa70c6f246a9b254ae0b9ff4fad8", "profile": "http://www.citysearch.com/profile/821080290/smyrna_ga/hamilton_coffee_co_inc.html", "address": {"city": "Smyrna", "state": "GA", "street": "1105 Oakdale Dr SE", "postal_code": "30080"}, "capProviderId": null, "distance": null, "has_offers": false, "name": "Hamilton Coffee Co Inc", "longitude": -84.521363, "has_menu": false, "awards": null, "user_review_count": 0}, {"business_operation_status": 1, "rating": null, "neighborhood": null, "image": null, "scorecard": null, "featured": false, "sample_categories": "Restaurants", "public_id": "cafeteria-la-oaxaquena-smyrna", "id": 764902040, "votes": null, "tagline": null, "has_video": false, "website": null, "offers": null, "latitude": 33.8912, "politanName": "Atlanta, GA Metro ", "phone_number": "6785560599", "tags": [{"primary": true, "id": 1722, "name": "Restaurants"}], "fax_number": null, "expansion": {"count": null, "uri": null}, "impression_id": "000b0000009e74aaae398d44679acb78f3ec0719e5", "profile": "http://www.citysearch.com/profile/764902040/smyrna_ga/cafeteria_la_oaxaquena.html", "address": {"city": "Smyrna", "state": "GA", "street": "1651 Roswell St SE", "postal_code": "30080"}, "capProviderId": null, "distance": null, "has_offers": false, "name": "Cafeteria La Oaxaquena", "longitude": -84.503871, "has_menu": false, "awards": null, "user_review_count": 0}, {"business_operation_status": 1, "rating": null, "neighborhood": null, "image": null, "scorecard": null, "featured": false, "sample_categories": "Restaurants", "public_id": "sushinobo-smyrna-2", "id": 787110950, "votes": null, "tagline": null, "has_video": false, "website": null, "offers": null, "latitude": 33.842707, "politanName": "Atlanta, GA Metro ", "phone_number": "6784017322", "tags": [{"primary": true, "id": 1722, "name": "Restaurants"}], "fax_number": null, "expansion": {"count": null, "uri": null}, "impression_id": "000b000000f8c2b4910df04cf7892a776689247227", "profile": "http://www.citysearch.com/profile/787110950/smyrna_ga/sushinobo.html", "address": {"city": "Smyrna", "state": "GA", "street": "4500 West Village Pl Se # 1005", "postal_code": "30080"}, "capProviderId": null, "distance": null, "has_offers": false, "name": "Sushinobo", "longitude": -84.490488, "has_menu": false, "awards": null, "user_review_count": 0}, {"business_operation_status": 1, "rating": null, "neighborhood": null, "image": null, "scorecard": null, "featured": false, "sample_categories": "Restaurants, Carry Out", "public_id": "jamaica-mi-krazy-restaurant-smyrna", "id": 789846400, "votes": null, "tagline": null, "has_video": false, "website": null, "offers": null, "latitude": 33.883443, "politanName": "Atlanta, GA Metro ", "phone_number": "7708743071", "tags": [{"primary": false, "id": 1722, "name": "Restaurants"}, {"primary": true, "id": 11247, "name": "Carry Out"}], "fax_number": null, "expansion": {"count": null, "uri": null}, "impression_id": "000b000000f99c7cf18f0d4b5390fdee62fe62be97", "profile": "http://www.citysearch.com/profile/789846400/smyrna_ga/jamaica_mi_krazy_restaurant.html", "address": {"city": "Smyrna", "state": "GA", "street": "2517 Spring Rd SE", "postal_code": "30080"}, "capProviderId": null, "distance": null, "has_offers": false, "name": "JAMAICA MI KRAZY RESTAURANT", "longitude": -84.480608, "has_menu": false, "awards": null, "user_review_count": 0}, {"business_operation_status": 1, "rating": null, "neighborhood": null, "image": null, "scorecard": null, "featured": false, "sample_categories": "Restaurants", "public_id": "saigon-cafe-smyrna", "id": 620245484, "votes": null, "tagline": null, "has_video": false, "website": null, "offers": null, "latitude": 33.886268, "politanName": "Atlanta, GA Metro ", "phone_number": "6783059091", "tags": [{"primary": true, "id": 1722, "name": "Restaurants"}], "fax_number": null, "expansion": {"count": null, "uri": null}, "impression_id": "000b0000008c314ab6cdf64188a428be350bbef2ac", "profile": "http://www.citysearch.com/profile/620245484/smyrna_ga/saigon_cafe.html", "address": {"city": "Smyrna", "state": "GA", "street": "2700 Cobb Pkwy SE", "postal_code": "30080"}, "capProviderId": null, "distance": null, "has_offers": false, "name": "Saigon Cafe", "longitude": -84.471205, "has_menu": false, "awards": null, "user_review_count": 0}, {"business_operation_status": 1, "rating": null, "neighborhood": null, "image": null, "scorecard": null, "featured": false, "sample_categories": "Restaurants, Coffeehouses", "public_id": "rev-coffee-house-smyrna", "id": 766767230, "votes": null, "tagline": null, "has_video": false, "website": null, "offers": null, "latitude": 33.882118, "politanName": "Atlanta, GA Metro ", "phone_number": "7705734434", "tags": [{"primary": false, "id": 1726, "name": "Coffeehouses"}, {"primary": true, "id": 1722, "name": "Restaurants"}], "fax_number": null, "expansion": {"count": null, "uri": null}, "impression_id": "000b0000001876728f4d594dabb9c1fdf7cb7b7608", "profile": "http://www.citysearch.com/profile/766767230/smyrna_ga/rev_coffee_house.html", "address": {"city": "Smyrna", "state": "GA", "street": "1680 Spring Rd SE", "postal_code": "30080"}, "capProviderId": null, "distance": null, "has_offers": false, "name": "Rev Coffee House", "longitude": -84.504533, "has_menu": false, "awards": null, "user_review_count": 0}, {"business_operation_status": 1, "rating": null, "neighborhood": null, "image": null, "scorecard": null, "featured": false, "sample_categories": "Restaurants", "public_id": "imani-african-arabian-rstrnt-smyrna", "id": 713541910, "votes": null, "tagline": null, "has_video": false, "website": null, "offers": null, "latitude": 33.891129, "politanName": "Atlanta, GA Metro ", "phone_number": "6782936841", "tags": [{"primary": true, "id": 1722, "name": "Restaurants"}], "fax_number": null, "expansion": {"count": null, "uri": null}, "impression_id": "000b0000004a60019049c54723b8a46e7966510f56", "profile": "http://www.citysearch.com/profile/713541910/smyrna_ga/imani_african_arabian_rstrnt.html", "address": {"city": "Smyrna", "state": "GA", "street": "1651 Roswell St Se", "postal_code": "30080"}, "capProviderId": null, "distance": null, "has_offers": false, "name": "Imani African & Arabian Rstrnt", "longitude": -84.504659, "has_menu": false, "awards": null, "user_review_count": 0}, {"business_operation_status": 1, "rating": null, "neighborhood": null, "image": null, "scorecard": null, "featured": false, "sample_categories": "Restaurants", "public_id": "wings-101-smyrna", "id": 621748804, "votes": null, "tagline": null, "has_video": false, "website": null, "offers": null, "latitude": 33.894038, "politanName": "Atlanta, GA Metro ", "phone_number": "7709891520", "tags": [{"primary": true, "id": 1722, "name": "Restaurants"}], "fax_number": null, "expansion": {"count": null, "uri": null}, "impression_id": "000b000000f263997edb73402fa0a7489d65e172c4", "profile": "http://www.citysearch.com/profile/621748804/smyrna_ga/wings_101.html", "address": {"city": "Smyrna", "state": "GA", "street": "998 Windy Hill Rd SE", "postal_code": "30080"}, "capProviderId": null, "distance": null, "has_offers": false, "name": "Wings 101", "longitude": -84.524382, "has_menu": false, "awards": null, "user_review_count": 0}, {"business_operation_status": 1, "rating": null, "neighborhood": null, "image": null, "scorecard": null, "featured": false, "sample_categories": "Restaurants", "public_id": "village-cafe-smyrna", "id": 745629910, "votes": null, "tagline": null, "has_video": false, "website": null, "offers": null, "latitude": 33.883751, "politanName": "Atlanta, GA Metro ", "phone_number": "6782935977", "tags": [{"primary": true, "id": 1722, "name": "Restaurants"}], "fax_number": null, "expansion": {"count": null, "uri": null}, "impression_id": "000b000000f67f7380170742eabe95eaac65ce0198", "profile": "http://www.citysearch.com/profile/745629910/smyrna_ga/village_cafe.html", "address": {"city": "Smyrna", "state": "GA", "street": "865 Pinehill Dr SE", "postal_code": "30080"}, "capProviderId": null, "distance": null, "has_offers": false, "name": "Village Cafe", "longitude": -84.528342, "has_menu": false, "awards": null, "user_review_count": 0}, {"business_operation_status": 1, "rating": null, "neighborhood": null, "image": null, "scorecard": null, "featured": false, "sample_categories": "Doughnut Shops, Coffeehouses", "public_id": "krispy-kreme-doughnuts-smyrna-2", "id": 816048270, "votes": null, "tagline": null, "has_video": false, "website": "http://www.citysearch.com/profile/external/816048270/smyrna_ga/krispy_kreme_doughnuts.html", "offers": null, "latitude": 33.842457, "politanName": "Atlanta, GA Metro ", "phone_number": "7704322320", "tags": [{"primary": false, "id": 1726, "name": "Coffeehouses"}, {"primary": true, "id": 1734, "name": "Doughnut Shops"}], "fax_number": null, "expansion": {"count": null, "uri": null}, "impression_id": "000b0000002c413984487e4f088df1372c746b1874", "profile": "http://www.citysearch.com/profile/816048270/smyrna_ga/krispy_kreme_doughnuts.html", "address": {"city": "Smyrna", "state": "GA", "street": "4560 S Cobb Dr SE", "postal_code": "30080"}, "capProviderId": null, "distance": null, "has_offers": false, "name": "Krispy Kreme Doughnuts", "longitude": -84.501331, "has_menu": false, "awards": null, "user_review_count": 0}, {"business_operation_status": 1, "rating": null, "neighborhood": null, "image": null, "scorecard": null, "featured": false, "sample_categories": "Restaurants, Pizza", "public_id": "johnnys-new-york-style-pizza-smyrna-4", "id": 682425730, "votes": null, "tagline": null, "has_video": false, "website": "http://www.citysearch.com/profile/external/682425730/smyrna_ga/johnny_s_new_york_style_pizza.html", "offers": null, "latitude": 33.887838, "politanName": "Atlanta, GA Metro ", "phone_number": "7704380300", "tags": [{"primary": false, "id": 1722, "name": "Restaurants"}, {"primary": true, "id": 11299, "name": "Pizza"}], "fax_number": null, "expansion": {"count": null, "uri": null}, "impression_id": "000b0000001e107d05fb3f43c9bc6506b572984cb3", "profile": "http://www.citysearch.com/profile/682425730/smyrna_ga/johnny_s_new_york_style_pizza.html", "address": {"city": "Smyrna", "state": "GA", "street": "2651 Cumberland Blvd Se", "postal_code": "30080"}, "capProviderId": null, "distance": null, "has_offers": false, "name": "Johnny's New York Style Pizza", "longitude": -84.475608, "has_menu": true, "awards": null, "user_review_count": 0}, {"business_operation_status": 1, "rating": null, "neighborhood": null, "image": null, "scorecard": null, "featured": false, "sample_categories": "Restaurants, Pizza, American Express, Discover, MasterCard", "public_id": "st-angelos-pizza-vinings-vlg-smyrna", "id": 682274700, "votes": null, "tagline": null, "has_video": false, "website": "http://www.citysearch.com/profile/external/682274700/smyrna_ga/st_angelo_s_pizza_vinings_vlg.html", "offers": null, "latitude": 33.838436, "politanName": "Atlanta, GA Metro ", "phone_number": "4047949254", "tags": [{"primary": false, "id": 1722, "name": "Restaurants"}, {"primary": false, "id": 11333, "name": "American Express"}, {"primary": false, "id": 11349, "name": "Discover"}, {"primary": false, "id": 11361, "name": "MasterCard"}, {"primary": false, "id": 11382, "name": "Visa"}, {"primary": true, "id": 11299, "name": "Pizza"}], "fax_number": null, "expansion": {"count": null, "uri": null}, "impression_id": "000b000000aee153df5efb4901a3d48d95f6faa472", "profile": "http://www.citysearch.com/profile/682274700/smyrna_ga/st_angelo_s_pizza_vinings_vlg.html", "address": {"city": "Smyrna", "state": "GA", "street": "4686 S Atlanta Rd Se", "postal_code": "30080"}, "capProviderId": null, "distance": null, "has_offers": false, "name": "St Angelo's Pizza Vinings Vlg", "longitude": -84.482318, "has_menu": true, "awards": null, "user_review_count": 5}, {"business_operation_status": 1, "rating": null, "neighborhood": null, "image": null, "scorecard": null, "featured": false, "sample_categories": "Ice Cream Parlors", "public_id": "tropicanna-billiards-grill-smyrna", "id": 614553874, "votes": null, "tagline": null, "has_video": false, "website": null, "offers": null, "latitude": 33.890202, "politanName": "Atlanta, GA Metro ", "phone_number": "7704320051", "tags": [{"primary": true, "id": 1730, "name": "Ice Cream Parlors"}], "fax_number": null, "expansion": {"count": null, "uri": null}, "impression_id": "000b000000ab84aee447d84115aacfd41c8479df2e", "profile": "http://www.citysearch.com/profile/614553874/smyrna_ga/tropicanna_billiards_grill.html", "address": {"city": "Smyrna", "state": "GA", "street": "2570 Atlanta Rd SE", "postal_code": "30080"}, "capProviderId": null, "distance": null, "has_offers": false, "name": "Tropicanna Billiards & Grill", "longitude": -84.517036, "has_menu": false, "awards": null, "user_review_count": 0}, {"business_operation_status": 1, "rating": null, "neighborhood": null, "image": null, "scorecard": null, "featured": false, "sample_categories": "Restaurants", "public_id": "cafe-alice-smyrna", "id": 672226100, "votes": null, "tagline": null, "has_video": false, "website": null, "offers": null, "latitude": 33.901234, "politanName": "Atlanta, GA Metro ", "phone_number": "7709550300", "tags": [{"primary": true, "id": 1722, "name": "Restaurants"}], "fax_number": null, "expansion": {"count": null, "uri": null}, "impression_id": "000b000000266a79ae084a4662ae6e8ee00e375286", "profile": "http://www.citysearch.com/profile/672226100/smyrna_ga/cafe_alice.html", "address": {"city": "Smyrna", "state": "GA", "street": "2092 Cobb Pkwy", "postal_code": "30080"}, "capProviderId": null, "distance": null, "has_offers": false, "name": "Cafe Alice", "longitude": -84.488366, "has_menu": false, "awards": null, "user_review_count": 0}, {"business_operation_status": 1, "rating": null, "neighborhood": null, "image": null, "scorecard": null, "featured": false, "sample_categories": "Restaurants, Barbecue Restaurants", "public_id": "wings-express-smyrna", "id": 655890370, "votes": null, "tagline": null, "has_video": false, "website": null, "offers": null, "latitude": 33.887226, "politanName": "Atlanta, GA Metro ", "phone_number": "6783059522", "tags": [{"primary": false, "id": 1724, "name": "Barbecue Restaurants"}, {"primary": true, "id": 1722, "name": "Restaurants"}], "fax_number": null, "expansion": {"count": null, "uri": null}, "impression_id": "000b000000bd6ba8fbba13415a98dab1ef7144ee59", "profile": "http://www.citysearch.com/profile/655890370/smyrna_ga/wings_express.html", "address": {"city": "Smyrna", "state": "GA", "street": "2711 S Cobb Dr Se", "postal_code": "30080"}, "capProviderId": null, "distance": null, "has_offers": false, "name": "Wings Express", "longitude": -84.535161, "has_menu": false, "awards": null, "user_review_count": 0}, {"business_operation_status": 0, "rating": null, "neighborhood": null, "image": null, "scorecard": null, "featured": false, "sample_categories": "Restaurants, Carry Out", "public_id": "mc-donalds-smyrna-11", "id": 682428720, "votes": null, "tagline": null, "has_video": false, "website": "http://www.citysearch.com/profile/external/682428720/smyrna_ga/mc_donald_s.html", "offers": null, "latitude": 33.855476, "politanName": "Atlanta, GA Metro ", "phone_number": "7708019353", "tags": [{"primary": false, "id": 11247, "name": "Carry Out"}, {"primary": true, "id": 1722, "name": "Restaurants"}], "fax_number": null, "expansion": {"count": null, "uri": null}, "impression_id": "000b000000705f7e31683246a5a2b5263fd630b942", "profile": "http://www.citysearch.com/profile/682428720/smyrna_ga/mc_donald_s.html", "address": {"city": "Smyrna", "state": "GA", "street": "4301 Ridgehurst Dr Se", "postal_code": "30080"}, "capProviderId": null, "distance": null, "has_offers": false, "name": "Mc Donald's", "longitude": -84.505022, "has_menu": false, "awards": null, "user_review_count": 0}, {"business_operation_status": 1, "rating": null, "neighborhood": null, "image": null, "scorecard": null, "featured": false, "sample_categories": "Catering, Restaurants", "public_id": "freckled-and-blue-kitchen-catering-smyrna", "id": 606527734, "votes": null, "tagline": null, "has_video": false, "website": null, "offers": null, "latitude": 33.842593, "politanName": "Atlanta, GA Metro ", "phone_number": "4049895571", "tags": [{"primary": false, "id": 1722, "name": "Restaurants"}, {"primary": true, "id": 1705, "name": "Catering"}], "fax_number": null, "expansion": {"count": null, "uri": null}, "impression_id": "000b00000061350fe218ec4f19addfcea2ef5d5b23", "profile": "http://www.citysearch.com/profile/606527734/smyrna_ga/freckled_and_blue_kitchen_catering.html", "address": {"city": "Smyrna", "state": "GA", "street": "4585 S Cobb Dr SE 100", "postal_code": "30080"}, "capProviderId": null, "distance": null, "has_offers": false, "name": "Freckled and Blue Kitchen & Catering", "longitude": -84.498107, "has_menu": false, "awards": null, "user_review_count": 0}, {"business_operation_status": 1, "rating": null, "neighborhood": null, "image": null, "scorecard": null, "featured": false, "sample_categories": "Restaurants, Carry Out", "public_id": "atlanta-bread-co-smyrna-3", "id": 822894330, "votes": null, "tagline": null, "has_video": false, "website": null, "offers": null, "latitude": 33.844924, "politanName": "Atlanta, GA Metro ", "phone_number": "6785030710", "tags": [{"primary": false, "id": 11247, "name": "Carry Out"}, {"primary": true, "id": 1722, "name": "Restaurants"}], "fax_number": null, "expansion": {"count": null, "uri": null}, "impression_id": "000b000000f97ba98355074a069a0a2f3abd0cb803", "profile": "http://www.citysearch.com/profile/822894330/smyrna_ga/atlanta_bread_co.html", "address": {"city": "Smyrna", "state": "GA", "street": "1270 Winchester Pkwy SE # 219", "postal_code": "30080"}, "capProviderId": null, "distance": null, "has_offers": false, "name": "Atlanta Bread Co", "longitude": -84.489021, "has_menu": false, "awards": null, "user_review_count": 0}, {"business_operation_status": 1, "rating": null, "neighborhood": null, "image": null, "scorecard": null, "featured": false, "sample_categories": "Restaurants, Carry Out", "public_id": "atlanta-bread-co-smyrna-2", "id": 805222070, "votes": null, "tagline": null, "has_video": false, "website": null, "offers": null, "latitude": 33.923686, "politanName": "Atlanta, GA Metro ", "phone_number": "6785030710", "tags": [{"primary": false, "id": 11247, "name": "Carry Out"}, {"primary": true, "id": 1722, "name": "Restaurants"}], "fax_number": null, "expansion": {"count": null, "uri": null}, "impression_id": "000b0000005d0d3e6f00af49e99344e349b42ff868", "profile": "http://www.citysearch.com/profile/805222070/smyrna_ga/atlanta_bread_co.html", "address": {"city": "Smyrna", "state": "GA", "street": "2160 Kingston CT SE", "postal_code": "30080"}, "capProviderId": null, "distance": null, "has_offers": false, "name": "Atlanta Bread Co", "longitude": -84.488921, "has_menu": false, "awards": null, "user_review_count": 0}, {"business_operation_status": 1, "rating": null, "neighborhood": "Highlands Park", "image": null, "scorecard": null, "featured": false, "sample_categories": "Restaurants, Carry Out", "public_id": "rallys-hamburgers-smyrna", "id": 808255240, "votes": null, "tagline": null, "has_video": false, "website": null, "offers": null, "latitude": 33.828925, "politanName": "Atlanta, GA Metro ", "phone_number": "7708018145", "tags": [{"primary": false, "id": 11247, "name": "Carry Out"}, {"primary": true, "id": 1722, "name": "Restaurants"}], "fax_number": null, "expansion": {"count": null, "uri": null}, "impression_id": "000b0000005e9753a17a0943a1894fe8b48623837a", "profile": "http://www.citysearch.com/profile/808255240/smyrna_ga/rally_s_hamburgers.html", "address": {"city": "Smyrna", "state": "GA", "street": "5100 S Cobb Dr SE", "postal_code": "30080"}, "capProviderId": null, "distance": null, "has_offers": false, "name": "Rally's Hamburgers", "longitude": -84.492961, "has_menu": false, "awards": null, "user_review_count": 0}, {"business_operation_status": 1, "rating": null, "neighborhood": null, "image": null, "scorecard": null, "featured": false, "sample_categories": "Restaurants, Barbecue Restaurants", "public_id": "wing-zone-smyrna", "id": 764933090, "votes": null, "tagline": null, "has_video": false, "website": "http://www.citysearch.com/profile/external/764933090/smyrna_ga/wing_zone.html", "offers": null, "latitude": 33.844439, "politanName": "Atlanta, GA Metro ", "phone_number": "6783090002", "tags": [{"primary": false, "id": 1724, "name": "Barbecue Restaurants"}, {"primary": true, "id": 1722, "name": "Restaurants"}], "fax_number": null, "expansion": {"count": null, "uri": null}, "impression_id": "000b000000966b3d0223534a2999e564cd90b7a21d", "profile": "http://www.citysearch.com/profile/764933090/smyrna_ga/wing_zone.html", "address": {"city": "Smyrna", "state": "GA", "street": "4490 S Cobb Dr SE", "postal_code": "30080"}, "capProviderId": null, "distance": null, "has_offers": false, "name": "Wing Zone", "longitude": -84.501907, "has_menu": true, "awards": null, "user_review_count": 0}, {"business_operation_status": 1, "rating": null, "neighborhood": "Kenwood", "image": null, "scorecard": null, "featured": false, "sample_categories": "Restaurants", "public_id": "chris-caribbean-cafe-smyrna-2", "id": 822928860, "votes": null, "tagline": null, "has_video": false, "website": null, "offers": null, "latitude": 33.831526, "politanName": "Atlanta, GA Metro ", "phone_number": "7704357111", "tags": [{"primary": true, "id": 1722, "name": "Restaurants"}], "fax_number": null, "expansion": {"count": null, "uri": null}, "impression_id": "000b0000005ab820a88fd746f1919e6341c2c2d80d", "profile": "http://www.citysearch.com/profile/822928860/smyrna_ga/chris_caribbean_cafe.html", "address": {"city": "Smyrna", "state": "GA", "street": "4924 S Cobb Dr SE # M", "postal_code": "30080"}, "capProviderId": null, "distance": null, "has_offers": false, "name": "Chris' Caribbean Cafe", "longitude": -84.493417, "has_menu": false, "awards": null, "user_review_count": 0}, {"business_operation_status": 1, "rating": null, "neighborhood": null, "image": null, "scorecard": null, "featured": false, "sample_categories": "Restaurants, Delis And Delicatessens", "public_id": "zero-sub-smyrna", "id": 764935550, "votes": null, "tagline": null, "has_video": false, "website": "http://www.citysearch.com/profile/external/764935550/smyrna_ga/zero_sub.html", "offers": null, "latitude": 33.843682, "politanName": "Atlanta, GA Metro ", "phone_number": "6783093600", "tags": [{"primary": false, "id": 1727, "name": "Delis And Delicatessens"}, {"primary": true, "id": 1722, "name": "Restaurants"}], "fax_number": null, "expansion": {"count": null, "uri": null}, "impression_id": "000b0000001192763d408a4253913e7e173682bebf", "profile": "http://www.citysearch.com/profile/764935550/smyrna_ga/zero_sub.html", "address": {"city": "Smyrna", "state": "GA", "street": "4480 S Cobb Dr SE", "postal_code": "30080"}, "capProviderId": null, "distance": null, "has_offers": false, "name": "Zero Sub", "longitude": -84.503845, "has_menu": false, "awards": null, "user_review_count": 0}, {"business_operation_status": 1, "rating": null, "neighborhood": null, "image": null, "scorecard": null, "featured": false, "sample_categories": "Restaurants", "public_id": "hacienda-los-mariachis-smyrna", "id": 806154260, "votes": null, "tagline": null, "has_video": false, "website": null, "offers": null, "latitude": 33.87498, "politanName": "Atlanta, GA Metro ", "phone_number": "7704324730", "tags": [{"primary": true, "id": 1722, "name": "Restaurants"}], "fax_number": null, "expansion": {"count": null, "uri": null}, "impression_id": "000b0000005adc2849189c472c9068d64143e1e041", "profile": "http://www.citysearch.com/profile/806154260/smyrna_ga/hacienda_los_mariachis.html", "address": {"city": "Smyrna", "state": "GA", "street": "821 Concord Rd SE", "postal_code": "30080"}, "capProviderId": null, "distance": null, "has_offers": false, "name": "Hacienda Los Mariachis", "longitude": -84.529694, "has_menu": false, "awards": null, "user_review_count": 0}, {"business_operation_status": 1, "rating": null, "neighborhood": null, "image": null, "scorecard": null, "featured": false, "sample_categories": "Restaurants, Coffeehouses", "public_id": "drinkmor-coffee-smyrna", "id": 672304430, "votes": null, "tagline": null, "has_video": false, "website": null, "offers": null, "latitude": 33.850095, "politanName": "Atlanta, GA Metro ", "phone_number": "4047948900", "tags": [{"primary": false, "id": 1726, "name": "Coffeehouses"}, {"primary": true, "id": 1722, "name": "Restaurants"}], "fax_number": null, "expansion": {"count": null, "uri": null}, "impression_id": "000b000000e876bf211a2f4198aec043a0e40e8c2f", "profile": "http://www.citysearch.com/profile/672304430/smyrna_ga/drinkmor_coffee.html", "address": {"city": "Smyrna", "state": "GA", "street": "4715 Atlanta Rd SE", "postal_code": "30080"}, "capProviderId": null, "distance": null, "has_offers": false, "name": "Drinkmor Coffee", "longitude": -84.493468, "has_menu": false, "awards": null, "user_review_count": 0}, {"business_operation_status": 1, "rating": null, "neighborhood": null, "image": null, "scorecard": null, "featured": false, "sample_categories": "Restaurants", "public_id": "monterrey-restaurant-smyrna-2", "id": 682346770, "votes": null, "tagline": null, "has_video": false, "website": null, "offers": null, "latitude": 33.871956, "politanName": "Atlanta, GA Metro ", "phone_number": "7704339344", "tags": [{"primary": true, "id": 1722, "name": "Restaurants"}], "fax_number": null, "expansion": {"count": null, "uri": null}, "impression_id": "000b000000dd496ba475bc452f8f7cabdac21bd53c", "profile": "http://www.citysearch.com/profile/682346770/smyrna_ga/monterrey_restaurant.html", "address": {"city": "Smyrna", "state": "GA", "street": "3326 S Cobb Dr Se", "postal_code": "30080"}, "capProviderId": null, "distance": null, "has_offers": false, "name": "Monterrey Restaurant", "longitude": -84.52909, "has_menu": false, "awards": null, "user_review_count": 0}, {"business_operation_status": 1, "rating": null, "neighborhood": null, "image": null, "scorecard": null, "featured": false, "sample_categories": "Restaurants, Bars & Clubs, Bars & Pubs, Mexican", "public_id": "el-sol-mexican-bar-grill-smyrna", "id": 732151620, "votes": null, "tagline": null, "has_video": false, "website": null, "offers": null, "latitude": 33.865738, "politanName": "Atlanta, GA Metro ", "phone_number": "6782146686", "tags": [{"primary": false, "id": 164, "name": "Bars & Clubs"}, {"primary": false, "id": 1686, "name": "Bars & Pubs"}, {"primary": false, "id": 11208, "name": "Mexican"}, {"primary": true, "id": 1722, "name": "Restaurants"}], "fax_number": null, "expansion": {"count": null, "uri": null}, "impression_id": "000b0000003823527595554481bc79e6bd5bc68784", "profile": "http://www.citysearch.com/profile/732151620/smyrna_ga/el_sol_mexican_bar_grill.html", "address": {"city": "Smyrna", "state": "GA", "street": "3599 Atlanta Rd SE", "postal_code": "30080"}, "capProviderId": null, "distance": null, "has_offers": false, "name": "El Sol Mexican Bar & Grill", "longitude": -84.492245, "has_menu": false, "awards": null, "user_review_count": 0}, {"business_operation_status": 1, "rating": null, "neighborhood": "Kenwood", "image": null, "scorecard": null, "featured": false, "sample_categories": "Restaurants", "public_id": "wings-cafe-smyrna", "id": 814264170, "votes": null, "tagline": null, "has_video": false, "website": null, "offers": null, "latitude": 33.831526, "politanName": "Atlanta, GA Metro ", "phone_number": "6783059522", "tags": [{"primary": true, "id": 1722, "name": "Restaurants"}], "fax_number": null, "expansion": {"count": null, "uri": null}, "impression_id": "000b00000083346e3ea69544ef8c935e89db2c6be6", "profile": "http://www.citysearch.com/profile/814264170/smyrna_ga/wings_cafe.html", "address": {"city": "Smyrna", "state": "GA", "street": "4924 S Cobb Dr SE # B", "postal_code": "30080"}, "capProviderId": null, "distance": null, "has_offers": false, "name": "Wings Cafe", "longitude": -84.493417, "has_menu": false, "awards": null, "user_review_count": 1}, {"business_operation_status": 1, "rating": null, "neighborhood": null, "image": null, "scorecard": null, "featured": false, "sample_categories": "Restaurants, Caribbean", "public_id": "island-vibes-llc-smyrna", "id": 751350600, "votes": null, "tagline": null, "has_video": false, "website": "http://www.citysearch.com/profile/external/751350600/smyrna_ga/island_vibes_llc.html", "offers": null, "latitude": 33.901234, "politanName": "Atlanta, GA Metro ", "phone_number": "7702721956", "tags": [{"primary": false, "id": 11195, "name": "Caribbean"}, {"primary": true, "id": 1722, "name": "Restaurants"}], "fax_number": null, "expansion": {"count": null, "uri": null}, "impression_id": "000b00000050ec01dd8f664cab972b2088f424ec7d", "profile": "http://www.citysearch.com/profile/751350600/smyrna_ga/island_vibes_llc.html", "address": {"city": "Smyrna", "state": "GA", "street": "2092 Cobb Pkwy SE", "postal_code": "30080"}, "capProviderId": null, "distance": null, "has_offers": false, "name": "Island Vibes LLC", "longitude": -84.488366, "has_menu": false, "awards": null, "user_review_count": 1}, {"business_operation_status": 1, "rating": null, "neighborhood": null, "image": null, "scorecard": null, "featured": false, "sample_categories": "Restaurants", "public_id": "cafe-decuir-smyrna", "id": 655946280, "votes": null, "tagline": null, "has_video": false, "website": "http://www.citysearch.com/profile/external/655946280/smyrna_ga/cafe_decuir.html", "offers": null, "latitude": 33.831642, "politanName": "Atlanta, GA Metro ", "phone_number": "7704349990", "tags": [{"primary": true, "id": 1722, "name": "Restaurants"}], "fax_number": null, "expansion": {"count": null, "uri": null}, "impression_id": "000b000000e0995742a4e54b2d8d4219ba6b4149d4", "profile": "http://www.citysearch.com/profile/655946280/smyrna_ga/cafe_decuir.html", "address": {"city": "Smyrna", "state": "GA", "street": "4924 S Cobb Dr Se", "postal_code": "30080"}, "capProviderId": null, "distance": null, "has_offers": false, "name": "Cafe Decuir", "longitude": -84.493491, "has_menu": false, "awards": null, "user_review_count": 0}, {"business_operation_status": 1, "rating": null, "neighborhood": null, "image": null, "scorecard": null, "featured": false, "sample_categories": "Restaurants, Carry Out", "public_id": "zaxbys-smyrna-4", "id": 626121764, "votes": null, "tagline": null, "has_video": false, "website": null, "offers": null, "latitude": 33.879925, "politanName": "Atlanta, GA Metro ", "phone_number": "6788704000", "tags": [{"primary": false, "id": 11247, "name": "Carry Out"}, {"primary": true, "id": 1722, "name": "Restaurants"}], "fax_number": null, "expansion": {"count": null, "uri": null}, "impression_id": "000b000000f440decc1d4942b8a22630d950ed4c7e", "profile": "http://www.citysearch.com/profile/626121764/smyrna_ga/zaxby_s.html", "address": {"city": "Smyrna", "state": "GA", "street": "1420 Spring Rd SE", "postal_code": "30080"}, "capProviderId": null, "distance": null, "has_offers": false, "name": "Zaxby's", "longitude": -84.51175, "has_menu": false, "awards": null, "user_review_count": 0}, {"business_operation_status": 1, "rating": null, "neighborhood": null, "image": null, "scorecard": null, "featured": false, "sample_categories": "Restaurants, Barbecue Restaurants, Carry Out, Shop Online", "public_id": "famous-daves-smyrna-4", "id": 764909170, "votes": null, "tagline": null, "has_video": false, "website": null, "offers": null, "latitude": 33.864202, "politanName": "Atlanta, GA Metro ", "phone_number": "7709338998", "tags": [{"primary": false, "id": 1724, "name": "Barbecue Restaurants"}, {"primary": false, "id": 11247, "name": "Carry Out"}, {"primary": false, "id": 11375, "name": "Shop Online"}, {"primary": true, "id": 1722, "name": "Restaurants"}], "fax_number": null, "expansion": {"count": null, "uri": null}, "impression_id": "000b000000426771b1351140bd973d4145e23d7489", "profile": "http://www.citysearch.com/profile/764909170/smyrna_ga/famous_dave_s.html", "address": {"city": "Smyrna", "state": "GA", "street": "1935 Paces Ferry Rd SE", "postal_code": "30080"}, "capProviderId": null, "distance": null, "has_offers": false, "name": "Famous Dave's", "longitude": -84.493295, "has_menu": false, "awards": null, "user_review_count": 0}], "histograms": [], "tag_ids": [1722], "uri": "http://api.citygridmedia.com:8080/search/places/v2/search/where?has_offers=false&type=restaurant&format=json&page=5&where=30080&rpp=50&histograms=false&publisher=10000009598&region_type=circle", "did_you_mean": "", "regions": [{"latitude": 33.870107, "default_radius": 3.76, "type": "postal_code", "name": "30080", "longitude": -84.499867}], "call_id": "000b000000f597e7638a274ce9a8f7a39bcbfa7474", "first_hit": 201, "total_hits": 1580, "geo_ids": [26330], "page": 5, "last_hit": 250}}