{"results": {"rpp": 50, "locations": [{"business_operation_status": 1, "rating": null, "neighborhood": null, "image": null, "scorecard": null, "featured": false, "sample_categories": "Restaurants, Bars & Pubs", "public_id": "coney-island-sports-bar-gril-mableton", "id": 764843230, "votes": null, "tagline": null, "has_video": false, "website": null, "offers": null, "latitude": 33.791516, "politanName": "Atlanta, GA Metro ", "phone_number": "7709447775", "tags": [{"primary": false, "id": 1686, "name": "Bars & Pubs"}, {"primary": true, "id": 1722, "name": "Restaurants"}], "fax_number": null, "expansion": {"count": null, "uri": null}, "impression_id": "000b000000cb0f49ccfce74f009ac642c8fc579c81", "profile": "http://www.citysearch.com/profile/764843230/mableton_ga/coney_island_sports_bar_gril.html", "address": {"city": "Mableton", "state": "GA", "street": "6037 Mableton Pkwy SE", "postal_code": "30126"}, "capProviderId": null, "distance": null, "has_offers": false, "name": "Coney Island Sports Bar & Gril", "longitude": -84.555393, "has_menu": false, "awards": null, "user_review_count": 0}, {"business_operation_status": 1, "rating": null, "neighborhood": null, "image": null, "scorecard": null, "featured": false, "sample_categories": "Restaurants, Bars & Pubs", "public_id": "malones-bar-grill-atlanta", "id": 764882200, "votes": null, "tagline": null, "has_video": false, "website": null, "offers": null, "latitude": 33.880351, "politanName": "Atlanta, GA Metro ", "phone_number": "7709526042", "tags": [{"primary": false, "id": 1686, "name": "Bars & Pubs"}, {"primary": true, "id": 1722, "name": "Restaurants"}], "fax_number": null, "expansion": {"count": null, "uri": null}, "impression_id": "000b0000007c2f0784c9584321bec1fa978df9e80e", "profile": "http://www.citysearch.com/profile/764882200/atlanta_ga/malone_s_bar_grill.html", "address": {"city": "Atlanta", "state": "GA", "street": "2960 Cobb Pkwy NW", "postal_code": "30339"}, "capProviderId": null, "distance": null, "has_offers": false, "name": "Malone's Bar & Grill", "longitude": -84.462963, "has_menu": false, "awards": null, "user_review_count": 0}, {"business_operation_status": 1, "rating": null, "neighborhood": null, "image": null, "scorecard": null, "featured": false, "sample_categories": "Restaurants, Delis And Delicatessens, Sandwich Shops, Carry Out", "public_id": "subway-sandwiches-salads-marietta", "id": 764919100, "votes": null, "tagline": null, "has_video": false, "website": "http://www.citysearch.com/profile/external/764919100/marietta_ga/subway_sandwiches_salads.html", "offers": null, "latitude": 33.949333, "politanName": "Atlanta, GA Metro ", "phone_number": "7704225412", "tags": [{"primary": false, "id": 1727, "name": "Delis And Delicatessens"}, {"primary": false, "id": 1736, "name": "Sandwich Shops"}, {"primary": false, "id": 11247, "name": "Carry Out"}, {"primary": true, "id": 1722, "name": "Restaurants"}], "fax_number": null, "expansion": {"count": null, "uri": null}, "impression_id": "000b000000f3ccff448dae4de0b5fa5b5bf53cd69f", "profile": "http://www.citysearch.com/profile/764919100/marietta_ga/subway_sandwiches_salads.html", "address": {"city": "Marietta", "state": "GA", "street": "85 S Marietta Pkwy SW", "postal_code": "30064"}, "capProviderId": null, "distance": null, "has_offers": false, "name": "Subway Sandwiches & Salads", "longitude": -84.550502, "has_menu": false, "awards": null, "user_review_count": 0}, {"business_operation_status": 1, "rating": null, "neighborhood": null, "image": null, "scorecard": null, "featured": false, "sample_categories": "Restaurants, Delis And Delicatessens, Sandwich Shops, Carry Out", "public_id": "subway-marietta-47", "id": 713567500, "votes": null, "tagline": null, "has_video": false, "website": "http://www.citysearch.com/profile/external/713567500/marietta_ga/subway.html", "offers": null, "latitude": 33.882452, "politanName": "Atlanta, GA Metro ", "phone_number": "7704365640", "tags": [{"primary": false, "id": 1727, "name": "Delis And Delicatessens"}, {"primary": false, "id": 1736, "name": "Sandwich Shops"}, {"primary": false, "id": 11247, "name": "Carry Out"}, {"primary": true, "id": 1722, "name": "Restaurants"}], "fax_number": null, "expansion": {"count": null, "uri": null}, "impression_id": "000b0000008ce14a2240fb4d46acd7974098b456c1", "profile": "http://www.citysearch.com/profile/713567500/marietta_ga/subway.html", "address": {"city": "Marietta", "state": "GA", "street": "2909 Austell Rd Sw # 114", "postal_code": "30008"}, "capProviderId": null, "distance": null, "has_offers": false, "name": "SUBWAY", "longitude": -84.58798, "has_menu": false, "awards": null, "user_review_count": 0}, {"business_operation_status": 1, "rating": null, "neighborhood": null, "image": null, "scorecard": null, "featured": false, "sample_categories": "Restaurants, Mexican", "public_id": "las-toras-mex-marietta", "id": 713611870, "votes": null, "tagline": null, "has_video": false, "website": null, "offers": null, "latitude": 33.927554, "politanName": "Atlanta, GA Metro ", "phone_number": "7705149394", "tags": [{"primary": false, "id": 11208, "name": "Mexican"}, {"primary": true, "id": 1722, "name": "Restaurants"}], "fax_number": null, "expansion": {"count": null, "uri": null}, "impression_id": "000b000000af0564587f02420f9fc3f81c203130e4", "profile": "http://www.citysearch.com/profile/713611870/marietta_ga/las_toras_mex.html", "address": {"city": "Marietta", "state": "GA", "street": "1038 Franklin Rd Se", "postal_code": "30067"}, "capProviderId": null, "distance": null, "has_offers": false, "name": "Las Toras Mex", "longitude": -84.493666, "has_menu": false, "awards": null, "user_review_count": 0}, {"business_operation_status": 1, "rating": null, "neighborhood": null, "image": null, "scorecard": null, "featured": false, "sample_categories": "Restaurants, Mexican", "public_id": "mi-rancho-mexican-restaurant-marietta", "id": 655842120, "votes": null, "tagline": null, "has_video": false, "website": null, "offers": null, "latitude": 33.933889, "politanName": "Atlanta, GA Metro ", "phone_number": "7707940330", "tags": [{"primary": false, "id": 11208, "name": "Mexican"}, {"primary": true, "id": 1722, "name": "Restaurants"}], "fax_number": null, "expansion": {"count": null, "uri": null}, "impression_id": "000b000000c9ea2b0b4c5640a8b338999cf89430f1", "profile": "http://www.citysearch.com/profile/655842120/marietta_ga/mi_rancho_mexican_restaurant.html", "address": {"city": "Marietta", "state": "GA", "street": "760 Sandtown Rd Sw", "postal_code": "30008"}, "capProviderId": null, "distance": null, "has_offers": false, "name": "Mi Rancho Mexican Restaurant", "longitude": -84.555648, "has_menu": false, "awards": null, "user_review_count": 0}, {"business_operation_status": 1, "rating": null, "neighborhood": null, "image": null, "scorecard": null, "featured": false, "sample_categories": "Restaurants", "public_id": "las-drisas-marietta", "id": 728109250, "votes": null, "tagline": null, "has_video": false, "website": null, "offers": null, "latitude": 33.935213, "politanName": "Atlanta, GA Metro ", "phone_number": "6783542220", "tags": [{"primary": true, "id": 1722, "name": "Restaurants"}], "fax_number": null, "expansion": {"count": null, "uri": null}, "impression_id": "000b000000b376b6fcc5394d3580ec5f14f5349efa", "profile": "http://www.citysearch.com/profile/728109250/marietta_ga/las_drisas.html", "address": {"city": "Marietta", "state": "GA", "street": "715 Sandtown Rd Sw", "postal_code": "30008"}, "capProviderId": null, "distance": null, "has_offers": false, "name": "Las Drisas", "longitude": -84.555821, "has_menu": false, "awards": null, "user_review_count": 0}, {"business_operation_status": 1, "rating": null, "neighborhood": null, "image": null, "scorecard": null, "featured": false, "sample_categories": "Restaurants, Sandwich Shops, Pizza", "public_id": "peace-love-and-pizza-marietta-2", "id": 606523644, "votes": null, "tagline": null, "has_video": false, "website": "http://www.citysearch.com/profile/external/606523644/marietta_ga/peace_love_and_pizza.html", "offers": null, "latitude": 33.976429, "politanName": "Atlanta, GA Metro ", "phone_number": "7703210757", "tags": [{"primary": false, "id": 1722, "name": "Restaurants"}, {"primary": false, "id": 1736, "name": "Sandwich Shops"}, {"primary": true, "id": 11299, "name": "Pizza"}], "fax_number": null, "expansion": {"count": null, "uri": null}, "impression_id": "000b0000003e020d3f2db54b288c22f0c3ce09c2cb", "profile": "http://www.citysearch.com/profile/606523644/marietta_ga/peace_love_and_pizza.html", "address": {"city": "Marietta", "state": "GA", "street": "1050 E Piedmont Rd 152", "postal_code": "30062"}, "capProviderId": null, "distance": null, "has_offers": false, "name": "Peace Love and Pizza", "longitude": -84.478226, "has_menu": false, "awards": null, "user_review_count": 0}, {"business_operation_status": 1, "rating": null, "neighborhood": null, "image": null, "scorecard": null, "featured": false, "sample_categories": "Restaurants, Carry Out", "public_id": "corner-bakery-cafe-atlanta-6", "id": 607149504, "votes": null, "tagline": null, "has_video": false, "website": "http://www.citysearch.com/profile/external/607149504/atlanta_ga/corner_bakery_cafe.html", "offers": null, "latitude": 33.884294, "politanName": "Atlanta, GA Metro ", "phone_number": "6784330070", "tags": [{"primary": false, "id": 11247, "name": "Carry Out"}, {"primary": true, "id": 1722, "name": "Restaurants"}], "fax_number": null, "expansion": {"count": null, "uri": null}, "impression_id": "000b000000285571e0d76a4605b96e6a1ee5dcd0ff", "profile": "http://www.citysearch.com/profile/607149504/atlanta_ga/corner_bakery_cafe.html", "address": {"city": "Atlanta", "state": "GA", "street": "2973 Cobb Pkwy SE", "postal_code": "30339"}, "capProviderId": null, "distance": null, "has_offers": false, "name": "Corner Bakery Cafe", "longitude": -84.469653, "has_menu": false, "awards": null, "user_review_count": 0}, {"business_operation_status": 1, "rating": null, "neighborhood": null, "image": null, "scorecard": null, "featured": false, "sample_categories": "Restaurants, Pizza", "public_id": "patagonia-pizzeria-bakery-marietta", "id": 811210800, "votes": null, "tagline": null, "has_video": false, "website": null, "offers": null, "latitude": 33.938607, "politanName": "Atlanta, GA Metro ", "phone_number": "6789032597", "tags": [{"primary": false, "id": 11299, "name": "Pizza"}, {"primary": true, "id": 1722, "name": "Restaurants"}], "fax_number": null, "expansion": {"count": null, "uri": null}, "impression_id": "000b00000013cff08388bf43c897dd40b5a4f7e31b", "profile": "http://www.citysearch.com/profile/811210800/marietta_ga/patagonia_pizzeria_bakery.html", "address": {"city": "Marietta", "state": "GA", "street": "585 Franklin Rd SE", "postal_code": "30067"}, "capProviderId": null, "distance": null, "has_offers": false, "name": "Patagonia Pizzeria & Bakery", "longitude": -84.50623, "has_menu": false, "awards": null, "user_review_count": 0}, {"business_operation_status": 1, "rating": null, "neighborhood": null, "image": null, "scorecard": null, "featured": false, "sample_categories": "Coffeehouses", "public_id": "place-espresso-marietta", "id": 608864624, "votes": null, "tagline": null, "has_video": false, "website": null, "offers": null, "latitude": 33.919861, "politanName": "Atlanta, GA Metro ", "phone_number": "6782145303", "tags": [{"primary": true, "id": 1726, "name": "Coffeehouses"}], "fax_number": null, "expansion": {"count": null, "uri": null}, "impression_id": "000b0000003eae2b2d78c34e6791ea54ee4c931266", "profile": "http://www.citysearch.com/profile/608864624/marietta_ga/place_espresso.html", "address": {"city": "Marietta", "state": "GA", "street": "1350 Terrell Mill Rd SE", "postal_code": "30067"}, "capProviderId": null, "distance": null, "has_offers": false, "name": "Place Espresso", "longitude": -84.466207, "has_menu": false, "awards": null, "user_review_count": 0}, {"business_operation_status": 1, "rating": null, "neighborhood": null, "image": null, "scorecard": null, "featured": false, "sample_categories": "Restaurants", "public_id": "micks-cumberland-mall-atlanta", "id": 817195060, "votes": null, "tagline": null, "has_video": false, "website": null, "offers": null, "latitude": 33.879283, "politanName": "Atlanta, GA Metro ", "phone_number": "7704317190", "tags": [{"primary": true, "id": 1722, "name": "Restaurants"}], "fax_number": null, "expansion": {"count": null, "uri": null}, "impression_id": "000b0000009f4bdd0b7be24f46a171b5b398351b0d", "profile": "http://www.citysearch.com/profile/817195060/atlanta_ga/micks_cumberland_mall.html", "address": {"city": "Atlanta", "state": "GA", "street": "1320 Cumberland Mall SE", "postal_code": "30339"}, "capProviderId": null, "distance": null, "has_offers": false, "name": "Micks Cumberland Mall", "longitude": -84.471266, "has_menu": false, "awards": null, "user_review_count": 0}, {"business_operation_status": 1, "rating": null, "neighborhood": null, "image": null, "scorecard": null, "featured": false, "sample_categories": "Restaurants, Pizza, Carry Out", "public_id": "pizza-hut-atlanta-34", "id": 824168770, "votes": null, "tagline": null, "has_video": false, "website": "http://www.citysearch.com/profile/external/824168770/atlanta_ga/pizza_hut.html", "offers": null, "latitude": 33.884828, "politanName": "Atlanta, GA Metro ", "phone_number": "7709528054", "tags": [{"primary": false, "id": 1722, "name": "Restaurants"}, {"primary": false, "id": 11247, "name": "Carry Out"}, {"primary": true, "id": 11299, "name": "Pizza"}], "fax_number": null, "expansion": {"count": null, "uri": null}, "impression_id": "000b000000dacf1626c27f4e35b5d02abe4a3be662", "profile": "http://www.citysearch.com/profile/824168770/atlanta_ga/pizza_hut.html", "address": {"city": "Atlanta", "state": "GA", "street": "2771 Spring Rd Se", "postal_code": "30339"}, "capProviderId": null, "distance": null, "has_offers": false, "name": "Pizza Hut", "longitude": -84.472366, "has_menu": true, "awards": null, "user_review_count": 0}, {"business_operation_status": 1, "rating": null, "neighborhood": null, "image": null, "scorecard": null, "featured": false, "sample_categories": "Restaurants", "public_id": "casual-dining-div-shoneys-marietta", "id": 838709350, "votes": null, "tagline": null, "has_video": false, "website": null, "offers": null, "latitude": 33.912514, "politanName": "Atlanta, GA Metro ", "phone_number": "6788190697", "tags": [{"primary": true, "id": 1722, "name": "Restaurants"}], "fax_number": null, "expansion": {"count": null, "uri": null}, "impression_id": "000b000000cbbb15ceee02491cb30f5b9c5c7ff7cd", "profile": "http://www.citysearch.com/profile/838709350/marietta_ga/casual_dining_div_shoneys.html", "address": {"city": "Marietta", "state": "GA", "street": "1640 Powers Ferry Rd SE", "postal_code": "30067"}, "capProviderId": null, "distance": null, "has_offers": false, "name": "Casual Dining Div Shoneys", "longitude": -84.46689, "has_menu": true, "awards": null, "user_review_count": 0}, {"business_operation_status": 1, "rating": null, "neighborhood": null, "image": null, "scorecard": null, "featured": false, "sample_categories": "Restaurants", "public_id": "spice-it-up-cafe-marietta", "id": 839365090, "votes": null, "tagline": null, "has_video": false, "website": null, "offers": null, "latitude": 33.944775, "politanName": "Atlanta, GA Metro ", "phone_number": "6789034384", "tags": [{"primary": true, "id": 1722, "name": "Restaurants"}], "fax_number": null, "expansion": {"count": null, "uri": null}, "impression_id": "000b0000004804cd55368847b2a7b3807b0c10983d", "profile": "http://www.citysearch.com/profile/839365090/marietta_ga/spice_it_up_cafe.html", "address": {"city": "Marietta", "state": "GA", "street": "316 S Fairground St SE", "postal_code": "30060"}, "capProviderId": null, "distance": null, "has_offers": false, "name": "Spice It Up Cafe", "longitude": -84.535719, "has_menu": true, "awards": null, "user_review_count": 0}, {"business_operation_status": 1, "rating": 8.0, "neighborhood": "Northside, Northside", "image": null, "scorecard": null, "featured": false, "sample_categories": "Restaurants, Italian, American Express, MasterCard, Visa", "public_id": "figo-pasta-atlanta-2", "id": 40946861, "votes": null, "tagline": null, "has_video": false, "website": "http://www.citysearch.com/profile/external/40946861/atlanta_ga/figo_pasta.html", "offers": null, "latitude": 33.78786, "politanName": "Atlanta, GA Metro ", "phone_number": "4043513700", "tags": [{"primary": false, "id": 11279, "name": "Italian"}, {"primary": false, "id": 11333, "name": "American Express"}, {"primary": false, "id": 11361, "name": "MasterCard"}, {"primary": false, "id": 11382, "name": "Visa"}, {"primary": true, "id": 1722, "name": "Restaurants"}], "fax_number": null, "expansion": {"count": null, "uri": null}, "impression_id": "000b000000e0d6124557164806a0227a56e15fe426", "profile": "http://www.citysearch.com/profile/40946861/atlanta_ga/figo_pasta.html", "address": {"city": "Atlanta", "state": "GA", "street": "750 Huff Rd NW", "postal_code": "30318"}, "capProviderId": null, "distance": null, "has_offers": false, "name": "Figo Pasta", "longitude": -84.41549, "has_menu": false, "awards": null, "user_review_count": 7}, {"business_operation_status": 1, "rating": null, "neighborhood": null, "image": null, "scorecard": null, "featured": false, "sample_categories": "Restaurants, Pizza, Carry Out", "public_id": "papa-johns-pizza-marietta-2", "id": 632029900, "votes": null, "tagline": null, "has_video": false, "website": null, "offers": null, "latitude": 33.952112, "politanName": "Atlanta, GA Metro ", "phone_number": "7704267272", "tags": [{"primary": false, "id": 1722, "name": "Restaurants"}, {"primary": false, "id": 11247, "name": "Carry Out"}, {"primary": true, "id": 11299, "name": "Pizza"}], "fax_number": null, "expansion": {"count": null, "uri": null}, "impression_id": "000b000000970c7ae9d9744a03af1d1b46b43fdbac", "profile": "http://www.citysearch.com/profile/632029900/marietta_ga/papa_john_s_pizza.html", "address": {"city": "Marietta", "state": "GA", "street": "971 Whitlock Ave Sw", "postal_code": "30064"}, "capProviderId": null, "distance": null, "has_offers": false, "name": "Papa John's Pizza", "longitude": -84.578857, "has_menu": false, "awards": null, "user_review_count": 0}, {"business_operation_status": 1, "rating": null, "neighborhood": null, "image": null, "scorecard": null, "featured": false, "sample_categories": "Restaurants, Carry Out", "public_id": "firehouse-subs-atlanta-7", "id": 612394034, "votes": null, "tagline": null, "has_video": false, "website": null, "offers": null, "latitude": 33.884294, "politanName": "Atlanta, GA Metro ", "phone_number": "6784248042", "tags": [{"primary": false, "id": 11247, "name": "Carry Out"}, {"primary": true, "id": 1722, "name": "Restaurants"}], "fax_number": null, "expansion": {"count": null, "uri": null}, "impression_id": "000b000000eb4ae87631974292920d7662d80a1867", "profile": "http://www.citysearch.com/profile/612394034/atlanta_ga/firehouse_subs.html", "address": {"city": "Atlanta", "state": "GA", "street": "2970 Cobb Pkwy SE", "postal_code": "30339"}, "capProviderId": null, "distance": null, "has_offers": false, "name": "Firehouse Subs", "longitude": -84.469653, "has_menu": true, "awards": null, "user_review_count": 0}, {"business_operation_status": 1, "rating": null, "neighborhood": null, "image": null, "scorecard": null, "featured": false, "sample_categories": "Bakeries, Restaurants", "public_id": "flowers-baking-co-marietta-2", "id": 2909781, "votes": null, "tagline": null, "has_video": false, "website": "http://www.citysearch.com/profile/external/2909781/marietta_ga/flowers_baking_co.html", "offers": null, "latitude": 33.948214, "politanName": "Atlanta, GA Metro ", "phone_number": "7709735200", "tags": [{"primary": false, "id": 1722, "name": "Restaurants"}, {"primary": true, "id": 1685, "name": "Bakeries"}], "fax_number": null, "expansion": {"count": null, "uri": null}, "impression_id": "000b0000006bde32ff39394bcc909adb2009196014", "profile": "http://www.citysearch.com/profile/2909781/marietta_ga/flowers_baking_co.html", "address": {"city": "Marietta", "state": "GA", "street": "146 Powers Ferry Rd SE", "postal_code": "30067"}, "capProviderId": null, "distance": null, "has_offers": false, "name": "Flowers Baking Co", "longitude": -84.505792, "has_menu": false, "awards": null, "user_review_count": 0}, {"business_operation_status": 1, "rating": null, "neighborhood": null, "image": null, "scorecard": null, "featured": false, "sample_categories": "Bars & Pubs, Bars & Clubs, Restaurants", "public_id": "milos-bar-grill-marietta-2", "id": 684764240, "votes": null, "tagline": null, "has_video": false, "website": null, "offers": null, "latitude": 33.938164, "politanName": "Atlanta, GA Metro ", "phone_number": "7704281544", "tags": [{"primary": false, "id": 164, "name": "Bars & Clubs"}, {"primary": false, "id": 1722, "name": "Restaurants"}, {"primary": true, "id": 1686, "name": "Bars & Pubs"}], "fax_number": null, "expansion": {"count": null, "uri": null}, "impression_id": "000b0000007c21cfca8fe944debedb7c171038db47", "profile": "http://www.citysearch.com/profile/684764240/marietta_ga/milo_s_bar_grill.html", "address": {"city": "Marietta", "state": "GA", "street": "11 Garrison Rd Se", "postal_code": "30008"}, "capProviderId": null, "distance": null, "has_offers": false, "name": "Milo's Bar & Grill", "longitude": -84.553286, "has_menu": false, "awards": null, "user_review_count": 0}, {"business_operation_status": 1, "rating": null, "neighborhood": null, "image": null, "scorecard": null, "featured": false, "sample_categories": "Restaurants, Carry Out", "public_id": "hardees-marietta-3", "id": 764872240, "votes": null, "tagline": null, "has_video": false, "website": null, "offers": null, "latitude": 33.932198, "politanName": "Atlanta, GA Metro ", "phone_number": "7709991111", "tags": [{"primary": false, "id": 11247, "name": "Carry Out"}, {"primary": true, "id": 1722, "name": "Restaurants"}], "fax_number": null, "expansion": {"count": null, "uri": null}, "impression_id": "000b000000e2490b6484ec4e0a9b6b901cb8ff23e7", "profile": "http://www.citysearch.com/profile/764872240/marietta_ga/hardee_s.html", "address": {"city": "Marietta", "state": "GA", "street": "808 Powers Ferry Rd SE", "postal_code": "30067"}, "capProviderId": null, "distance": null, "has_offers": false, "name": "Hardee's", "longitude": -84.476211, "has_menu": false, "awards": null, "user_review_count": 0}, {"business_operation_status": 1, "rating": null, "neighborhood": "Northside, Northside", "image": null, "scorecard": null, "featured": false, "sample_categories": "Catering, Restaurants, Pizza, Carry Out, Italian", "public_id": "johnnys-new-york-style-pizza-atlanta-2", "id": 632921250, "votes": null, "tagline": null, "has_video": false, "website": "http://www.citysearch.com/profile/external/632921250/atlanta_ga/johnny_s_new_york_style_pizza.html", "offers": null, "latitude": 33.807596, "politanName": "Atlanta, GA Metro ", "phone_number": "4046038043", "tags": [{"primary": false, "id": 1705, "name": "Catering"}, {"primary": false, "id": 1722, "name": "Restaurants"}, {"primary": false, "id": 11247, "name": "Carry Out"}, {"primary": false, "id": 11279, "name": "Italian"}, {"primary": false, "id": 11333, "name": "American Express"}, {"primary": false, "id": 11349, "name": "Discover"}, {"primary": false, "id": 11361, "name": "MasterCard"}, {"primary": false, "id": 11382, "name": "Visa"}, {"primary": true, "id": 11299, "name": "Pizza"}], "fax_number": null, "expansion": {"count": null, "uri": null}, "impression_id": "000b000000b04e0ad7a9fb48f4867e2cb665842092", "profile": "http://www.citysearch.com/profile/632921250/atlanta_ga/johnny_s_new_york_style_pizza.html", "address": {"city": "Atlanta", "state": "GA", "street": "1465 Chattahoochee Ave NW 850", "postal_code": "30318"}, "capProviderId": null, "distance": null, "has_offers": false, "name": "Johnny's New York Style Pizza", "longitude": -84.434341, "has_menu": false, "awards": null, "user_review_count": 0}, {"business_operation_status": 1, "rating": null, "neighborhood": null, "image": null, "scorecard": null, "featured": false, "sample_categories": "Restaurants, Delis And Delicatessens, Pizza", "public_id": "harrys-pizza-subs-marietta", "id": 713629810, "votes": null, "tagline": null, "has_video": false, "website": null, "offers": null, "latitude": 33.933494, "politanName": "Atlanta, GA Metro ", "phone_number": "7709550991", "tags": [{"primary": false, "id": 1722, "name": "Restaurants"}, {"primary": false, "id": 1727, "name": "Delis And Delicatessens"}, {"primary": true, "id": 11299, "name": "Pizza"}], "fax_number": null, "expansion": {"count": null, "uri": null}, "impression_id": "000b000000eac556dea9934cb8b8daa043510cfad3", "profile": "http://www.citysearch.com/profile/713629810/marietta_ga/harry_s_pizza_subs.html", "address": {"city": "Marietta", "state": "GA", "street": "2150 Powers Ferry Dr Se", "postal_code": "30067"}, "capProviderId": null, "distance": null, "has_offers": false, "name": "Harry's Pizza & Subs", "longitude": -84.489988, "has_menu": false, "awards": null, "user_review_count": 0}, {"business_operation_status": 1, "rating": null, "neighborhood": null, "image": null, "scorecard": null, "featured": false, "sample_categories": "Restaurants", "public_id": "stricks-southern-flavor-grill-marietta", "id": 728066170, "votes": null, "tagline": null, "has_video": false, "website": null, "offers": null, "latitude": 33.955558, "politanName": "Atlanta, GA Metro ", "phone_number": "6783555538", "tags": [{"primary": true, "id": 1722, "name": "Restaurants"}], "fax_number": null, "expansion": {"count": null, "uri": null}, "impression_id": "000b000000545ebe9ab357461d9fd2165b37f80612", "profile": "http://www.citysearch.com/profile/728066170/marietta_ga/strick_s_southern_flavor_grill.html", "address": {"city": "Marietta", "state": "GA", "street": "168 Hunt St Ne", "postal_code": "30060"}, "capProviderId": null, "distance": null, "has_offers": false, "name": "Strick's Southern Flavor Grill", "longitude": -84.544275, "has_menu": false, "awards": null, "user_review_count": 0}, {"business_operation_status": 1, "rating": null, "neighborhood": null, "image": null, "scorecard": null, "featured": false, "sample_categories": "Restaurants", "public_id": "mandarin-express-chinese-marietta", "id": 807555420, "votes": null, "tagline": null, "has_video": false, "website": null, "offers": null, "latitude": 33.928543, "politanName": "Atlanta, GA Metro ", "phone_number": "7709842233", "tags": [{"primary": true, "id": 1722, "name": "Restaurants"}], "fax_number": null, "expansion": {"count": null, "uri": null}, "impression_id": "000b0000005d5bfa46dd0543b9858ca64fa8430257", "profile": "http://www.citysearch.com/profile/807555420/marietta_ga/mandarin_express_chinese.html", "address": {"city": "Marietta", "state": "GA", "street": "1033 Franklin Rd SE", "postal_code": "30067"}, "capProviderId": null, "distance": null, "has_offers": false, "name": "Mandarin Express Chinese", "longitude": -84.492609, "has_menu": false, "awards": null, "user_review_count": 0}, {"business_operation_status": 1, "rating": null, "neighborhood": null, "image": null, "scorecard": null, "featured": false, "sample_categories": "Restaurants, Chinese, American Express, Discover, MasterCard", "public_id": "china-sun-restaurant-marietta", "id": 2906495, "votes": null, "tagline": null, "has_video": false, "website": null, "offers": null, "latitude": 33.926201, "politanName": "Atlanta, GA Metro ", "phone_number": "7704268780", "tags": [{"primary": false, "id": 11252, "name": "Chinese"}, {"primary": false, "id": 11333, "name": "American Express"}, {"primary": false, "id": 11349, "name": "Discover"}, {"primary": false, "id": 11361, "name": "MasterCard"}, {"primary": false, "id": 11382, "name": "Visa"}, {"primary": true, "id": 1722, "name": "Restaurants"}], "fax_number": null, "expansion": {"count": null, "uri": null}, "impression_id": "000b00000071de1b1ba11c43e79658792e1c49d055", "profile": "http://www.citysearch.com/profile/2906495/marietta_ga/china_sun_restaurant.html", "address": {"city": "Marietta", "state": "GA", "street": "1150 Powder Springs St Ste 20", "postal_code": "30064"}, "capProviderId": null, "distance": null, "has_offers": false, "name": "China Sun Restaurant", "longitude": -84.574094, "has_menu": false, "awards": null, "user_review_count": 1}, {"business_operation_status": 1, "rating": null, "neighborhood": null, "image": null, "scorecard": null, "featured": false, "sample_categories": "Restaurants", "public_id": "long-horn-steakhouse-marietta", "id": 2909609, "votes": null, "tagline": null, "has_video": false, "website": null, "offers": null, "latitude": 33.937797, "politanName": "Atlanta, GA Metro ", "phone_number": "7704244353", "tags": [{"primary": true, "id": 1722, "name": "Restaurants"}], "fax_number": null, "expansion": {"count": null, "uri": null}, "impression_id": "000b00000050ac072bbd8f4bd9a82eb4a19eba62b1", "profile": "http://www.citysearch.com/profile/2909609/marietta_ga/long_horn_steakhouse.html", "address": {"city": "Marietta", "state": "GA", "street": "585 Franklin Rd SE Ste 585", "postal_code": "30067"}, "capProviderId": null, "distance": null, "has_offers": false, "name": "Long Horn Steakhouse", "longitude": -84.506993, "has_menu": true, "awards": null, "user_review_count": 0}, {"business_operation_status": 1, "rating": null, "neighborhood": null, "image": null, "scorecard": null, "featured": false, "sample_categories": "Restaurants, Ice Cream Parlors, Carry Out", "public_id": "mc-donalds-marietta-21", "id": 764880600, "votes": null, "tagline": null, "has_video": false, "website": null, "offers": null, "latitude": 33.952602, "politanName": "Atlanta, GA Metro ", "phone_number": "4047846909", "tags": [{"primary": false, "id": 1730, "name": "Ice Cream Parlors"}, {"primary": false, "id": 11247, "name": "Carry Out"}, {"primary": true, "id": 1722, "name": "Restaurants"}], "fax_number": null, "expansion": {"count": null, "uri": null}, "impression_id": "000b0000000c6e6f629f0246dda12f63b72ab03afe", "profile": "http://www.citysearch.com/profile/764880600/marietta_ga/mc_donald_s.html", "address": {"city": "Marietta", "state": "GA", "street": "PO Box 965370", "postal_code": "30066"}, "capProviderId": null, "distance": null, "has_offers": false, "name": "Mc Donald's", "longitude": -84.549933, "has_menu": false, "awards": null, "user_review_count": 0}, {"business_operation_status": 1, "rating": null, "neighborhood": null, "image": null, "scorecard": null, "featured": false, "sample_categories": "Restaurants, Cajun & Creole", "public_id": "franks-cajun-soul-kitchen-marietta", "id": 754804990, "votes": null, "tagline": null, "has_video": false, "website": "http://www.citysearch.com/profile/external/754804990/marietta_ga/frank_s_cajun_soul_kitchen.html", "offers": null, "latitude": 33.92448, "politanName": "Atlanta, GA Metro ", "phone_number": "6783836703", "tags": [{"primary": false, "id": 11245, "name": "Cajun & Creole"}, {"primary": true, "id": 1722, "name": "Restaurants"}], "fax_number": null, "expansion": {"count": null, "uri": null}, "impression_id": "000b0000006635954a87b54fb6a62d53c5261d5653", "profile": "http://www.citysearch.com/profile/754804990/marietta_ga/frank_s_cajun_soul_kitchen.html", "address": {"city": "Marietta", "state": "GA", "street": "1175 Powder Springs St", "postal_code": "30064"}, "capProviderId": null, "distance": null, "has_offers": false, "name": "Frank's Cajun & Soul Kitchen", "longitude": -84.574615, "has_menu": true, "awards": null, "user_review_count": 1}, {"business_operation_status": 1, "rating": null, "neighborhood": null, "image": null, "scorecard": null, "featured": false, "sample_categories": "Restaurants", "public_id": "hooters-of-kalamazoo-inc-atlanta", "id": 766801450, "votes": null, "tagline": null, "has_video": false, "website": null, "offers": null, "latitude": 33.908131, "politanName": "Atlanta, GA Metro ", "phone_number": "7709512040", "tags": [{"primary": true, "id": 1722, "name": "Restaurants"}], "fax_number": null, "expansion": {"count": null, "uri": null}, "impression_id": "000b000000f9d0f2d379984a56a78a9c0911f75e1c", "profile": "http://www.citysearch.com/profile/766801450/atlanta_ga/hooters_of_kalamazoo_inc.html", "address": {"city": "Atlanta", "state": "GA", "street": "1815 the Exchange SE", "postal_code": "30339"}, "capProviderId": null, "distance": null, "has_offers": false, "name": "Hooters of Kalamazoo Inc", "longitude": -84.479005, "has_menu": false, "awards": null, "user_review_count": 0}, {"business_operation_status": 1, "rating": null, "neighborhood": null, "image": null, "scorecard": null, "featured": false, "sample_categories": "Restaurants", "public_id": "pyramid-restaurant-hookah-marietta", "id": 777743980, "votes": null, "tagline": null, "has_video": false, "website": null, "offers": null, "latitude": 33.942926, "politanName": "Atlanta, GA Metro ", "phone_number": "6782131030", "tags": [{"primary": true, "id": 1722, "name": "Restaurants"}], "fax_number": null, "expansion": {"count": null, "uri": null}, "impression_id": "000b000000431507600ae24c4e8a0d662514f315e7", "profile": "http://www.citysearch.com/profile/777743980/marietta_ga/pyramid_restaurant_hookah.html", "address": {"city": "Marietta", "state": "GA", "street": "600 S Marietta Pkwy Se", "postal_code": "30060"}, "capProviderId": null, "distance": null, "has_offers": false, "name": "Pyramid Restaurant & Hookah", "longitude": -84.534635, "has_menu": false, "awards": null, "user_review_count": 0}, {"business_operation_status": 1, "rating": null, "neighborhood": "Northside, Riverside, Northside", "image": null, "scorecard": null, "featured": false, "sample_categories": "Restaurants, Carry Out, Hamburgers, American Express, Discover", "public_id": "burger-king-atlanta-31", "id": 781188810, "votes": null, "tagline": null, "has_video": false, "website": "http://www.citysearch.com/profile/external/781188810/atlanta_ga/burger_king.html", "offers": null, "latitude": 33.814013, "politanName": "Atlanta, GA Metro ", "phone_number": "4042071823", "tags": [{"primary": false, "id": 11247, "name": "Carry Out"}, {"primary": false, "id": 11270, "name": "Hamburgers"}, {"primary": false, "id": 11333, "name": "American Express"}, {"primary": false, "id": 11349, "name": "Discover"}, {"primary": false, "id": 11361, "name": "MasterCard"}, {"primary": false, "id": 11382, "name": "Visa"}, {"primary": true, "id": 1722, "name": "Restaurants"}], "fax_number": null, "expansion": {"count": null, "uri": null}, "impression_id": "000b000000670ecf795b0d40579b017ed7b141be45", "profile": "http://www.citysearch.com/profile/781188810/atlanta_ga/burger_king.html", "address": {"city": "Atlanta", "state": "GA", "street": "Main Terminal", "postal_code": "30320"}, "capProviderId": null, "distance": null, "has_offers": false, "name": "Burger King", "longitude": -84.476327, "has_menu": false, "awards": null, "user_review_count": 0}, {"business_operation_status": 1, "rating": null, "neighborhood": null, "image": null, "scorecard": null, "featured": false, "sample_categories": "Restaurants, Chinese", "public_id": "china-station-marietta", "id": 793243160, "votes": null, "tagline": null, "has_video": false, "website": null, "offers": null, "latitude": 33.904705, "politanName": "Atlanta, GA Metro ", "phone_number": "7708501234", "tags": [{"primary": false, "id": 11252, "name": "Chinese"}, {"primary": true, "id": 1722, "name": "Restaurants"}], "fax_number": null, "expansion": {"count": null, "uri": null}, "impression_id": "000b000000c52cbfa525a7408f8263e33ecd0aa9c1", "profile": "http://www.citysearch.com/profile/793243160/marietta_ga/china_station.html", "address": {"city": "Marietta", "state": "GA", "street": "2359 Windy Hill Rd Se", "postal_code": "30067"}, "capProviderId": null, "distance": null, "has_offers": false, "name": "China Station", "longitude": -84.484545, "has_menu": false, "awards": null, "user_review_count": 0}, {"business_operation_status": 1, "rating": null, "neighborhood": null, "image": null, "scorecard": null, "featured": false, "sample_categories": "Restaurants, Bistros, Bars & Clubs", "public_id": "north-park-bistro-marietta", "id": 777790950, "votes": null, "tagline": null, "has_video": false, "website": "http://www.citysearch.com/profile/external/777790950/marietta_ga/kish_restaurant_bar.html", "offers": null, "latitude": 33.953606, "politanName": "Atlanta, GA Metro ", "phone_number": "7706726803", "tags": [{"primary": false, "id": 13690, "name": "Bistros"}, {"primary": false, "id": 164, "name": "Bars & Clubs"}, {"primary": true, "id": 1722, "name": "Restaurants"}], "fax_number": null, "expansion": {"count": null, "uri": null}, "impression_id": "000b000000a8cbb1f3d9774f5e96fcb22d8352f5b5", "profile": "http://www.citysearch.com/profile/777790950/marietta_ga/kish_restaurant_bar.html", "address": {"city": "Marietta", "state": "GA", "street": "105 N Park Sq NE", "postal_code": "30060"}, "capProviderId": null, "distance": null, "has_offers": false, "name": "Kish Restaurant & Bar", "longitude": -84.549403, "has_menu": false, "awards": null, "user_review_count": 0}, {"business_operation_status": 1, "rating": null, "neighborhood": null, "image": null, "scorecard": null, "featured": false, "sample_categories": "Restaurants", "public_id": "julias-cafe-marietta", "id": 787109210, "votes": null, "tagline": null, "has_video": false, "website": null, "offers": null, "latitude": 33.938568, "politanName": "Atlanta, GA Metro ", "phone_number": "7704284400", "tags": [{"primary": true, "id": 1722, "name": "Restaurants"}], "fax_number": null, "expansion": {"count": null, "uri": null}, "impression_id": "000b000000ee22c9382b0444a592e16dea73342c76", "profile": "http://www.citysearch.com/profile/787109210/marietta_ga/julia_s_cafe.html", "address": {"city": "Marietta", "state": "GA", "street": "1775 Pkwy Pl NW", "postal_code": "30067"}, "capProviderId": null, "distance": null, "has_offers": false, "name": "Julia's Cafe", "longitude": -84.505213, "has_menu": false, "awards": null, "user_review_count": 0}, {"business_operation_status": 1, "rating": null, "neighborhood": null, "image": null, "scorecard": null, "featured": false, "sample_categories": "Restaurants, Italian", "public_id": "medici-italian-restaurant-atlanta", "id": 787133330, "votes": null, "tagline": null, "has_video": false, "website": null, "offers": null, "latitude": 33.885023, "politanName": "Atlanta, GA Metro ", "phone_number": "7709534500", "tags": [{"primary": false, "id": 11279, "name": "Italian"}, {"primary": true, "id": 1722, "name": "Restaurants"}], "fax_number": null, "expansion": {"count": null, "uri": null}, "impression_id": "000b00000026a74d36a1c04a5daa258e862833c7de", "profile": "http://www.citysearch.com/profile/787133330/atlanta_ga/medici_italian_restaurant.html", "address": {"city": "Atlanta", "state": "GA", "street": "2450 Galleria Pkwy Se", "postal_code": "30339"}, "capProviderId": null, "distance": null, "has_offers": false, "name": "Medici Italian Restaurant", "longitude": -84.464652, "has_menu": false, "awards": null, "user_review_count": 0}, {"business_operation_status": 1, "rating": null, "neighborhood": null, "image": null, "scorecard": null, "featured": false, "sample_categories": "Restaurants", "public_id": "j-mann-cafe-grille-marietta", "id": 815522810, "votes": null, "tagline": null, "has_video": false, "website": null, "offers": null, "latitude": 33.948544, "politanName": "Atlanta, GA Metro ", "phone_number": "7705280262", "tags": [{"primary": true, "id": 1722, "name": "Restaurants"}], "fax_number": null, "expansion": {"count": null, "uri": null}, "impression_id": "000b00000027440c29f0ad4cdda18ec5800c02fab0", "profile": "http://www.citysearch.com/profile/815522810/marietta_ga/j_mann_cafe_grille.html", "address": {"city": "Marietta", "state": "GA", "street": "191 S Marietta Pkwy SW", "postal_code": "30064"}, "capProviderId": null, "distance": null, "has_offers": false, "name": "J Mann Cafe & Grille", "longitude": -84.550204, "has_menu": false, "awards": null, "user_review_count": 0}, {"business_operation_status": 1, "rating": null, "neighborhood": null, "image": null, "scorecard": null, "featured": false, "sample_categories": "Restaurants", "public_id": "miramcho-marietta", "id": 815118630, "votes": null, "tagline": null, "has_video": false, "website": null, "offers": null, "latitude": 33.933881, "politanName": "Atlanta, GA Metro ", "phone_number": "7707940330", "tags": [{"primary": true, "id": 1722, "name": "Restaurants"}], "fax_number": null, "expansion": {"count": null, "uri": null}, "impression_id": "000b00000096f67b4b5e1843468627b4652d226dc4", "profile": "http://www.citysearch.com/profile/815118630/marietta_ga/miramcho.html", "address": {"city": "Marietta", "state": "GA", "street": "760 Sandtown Rd SW", "postal_code": "30008"}, "capProviderId": null, "distance": null, "has_offers": false, "name": "Miramcho", "longitude": -84.555669, "has_menu": false, "awards": null, "user_review_count": 1}, {"business_operation_status": 1, "rating": null, "neighborhood": null, "image": null, "scorecard": null, "featured": false, "sample_categories": "Restaurants", "public_id": "flight-deck-cafe-atlanta", "id": 821291530, "votes": null, "tagline": null, "has_video": false, "website": null, "offers": null, "latitude": 33.774718, "politanName": "Atlanta, GA Metro ", "phone_number": "4046997730", "tags": [{"primary": true, "id": 1722, "name": "Restaurants"}], "fax_number": null, "expansion": {"count": null, "uri": null}, "impression_id": "000b000000cbb9d3ae21474708ad220b61af530ff7", "profile": "http://www.citysearch.com/profile/821291530/atlanta_ga/flight_deck_cafe.html", "address": {"city": "Atlanta", "state": "GA", "street": "3952 Aviation Cir NW", "postal_code": "30336"}, "capProviderId": null, "distance": null, "has_offers": false, "name": "Flight Deck Cafe", "longitude": -84.520529, "has_menu": false, "awards": null, "user_review_count": 1}, {"business_operation_status": 1, "rating": null, "neighborhood": null, "image": null, "scorecard": null, "featured": false, "sample_categories": "Restaurants, Pizza", "public_id": "bella-bocca-marietta", "id": 822361720, "votes": null, "tagline": null, "has_video": false, "website": null, "offers": null, "latitude": 33.951001, "politanName": "Atlanta, GA Metro ", "phone_number": "7707958984", "tags": [{"primary": false, "id": 1722, "name": "Restaurants"}, {"primary": true, "id": 11299, "name": "Pizza"}], "fax_number": null, "expansion": {"count": null, "uri": null}, "impression_id": "000b0000006000bf15ef7e41c0b60a50be5060b268", "profile": "http://www.citysearch.com/profile/822361720/marietta_ga/bella_bocca.html", "address": {"city": "Marietta", "state": "GA", "street": "999 Whitlock Ave SW", "postal_code": "30064"}, "capProviderId": null, "distance": null, "has_offers": false, "name": "Bella Bocca", "longitude": -84.57917, "has_menu": false, "awards": null, "user_review_count": 1}, {"business_operation_status": 1, "rating": null, "neighborhood": null, "image": null, "scorecard": null, "featured": false, "sample_categories": "Restaurants, Pizza", "public_id": "jimmys-pizza-marietta", "id": 822422560, "votes": null, "tagline": null, "has_video": false, "website": null, "offers": null, "latitude": 33.901926, "politanName": "Atlanta, GA Metro ", "phone_number": "7704357664", "tags": [{"primary": false, "id": 1722, "name": "Restaurants"}, {"primary": true, "id": 11299, "name": "Pizza"}], "fax_number": null, "expansion": {"count": null, "uri": null}, "impression_id": "000b0000001e1b3f87f8704668a1f04719527605e5", "profile": "http://www.citysearch.com/profile/822422560/marietta_ga/jimmy_s_pizza.html", "address": {"city": "Marietta", "state": "GA", "street": "495 Pat Mell Rd SW # 104", "postal_code": "30060"}, "capProviderId": null, "distance": null, "has_offers": false, "name": "Jimmy's Pizza", "longitude": -84.567429, "has_menu": false, "awards": null, "user_review_count": 0}, {"business_operation_status": 1, "rating": null, "neighborhood": null, "image": null, "scorecard": null, "featured": false, "sample_categories": "Restaurants", "public_id": "finca-bonita-mexican-grill-marietta", "id": 838631820, "votes": null, "tagline": null, "has_video": false, "website": null, "offers": null, "latitude": 33.951258, "politanName": "Atlanta, GA Metro ", "phone_number": "7704198290", "tags": [{"primary": true, "id": 1722, "name": "Restaurants"}], "fax_number": null, "expansion": {"count": null, "uri": null}, "impression_id": "000b000000cd9849bdfcb74773a268df12f4ba4b49", "profile": "http://www.citysearch.com/profile/838631820/marietta_ga/finca_bonita_mexican_grill.html", "address": {"city": "Marietta", "state": "GA", "street": "1157 Roswell Rd", "postal_code": "30062"}, "capProviderId": null, "distance": null, "has_offers": false, "name": "Finca Bonita Mexican Grill", "longitude": -84.517723, "has_menu": false, "awards": null, "user_review_count": 1}, {"business_operation_status": 1, "rating": null, "neighborhood": "Northside, Northside", "image": null, "scorecard": null, "featured": false, "sample_categories": "Restaurants, Mexican, Carry Out", "public_id": "chipotle-mexican-grill-atlanta-10", "id": 764910450, "votes": null, "tagline": null, "has_video": false, "website": "http://www.citysearch.com/profile/external/764910450/atlanta_ga/chipotle_mexican_grill.html", "offers": null, "latitude": 33.810195, "politanName": "Atlanta, GA Metro ", "phone_number": "4043519175", "tags": [{"primary": false, "id": 11208, "name": "Mexican"}, {"primary": false, "id": 11247, "name": "Carry Out"}, {"primary": true, "id": 1722, "name": "Restaurants"}], "fax_number": null, "expansion": {"count": null, "uri": null}, "impression_id": "000b000000e815adc5de25400893c94a4cc69ca821", "profile": "http://www.citysearch.com/profile/764910450/atlanta_ga/chipotle_mexican_grill.html", "address": {"city": "Atlanta", "state": "GA", "street": "2020 Howell Mill Rd NW", "postal_code": "30318"}, "capProviderId": null, "distance": null, "has_offers": false, "name": "Chipotle Mexican Grill", "longitude": -84.414711, "has_menu": false, "awards": null, "user_review_count": 0}, {"business_operation_status": 1, "rating": null, "neighborhood": null, "image": null, "scorecard": null, "featured": false, "sample_categories": "Restaurants, Traditional American", "public_id": "another-broken-egg-cafe-atlanta-3", "id": 772197900, "votes": null, "tagline": null, "has_video": false, "website": null, "offers": null, "latitude": 33.866361, "politanName": "Atlanta, GA Metro ", "phone_number": "7703840012", "tags": [{"primary": false, "id": 11190, "name": "Traditional American"}, {"primary": true, "id": 1722, "name": "Restaurants"}], "fax_number": null, "expansion": {"count": null, "uri": null}, "impression_id": "000b0000009c88fb90396041b9be1e46eab4af2276", "profile": "http://www.citysearch.com/profile/772197900/atlanta_ga/another_broken_egg_cafe.html", "address": {"city": "Atlanta", "state": "GA", "street": "4300 Paces Ferry Rd SE", "postal_code": "30339"}, "capProviderId": null, "distance": null, "has_offers": false, "name": "Another Broken Egg Cafe", "longitude": -84.466047, "has_menu": false, "awards": null, "user_review_count": 0}, {"business_operation_status": 1, "rating": null, "neighborhood": null, "image": null, "scorecard": null, "featured": false, "sample_categories": "Restaurants, Carry Out, Chicken", "public_id": "zaxbys-marietta-6", "id": 787134660, "votes": null, "tagline": null, "has_video": false, "website": "http://www.citysearch.com/profile/external/787134660/marietta_ga/zaxby_s.html", "offers": null, "latitude": 33.952602, "politanName": "Atlanta, GA Metro ", "phone_number": "6788521483", "tags": [{"primary": false, "id": 11247, "name": "Carry Out"}, {"primary": false, "id": 12839, "name": "Chicken"}, {"primary": true, "id": 1722, "name": "Restaurants"}], "fax_number": null, "expansion": {"count": null, "uri": null}, "impression_id": "000b000000cde772efa955451b9d04ba183108abe7", "profile": "http://www.citysearch.com/profile/787134660/marietta_ga/zaxby_s.html", "address": {"city": "Marietta", "state": "GA", "street": "2756 Sandy Plains Rd", "postal_code": "30066"}, "capProviderId": null, "distance": null, "has_offers": false, "name": "Zaxby's", "longitude": -84.549933, "has_menu": true, "awards": null, "user_review_count": 0}, {"business_operation_status": 1, "rating": 6.0, "neighborhood": "Highlands Park", "image": null, "scorecard": null, "featured": false, "sample_categories": "Restaurants, Bakeries, Carry Out", "public_id": "atlanta-bread-company-smyrna", "id": 2924474, "votes": null, "tagline": null, "has_video": false, "website": "http://www.citysearch.com/profile/external/2924474/smyrna_ga/atlanta_bread_company.html", "offers": null, "latitude": 33.832362, "politanName": "Atlanta, GA Metro ", "phone_number": "7704314994", "tags": [{"primary": false, "id": 1685, "name": "Bakeries"}, {"primary": false, "id": 11247, "name": "Carry Out"}, {"primary": true, "id": 1722, "name": "Restaurants"}], "fax_number": null, "expansion": {"count": null, "uri": null}, "impression_id": "000b00000065fd9186b60d461ab7807c00a023dbc4", "profile": "http://www.citysearch.com/profile/2924474/smyrna_ga/atlanta_bread_company.html", "address": {"city": "Smyrna", "state": "GA", "street": "1200 Wilson Way SE", "postal_code": "30082"}, "capProviderId": null, "distance": null, "has_offers": false, "name": "Atlanta Bread Company", "longitude": -84.50764, "has_menu": true, "awards": null, "user_review_count": 1}, {"business_operation_status": 1, "rating": null, "neighborhood": null, "image": null, "scorecard": null, "featured": false, "sample_categories": "Restaurants", "public_id": "bandido-wings-marietta", "id": 838396080, "votes": null, "tagline": null, "has_video": false, "website": null, "offers": null, "latitude": 33.902517, "politanName": "Atlanta, GA Metro ", "phone_number": "7706528890", "tags": [{"primary": true, "id": 1722, "name": "Restaurants"}], "fax_number": null, "expansion": {"count": null, "uri": null}, "impression_id": "000b0000007adac451338c460ba9c857627f729937", "profile": "http://www.citysearch.com/profile/838396080/marietta_ga/bandido_wings.html", "address": {"city": "Marietta", "state": "GA", "street": "371 Pat Mell Rd SE # 137", "postal_code": "30060"}, "capProviderId": null, "distance": null, "has_offers": false, "name": "Bandido Wings", "longitude": -84.543334, "has_menu": false, "awards": null, "user_review_count": 0}, {"business_operation_status": 1, "rating": null, "neighborhood": null, "image": null, "scorecard": null, "featured": false, "sample_categories": "Restaurants", "public_id": "el-caribe-restaurant-mableton", "id": 790752020, "votes": null, "tagline": null, "has_video": false, "website": null, "offers": null, "latitude": 33.818318, "politanName": "Atlanta, GA Metro ", "phone_number": "7709447982", "tags": [{"primary": true, "id": 1722, "name": "Restaurants"}], "fax_number": null, "expansion": {"count": null, "uri": null}, "impression_id": "000b0000006ca57790718a4a7fb5282534034717d8", "profile": "http://www.citysearch.com/profile/790752020/mableton_ga/el_caribe_restaurant.html", "address": {"city": "Mableton", "state": "GA", "street": "679 Veterans Memorial Hwy Sw", "postal_code": "30126"}, "capProviderId": null, "distance": null, "has_offers": false, "name": "El Caribe Restaurant", "longitude": -84.574544, "has_menu": false, "awards": null, "user_review_count": 0}, {"business_operation_status": 1, "rating": null, "neighborhood": null, "image": null, "scorecard": null, "featured": false, "sample_categories": "Food Stores, Restaurants", "public_id": "atlanta-smokehouse-prodcuts-marietta", "id": 793290190, "votes": null, "tagline": null, "has_video": false, "website": null, "offers": null, "latitude": 33.912568, "politanName": "Atlanta, GA Metro ", "phone_number": "7706934435", "tags": [{"primary": false, "id": 1722, "name": "Restaurants"}, {"primary": true, "id": 1706, "name": "Food Stores"}], "fax_number": null, "expansion": {"count": null, "uri": null}, "impression_id": "000b0000001648c6e1c7e2456c91ae54a687c6fd12", "profile": "http://www.citysearch.com/profile/793290190/marietta_ga/atlanta_smokehouse_prodcuts.html", "address": {"city": "Marietta", "state": "GA", "street": "1700 Enterprise Way Se", "postal_code": "30067"}, "capProviderId": null, "distance": null, "has_offers": false, "name": "Atlanta Smokehouse Prodcuts", "longitude": -84.492151, "has_menu": false, "awards": null, "user_review_count": 0}, {"business_operation_status": 1, "rating": null, "neighborhood": null, "image": null, "scorecard": null, "featured": false, "sample_categories": "Restaurants, Diners, Cafes", "public_id": "campus-cafe-marietta", "id": 33669246, "votes": null, "tagline": null, "has_video": false, "website": null, "offers": null, "latitude": 33.930756, "politanName": "Atlanta, GA Metro ", "phone_number": "7707926042", "tags": [{"primary": false, "id": 1732, "name": "Diners"}, {"primary": false, "id": 6190, "name": "Cafes"}, {"primary": true, "id": 1722, "name": "Restaurants"}], "fax_number": null, "expansion": {"count": null, "uri": null}, "impression_id": "000b000000bee562dadeff446aaa5080d69967b997", "profile": "http://www.citysearch.com/profile/33669246/marietta_ga/campus_cafe.html", "address": {"city": "Marietta", "state": "GA", "street": "1269 Barclay Cir SE", "postal_code": "30060"}, "capProviderId": null, "distance": null, "has_offers": false, "name": "Campus Cafe", "longitude": -84.514539, "has_menu": false, "awards": null, "user_review_count": 0}], "histograms": [], "tag_ids": [1722], "uri": "http://api.citygridmedia.com:8080/search/places/v2/search/where?has_offers=false&type=restaurant&format=json&page=19&where=30080&rpp=50&histograms=false&publisher=10000009598&region_type=circle", "did_you_mean": "", "regions": [{"latitude": 33.870107, "default_radius": 3.76, "type": "postal_code", "name": "30080", "longitude": -84.499867}], "call_id": "000b000000c703defc141f44e186d0a56149c0f089", "first_hit": 901, "total_hits": 1580, "geo_ids": [26330], "page": 19, "last_hit": 950}}