{"results": {"rpp": 50, "locations": [{"business_operation_status": 1, "rating": null, "neighborhood": null, "image": null, "scorecard": null, "featured": false, "sample_categories": "Restaurants, Mexican", "public_id": "jumping-beans-marietta", "id": 681338130, "votes": null, "tagline": null, "has_video": false, "website": null, "offers": null, "latitude": 33.951322, "politanName": "Atlanta, GA Metro ", "phone_number": "7704209092", "tags": [{"primary": false, "id": 11208, "name": "Mexican"}, {"primary": true, "id": 1722, "name": "Restaurants"}], "fax_number": null, "expansion": {"count": null, "uri": null}, "impression_id": "000b00000050b523a1eb57498d9eb1027f12aceebb", "profile": "http://www.citysearch.com/profile/681338130/marietta_ga/jumping_beans.html", "address": {"city": "Marietta", "state": "GA", "street": "749 Roswell St NE", "postal_code": "30060"}, "capProviderId": null, "distance": null, "has_offers": false, "name": "Jumping Beans", "longitude": -84.530069, "has_menu": false, "awards": null, "user_review_count": 0}, {"business_operation_status": 1, "rating": null, "neighborhood": null, "image": null, "scorecard": null, "featured": false, "sample_categories": "Restaurants, Bars & Clubs, American Express, Discover, MasterCard", "public_id": "hemingways-marietta", "id": 682627370, "votes": null, "tagline": null, "has_video": false, "website": "http://www.citysearch.com/profile/external/682627370/marietta_ga/hemingway_s.html", "offers": null, "latitude": 33.952683, "politanName": "Atlanta, GA Metro ", "phone_number": "7704275445", "tags": [{"primary": false, "id": 164, "name": "Bars & Clubs"}, {"primary": false, "id": 11333, "name": "American Express"}, {"primary": false, "id": 11349, "name": "Discover"}, {"primary": false, "id": 11361, "name": "MasterCard"}, {"primary": false, "id": 11382, "name": "Visa"}, {"primary": true, "id": 1722, "name": "Restaurants"}], "fax_number": null, "expansion": {"count": null, "uri": null}, "impression_id": "000b00000025bd2cd9e3ec409b83bd54716c49845f", "profile": "http://www.citysearch.com/profile/682627370/marietta_ga/hemingway_s.html", "address": {"city": "Marietta", "state": "GA", "street": "29 W Park Sq Ne", "postal_code": "30060"}, "capProviderId": null, "distance": null, "has_offers": false, "name": "Hemingway's", "longitude": -84.550462, "has_menu": true, "awards": null, "user_review_count": 12}, {"business_operation_status": 1, "rating": null, "neighborhood": null, "image": null, "scorecard": null, "featured": false, "sample_categories": "Restaurants, Hot Dogs", "public_id": "otasty-family-restaurant-mableton", "id": 790765820, "votes": null, "tagline": null, "has_video": false, "website": null, "offers": null, "latitude": 33.780755, "politanName": "Atlanta, GA Metro ", "phone_number": "7707395720", "tags": [{"primary": false, "id": 11274, "name": "Hot Dogs"}, {"primary": true, "id": 1722, "name": "Restaurants"}], "fax_number": null, "expansion": {"count": null, "uri": null}, "impression_id": "000b000000aa2a7cec28884382bef0040e38c773fc", "profile": "http://www.citysearch.com/profile/790765820/mableton_ga/o_tasty_family_restaurant.html", "address": {"city": "Mableton", "state": "GA", "street": "559 Six Flags Pkwy", "postal_code": "30126"}, "capProviderId": null, "distance": null, "has_offers": false, "name": "O'tasty Family Restaurant", "longitude": -84.539942, "has_menu": false, "awards": null, "user_review_count": 0}, {"business_operation_status": 1, "rating": null, "neighborhood": "Riverside, Northside, Northside", "image": null, "scorecard": null, "featured": false, "sample_categories": "Restaurants, Barbecue Restaurants", "public_id": "auto-claim-technology-atlanta", "id": 703487020, "votes": null, "tagline": null, "has_video": false, "website": null, "offers": null, "latitude": 33.811899, "politanName": "Atlanta, GA Metro ", "phone_number": "4047945224", "tags": [{"primary": false, "id": 1724, "name": "Barbecue Restaurants"}, {"primary": true, "id": 1722, "name": "Restaurants"}], "fax_number": null, "expansion": {"count": null, "uri": null}, "impression_id": "000b000000f28bf021f5bf4f6aa11a4c956e046a06", "profile": "http://www.citysearch.com/profile/703487020/atlanta_ga/auto_claim_technology.html", "address": {"city": "Atlanta", "state": "GA", "street": "2057 Main St NW", "postal_code": "30318"}, "capProviderId": null, "distance": null, "has_offers": false, "name": "Auto Claim Technology", "longitude": -84.471788, "has_menu": false, "awards": null, "user_review_count": 0}, {"business_operation_status": 1, "rating": 8.0, "neighborhood": null, "image": null, "scorecard": null, "featured": false, "sample_categories": "Mexican", "public_id": "el-tequilla-marietta", "id": 37460153, "votes": null, "tagline": null, "has_video": false, "website": null, "offers": null, "latitude": 33.906772, "politanName": "Atlanta, GA Metro ", "phone_number": "7709538610", "tags": [{"primary": true, "id": 11208, "name": "Mexican"}], "fax_number": null, "expansion": {"count": null, "uri": null}, "impression_id": "000b0000009f45022722f74ae0a4f08b3f903ef853", "profile": "http://www.citysearch.com/profile/37460153/marietta_ga/el_tequilla.html", "address": {"city": "Marietta", "state": "GA", "street": "1869 Cobb Pkwy S", "postal_code": "30060"}, "capProviderId": null, "distance": null, "has_offers": false, "name": "El Tequilla", "longitude": -84.490975, "has_menu": true, "awards": null, "user_review_count": 0}, {"business_operation_status": 0, "rating": null, "neighborhood": null, "image": null, "scorecard": null, "featured": false, "sample_categories": "Restaurants, Delis And Delicatessens, American Express, Debit Card, Discover", "public_id": "lennys-sub-shop-marietta", "id": 732210960, "votes": null, "tagline": null, "has_video": false, "website": null, "offers": null, "latitude": 33.946428, "politanName": "Atlanta, GA Metro ", "phone_number": "6785946940", "tags": [{"primary": false, "id": 1727, "name": "Delis And Delicatessens"}, {"primary": false, "id": 11333, "name": "American Express"}, {"primary": false, "id": 11347, "name": "Debit Card"}, {"primary": false, "id": 11349, "name": "Discover"}, {"primary": false, "id": 11361, "name": "MasterCard"}, {"primary": false, "id": 11382, "name": "Visa"}, {"primary": true, "id": 1722, "name": "Restaurants"}], "fax_number": null, "expansion": {"count": null, "uri": null}, "impression_id": "000b0000005f0825a8f594419e91a34bd87d43b3cd", "profile": "http://www.citysearch.com/profile/732210960/marietta_ga/lenny_s_sub_shop.html", "address": {"city": "Marietta", "state": "GA", "street": "270 Cobb Pkwy S", "postal_code": "30060"}, "capProviderId": null, "distance": null, "has_offers": false, "name": "Lenny's Sub Shop", "longitude": -84.520358, "has_menu": false, "awards": null, "user_review_count": 0}, {"business_operation_status": 1, "rating": null, "neighborhood": null, "image": null, "scorecard": null, "featured": false, "sample_categories": "Restaurants, Carry Out", "public_id": "arbys-marietta-16", "id": 764873620, "votes": null, "tagline": null, "has_video": false, "website": null, "offers": null, "latitude": 33.917209, "politanName": "Atlanta, GA Metro ", "phone_number": "7709338090", "tags": [{"primary": false, "id": 11247, "name": "Carry Out"}, {"primary": true, "id": 1722, "name": "Restaurants"}], "fax_number": null, "expansion": {"count": null, "uri": null}, "impression_id": "000b000000d2a3342c922b408da007802b71f1025b", "profile": "http://www.citysearch.com/profile/764873620/marietta_ga/arby_s.html", "address": {"city": "Marietta", "state": "GA", "street": "1421 Terrell Mill Rd SE", "postal_code": "30067"}, "capProviderId": null, "distance": null, "has_offers": false, "name": "Arby's", "longitude": -84.468004, "has_menu": false, "awards": null, "user_review_count": 0}, {"business_operation_status": 1, "rating": null, "neighborhood": null, "image": null, "scorecard": null, "featured": false, "sample_categories": "Restaurants, Bars & Pubs, Carry Out", "public_id": "chilis-grill-bar-marietta-4", "id": 764886130, "votes": null, "tagline": null, "has_video": false, "website": null, "offers": null, "latitude": 33.939526, "politanName": "Atlanta, GA Metro ", "phone_number": "7704230897", "tags": [{"primary": false, "id": 1686, "name": "Bars & Pubs"}, {"primary": false, "id": 11247, "name": "Carry Out"}, {"primary": true, "id": 1722, "name": "Restaurants"}], "fax_number": null, "expansion": {"count": null, "uri": null}, "impression_id": "000b000000edd18f1ab09e41b1b02f884d84c355f5", "profile": "http://www.citysearch.com/profile/764886130/marietta_ga/chili_s_grill_bar.html", "address": {"city": "Marietta", "state": "GA", "street": "555 Commerce Ave SE", "postal_code": "30067"}, "capProviderId": null, "distance": null, "has_offers": false, "name": "Chili's Grill & Bar", "longitude": -84.506501, "has_menu": false, "awards": null, "user_review_count": 0}, {"business_operation_status": 1, "rating": null, "neighborhood": null, "image": null, "scorecard": null, "featured": false, "sample_categories": "Grocery Stores, Restaurants", "public_id": "royal-groceries-rstrnt-llc-marietta", "id": 764910880, "votes": null, "tagline": null, "has_video": false, "website": null, "offers": null, "latitude": 33.95073, "politanName": "Atlanta, GA Metro ", "phone_number": "7709738414", "tags": [{"primary": false, "id": 1722, "name": "Restaurants"}, {"primary": true, "id": 1713, "name": "Grocery Stores"}], "fax_number": null, "expansion": {"count": null, "uri": null}, "impression_id": "000b0000009061ab8180ec421382dde0751da7e0d2", "profile": "http://www.citysearch.com/profile/764910880/marietta_ga/royal_groceries_rstrnt_llc.html", "address": {"city": "Marietta", "state": "GA", "street": "1392 Roswell Rd", "postal_code": "30062"}, "capProviderId": null, "distance": null, "has_offers": false, "name": "Royal Groceries & Rstrnt Llc", "longitude": -84.511253, "has_menu": false, "awards": null, "user_review_count": 0}, {"business_operation_status": 1, "rating": null, "neighborhood": "Northside, Northside", "image": null, "scorecard": null, "featured": false, "sample_categories": "Delis And Delicatessens", "public_id": "usa-deli-atlanta", "id": 764933650, "votes": null, "tagline": null, "has_video": false, "website": null, "offers": null, "latitude": 33.794633, "politanName": "Atlanta, GA Metro ", "phone_number": "4048766078", "tags": [{"primary": true, "id": 1727, "name": "Delis And Delicatessens"}], "fax_number": null, "expansion": {"count": null, "uri": null}, "impression_id": "000b0000009600b703c7374473b9089adbe058d116", "profile": "http://www.citysearch.com/profile/764933650/atlanta_ga/usa_deli.html", "address": {"city": "Atlanta", "state": "GA", "street": "902 Hllwell Pkwy NW", "postal_code": "30318"}, "capProviderId": null, "distance": null, "has_offers": false, "name": "USA Deli", "longitude": -84.448772, "has_menu": false, "awards": null, "user_review_count": 0}, {"business_operation_status": 1, "rating": null, "neighborhood": "Northside, Northside", "image": null, "scorecard": null, "featured": false, "sample_categories": "Restaurants, Bars & Clubs, Bars & Pubs", "public_id": "carizma-restaurant-lounge-atlanta", "id": 766755690, "votes": null, "tagline": null, "has_video": false, "website": null, "offers": null, "latitude": 33.807807, "politanName": "Atlanta, GA Metro ", "phone_number": "4043500345", "tags": [{"primary": false, "id": 164, "name": "Bars & Clubs"}, {"primary": false, "id": 1686, "name": "Bars & Pubs"}, {"primary": true, "id": 1722, "name": "Restaurants"}], "fax_number": null, "expansion": {"count": null, "uri": null}, "impression_id": "000b00000069fb6dd6b747421b8b376342f7f2877d", "profile": "http://www.citysearch.com/profile/766755690/atlanta_ga/carizma_restaurant_lounge.html", "address": {"city": "Atlanta", "state": "GA", "street": "1950 Howell Mill Rd NW", "postal_code": "30318"}, "capProviderId": null, "distance": null, "has_offers": false, "name": "Carizma Restaurant Lounge", "longitude": -84.412683, "has_menu": false, "awards": null, "user_review_count": 0}, {"business_operation_status": 1, "rating": null, "neighborhood": null, "image": null, "scorecard": null, "featured": false, "sample_categories": "Restaurants, Grocery Stores", "public_id": "sugar-shack-snacks-marietta", "id": 766798620, "votes": null, "tagline": null, "has_video": false, "website": null, "offers": null, "latitude": 33.952602, "politanName": "Atlanta, GA Metro ", "phone_number": "7704850847", "tags": [{"primary": false, "id": 1713, "name": "Grocery Stores"}, {"primary": true, "id": 1722, "name": "Restaurants"}], "fax_number": null, "expansion": {"count": null, "uri": null}, "impression_id": "000b0000008299149dafc14b10bd41db0375362221", "profile": "http://www.citysearch.com/profile/766798620/marietta_ga/sugar_shack_snacks.html", "address": {"city": "Marietta", "state": "GA", "street": "3901 Mary Eliza Trce NW # 120", "postal_code": "30064"}, "capProviderId": null, "distance": null, "has_offers": false, "name": "Sugar Shack Snacks", "longitude": -84.549933, "has_menu": false, "awards": null, "user_review_count": 0}, {"business_operation_status": 1, "rating": null, "neighborhood": null, "image": null, "scorecard": null, "featured": false, "sample_categories": "Restaurants, Mexican", "public_id": "el-taco-azteco-bar-grill-marietta", "id": 779707060, "votes": null, "tagline": null, "has_video": false, "website": null, "offers": null, "latitude": 33.976739, "politanName": "Atlanta, GA Metro ", "phone_number": "6782752349", "tags": [{"primary": false, "id": 11208, "name": "Mexican"}, {"primary": true, "id": 1722, "name": "Restaurants"}], "fax_number": null, "expansion": {"count": null, "uri": null}, "impression_id": "000b0000004e1d38cd93c14ccc82a1c87d32e5ade8", "profile": "http://www.citysearch.com/profile/779707060/marietta_ga/el_taco_azteco_bar_grill.html", "address": {"city": "Marietta", "state": "GA", "street": "1050 E Piedmont Rd", "postal_code": "30062"}, "capProviderId": null, "distance": null, "has_offers": false, "name": "El Taco Azteco Bar & Grill", "longitude": -84.479676, "has_menu": false, "awards": null, "user_review_count": 0}, {"business_operation_status": 0, "rating": null, "neighborhood": null, "image": null, "scorecard": null, "featured": false, "sample_categories": "Restaurants, Delis And Delicatessens, Sandwich Shops, Carry Out", "public_id": "quiznos-atlanta-32", "id": 764855160, "votes": null, "tagline": null, "has_video": false, "website": null, "offers": null, "latitude": 33.917033, "politanName": "Atlanta, GA Metro ", "phone_number": "7709534495", "tags": [{"primary": false, "id": 1727, "name": "Delis And Delicatessens"}, {"primary": false, "id": 1736, "name": "Sandwich Shops"}, {"primary": false, "id": 11247, "name": "Carry Out"}, {"primary": true, "id": 1722, "name": "Restaurants"}], "fax_number": null, "expansion": {"count": null, "uri": null}, "impression_id": "000b000000d10f6050c77643f7ae93240ad327d29c", "profile": "http://www.citysearch.com/profile/764855160/atlanta_ga/quiznos.html", "address": {"city": "Atlanta", "state": "GA", "street": "5890 Winterthur Rdg NW", "postal_code": "30328"}, "capProviderId": null, "distance": null, "has_offers": false, "name": "Quiznos", "longitude": -84.434794, "has_menu": true, "awards": null, "user_review_count": 0}, {"business_operation_status": 1, "rating": null, "neighborhood": null, "image": null, "scorecard": null, "featured": false, "sample_categories": "Restaurants, Carry Out, Pizza", "public_id": "papa-johns-pizza-marietta-16", "id": 764880810, "votes": null, "tagline": null, "has_video": false, "website": null, "offers": null, "latitude": 33.922655, "politanName": "Atlanta, GA Metro ", "phone_number": "4049848282", "tags": [{"primary": false, "id": 11247, "name": "Carry Out"}, {"primary": false, "id": 11299, "name": "Pizza"}, {"primary": true, "id": 1722, "name": "Restaurants"}], "fax_number": null, "expansion": {"count": null, "uri": null}, "impression_id": "000b000000c42b895f73b945799408c867ba585f7d", "profile": "http://www.citysearch.com/profile/764880810/marietta_ga/papa_john_s_pizza.html", "address": {"city": "Marietta", "state": "GA", "street": "2556 Delk Rd SE", "postal_code": "30067"}, "capProviderId": null, "distance": null, "has_offers": false, "name": "Papa John's Pizza", "longitude": -84.480194, "has_menu": false, "awards": null, "user_review_count": 0}, {"business_operation_status": 1, "rating": null, "neighborhood": null, "image": null, "scorecard": null, "featured": false, "sample_categories": "Restaurants", "public_id": "mablton-cafe-mableton", "id": 682238240, "votes": null, "tagline": null, "has_video": false, "website": null, "offers": null, "latitude": 33.817964, "politanName": "Atlanta, GA Metro ", "phone_number": "7709412233", "tags": [{"primary": true, "id": 1722, "name": "Restaurants"}], "fax_number": null, "expansion": {"count": null, "uri": null}, "impression_id": "000b000000f4efc34723b440a8b265d7baddd8c7bc", "profile": "http://www.citysearch.com/profile/682238240/mableton_ga/mablton_cafe.html", "address": {"city": "Mableton", "state": "GA", "street": "5590 Mableton Pkwy Sw # 102", "postal_code": "30126"}, "capProviderId": null, "distance": null, "has_offers": false, "name": "Mablton Cafe", "longitude": -84.576041, "has_menu": false, "awards": null, "user_review_count": 0}, {"business_operation_status": 1, "rating": null, "neighborhood": null, "image": null, "scorecard": null, "featured": false, "sample_categories": "Restaurants, Traditional American, Carry Out, American Express, Discover", "public_id": "arbys-austell", "id": 682522910, "votes": null, "tagline": null, "has_video": false, "website": "http://www.citysearch.com/profile/external/682522910/austell_ga/arby_s.html", "offers": null, "latitude": 33.802759, "politanName": "Atlanta, GA Metro ", "phone_number": "7707390339", "tags": [{"primary": false, "id": 11190, "name": "Traditional American"}, {"primary": false, "id": 11247, "name": "Carry Out"}, {"primary": false, "id": 11333, "name": "American Express"}, {"primary": false, "id": 11349, "name": "Discover"}, {"primary": false, "id": 11361, "name": "MasterCard"}, {"primary": false, "id": 11382, "name": "Visa"}, {"primary": true, "id": 1722, "name": "Restaurants"}], "fax_number": null, "expansion": {"count": null, "uri": null}, "impression_id": "000b0000003aec8710b6b743039b37575ef4e5ca3f", "profile": "http://www.citysearch.com/profile/682522910/austell_ga/arby_s.html", "address": {"city": "Austell", "state": "GA", "street": "3060 Bankhead Hwy", "postal_code": "30168"}, "capProviderId": null, "distance": null, "has_offers": false, "name": "Arby's", "longitude": -84.638393, "has_menu": true, "awards": null, "user_review_count": 0}, {"business_operation_status": 1, "rating": null, "neighborhood": null, "image": null, "scorecard": null, "featured": false, "sample_categories": "Restaurants, Diners", "public_id": "cobb-diner-marietta", "id": 781263410, "votes": null, "tagline": null, "has_video": false, "website": null, "offers": null, "latitude": 33.950808, "politanName": "Atlanta, GA Metro ", "phone_number": "7705149700", "tags": [{"primary": false, "id": 1732, "name": "Diners"}, {"primary": true, "id": 1722, "name": "Restaurants"}], "fax_number": null, "expansion": {"count": null, "uri": null}, "impression_id": "000b000000c0b834790cf64007839b569b1b53176b", "profile": "http://www.citysearch.com/profile/781263410/marietta_ga/cobb_diner.html", "address": {"city": "Marietta", "state": "GA", "street": "749 Roswell St Ne", "postal_code": "30060"}, "capProviderId": null, "distance": null, "has_offers": false, "name": "Cobb Diner", "longitude": -84.53017, "has_menu": false, "awards": null, "user_review_count": 1}, {"business_operation_status": 1, "rating": null, "neighborhood": null, "image": null, "scorecard": null, "featured": false, "sample_categories": "Restaurants", "public_id": "doc-sheys-asian-kitchen-atlanta", "id": 807684150, "votes": null, "tagline": null, "has_video": false, "website": null, "offers": null, "latitude": 33.879591, "politanName": "Atlanta, GA Metro ", "phone_number": "7703339657", "tags": [{"primary": true, "id": 1722, "name": "Restaurants"}], "fax_number": null, "expansion": {"count": null, "uri": null}, "impression_id": "000b0000000415ceb909804babbecadc8680dce663", "profile": "http://www.citysearch.com/profile/807684150/atlanta_ga/doc_sheys_asian_kitchen.html", "address": {"city": "Atlanta", "state": "GA", "street": "1675 Cumberland Mall SE", "postal_code": "30339"}, "capProviderId": null, "distance": null, "has_offers": false, "name": "Doc Sheys Asian Kitchen", "longitude": -84.471261, "has_menu": false, "awards": null, "user_review_count": 0}, {"business_operation_status": 1, "rating": null, "neighborhood": null, "image": null, "scorecard": null, "featured": false, "sample_categories": "Barbecue Restaurants", "public_id": "kennesaw-bar-b-que-smyrna", "id": 813263860, "votes": null, "tagline": null, "has_video": false, "website": null, "offers": null, "latitude": 33.871707, "politanName": "Atlanta, GA Metro ", "phone_number": "7704226193", "tags": [{"primary": true, "id": 1724, "name": "Barbecue Restaurants"}], "fax_number": null, "expansion": {"count": null, "uri": null}, "impression_id": "000b0000005684239f4e684629aee61760fe86a3ae", "profile": "http://www.citysearch.com/profile/813263860/smyrna_ga/kennesaw_bar_b_que.html", "address": {"city": "Smyrna", "state": "GA", "street": "3363 Landrum Dr SE", "postal_code": "30082"}, "capProviderId": null, "distance": null, "has_offers": false, "name": "Kennesaw Bar B Que", "longitude": -84.55291, "has_menu": false, "awards": null, "user_review_count": 0}, {"business_operation_status": 1, "rating": null, "neighborhood": null, "image": null, "scorecard": null, "featured": false, "sample_categories": "Restaurants", "public_id": "cafe-1600-atlanta", "id": 805525410, "votes": null, "tagline": null, "has_video": false, "website": null, "offers": null, "latitude": 33.900846, "politanName": "Atlanta, GA Metro ", "phone_number": "7709841680", "tags": [{"primary": true, "id": 1722, "name": "Restaurants"}], "fax_number": null, "expansion": {"count": null, "uri": null}, "impression_id": "000b00000037bcd0203c894967b4655ca4b960fead", "profile": "http://www.citysearch.com/profile/805525410/atlanta_ga/cafe_1600.html", "address": {"city": "Atlanta", "state": "GA", "street": "1600 Parkwood Cir SE # 140", "postal_code": "30339"}, "capProviderId": null, "distance": null, "has_offers": false, "name": "Cafe 1600", "longitude": -84.458903, "has_menu": false, "awards": null, "user_review_count": 0}, {"business_operation_status": 1, "rating": null, "neighborhood": null, "image": null, "scorecard": null, "featured": false, "sample_categories": "Restaurants, Asian, Chinese", "public_id": "hibachi-buffet-marietta", "id": 713488530, "votes": null, "tagline": null, "has_video": false, "website": "http://www.citysearch.com/profile/external/713488530/marietta_ga/hibachi_buffet.html", "offers": null, "latitude": 33.968527, "politanName": "Atlanta, GA Metro ", "phone_number": "7703218202", "tags": [{"primary": false, "id": 11235, "name": "Asian"}, {"primary": false, "id": 11252, "name": "Chinese"}, {"primary": true, "id": 1722, "name": "Restaurants"}], "fax_number": null, "expansion": {"count": null, "uri": null}, "impression_id": "000b000000448131619ecb46299fb15c6cd33a0808", "profile": "http://www.citysearch.com/profile/713488530/marietta_ga/hibachi_buffet.html", "address": {"city": "Marietta", "state": "GA", "street": "2145 Roswell Rd # 260", "postal_code": "30062"}, "capProviderId": null, "distance": null, "has_offers": false, "name": "Hibachi Buffet", "longitude": -84.491622, "has_menu": false, "awards": null, "user_review_count": 0}, {"business_operation_status": 1, "rating": 6.0, "neighborhood": null, "image": null, "scorecard": null, "featured": false, "sample_categories": "Restaurants, Diners", "public_id": "ogas-diners-marietta", "id": 2906488, "votes": null, "tagline": null, "has_video": false, "website": null, "offers": null, "latitude": 33.936031, "politanName": "Atlanta, GA Metro ", "phone_number": "7704230098", "tags": [{"primary": false, "id": 1732, "name": "Diners"}, {"primary": true, "id": 1722, "name": "Restaurants"}], "fax_number": null, "expansion": {"count": null, "uri": null}, "impression_id": "000b000000dcfd242a801c441ca86ff43c1c2fbb2f", "profile": "http://www.citysearch.com/profile/2906488/marietta_ga/oga_s_diners.html", "address": {"city": "Marietta", "state": "GA", "street": "690 Powder Springs St SW", "postal_code": "30064"}, "capProviderId": null, "distance": null, "has_offers": false, "name": "Oga's Diners", "longitude": -84.556041, "has_menu": false, "awards": null, "user_review_count": 1}, {"business_operation_status": 1, "rating": 6.0, "neighborhood": null, "image": null, "scorecard": null, "featured": false, "sample_categories": "Restaurants, Asian", "public_id": "bamboo-garden-smyrna", "id": 2922985, "votes": null, "tagline": null, "has_video": false, "website": null, "offers": null, "latitude": 33.873647, "politanName": "Atlanta, GA Metro ", "phone_number": "7704325832", "tags": [{"primary": false, "id": 11235, "name": "Asian"}, {"primary": true, "id": 1722, "name": "Restaurants"}], "fax_number": null, "expansion": {"count": null, "uri": null}, "impression_id": "000b0000002f8fa54bbbb7441e80d50dfb99415fa7", "profile": "http://www.citysearch.com/profile/2922985/smyrna_ga/bamboo_garden.html", "address": {"city": "Smyrna", "state": "GA", "street": "3240 S Cobb Dr SE Ste H", "postal_code": "30080"}, "capProviderId": null, "distance": null, "has_offers": false, "name": "Bamboo Garden", "longitude": -84.530458, "has_menu": true, "awards": null, "user_review_count": 1}, {"business_operation_status": 1, "rating": null, "neighborhood": null, "image": null, "scorecard": null, "featured": false, "sample_categories": "Restaurants", "public_id": "american-cinema-group-inc-marietta", "id": 810463060, "votes": null, "tagline": null, "has_video": false, "website": null, "offers": null, "latitude": 33.952602, "politanName": "Atlanta, GA Metro ", "phone_number": "7709198182", "tags": [{"primary": true, "id": 1722, "name": "Restaurants"}], "fax_number": null, "expansion": {"count": null, "uri": null}, "impression_id": "000b000000de40b8a8520049179c75be2819c4fa34", "profile": "http://www.citysearch.com/profile/810463060/marietta_ga/american_cinema_group_inc.html", "address": {"city": "Marietta", "state": "GA", "street": "4520 Blackwater Trl", "postal_code": "30066"}, "capProviderId": null, "distance": null, "has_offers": false, "name": "American Cinema Group Inc", "longitude": -84.549933, "has_menu": false, "awards": null, "user_review_count": 0}, {"business_operation_status": 1, "rating": null, "neighborhood": null, "image": null, "scorecard": null, "featured": false, "sample_categories": "Restaurants", "public_id": "new-china-express-inc-marietta", "id": 812363050, "votes": null, "tagline": null, "has_video": false, "website": null, "offers": null, "latitude": 33.890207, "politanName": "Atlanta, GA Metro ", "phone_number": "7704352211", "tags": [{"primary": true, "id": 1722, "name": "Restaurants"}], "fax_number": null, "expansion": {"count": null, "uri": null}, "impression_id": "000b0000002f2380b49bfe4d8598e5090b7e240f14", "profile": "http://www.citysearch.com/profile/812363050/marietta_ga/new_china_express_inc.html", "address": {"city": "Marietta", "state": "GA", "street": "2561 Austell Rd SW", "postal_code": "30008"}, "capProviderId": null, "distance": null, "has_offers": false, "name": "New China Express Inc", "longitude": -84.579023, "has_menu": true, "awards": null, "user_review_count": 0}, {"business_operation_status": 1, "rating": null, "neighborhood": null, "image": null, "scorecard": null, "featured": false, "sample_categories": "Restaurants", "public_id": "pit-marietta", "id": 751310700, "votes": null, "tagline": null, "has_video": false, "website": null, "offers": null, "latitude": 33.908297, "politanName": "Atlanta, GA Metro ", "phone_number": "7706272634", "tags": [{"primary": true, "id": 1722, "name": "Restaurants"}], "fax_number": null, "expansion": {"count": null, "uri": null}, "impression_id": "000b000000ca18d29c7a97474d930e30c27bdbe078", "profile": "http://www.citysearch.com/profile/751310700/marietta_ga/pit.html", "address": {"city": "Marietta", "state": "GA", "street": "1854 Terrell Mill Rd SE # 105", "postal_code": "30067"}, "capProviderId": null, "distance": null, "has_offers": false, "name": "Pit", "longitude": -84.487916, "has_menu": false, "awards": null, "user_review_count": 0}, {"business_operation_status": 1, "rating": null, "neighborhood": null, "image": null, "scorecard": null, "featured": false, "sample_categories": "Coffeehouses", "public_id": "ellianos-coffee-co-marietta", "id": 732158430, "votes": null, "tagline": null, "has_video": false, "website": null, "offers": null, "latitude": 33.920792, "politanName": "Atlanta, GA Metro ", "phone_number": "7709567770", "tags": [{"primary": true, "id": 1726, "name": "Coffeehouses"}], "fax_number": null, "expansion": {"count": null, "uri": null}, "impression_id": "000b0000008166ace47a3b4ebdaa84931b5f92fb60", "profile": "http://www.citysearch.com/profile/732158430/marietta_ga/elliano_s_coffee_co.html", "address": {"city": "Marietta", "state": "GA", "street": "1270 Powers Ferry Rd SE", "postal_code": "30067"}, "capProviderId": null, "distance": null, "has_offers": false, "name": "Elliano's Coffee Co", "longitude": -84.467912, "has_menu": false, "awards": null, "user_review_count": 0}, {"business_operation_status": 1, "rating": null, "neighborhood": null, "image": null, "scorecard": null, "featured": false, "sample_categories": "Restaurants, Delis And Delicatessens, Sandwich Shops, Carry Out, American Express", "public_id": "subway-dobbins", "id": 764859160, "votes": null, "tagline": null, "has_video": false, "website": "http://www.citysearch.com/profile/external/764859160/dobbins_afb_ga/subway.html", "offers": null, "latitude": 33.91719, "politanName": "Atlanta, GA Metro ", "phone_number": "7704259031", "tags": [{"primary": false, "id": 1727, "name": "Delis And Delicatessens"}, {"primary": false, "id": 1736, "name": "Sandwich Shops"}, {"primary": false, "id": 11247, "name": "Carry Out"}, {"primary": false, "id": 11333, "name": "American Express"}, {"primary": false, "id": 11349, "name": "Discover"}, {"primary": false, "id": 11361, "name": "MasterCard"}, {"primary": false, "id": 11382, "name": "Visa"}, {"primary": true, "id": 1722, "name": "Restaurants"}], "fax_number": null, "expansion": {"count": null, "uri": null}, "impression_id": "000b00000091163935113e471d8331e9257dcdd7c0", "profile": "http://www.citysearch.com/profile/764859160/dobbins_afb_ga/subway.html", "address": {"city": "Dobbins Afb", "state": "GA", "street": "Industrial Blvd # 530", "postal_code": "30069"}, "capProviderId": null, "distance": null, "has_offers": false, "name": "SUBWAY", "longitude": -84.514354, "has_menu": false, "awards": null, "user_review_count": 0}, {"business_operation_status": 1, "rating": null, "neighborhood": null, "image": null, "scorecard": null, "featured": false, "sample_categories": "Restaurants, Food Delivery", "public_id": "cafe-vena-atlanta", "id": 764875900, "votes": null, "tagline": null, "has_video": false, "website": "http://www.citysearch.com/profile/external/764875900/atlanta_ga/vena_at_vinings.html", "offers": null, "latitude": 33.872565, "politanName": "Atlanta, GA Metro ", "phone_number": "7709379089", "tags": [{"primary": false, "id": 11267, "name": "Food Delivery"}, {"primary": true, "id": 1722, "name": "Restaurants"}], "fax_number": null, "expansion": {"count": null, "uri": null}, "impression_id": "000b000000061dc2d7e9104923b2d5a023a5b8ed1b", "profile": "http://www.citysearch.com/profile/764875900/atlanta_ga/vena_at_vinings.html", "address": {"city": "Atlanta", "state": "GA", "street": "3300 Cobb Pkwy SE 104", "postal_code": "30339"}, "capProviderId": null, "distance": null, "has_offers": false, "name": "Vena at Vinings", "longitude": -84.457681, "has_menu": false, "awards": null, "user_review_count": 0}, {"business_operation_status": 1, "rating": null, "neighborhood": null, "image": null, "scorecard": null, "featured": false, "sample_categories": "Restaurants, Pizza", "public_id": "pizza-plus-smyrna", "id": 764885620, "votes": null, "tagline": null, "has_video": false, "website": null, "offers": null, "latitude": 33.890233, "politanName": "Atlanta, GA Metro ", "phone_number": "7704338006", "tags": [{"primary": false, "id": 11299, "name": "Pizza"}, {"primary": true, "id": 1722, "name": "Restaurants"}], "fax_number": null, "expansion": {"count": null, "uri": null}, "impression_id": "000b0000005f15a8426533462ba112d689d8e2dd99", "profile": "http://www.citysearch.com/profile/764885620/smyrna_ga/pizza_plus.html", "address": {"city": "Smyrna", "state": "GA", "street": "2539 Old Concord Rd SE", "postal_code": "30082"}, "capProviderId": null, "distance": null, "has_offers": false, "name": "Pizza Plus", "longitude": -84.540188, "has_menu": true, "awards": null, "user_review_count": 0}, {"business_operation_status": 1, "rating": null, "neighborhood": null, "image": null, "scorecard": null, "featured": false, "sample_categories": "Restaurants, Barbecue Restaurants", "public_id": "shanes-rib-shack-marietta-2", "id": 777741320, "votes": null, "tagline": null, "has_video": false, "website": null, "offers": null, "latitude": 33.917966, "politanName": "Atlanta, GA Metro ", "phone_number": "7709552246", "tags": [{"primary": false, "id": 1724, "name": "Barbecue Restaurants"}, {"primary": true, "id": 1722, "name": "Restaurants"}], "fax_number": null, "expansion": {"count": null, "uri": null}, "impression_id": "000b0000007e24ad6eb3604e6fbb47baf8361a0e4e", "profile": "http://www.citysearch.com/profile/777741320/marietta_ga/shane_s_rib_shack.html", "address": {"city": "Marietta", "state": "GA", "street": "1410 Terrell Mill Rd Se", "postal_code": "30067"}, "capProviderId": null, "distance": null, "has_offers": false, "name": "Shane's Rib Shack", "longitude": -84.467707, "has_menu": true, "awards": null, "user_review_count": 1}, {"business_operation_status": 1, "rating": null, "neighborhood": null, "image": null, "scorecard": null, "featured": false, "sample_categories": "Restaurants, Soul", "public_id": "trinas-soul-kitchen-mableton", "id": 762760900, "votes": null, "tagline": null, "has_video": false, "website": null, "offers": null, "latitude": 33.845849, "politanName": "Atlanta, GA Metro ", "phone_number": "7704853300", "tags": [{"primary": false, "id": 15140, "name": "Soul"}, {"primary": true, "id": 1722, "name": "Restaurants"}], "fax_number": null, "expansion": {"count": null, "uri": null}, "impression_id": "000b000000bddb7fbb13c94540b0215a2bb7c78ea7", "profile": "http://www.citysearch.com/profile/762760900/mableton_ga/trina_s_soul_kitchen.html", "address": {"city": "Mableton", "state": "GA", "street": "4426 Floyd Rd SW # 100", "postal_code": "30126"}, "capProviderId": null, "distance": null, "has_offers": false, "name": "Trina's Soul Kitchen", "longitude": -84.583979, "has_menu": false, "awards": null, "user_review_count": 0}, {"business_operation_status": 1, "rating": null, "neighborhood": null, "image": null, "scorecard": null, "featured": false, "sample_categories": "Coffeehouses", "public_id": "starbucks-marietta-14", "id": 781239330, "votes": null, "tagline": null, "has_video": false, "website": "http://www.citysearch.com/profile/external/781239330/marietta_ga/starbucks.html", "offers": null, "latitude": 33.952517, "politanName": "Atlanta, GA Metro ", "phone_number": "6782901695", "tags": [{"primary": true, "id": 1726, "name": "Coffeehouses"}], "fax_number": null, "expansion": {"count": null, "uri": null}, "impression_id": "000b000000a66cdb8389f44ef18133786389300201", "profile": "http://www.citysearch.com/profile/781239330/marietta_ga/starbucks.html", "address": {"city": "Marietta", "state": "GA", "street": "30 Whitlock Ave NW", "postal_code": "30064"}, "capProviderId": null, "distance": null, "has_offers": false, "name": "Starbucks", "longitude": -84.551632, "has_menu": false, "awards": null, "user_review_count": 0}, {"business_operation_status": 1, "rating": null, "neighborhood": null, "image": null, "scorecard": null, "featured": false, "sample_categories": "Restaurants, Carry Out, Hamburgers, American Express, Discover", "public_id": "burger-king-marietta-11", "id": 682637510, "votes": null, "tagline": null, "has_video": false, "website": "http://www.citysearch.com/profile/external/682637510/marietta_ga/burger_king.html", "offers": null, "latitude": 33.945546, "politanName": "Atlanta, GA Metro ", "phone_number": "6783541084", "tags": [{"primary": false, "id": 1722, "name": "Restaurants"}, {"primary": false, "id": 11270, "name": "Hamburgers"}, {"primary": false, "id": 11333, "name": "American Express"}, {"primary": false, "id": 11349, "name": "Discover"}, {"primary": false, "id": 11361, "name": "MasterCard"}, {"primary": false, "id": 11382, "name": "Visa"}, {"primary": true, "id": 11247, "name": "Carry Out"}], "fax_number": null, "expansion": {"count": null, "uri": null}, "impression_id": "000b000000db23db68cf464a0f909ef99ea810a281", "profile": "http://www.citysearch.com/profile/682637510/marietta_ga/burger_king.html", "address": {"city": "Marietta", "state": "GA", "street": "2495 Dallas Hwy SW", "postal_code": "30064"}, "capProviderId": null, "distance": null, "has_offers": false, "name": "Burger King", "longitude": -84.624745, "has_menu": true, "awards": null, "user_review_count": 0}, {"business_operation_status": 1, "rating": null, "neighborhood": null, "image": null, "scorecard": null, "featured": false, "sample_categories": "Restaurants", "public_id": "metropolis-wing-station-marietta", "id": 682470740, "votes": null, "tagline": null, "has_video": false, "website": null, "offers": null, "latitude": 33.927554, "politanName": "Atlanta, GA Metro ", "phone_number": "6783545450", "tags": [{"primary": true, "id": 1722, "name": "Restaurants"}], "fax_number": null, "expansion": {"count": null, "uri": null}, "impression_id": "000b0000004f90fcece27c4ceaa3beab3c428ea2f8", "profile": "http://www.citysearch.com/profile/682470740/marietta_ga/metropolis_wing_station.html", "address": {"city": "Marietta", "state": "GA", "street": "1038 Franklin Rd Se", "postal_code": "30067"}, "capProviderId": null, "distance": null, "has_offers": false, "name": "Metropolis Wing Station", "longitude": -84.493666, "has_menu": false, "awards": null, "user_review_count": 0}, {"business_operation_status": 1, "rating": null, "neighborhood": null, "image": null, "scorecard": null, "featured": false, "sample_categories": "Ice Cream Parlors", "public_id": "high-road-craft-ice-cream-inc-marietta", "id": 803512700, "votes": null, "tagline": null, "has_video": false, "website": null, "offers": null, "latitude": 33.982909, "politanName": "Atlanta, GA Metro ", "phone_number": "7705651652", "tags": [{"primary": true, "id": 1730, "name": "Ice Cream Parlors"}], "fax_number": null, "expansion": {"count": null, "uri": null}, "impression_id": "000b0000006d360541f1f4446da1ba1188dcf137a5", "profile": "http://www.citysearch.com/profile/803512700/marietta_ga/high_road_craft_ice_cream_inc.html", "address": {"city": "Marietta", "state": "GA", "street": "1730 W Oak Commons Ct", "postal_code": "30062"}, "capProviderId": null, "distance": null, "has_offers": false, "name": "High Road Craft Ice Cream INC", "longitude": -84.523354, "has_menu": false, "awards": null, "user_review_count": 0}, {"business_operation_status": 1, "rating": null, "neighborhood": null, "image": null, "scorecard": null, "featured": false, "sample_categories": "Bars & Pubs, Bars & Clubs, Taverns, Restaurants", "public_id": "el-reventon-smyrna", "id": 37647340, "votes": null, "tagline": null, "has_video": false, "website": null, "offers": null, "latitude": 33.872753, "politanName": "Atlanta, GA Metro ", "phone_number": "7704362890", "tags": [{"primary": false, "id": 164, "name": "Bars & Clubs"}, {"primary": false, "id": 1702, "name": "Taverns"}, {"primary": false, "id": 1722, "name": "Restaurants"}, {"primary": true, "id": 1686, "name": "Bars & Pubs"}], "fax_number": null, "expansion": {"count": null, "uri": null}, "impression_id": "000b000000743430f945644b89830d6a5bd2b20e77", "profile": "http://www.citysearch.com/profile/37647340/smyrna_ga/el_reventon.html", "address": {"city": "Smyrna", "state": "GA", "street": "3282 S Cobb Dr SE", "postal_code": "30080"}, "capProviderId": null, "distance": null, "has_offers": false, "name": "El Reventon", "longitude": -84.529811, "has_menu": false, "awards": null, "user_review_count": 0}, {"business_operation_status": 1, "rating": null, "neighborhood": null, "image": null, "scorecard": null, "featured": false, "sample_categories": "Delis And Delicatessens, Grocery Stores", "public_id": "kroger-deli-atlanta-19", "id": 705933270, "votes": null, "tagline": null, "has_video": false, "website": "http://www.citysearch.com/profile/external/705933270/atlanta_ga/kroger_deli.html", "offers": null, "latitude": 33.872656, "politanName": "Atlanta, GA Metro ", "phone_number": "7709520778", "tags": [{"primary": false, "id": 1713, "name": "Grocery Stores"}, {"primary": true, "id": 1727, "name": "Delis And Delicatessens"}], "fax_number": null, "expansion": {"count": null, "uri": null}, "impression_id": "000b000000fb2fe53789ad44799a80797a3011c0f5", "profile": "http://www.citysearch.com/profile/705933270/atlanta_ga/kroger_deli.html", "address": {"city": "Atlanta", "state": "GA", "street": "3300 Cobb Pkwy Se", "postal_code": "30339"}, "capProviderId": null, "distance": null, "has_offers": false, "name": "Kroger Deli", "longitude": -84.457545, "has_menu": false, "awards": null, "user_review_count": 0}, {"business_operation_status": 0, "rating": null, "neighborhood": null, "image": null, "scorecard": null, "featured": false, "sample_categories": "Restaurants, Pizza", "public_id": "macs-pizza-pasta-marietta", "id": 807737810, "votes": null, "tagline": null, "has_video": false, "website": null, "offers": null, "latitude": 33.929154, "politanName": "Atlanta, GA Metro ", "phone_number": "7704997600", "tags": [{"primary": false, "id": 1722, "name": "Restaurants"}, {"primary": true, "id": 11299, "name": "Pizza"}], "fax_number": null, "expansion": {"count": null, "uri": null}, "impression_id": "000b000000dc0947d9ea3248ee81a0c65181dcb133", "profile": "http://www.citysearch.com/profile/807737810/marietta_ga/mac_s_pizza_pasta.html", "address": {"city": "Marietta", "state": "GA", "street": "950 Cobb Pkwy S # 230", "postal_code": "30060"}, "capProviderId": null, "distance": null, "has_offers": false, "name": "Mac's Pizza & Pasta", "longitude": -84.510376, "has_menu": true, "awards": null, "user_review_count": 0}, {"business_operation_status": 1, "rating": null, "neighborhood": null, "image": null, "scorecard": null, "featured": false, "sample_categories": "Restaurants, Pizza", "public_id": "pronto-pizza-marietta", "id": 808339910, "votes": null, "tagline": null, "has_video": false, "website": null, "offers": null, "latitude": 33.865697, "politanName": "Atlanta, GA Metro ", "phone_number": "7704330803", "tags": [{"primary": false, "id": 1722, "name": "Restaurants"}, {"primary": true, "id": 11299, "name": "Pizza"}], "fax_number": null, "expansion": {"count": null, "uri": null}, "impression_id": "000b0000004b8b62f292c04000ac8d1983b45a00ae", "profile": "http://www.citysearch.com/profile/808339910/marietta_ga/pronto_pizza.html", "address": {"city": "Marietta", "state": "GA", "street": "3565 Austell Rd SW # 1019", "postal_code": "30008"}, "capProviderId": null, "distance": null, "has_offers": false, "name": "Pronto Pizza", "longitude": -84.592502, "has_menu": true, "awards": null, "user_review_count": 0}, {"business_operation_status": 1, "rating": null, "neighborhood": "Northside, Northside", "image": null, "scorecard": null, "featured": false, "sample_categories": "Lounges, Bars & Clubs, Bars & Pubs, Restaurants", "public_id": "flirt-dessert-bar-lounge-atlanta", "id": 732193520, "votes": null, "tagline": null, "has_video": false, "website": null, "offers": null, "latitude": 33.808016, "politanName": "Atlanta, GA Metro ", "phone_number": "4043432339", "tags": [{"primary": false, "id": 164, "name": "Bars & Clubs"}, {"primary": false, "id": 1686, "name": "Bars & Pubs"}, {"primary": false, "id": 1722, "name": "Restaurants"}, {"primary": true, "id": 1697, "name": "Lounges"}], "fax_number": null, "expansion": {"count": null, "uri": null}, "impression_id": "000b00000020d4a5a6bb704aafa1506d782ee5cb6a", "profile": "http://www.citysearch.com/profile/732193520/atlanta_ga/flirt_dessert_bar_lounge.html", "address": {"city": "Atlanta", "state": "GA", "street": "1950 Howell Mill Rd NW", "postal_code": "30318"}, "capProviderId": null, "distance": null, "has_offers": false, "name": "Flirt Dessert Bar & Lounge", "longitude": -84.412996, "has_menu": false, "awards": null, "user_review_count": 0}, {"business_operation_status": 1, "rating": null, "neighborhood": null, "image": null, "scorecard": null, "featured": false, "sample_categories": "Restaurants, Pizza, Carry Out", "public_id": "pizza-hut-marietta-14", "id": 814485380, "votes": null, "tagline": null, "has_video": false, "website": null, "offers": null, "latitude": 33.935534, "politanName": "Atlanta, GA Metro ", "phone_number": "7704291689", "tags": [{"primary": false, "id": 1722, "name": "Restaurants"}, {"primary": false, "id": 11247, "name": "Carry Out"}, {"primary": true, "id": 11299, "name": "Pizza"}], "fax_number": null, "expansion": {"count": null, "uri": null}, "impression_id": "000b000000d2d8e4d93b694f8e93fd753ec4400ecd", "profile": "http://www.citysearch.com/profile/814485380/marietta_ga/pizza_hut.html", "address": {"city": "Marietta", "state": "GA", "street": "690 Sandtown Rd SW", "postal_code": "30008"}, "capProviderId": null, "distance": null, "has_offers": false, "name": "Pizza Hut", "longitude": -84.556228, "has_menu": false, "awards": null, "user_review_count": 0}, {"business_operation_status": 1, "rating": null, "neighborhood": null, "image": null, "scorecard": null, "featured": false, "sample_categories": "Restaurants", "public_id": "simply-chicken-austell", "id": 823240420, "votes": null, "tagline": null, "has_video": false, "website": null, "offers": null, "latitude": 33.850442, "politanName": "Atlanta, GA Metro ", "phone_number": "6789456144", "tags": [{"primary": true, "id": 1722, "name": "Restaurants"}], "fax_number": null, "expansion": {"count": null, "uri": null}, "impression_id": "000b000000341373a05dac4fd38c918a4adece08c8", "profile": "http://www.citysearch.com/profile/823240420/austell_ga/simply_chicken.html", "address": {"city": "Austell", "state": "GA", "street": "4228 Floyd Rd", "postal_code": "30106"}, "capProviderId": null, "distance": null, "has_offers": false, "name": "Simply Chicken", "longitude": -84.588525, "has_menu": false, "awards": null, "user_review_count": 0}, {"business_operation_status": 1, "rating": null, "neighborhood": null, "image": null, "scorecard": null, "featured": false, "sample_categories": "Ice Cream Parlors", "public_id": "baskinrobbins-marietta-8", "id": 833503720, "votes": null, "tagline": null, "has_video": false, "website": null, "offers": null, "latitude": 33.949812, "politanName": "Atlanta, GA Metro ", "phone_number": "7709713251", "tags": [{"primary": true, "id": 1730, "name": "Ice Cream Parlors"}], "fax_number": null, "expansion": {"count": null, "uri": null}, "impression_id": "000b0000003bd9570972e14db28d6cb773e2ec5929", "profile": "http://www.citysearch.com/profile/833503720/marietta_ga/baskin_robbins.html", "address": {"city": "Marietta", "state": "GA", "street": "80 Powers Ferry Rd SE", "postal_code": "30067"}, "capProviderId": null, "distance": null, "has_offers": false, "name": "Baskin-Robbins", "longitude": -84.511129, "has_menu": true, "awards": null, "user_review_count": 0}, {"business_operation_status": 1, "rating": null, "neighborhood": "Northside, Northside, Bolton", "image": null, "scorecard": null, "featured": false, "sample_categories": "Restaurants, Barbecue Restaurants", "public_id": "sensational-wings-atlanta", "id": 3011732, "votes": null, "tagline": null, "has_video": false, "website": null, "offers": null, "latitude": 33.817922, "politanName": "Atlanta, GA Metro ", "phone_number": "4043559582", "tags": [{"primary": false, "id": 1724, "name": "Barbecue Restaurants"}, {"primary": true, "id": 1722, "name": "Restaurants"}], "fax_number": null, "expansion": {"count": null, "uri": null}, "impression_id": "000b000000c6e89cd59e3a41ef93167a22bb6967ce", "profile": "http://www.citysearch.com/profile/3011732/atlanta_ga/sensational_wings.html", "address": {"city": "Atlanta", "state": "GA", "street": "2251 Marietta Blvd NW", "postal_code": "30318"}, "capProviderId": null, "distance": null, "has_offers": false, "name": "Sensational Wings", "longitude": -84.44832, "has_menu": false, "awards": null, "user_review_count": 0}, {"business_operation_status": 1, "rating": null, "neighborhood": null, "image": null, "scorecard": null, "featured": false, "sample_categories": "Restaurants, Delis And Delicatessens, Greek, American Express, Discover", "public_id": "gyro-wrap-atlanta-3", "id": 3030506, "votes": null, "tagline": null, "has_video": false, "website": null, "offers": null, "latitude": 33.879304, "politanName": "Atlanta, GA Metro ", "phone_number": "7704323946", "tags": [{"primary": false, "id": 1727, "name": "Delis And Delicatessens"}, {"primary": false, "id": 11268, "name": "Greek"}, {"primary": false, "id": 11333, "name": "American Express"}, {"primary": false, "id": 11349, "name": "Discover"}, {"primary": false, "id": 11361, "name": "MasterCard"}, {"primary": false, "id": 11382, "name": "Visa"}, {"primary": true, "id": 1722, "name": "Restaurants"}], "fax_number": null, "expansion": {"count": null, "uri": null}, "impression_id": "000b000000da867bb7c5e9445eb81e8dcd690387cc", "profile": "http://www.citysearch.com/profile/3030506/atlanta_ga/gyro_wrap.html", "address": {"city": "Atlanta", "state": "GA", "street": "1328 Cumberland Mall SE", "postal_code": "30339"}, "capProviderId": null, "distance": null, "has_offers": false, "name": "Gyro Wrap", "longitude": -84.471298, "has_menu": true, "awards": null, "user_review_count": 0}, {"business_operation_status": 1, "rating": null, "neighborhood": null, "image": null, "scorecard": null, "featured": false, "sample_categories": "Restaurants", "public_id": "kabanas-bar-grille-marietta", "id": 628071894, "votes": null, "tagline": null, "has_video": false, "website": null, "offers": null, "latitude": 33.915701, "politanName": "Atlanta, GA Metro ", "phone_number": "7706932382", "tags": [{"primary": true, "id": 1722, "name": "Restaurants"}], "fax_number": null, "expansion": {"count": null, "uri": null}, "impression_id": "000b0000009e7889de1f944e1cb4e6232c59ad6dc5", "profile": "http://www.citysearch.com/profile/628071894/marietta_ga/kabanas_bar_grille.html", "address": {"city": "Marietta", "state": "GA", "street": "1475 Terrell Mill Rd SE", "postal_code": "30067"}, "capProviderId": null, "distance": null, "has_offers": false, "name": "Kabanas Bar & Grille", "longitude": -84.4689, "has_menu": false, "awards": null, "user_review_count": 0}, {"business_operation_status": 1, "rating": null, "neighborhood": null, "image": null, "scorecard": null, "featured": false, "sample_categories": "Grocery Stores, Health Food Stores, Restaurants", "public_id": "bambinos-nutritional-ctr-marietta", "id": 631964510, "votes": null, "tagline": null, "has_video": false, "website": null, "offers": null, "latitude": 33.906963, "politanName": "Atlanta, GA Metro ", "phone_number": "7709512267", "tags": [{"primary": false, "id": 1716, "name": "Health Food Stores"}, {"primary": false, "id": 1722, "name": "Restaurants"}, {"primary": true, "id": 1713, "name": "Grocery Stores"}], "fax_number": null, "expansion": {"count": null, "uri": null}, "impression_id": "000b000000dd7ed27a4b864402a01cceb45a1a518c", "profile": "http://www.citysearch.com/profile/631964510/marietta_ga/bambinos_nutritional_ctr.html", "address": {"city": "Marietta", "state": "GA", "street": "1869 Cobb Pkwy S 700", "postal_code": "30060"}, "capProviderId": null, "distance": null, "has_offers": false, "name": "Bambinos Nutritional Ctr", "longitude": -84.488987, "has_menu": false, "awards": null, "user_review_count": 0}, {"business_operation_status": 1, "rating": null, "neighborhood": null, "image": null, "scorecard": null, "featured": false, "sample_categories": "Restaurants, Bars & Clubs, Bars & Pubs", "public_id": "rose-crown-tavern-marietta", "id": 653616950, "votes": null, "tagline": null, "has_video": false, "website": null, "offers": null, "latitude": 33.904776, "politanName": "Atlanta, GA Metro ", "phone_number": "7709335595", "tags": [{"primary": false, "id": 164, "name": "Bars & Clubs"}, {"primary": false, "id": 1686, "name": "Bars & Pubs"}, {"primary": true, "id": 1722, "name": "Restaurants"}], "fax_number": null, "expansion": {"count": null, "uri": null}, "impression_id": "000b0000007b9a4931232a4eb8aa491a9117fb0984", "profile": "http://www.citysearch.com/profile/653616950/marietta_ga/rose_crown_tavern.html", "address": {"city": "Marietta", "state": "GA", "street": "1931 Powers Ferry Trce Se", "postal_code": "30339"}, "capProviderId": null, "distance": null, "has_offers": false, "name": "Rose & Crown Tavern", "longitude": -84.46154, "has_menu": false, "awards": null, "user_review_count": 0}], "histograms": [], "tag_ids": [1722], "uri": "http://api.citygridmedia.com:8080/search/places/v2/search/where?has_offers=false&type=restaurant&format=json&page=29&where=30080&rpp=50&histograms=false&publisher=10000009598&region_type=circle", "did_you_mean": "", "regions": [{"latitude": 33.870107, "default_radius": 3.76, "type": "postal_code", "name": "30080", "longitude": -84.499867}], "call_id": "000b0000009b86416a3b2940999f1f646e51903a14", "first_hit": 1401, "total_hits": 1580, "geo_ids": [26330], "page": 29, "last_hit": 1450}}