{"results": {"rpp": 50, "locations": [{"business_operation_status": 1, "rating": null, "neighborhood": null, "image": null, "scorecard": null, "featured": false, "sample_categories": "Restaurants, Delis And Delicatessens", "public_id": "upstate-sub-house-smyrna", "id": 648920690, "votes": null, "tagline": null, "has_video": false, "website": "http://www.citysearch.com/profile/external/648920690/smyrna_ga/upstate_sub_house.html", "offers": null, "latitude": 33.841827, "politanName": "Atlanta, GA Metro ", "phone_number": "7704369880", "tags": [{"primary": false, "id": 1727, "name": "Delis And Delicatessens"}, {"primary": true, "id": 1722, "name": "Restaurants"}], "fax_number": null, "expansion": {"count": null, "uri": null}, "impression_id": "000b0000007a2d9d80e7754b97897857c5e221c01d", "profile": "http://www.citysearch.com/profile/648920690/smyrna_ga/upstate_sub_house.html", "address": {"city": "Smyrna", "state": "GA", "street": "4624 Camp Highland Rd SE", "postal_code": "30082"}, "capProviderId": null, "distance": null, "has_offers": false, "name": "Upstate Sub House", "longitude": -84.505595, "has_menu": false, "awards": null, "user_review_count": 0}, {"business_operation_status": 1, "rating": null, "neighborhood": null, "image": null, "scorecard": null, "featured": false, "sample_categories": "Restaurants, Delis And Delicatessens, Sandwich Shops, Carry Out, MasterCard", "public_id": "quiznos-smyrna-3", "id": 43843494, "votes": null, "tagline": null, "has_video": false, "website": null, "offers": null, "latitude": 33.842593, "politanName": "Atlanta, GA Metro ", "phone_number": "6782131815", "tags": [{"primary": false, "id": 1727, "name": "Delis And Delicatessens"}, {"primary": false, "id": 1736, "name": "Sandwich Shops"}, {"primary": false, "id": 11247, "name": "Carry Out"}, {"primary": false, "id": 11361, "name": "MasterCard"}, {"primary": false, "id": 11382, "name": "Visa"}, {"primary": true, "id": 1722, "name": "Restaurants"}], "fax_number": null, "expansion": {"count": null, "uri": null}, "impression_id": "000b00000060a54d8552f04a1d950a4947017f8b6b", "profile": "http://www.citysearch.com/profile/43843494/smyrna_ga/quiznos.html", "address": {"city": "Smyrna", "state": "GA", "street": "4585 S Cobb Dr SE", "postal_code": "30080"}, "capProviderId": null, "distance": null, "has_offers": false, "name": "Quiznos", "longitude": -84.498107, "has_menu": true, "awards": null, "user_review_count": 0}, {"business_operation_status": 0, "rating": null, "neighborhood": null, "image": null, "scorecard": null, "featured": false, "sample_categories": "Restaurants", "public_id": "atlanta-ribs-smyrna", "id": 672295420, "votes": null, "tagline": null, "has_video": false, "website": null, "offers": null, "latitude": 33.841827, "politanName": "Atlanta, GA Metro ", "phone_number": "7704382886", "tags": [{"primary": true, "id": 1722, "name": "Restaurants"}], "fax_number": null, "expansion": {"count": null, "uri": null}, "impression_id": "000b000000f6592ccaddcf48429e16f278c2e44c04", "profile": "http://www.citysearch.com/profile/672295420/smyrna_ga/atlanta_ribs.html", "address": {"city": "Smyrna", "state": "GA", "street": "4624 Camp Highland Rd SE # 700", "postal_code": "30082"}, "capProviderId": null, "distance": null, "has_offers": false, "name": "Atlanta Ribs", "longitude": -84.505595, "has_menu": false, "awards": null, "user_review_count": 1}, {"business_operation_status": 1, "rating": null, "neighborhood": "Highlands Park", "image": null, "scorecard": null, "featured": false, "sample_categories": "Restaurants", "public_id": "great-taste-noodle-house-smyrna", "id": 672374540, "votes": null, "tagline": null, "has_video": false, "website": null, "offers": null, "latitude": 33.842359, "politanName": "Atlanta, GA Metro ", "phone_number": null, "tags": [{"primary": true, "id": 1722, "name": "Restaurants"}], "fax_number": null, "expansion": {"count": null, "uri": null}, "impression_id": "000b000000c323f1abc37b47239ec12432703e046b", "profile": "http://www.citysearch.com/profile/672374540/smyrna_ga/great_taste_noodle_house.html", "address": {"city": "Smyrna", "state": "GA", "street": "5350 United Dr SE", "postal_code": "30082"}, "capProviderId": null, "distance": null, "has_offers": false, "name": "Great Taste Noodle House", "longitude": -84.524757, "has_menu": false, "awards": null, "user_review_count": 0}, {"business_operation_status": 0, "rating": null, "neighborhood": null, "image": null, "scorecard": null, "featured": false, "sample_categories": "Restaurants", "public_id": "dawg-it-smyrna-2", "id": 713402410, "votes": null, "tagline": null, "has_video": false, "website": null, "offers": null, "latitude": 33.831642, "politanName": "Atlanta, GA Metro ", "phone_number": "7704352900", "tags": [{"primary": true, "id": 1722, "name": "Restaurants"}], "fax_number": null, "expansion": {"count": null, "uri": null}, "impression_id": "000b000000dce08c2d947d4bc699eecabdada5a4e3", "profile": "http://www.citysearch.com/profile/713402410/smyrna_ga/dawg_it.html", "address": {"city": "Smyrna", "state": "GA", "street": "4924 S Cobb Dr Se # B", "postal_code": "30080"}, "capProviderId": null, "distance": null, "has_offers": false, "name": "Dawg It", "longitude": -84.493491, "has_menu": false, "awards": null, "user_review_count": 0}, {"business_operation_status": 1, "rating": null, "neighborhood": null, "image": null, "scorecard": null, "featured": false, "sample_categories": "Restaurants", "public_id": "bonz-sports-grill-smyrna", "id": 777729350, "votes": null, "tagline": null, "has_video": false, "website": null, "offers": null, "latitude": 33.873639, "politanName": "Atlanta, GA Metro ", "phone_number": "7704352669", "tags": [{"primary": true, "id": 1722, "name": "Restaurants"}], "fax_number": null, "expansion": {"count": null, "uri": null}, "impression_id": "000b00000049c2d8121edd4962a2f2c42749d52beb", "profile": "http://www.citysearch.com/profile/777729350/smyrna_ga/bonz_sports_grill.html", "address": {"city": "Smyrna", "state": "GA", "street": "3240 S Cobb Dr Se # N", "postal_code": "30080"}, "capProviderId": null, "distance": null, "has_offers": false, "name": "Bonz Sports Grill", "longitude": -84.530478, "has_menu": false, "awards": null, "user_review_count": 1}, {"business_operation_status": 1, "rating": null, "neighborhood": null, "image": null, "scorecard": null, "featured": false, "sample_categories": "Restaurants", "public_id": "mojo-grill-cuban-cuisine-smyrna", "id": 672444450, "votes": null, "tagline": null, "has_video": false, "website": null, "offers": null, "latitude": 33.879071, "politanName": "Atlanta, GA Metro ", "phone_number": null, "tags": [{"primary": true, "id": 1722, "name": "Restaurants"}], "fax_number": null, "expansion": {"count": null, "uri": null}, "impression_id": "000b000000106e347526ec4964972917216fc09b9d", "profile": "http://www.citysearch.com/profile/672444450/smyrna_ga/mojo_grill_cuban_cuisine.html", "address": {"city": "Smyrna", "state": "GA", "street": "3120 S Cobb Dr SE", "postal_code": "30080"}, "capProviderId": null, "distance": null, "has_offers": false, "name": "Mojo Grill Cuban Cuisine", "longitude": -84.532683, "has_menu": false, "awards": null, "user_review_count": 0}, {"business_operation_status": 1, "rating": null, "neighborhood": null, "image": null, "scorecard": null, "featured": false, "sample_categories": "Catering, Restaurants, Seafood", "public_id": "uncle-buds-catering-smyrna", "id": 33571244, "votes": null, "tagline": null, "has_video": false, "website": null, "offers": null, "latitude": 33.872853, "politanName": "Atlanta, GA Metro ", "phone_number": "4046425066", "tags": [{"primary": false, "id": 1722, "name": "Restaurants"}, {"primary": false, "id": 11228, "name": "Seafood"}, {"primary": true, "id": 1705, "name": "Catering"}], "fax_number": null, "expansion": {"count": null, "uri": null}, "impression_id": "000b0000008e5ab70b712e4e37bb677e327f0717be", "profile": "http://www.citysearch.com/profile/33571244/smyrna_ga/uncle_bud_s_catering.html", "address": {"city": "Smyrna", "state": "GA", "street": "725 Concord Rd SE", "postal_code": "30082"}, "capProviderId": null, "distance": null, "has_offers": false, "name": "Uncle Bud's Catering", "longitude": -84.533536, "has_menu": false, "awards": null, "user_review_count": 0}, {"business_operation_status": 1, "rating": null, "neighborhood": null, "image": null, "scorecard": null, "featured": false, "sample_categories": "Restaurants, Carry Out", "public_id": "super-suppers-smyrna", "id": 777798500, "votes": null, "tagline": null, "has_video": false, "website": "http://www.citysearch.com/profile/external/777798500/smyrna_ga/super_suppers.html", "offers": null, "latitude": 33.840772, "politanName": "Atlanta, GA Metro ", "phone_number": "7708035466", "tags": [{"primary": false, "id": 11247, "name": "Carry Out"}, {"primary": true, "id": 1722, "name": "Restaurants"}], "fax_number": null, "expansion": {"count": null, "uri": null}, "impression_id": "000b000000a9d485ca1dd24a309b6f0308603c57ab", "profile": "http://www.citysearch.com/profile/777798500/smyrna_ga/super_suppers.html", "address": {"city": "Smyrna", "state": "GA", "street": "1385 Highlands Ridge Rd Se # A", "postal_code": "30082"}, "capProviderId": null, "distance": null, "has_offers": false, "name": "Super Suppers", "longitude": -84.519704, "has_menu": true, "awards": null, "user_review_count": 0}, {"business_operation_status": 1, "rating": null, "neighborhood": null, "image": null, "scorecard": null, "featured": false, "sample_categories": "Delis And Delicatessens", "public_id": "kroger-deli-smyrna-4", "id": 705897390, "votes": null, "tagline": null, "has_video": false, "website": null, "offers": null, "latitude": 33.873676, "politanName": "Atlanta, GA Metro ", "phone_number": "7704338380", "tags": [{"primary": true, "id": 1727, "name": "Delis And Delicatessens"}], "fax_number": null, "expansion": {"count": null, "uri": null}, "impression_id": "000b0000001e0f499ecc864426b35a84757f69bab8", "profile": "http://www.citysearch.com/profile/705897390/smyrna_ga/kroger_deli.html", "address": {"city": "Smyrna", "state": "GA", "street": "3315 S Cobb Dr Se # 1", "postal_code": "30080"}, "capProviderId": null, "distance": null, "has_offers": false, "name": "Kroger Deli", "longitude": -84.52868, "has_menu": false, "awards": null, "user_review_count": 0}, {"business_operation_status": 1, "rating": null, "neighborhood": null, "image": null, "scorecard": null, "featured": false, "sample_categories": "Restaurants, Pizza", "public_id": "johnnys-new-york-style-pizza-smyrna-5", "id": 824318460, "votes": null, "tagline": null, "has_video": false, "website": null, "offers": null, "latitude": 33.846135, "politanName": "Atlanta, GA Metro ", "phone_number": "7703498191", "tags": [{"primary": false, "id": 1722, "name": "Restaurants"}, {"primary": true, "id": 11299, "name": "Pizza"}], "fax_number": null, "expansion": {"count": null, "uri": null}, "impression_id": "000b00000091906a6e13f748fd885dfcb58dcf32ad", "profile": "http://www.citysearch.com/profile/824318460/smyrna_ga/johnny_s_new_york_style_pizza.html", "address": {"city": "Smyrna", "state": "GA", "street": "4268 Mill Grove Ln SW", "postal_code": "30082"}, "capProviderId": null, "distance": null, "has_offers": false, "name": "Johnny's New York Style Pizza", "longitude": -84.563226, "has_menu": false, "awards": null, "user_review_count": 0}, {"business_operation_status": 1, "rating": null, "neighborhood": null, "image": null, "scorecard": null, "featured": false, "sample_categories": "Delis And Delicatessens", "public_id": "beyahs-mobile-deli-smyrna", "id": 824638410, "votes": null, "tagline": null, "has_video": false, "website": null, "offers": null, "latitude": 33.869932, "politanName": "Atlanta, GA Metro ", "phone_number": "7704378084", "tags": [{"primary": true, "id": 1727, "name": "Delis And Delicatessens"}], "fax_number": null, "expansion": {"count": null, "uri": null}, "impression_id": "000b0000000a10bc3f2f4a4f42ac30c0ef2e482c23", "profile": "http://www.citysearch.com/profile/824638410/smyrna_ga/beyahs_mobile_deli.html", "address": {"city": "Smyrna", "state": "GA", "street": "156 Hurt Rd SW", "postal_code": "30082"}, "capProviderId": null, "distance": null, "has_offers": false, "name": "Beyahs Mobile Deli", "longitude": -84.557188, "has_menu": false, "awards": null, "user_review_count": 0}, {"business_operation_status": 1, "rating": null, "neighborhood": null, "image": null, "scorecard": null, "featured": false, "sample_categories": "Coffeehouses, Doughnut Shops", "public_id": "dunkin-donuts-smyrna-6", "id": 773447620, "votes": null, "tagline": null, "has_video": false, "website": "http://www.citysearch.com/profile/external/773447620/smyrna_ga/dunkin_donuts.html", "offers": null, "latitude": 33.830905, "politanName": "Atlanta, GA Metro ", "phone_number": "7704338033", "tags": [{"primary": false, "id": 1726, "name": "Coffeehouses"}, {"primary": true, "id": 1734, "name": "Doughnut Shops"}], "fax_number": null, "expansion": {"count": null, "uri": null}, "impression_id": "000b000000f98fd1adce3043cd8a1ed8c7404eb9bf", "profile": "http://www.citysearch.com/profile/773447620/smyrna_ga/dunkin_donuts.html", "address": {"city": "Smyrna", "state": "GA", "street": "4928 S Cobb Dr SE", "postal_code": "30080"}, "capProviderId": null, "distance": null, "has_offers": false, "name": "Dunkin' Donuts", "longitude": -84.493221, "has_menu": false, "awards": null, "user_review_count": 0}, {"business_operation_status": 1, "rating": null, "neighborhood": "Highlands Park", "image": null, "scorecard": null, "featured": false, "sample_categories": "Restaurants", "public_id": "kaysons-grille-smyrna", "id": 673024990, "votes": null, "tagline": null, "has_video": false, "website": null, "offers": null, "latitude": 33.827992, "politanName": "Atlanta, GA Metro ", "phone_number": "6782130238", "tags": [{"primary": true, "id": 1722, "name": "Restaurants"}], "fax_number": null, "expansion": {"count": null, "uri": null}, "impression_id": "000b0000003e0c21bccf88493e92617bbe8ce19fb1", "profile": "http://www.citysearch.com/profile/673024990/smyrna_ga/kaysons_grille.html", "address": {"city": "Smyrna", "state": "GA", "street": "3100 Highlands Pky SE", "postal_code": "30082"}, "capProviderId": null, "distance": null, "has_offers": false, "name": "Kaysons Grille", "longitude": -84.495565, "has_menu": false, "awards": null, "user_review_count": 0}, {"business_operation_status": 1, "rating": null, "neighborhood": "Lake Ridge Technical Park", "image": null, "scorecard": null, "featured": false, "sample_categories": "Restaurants, Pizza", "public_id": "chicago-pizza-smyrna", "id": 609408414, "votes": null, "tagline": null, "has_video": false, "website": null, "offers": null, "latitude": 33.827169, "politanName": "Atlanta, GA Metro ", "phone_number": "6782130238", "tags": [{"primary": false, "id": 11299, "name": "Pizza"}, {"primary": true, "id": 1722, "name": "Restaurants"}], "fax_number": null, "expansion": {"count": null, "uri": null}, "impression_id": "000b0000004627d28f87ee4ffaa5cdae4a31b0fdf5", "profile": "http://www.citysearch.com/profile/609408414/smyrna_ga/chicago_pizza.html", "address": {"city": "Smyrna", "state": "GA", "street": "3150 Highlands Pkwy SE", "postal_code": "30082"}, "capProviderId": null, "distance": null, "has_offers": false, "name": "Chicago Pizza", "longitude": -84.496303, "has_menu": false, "awards": null, "user_review_count": 0}, {"business_operation_status": 1, "rating": null, "neighborhood": null, "image": null, "scorecard": null, "featured": false, "sample_categories": "Restaurants, Barbecue Restaurants", "public_id": "barbeque-bills-smyrna", "id": 825550660, "votes": null, "tagline": null, "has_video": false, "website": null, "offers": null, "latitude": 33.877641, "politanName": "Atlanta, GA Metro ", "phone_number": "7703841227", "tags": [{"primary": false, "id": 1724, "name": "Barbecue Restaurants"}, {"primary": true, "id": 1722, "name": "Restaurants"}], "fax_number": null, "expansion": {"count": null, "uri": null}, "impression_id": "000b0000008714fa3379544bc38312cc40ee050880", "profile": "http://www.citysearch.com/profile/825550660/smyrna_ga/barbeque_bill_s.html", "address": {"city": "Smyrna", "state": "GA", "street": "3120 S Cobb Dr SE", "postal_code": "30080"}, "capProviderId": null, "distance": null, "has_offers": false, "name": "Barbeque Bill's", "longitude": -84.532789, "has_menu": false, "awards": null, "user_review_count": 0}, {"business_operation_status": 1, "rating": null, "neighborhood": null, "image": null, "scorecard": null, "featured": false, "sample_categories": "Coffeehouses", "public_id": "gold-cup-coffee-service-inc-smyrna", "id": 817382800, "votes": null, "tagline": null, "has_video": false, "website": null, "offers": null, "latitude": 33.897454, "politanName": "Atlanta, GA Metro ", "phone_number": "7703199067", "tags": [{"primary": true, "id": 1726, "name": "Coffeehouses"}], "fax_number": null, "expansion": {"count": null, "uri": null}, "impression_id": "000b0000008940e9ceacfe43e3ba2c80b5d852dcea", "profile": "http://www.citysearch.com/profile/817382800/smyrna_ga/gold_cup_coffee_service_inc.html", "address": {"city": "Smyrna", "state": "GA", "street": "2301 Benson Poole Rd SE", "postal_code": "30082"}, "capProviderId": null, "distance": null, "has_offers": false, "name": "Gold Cup Coffee Service Inc", "longitude": -84.541681, "has_menu": false, "awards": null, "user_review_count": 0}, {"business_operation_status": 1, "rating": null, "neighborhood": null, "image": null, "scorecard": null, "featured": false, "sample_categories": "Restaurants, Chinese", "public_id": "number-one-chinese-restaurant-smyrna", "id": 773448470, "votes": null, "tagline": null, "has_video": false, "website": null, "offers": null, "latitude": 33.873639, "politanName": "Atlanta, GA Metro ", "phone_number": "7703331293", "tags": [{"primary": false, "id": 11252, "name": "Chinese"}, {"primary": true, "id": 1722, "name": "Restaurants"}], "fax_number": null, "expansion": {"count": null, "uri": null}, "impression_id": "000b0000003331e3d155a74fe0b6a6ca658f12daf0", "profile": "http://www.citysearch.com/profile/773448470/smyrna_ga/number_one_chinese_restaurant.html", "address": {"city": "Smyrna", "state": "GA", "street": "3240 S Cobb Dr SE", "postal_code": "30080"}, "capProviderId": null, "distance": null, "has_offers": false, "name": "Number One Chinese Restaurant", "longitude": -84.530478, "has_menu": false, "awards": null, "user_review_count": 0}, {"business_operation_status": 1, "rating": null, "neighborhood": null, "image": null, "scorecard": null, "featured": false, "sample_categories": "Coffee & Tea Shops, Restaurants, Vending Machine Shopping", "public_id": "tuxedo-coffee-vending-norcross", "id": 2924507, "votes": null, "tagline": null, "has_video": false, "website": null, "offers": null, "latitude": 33.935019, "politanName": "Atlanta, GA Metro ", "phone_number": "7704092345", "tags": [{"primary": false, "id": 1711, "name": "Coffee & Tea Shops"}, {"primary": false, "id": 1722, "name": "Restaurants"}, {"primary": true, "id": 3987, "name": "Vending Machine Shopping"}], "fax_number": null, "expansion": {"count": null, "uri": null}, "impression_id": "000b000000e0838685ebc44d1db52b7449f5f28fd4", "profile": "http://www.citysearch.com/profile/2924507/norcross_ga/tuxedo_coffee_vending.html", "address": {"city": "Norcross", "state": "GA", "street": "399 Lively Ave Ste 135", "postal_code": "30071"}, "capProviderId": null, "distance": null, "has_offers": false, "name": "Tuxedo Coffee & Vending", "longitude": -84.209919, "has_menu": false, "awards": null, "user_review_count": 0}, {"business_operation_status": 1, "rating": null, "neighborhood": null, "image": null, "scorecard": null, "featured": false, "sample_categories": "Doughnut Shops, Coffeehouses", "public_id": "krispy-kreme-doughnuts-smyrna-2", "id": 816048270, "votes": null, "tagline": null, "has_video": false, "website": "http://www.citysearch.com/profile/external/816048270/smyrna_ga/krispy_kreme_doughnuts.html", "offers": null, "latitude": 33.842457, "politanName": "Atlanta, GA Metro ", "phone_number": "7704322320", "tags": [{"primary": false, "id": 1726, "name": "Coffeehouses"}, {"primary": true, "id": 1734, "name": "Doughnut Shops"}], "fax_number": null, "expansion": {"count": null, "uri": null}, "impression_id": "000b000000519163c6655f4b8fa54289a4589c8f4e", "profile": "http://www.citysearch.com/profile/816048270/smyrna_ga/krispy_kreme_doughnuts.html", "address": {"city": "Smyrna", "state": "GA", "street": "4560 S Cobb Dr SE", "postal_code": "30080"}, "capProviderId": null, "distance": null, "has_offers": false, "name": "Krispy Kreme Doughnuts", "longitude": -84.501331, "has_menu": false, "awards": null, "user_review_count": 0}, {"business_operation_status": 1, "rating": null, "neighborhood": null, "image": null, "scorecard": null, "featured": false, "sample_categories": "Restaurants, Barbecue Restaurants", "public_id": "wings-express-smyrna", "id": 655890370, "votes": null, "tagline": null, "has_video": false, "website": null, "offers": null, "latitude": 33.887226, "politanName": "Atlanta, GA Metro ", "phone_number": "6783059522", "tags": [{"primary": false, "id": 1724, "name": "Barbecue Restaurants"}, {"primary": true, "id": 1722, "name": "Restaurants"}], "fax_number": null, "expansion": {"count": null, "uri": null}, "impression_id": "000b0000001bb48d1dc9c34ef28eafbfeda70aec74", "profile": "http://www.citysearch.com/profile/655890370/smyrna_ga/wings_express.html", "address": {"city": "Smyrna", "state": "GA", "street": "2711 S Cobb Dr Se", "postal_code": "30080"}, "capProviderId": null, "distance": null, "has_offers": false, "name": "Wings Express", "longitude": -84.535161, "has_menu": false, "awards": null, "user_review_count": 0}, {"business_operation_status": 1, "rating": null, "neighborhood": "Highlands Park", "image": null, "scorecard": null, "featured": false, "sample_categories": "Restaurants, Carry Out", "public_id": "rallys-hamburgers-smyrna", "id": 808255240, "votes": null, "tagline": null, "has_video": false, "website": null, "offers": null, "latitude": 33.828925, "politanName": "Atlanta, GA Metro ", "phone_number": "7708018145", "tags": [{"primary": false, "id": 11247, "name": "Carry Out"}, {"primary": true, "id": 1722, "name": "Restaurants"}], "fax_number": null, "expansion": {"count": null, "uri": null}, "impression_id": "000b000000fec5e6d53fdc4c919ba58fd63097dee7", "profile": "http://www.citysearch.com/profile/808255240/smyrna_ga/rally_s_hamburgers.html", "address": {"city": "Smyrna", "state": "GA", "street": "5100 S Cobb Dr SE", "postal_code": "30080"}, "capProviderId": null, "distance": null, "has_offers": false, "name": "Rally's Hamburgers", "longitude": -84.492961, "has_menu": false, "awards": null, "user_review_count": 0}, {"business_operation_status": 1, "rating": null, "neighborhood": "Lake Ridge Technical Park", "image": null, "scorecard": null, "featured": false, "sample_categories": "Restaurants, Traditional American, Pizza", "public_id": "american-grill-smyrna", "id": 764845520, "votes": null, "tagline": null, "has_video": false, "website": null, "offers": null, "latitude": 33.827169, "politanName": "Atlanta, GA Metro ", "phone_number": "6782130238", "tags": [{"primary": false, "id": 11190, "name": "Traditional American"}, {"primary": false, "id": 11299, "name": "Pizza"}, {"primary": true, "id": 1722, "name": "Restaurants"}], "fax_number": null, "expansion": {"count": null, "uri": null}, "impression_id": "000b0000003fc2b75be4034d3f9f3a2cee9fc27b6c", "profile": "http://www.citysearch.com/profile/764845520/smyrna_ga/american_grill.html", "address": {"city": "Smyrna", "state": "GA", "street": "3150 Highlands Pkwy SE", "postal_code": "30082"}, "capProviderId": null, "distance": null, "has_offers": false, "name": "American Grill", "longitude": -84.496303, "has_menu": false, "awards": null, "user_review_count": 0}, {"business_operation_status": 1, "rating": null, "neighborhood": null, "image": null, "scorecard": null, "featured": false, "sample_categories": "Restaurants", "public_id": "monterrey-restaurant-smyrna-2", "id": 682346770, "votes": null, "tagline": null, "has_video": false, "website": null, "offers": null, "latitude": 33.871956, "politanName": "Atlanta, GA Metro ", "phone_number": "7704339344", "tags": [{"primary": true, "id": 1722, "name": "Restaurants"}], "fax_number": null, "expansion": {"count": null, "uri": null}, "impression_id": "000b000000faf58b9ffe784972b6312588cdcf9f5a", "profile": "http://www.citysearch.com/profile/682346770/smyrna_ga/monterrey_restaurant.html", "address": {"city": "Smyrna", "state": "GA", "street": "3326 S Cobb Dr Se", "postal_code": "30080"}, "capProviderId": null, "distance": null, "has_offers": false, "name": "Monterrey Restaurant", "longitude": -84.52909, "has_menu": false, "awards": null, "user_review_count": 0}, {"business_operation_status": 1, "rating": null, "neighborhood": "Highlands Park", "image": null, "scorecard": null, "featured": false, "sample_categories": "Coffee & Tea Shops, Restaurants, Coffeehouses", "public_id": "lakehouse-coffee-smyrna", "id": 632033670, "votes": null, "tagline": null, "has_video": false, "website": "http://www.citysearch.com/profile/external/632033670/smyrna_ga/lakehouse_coffee.html", "offers": null, "latitude": 33.832752, "politanName": "Atlanta, GA Metro ", "phone_number": "7704440944", "tags": [{"primary": false, "id": 1711, "name": "Coffee & Tea Shops"}, {"primary": false, "id": 1726, "name": "Coffeehouses"}, {"primary": true, "id": 1722, "name": "Restaurants"}], "fax_number": null, "expansion": {"count": null, "uri": null}, "impression_id": "000b000000824f56df1f9d49af86260315c324bab5", "profile": "http://www.citysearch.com/profile/632033670/smyrna_ga/lakehouse_coffee.html", "address": {"city": "Smyrna", "state": "GA", "street": "1800 Wilson Way Se", "postal_code": "30082"}, "capProviderId": null, "distance": null, "has_offers": false, "name": "Lakehouse Coffee", "longitude": -84.508822, "has_menu": true, "awards": null, "user_review_count": 0}, {"business_operation_status": 1, "rating": null, "neighborhood": "Kenwood", "image": null, "scorecard": null, "featured": false, "sample_categories": "Restaurants", "public_id": "kheesekake-by-kelli-smyrna", "id": 766764740, "votes": null, "tagline": null, "has_video": false, "website": null, "offers": null, "latitude": 33.830324, "politanName": "Atlanta, GA Metro ", "phone_number": "6785204008", "tags": [{"primary": true, "id": 1722, "name": "Restaurants"}], "fax_number": null, "expansion": {"count": null, "uri": null}, "impression_id": "000b000000b1a127b0fd5344b7b6f75f44e1fca2d1", "profile": "http://www.citysearch.com/profile/766764740/smyrna_ga/kheesekake_by_kelli.html", "address": {"city": "Smyrna", "state": "GA", "street": "5056 Fairmont Rd SE", "postal_code": "30082"}, "capProviderId": null, "distance": null, "has_offers": false, "name": "Kheesekake By Kelli", "longitude": -84.494443, "has_menu": false, "awards": null, "user_review_count": 0}, {"business_operation_status": 1, "rating": null, "neighborhood": null, "image": null, "scorecard": null, "featured": false, "sample_categories": "Restaurants", "public_id": "cafe-decuir-smyrna", "id": 655946280, "votes": null, "tagline": null, "has_video": false, "website": "http://www.citysearch.com/profile/external/655946280/smyrna_ga/cafe_decuir.html", "offers": null, "latitude": 33.831642, "politanName": "Atlanta, GA Metro ", "phone_number": "7704349990", "tags": [{"primary": true, "id": 1722, "name": "Restaurants"}], "fax_number": null, "expansion": {"count": null, "uri": null}, "impression_id": "000b000000aa89842baeca4c70b0cba35ac9072c98", "profile": "http://www.citysearch.com/profile/655946280/smyrna_ga/cafe_decuir.html", "address": {"city": "Smyrna", "state": "GA", "street": "4924 S Cobb Dr Se", "postal_code": "30080"}, "capProviderId": null, "distance": null, "has_offers": false, "name": "Cafe Decuir", "longitude": -84.493491, "has_menu": false, "awards": null, "user_review_count": 0}, {"business_operation_status": 1, "rating": null, "neighborhood": null, "image": null, "scorecard": null, "featured": false, "sample_categories": "Barbecue Restaurants", "public_id": "kennesaw-bar-b-que-smyrna", "id": 813263860, "votes": null, "tagline": null, "has_video": false, "website": null, "offers": null, "latitude": 33.871707, "politanName": "Atlanta, GA Metro ", "phone_number": "7704226193", "tags": [{"primary": true, "id": 1724, "name": "Barbecue Restaurants"}], "fax_number": null, "expansion": {"count": null, "uri": null}, "impression_id": "000b0000009acaa65b0a08405d92af8181975380fa", "profile": "http://www.citysearch.com/profile/813263860/smyrna_ga/kennesaw_bar_b_que.html", "address": {"city": "Smyrna", "state": "GA", "street": "3363 Landrum Dr SE", "postal_code": "30082"}, "capProviderId": null, "distance": null, "has_offers": false, "name": "Kennesaw Bar B Que", "longitude": -84.55291, "has_menu": false, "awards": null, "user_review_count": 0}, {"business_operation_status": 1, "rating": 6.0, "neighborhood": null, "image": null, "scorecard": null, "featured": false, "sample_categories": "Restaurants, Asian", "public_id": "bamboo-garden-smyrna", "id": 2922985, "votes": null, "tagline": null, "has_video": false, "website": null, "offers": null, "latitude": 33.873647, "politanName": "Atlanta, GA Metro ", "phone_number": "7704325832", "tags": [{"primary": false, "id": 11235, "name": "Asian"}, {"primary": true, "id": 1722, "name": "Restaurants"}], "fax_number": null, "expansion": {"count": null, "uri": null}, "impression_id": "000b0000009921dc61bdcb44d9900a648358f6678a", "profile": "http://www.citysearch.com/profile/2922985/smyrna_ga/bamboo_garden.html", "address": {"city": "Smyrna", "state": "GA", "street": "3240 S Cobb Dr SE Ste H", "postal_code": "30080"}, "capProviderId": null, "distance": null, "has_offers": false, "name": "Bamboo Garden", "longitude": -84.530458, "has_menu": true, "awards": null, "user_review_count": 1}, {"business_operation_status": 1, "rating": null, "neighborhood": "Highlands Park", "image": null, "scorecard": null, "featured": false, "sample_categories": "Barbecue Restaurants, Restaurants", "public_id": "buckhead-barbecue-co-smyrna", "id": 728015790, "votes": null, "tagline": null, "has_video": false, "website": null, "offers": null, "latitude": 33.827992, "politanName": "Atlanta, GA Metro ", "phone_number": "4047929388", "tags": [{"primary": false, "id": 1722, "name": "Restaurants"}, {"primary": true, "id": 1724, "name": "Barbecue Restaurants"}], "fax_number": null, "expansion": {"count": null, "uri": null}, "impression_id": "000b000000e9101df89a7c464ca73b1616221b7776", "profile": "http://www.citysearch.com/profile/728015790/smyrna_ga/buckhead_barbecue_co.html", "address": {"city": "Smyrna", "state": "GA", "street": "3100 Highlands Pkwy Se", "postal_code": "30082"}, "capProviderId": null, "distance": null, "has_offers": false, "name": "Buckhead Barbecue Co", "longitude": -84.495565, "has_menu": false, "awards": null, "user_review_count": 0}, {"business_operation_status": 1, "rating": null, "neighborhood": null, "image": null, "scorecard": null, "featured": false, "sample_categories": "Restaurants, Pizza", "public_id": "pizza-plus-smyrna", "id": 764885620, "votes": null, "tagline": null, "has_video": false, "website": null, "offers": null, "latitude": 33.890233, "politanName": "Atlanta, GA Metro ", "phone_number": "7704338006", "tags": [{"primary": false, "id": 11299, "name": "Pizza"}, {"primary": true, "id": 1722, "name": "Restaurants"}], "fax_number": null, "expansion": {"count": null, "uri": null}, "impression_id": "000b000000ba810939ebec4db6a13a7ee5a5821167", "profile": "http://www.citysearch.com/profile/764885620/smyrna_ga/pizza_plus.html", "address": {"city": "Smyrna", "state": "GA", "street": "2539 Old Concord Rd SE", "postal_code": "30082"}, "capProviderId": null, "distance": null, "has_offers": false, "name": "Pizza Plus", "longitude": -84.540188, "has_menu": true, "awards": null, "user_review_count": 0}, {"business_operation_status": 1, "rating": null, "neighborhood": "Lake Ridge Technical Park", "image": null, "scorecard": null, "featured": false, "sample_categories": "Restaurants", "public_id": "char-broil-smyrna", "id": 655891800, "votes": null, "tagline": null, "has_video": false, "website": null, "offers": null, "latitude": 33.825642, "politanName": "Atlanta, GA Metro ", "phone_number": "7704346503", "tags": [{"primary": true, "id": 1722, "name": "Restaurants"}], "fax_number": null, "expansion": {"count": null, "uri": null}, "impression_id": "000b00000043026f64a3b44ee5bcce3706291cd6c7", "profile": "http://www.citysearch.com/profile/655891800/smyrna_ga/char_broil.html", "address": {"city": "Smyrna", "state": "GA", "street": "500 Technology Ct Se # C", "postal_code": "30082"}, "capProviderId": null, "distance": null, "has_offers": false, "name": "Char Broil", "longitude": -84.498857, "has_menu": false, "awards": null, "user_review_count": 0}, {"business_operation_status": 1, "rating": null, "neighborhood": null, "image": null, "scorecard": null, "featured": false, "sample_categories": "Bars & Pubs, Bars & Clubs, Taverns, Restaurants", "public_id": "el-reventon-smyrna", "id": 37647340, "votes": null, "tagline": null, "has_video": false, "website": null, "offers": null, "latitude": 33.872753, "politanName": "Atlanta, GA Metro ", "phone_number": "7704362890", "tags": [{"primary": false, "id": 164, "name": "Bars & Clubs"}, {"primary": false, "id": 1702, "name": "Taverns"}, {"primary": false, "id": 1722, "name": "Restaurants"}, {"primary": true, "id": 1686, "name": "Bars & Pubs"}], "fax_number": null, "expansion": {"count": null, "uri": null}, "impression_id": "000b0000000a6d969cdd20408da589bc1e8a5e3ad0", "profile": "http://www.citysearch.com/profile/37647340/smyrna_ga/el_reventon.html", "address": {"city": "Smyrna", "state": "GA", "street": "3282 S Cobb Dr SE", "postal_code": "30080"}, "capProviderId": null, "distance": null, "has_offers": false, "name": "El Reventon", "longitude": -84.529811, "has_menu": false, "awards": null, "user_review_count": 0}, {"business_operation_status": 1, "rating": null, "neighborhood": null, "image": null, "scorecard": null, "featured": false, "sample_categories": "Restaurants", "public_id": "chef-chen-smyrna", "id": 627616980, "votes": null, "tagline": null, "has_video": false, "website": "http://www.citysearch.com/profile/external/627616980/smyrna_ga/chef_chen.html", "offers": null, "latitude": 33.831642, "politanName": "Atlanta, GA Metro ", "phone_number": "7708058688", "tags": [{"primary": true, "id": 1722, "name": "Restaurants"}], "fax_number": null, "expansion": {"count": null, "uri": null}, "impression_id": "000b00000055487fe6adf440fa91abb95bbdd9c59d", "profile": "http://www.citysearch.com/profile/627616980/smyrna_ga/chef_chen.html", "address": {"city": "Smyrna", "state": "GA", "street": "4924 S Cobb Dr Se # Cde", "postal_code": "30080"}, "capProviderId": null, "distance": null, "has_offers": false, "name": "Chef Chen", "longitude": -84.493491, "has_menu": false, "awards": null, "user_review_count": 0}, {"business_operation_status": 1, "rating": null, "neighborhood": null, "image": null, "scorecard": null, "featured": false, "sample_categories": "Coffeehouses", "public_id": "pet-pet-ltd-smyrna", "id": 732184890, "votes": null, "tagline": null, "has_video": false, "website": null, "offers": null, "latitude": 33.851216, "politanName": "Atlanta, GA Metro ", "phone_number": "7708198835", "tags": [{"primary": true, "id": 1726, "name": "Coffeehouses"}], "fax_number": null, "expansion": {"count": null, "uri": null}, "impression_id": "000b000000d81d802cf67d4cd480a46360108cb1e9", "profile": "http://www.citysearch.com/profile/732184890/smyrna_ga/pet_pet_ltd.html", "address": {"city": "Smyrna", "state": "GA", "street": "4131 Gregory Manor Cir SW", "postal_code": "30082"}, "capProviderId": null, "distance": null, "has_offers": false, "name": "Pet Pet Ltd", "longitude": -84.568419, "has_menu": false, "awards": null, "user_review_count": 0}, {"business_operation_status": 1, "rating": null, "neighborhood": null, "image": null, "scorecard": null, "featured": false, "sample_categories": "Restaurants, Delis And Delicatessens, Sandwich Shops, Carry Out", "public_id": "firehouse-subs-smyrna-4", "id": 777803930, "votes": null, "tagline": null, "has_video": false, "website": "http://www.citysearch.com/profile/external/777803930/smyrna_ga/firehouse_subs.html", "offers": null, "latitude": 33.841827, "politanName": "Atlanta, GA Metro ", "phone_number": "7703331399", "tags": [{"primary": false, "id": 1727, "name": "Delis And Delicatessens"}, {"primary": false, "id": 1736, "name": "Sandwich Shops"}, {"primary": false, "id": 11247, "name": "Carry Out"}, {"primary": true, "id": 1722, "name": "Restaurants"}], "fax_number": null, "expansion": {"count": null, "uri": null}, "impression_id": "000b000000c4c86ad13f804da497c73f735dad21d7", "profile": "http://www.citysearch.com/profile/777803930/smyrna_ga/firehouse_subs.html", "address": {"city": "Smyrna", "state": "GA", "street": "4624 Camp Highland Se # 1000", "postal_code": "30082"}, "capProviderId": null, "distance": null, "has_offers": false, "name": "Firehouse Subs", "longitude": -84.505595, "has_menu": true, "awards": null, "user_review_count": 0}, {"business_operation_status": 1, "rating": null, "neighborhood": null, "image": null, "scorecard": null, "featured": false, "sample_categories": "Restaurants", "public_id": "rays-smyrna", "id": 775207470, "votes": null, "tagline": null, "has_video": false, "website": null, "offers": null, "latitude": 33.883027, "politanName": "Atlanta, GA Metro ", "phone_number": "7704379001", "tags": [{"primary": true, "id": 1722, "name": "Restaurants"}], "fax_number": null, "expansion": {"count": null, "uri": null}, "impression_id": "000b000000a3de7014b0924350a217b31c47854a94", "profile": "http://www.citysearch.com/profile/775207470/smyrna_ga/ray_s.html", "address": {"city": "Smyrna", "state": "GA", "street": "2930 S Cobb Dr SE", "postal_code": "30080"}, "capProviderId": null, "distance": null, "has_offers": false, "name": "Ray's", "longitude": -84.534643, "has_menu": false, "awards": null, "user_review_count": 0}, {"business_operation_status": 1, "rating": null, "neighborhood": null, "image": null, "scorecard": null, "featured": false, "sample_categories": "Restaurants, Traditional American, Carry Out, Shop Online", "public_id": "ruby-tuesday-marietta-2", "id": 775209650, "votes": null, "tagline": null, "has_video": false, "website": "http://www.citysearch.com/profile/external/775209650/marietta_ga/ruby_tuesday.html", "offers": null, "latitude": 33.853043, "politanName": "Atlanta, GA Metro ", "phone_number": "7704268061", "tags": [{"primary": false, "id": 11190, "name": "Traditional American"}, {"primary": false, "id": 11247, "name": "Carry Out"}, {"primary": false, "id": 11375, "name": "Shop Online"}, {"primary": true, "id": 1722, "name": "Restaurants"}], "fax_number": null, "expansion": {"count": null, "uri": null}, "impression_id": "000b00000083949eda709b4a0080ce20a5f387cca2", "profile": "http://www.citysearch.com/profile/775209650/marietta_ga/ruby_tuesday.html", "address": {"city": "Marietta", "state": "GA", "street": "Town Center At Cobb", "postal_code": "30060"}, "capProviderId": null, "distance": null, "has_offers": false, "name": "Ruby Tuesday", "longitude": -84.510989, "has_menu": false, "awards": null, "user_review_count": 0}, {"business_operation_status": 1, "rating": 9.0, "neighborhood": null, "image": "http://images.citysearch.net/assets/imgdb/merchant/2010/2/1/0/XGFGRqdH1.jpeg", "scorecard": null, "featured": false, "sample_categories": "Catering, Restaurants, Barbecue Restaurants, $, Cheap Eats", "public_id": "williamson-brothers-barbq-marietta", "id": 11340779, "votes": null, "tagline": "Country barbecue smoked up just right in Marietta.", "has_video": false, "website": "http://www.citysearch.com/profile/external/11340779/marietta_ga/williamson_bros_bar_b_q.html", "offers": null, "latitude": 33.950897, "politanName": "Atlanta, GA Metro ", "phone_number": "7709713201", "tags": [{"primary": false, "id": 1722, "name": "Restaurants"}, {"primary": false, "id": 1724, "name": "Barbecue Restaurants"}, {"primary": false, "id": 11231, "name": "$"}, {"primary": false, "id": 11249, "name": "Cheap Eats"}, {"primary": false, "id": 11263, "name": "Family-Friendly Dining"}, {"primary": false, "id": 11269, "name": "Group Dining"}, {"primary": false, "id": 11286, "name": "Lunch Spot"}, {"primary": false, "id": 11333, "name": "American Express"}, {"primary": false, "id": 11349, "name": "Discover"}, {"primary": false, "id": 11361, "name": "MasterCard"}, {"primary": false, "id": 11382, "name": "Visa"}, {"primary": true, "id": 1705, "name": "Catering"}], "fax_number": null, "expansion": {"count": null, "uri": null}, "impression_id": "000b0000006e5e84e564d341b2bb1dfde7afa87f70", "profile": "http://www.citysearch.com/profile/11340779/marietta_ga/williamson_bros_bar_b_q.html", "address": {"city": "Marietta", "state": "GA", "street": "1425 Roswell Rd", "postal_code": "30062"}, "capProviderId": null, "distance": null, "has_offers": false, "name": "Williamson Bros. Bar-B-Q", "longitude": -84.510219, "has_menu": true, "awards": null, "user_review_count": 65}, {"business_operation_status": 1, "rating": 9.0, "neighborhood": "Northside, Northside", "image": "http://images.citysearch.net/assets/imgdb2/csmobile/profile/2012/12/28/11/pBtYPeBB.jpg", "scorecard": null, "featured": false, "sample_categories": "Restaurants, Food Stores, Delis And Delicatessens, Gifts & Novelties, Gift Shops", "public_id": "star-provisions-atlanta", "id": 11496481, "votes": null, "tagline": "Gourmand Star Provisions plans to open a takeout spot next door this summer.", "has_video": false, "website": "http://www.citysearch.com/profile/external/11496481/atlanta_ga/star_provisions.html", "offers": null, "latitude": 33.786522, "politanName": "Atlanta, GA Metro ", "phone_number": "4043650410", "tags": [{"primary": false, "id": 1722, "name": "Restaurants"}, {"primary": false, "id": 1706, "name": "Food Stores"}, {"primary": false, "id": 1727, "name": "Delis And Delicatessens"}, {"primary": false, "id": 3929, "name": "Gifts & Novelties"}, {"primary": false, "id": 3931, "name": "Gift Shops"}, {"primary": false, "id": 3981, "name": "Stationery Stores"}, {"primary": false, "id": 11169, "name": "Gourmet Foods"}, {"primary": false, "id": 11333, "name": "American Express"}, {"primary": false, "id": 11361, "name": "MasterCard"}, {"primary": false, "id": 11382, "name": "Visa"}], "fax_number": null, "expansion": {"count": null, "uri": null}, "impression_id": "000b00000030cb4c6b57e6483597ce126a7b728e20", "profile": "http://www.citysearch.com/profile/11496481/atlanta_ga/star_provisions.html", "address": {"city": "Atlanta", "state": "GA", "street": "1198 Howell Mill Rd", "postal_code": "30318"}, "capProviderId": null, "distance": null, "has_offers": false, "name": "Star Provisions", "longitude": -84.412572, "has_menu": true, "awards": null, "user_review_count": 13}, {"business_operation_status": 1, "rating": 6.0, "neighborhood": null, "image": "http://i1.ypcdn.com/newdisplay_distr/sbc/ccb8f681e523456cb9aa752030306a85.gif", "scorecard": null, "featured": true, "sample_categories": "Restaurants, Bars & Clubs, Catering, Mexican, Carry Out", "public_id": "border-mexican-restaurant-smyrna", "id": 2923018, "votes": null, "tagline": "Authentic Mexican food! Full bar! Patio!", "has_video": false, "website": "http://www.citysearch.com/profile/external/2923018/smyrna_ga/on_border_mexican_restaurant.html", "offers": null, "latitude": 33.890145, "politanName": "Atlanta, GA Metro ", "phone_number": "6788238746", "tags": [{"primary": false, "id": 164, "name": "Bars & Clubs"}, {"primary": false, "id": 1705, "name": "Catering"}, {"primary": false, "id": 11208, "name": "Mexican"}, {"primary": false, "id": 11247, "name": "Carry Out"}, {"primary": false, "id": 11333, "name": "American Express"}, {"primary": false, "id": 11349, "name": "Discover"}, {"primary": false, "id": 11361, "name": "MasterCard"}, {"primary": false, "id": 11382, "name": "Visa"}, {"primary": true, "id": 1722, "name": "Restaurants"}], "fax_number": null, "expansion": {"count": null, "uri": null}, "impression_id": "000b000000d1a733fa8e5b407e9a757a556e71cf4f", "profile": "http://www.citysearch.com/profile/2923018/smyrna_ga/on_border_mexican_restaurant.html", "address": {"city": "Smyrna", "state": "GA", "street": "2569 Cobb Pkwy SE", "postal_code": "30080"}, "capProviderId": 11, "distance": null, "has_offers": false, "name": "On-Border Mexican Restaurant", "longitude": -84.474942, "has_menu": true, "awards": null, "user_review_count": 71}, {"business_operation_status": 1, "rating": 9.0, "neighborhood": null, "image": "http://images.citysearch.net/assets/imgdb2/reinvent/profile/2012/9/4/14/hxsDTKwo.jpg", "scorecard": null, "featured": false, "sample_categories": "Restaurants, Wine Bars, Organic Foods, Asian, Thai", "public_id": "lthai-west-organic-cuisine-wine-bar-smyrna", "id": 603158332, "votes": null, "tagline": "Same great menu, brand new location in Smyrna", "has_video": false, "website": "http://www.citysearch.com/profile/external/603158332/smyrna_ga/l_thai_west_organic_cuisine_wine_bar.html", "offers": null, "latitude": 33.842892, "politanName": "Atlanta, GA Metro ", "phone_number": "7704344344", "tags": [{"primary": false, "id": 1704, "name": "Wine Bars"}, {"primary": false, "id": 11173, "name": "Organic Foods"}, {"primary": false, "id": 11235, "name": "Asian"}, {"primary": false, "id": 11319, "name": "Thai"}, {"primary": false, "id": 11333, "name": "American Express"}, {"primary": false, "id": 11339, "name": "Cash"}, {"primary": false, "id": 11361, "name": "MasterCard"}, {"primary": false, "id": 11382, "name": "Visa"}, {"primary": false, "id": 14910, "name": "Organic"}, {"primary": true, "id": 1722, "name": "Restaurants"}], "fax_number": null, "expansion": {"count": null, "uri": null}, "impression_id": "000b00000088371c237bfb47ff9cd12ba5ddc9063c", "profile": "http://www.citysearch.com/profile/603158332/smyrna_ga/l_thai_west_organic_cuisine_wine_bar.html", "address": {"city": "Smyrna", "state": "GA", "street": "4500 W Village Pl SE Ste 1017", "postal_code": "30080"}, "capProviderId": null, "distance": null, "has_offers": false, "name": "L'Thai West Organic Cuisine & Wine Bar", "longitude": -84.490261, "has_menu": false, "awards": null, "user_review_count": 19}, {"business_operation_status": 1, "rating": 5.0, "neighborhood": null, "image": "http://images.citysearch.net/assets/imgdb/merchant/2015/3/3/0/XbDaJnPm123.jpeg", "scorecard": null, "featured": true, "sample_categories": "Restaurants, New American, $, Carry Out, Family Style Dining", "public_id": "olive-garden-smyrna", "id": 2922268, "votes": null, "tagline": "Buy One Take One is Back! Starting at $12.99", "has_video": false, "website": "http://www.citysearch.com/profile/external/2922268/smyrna_ga/olive_garden.html", "offers": null, "latitude": 33.891868, "politanName": "Atlanta, GA Metro ", "phone_number": "7709338971", "tags": [{"primary": false, "id": 11189, "name": "New American"}, {"primary": false, "id": 11231, "name": "$"}, {"primary": false, "id": 11247, "name": "Carry Out"}, {"primary": false, "id": 11262, "name": "Family Style Dining"}, {"primary": false, "id": 11263, "name": "Family-Friendly Dining"}, {"primary": false, "id": 11269, "name": "Group Dining"}, {"primary": false, "id": 11279, "name": "Italian"}, {"primary": false, "id": 11286, "name": "Lunch Spot"}, {"primary": false, "id": 11333, "name": "American Express"}, {"primary": false, "id": 11347, "name": "Debit Card"}, {"primary": false, "id": 11348, "name": "Diners Club"}, {"primary": false, "id": 11349, "name": "Discover"}, {"primary": false, "id": 11361, "name": "MasterCard"}, {"primary": false, "id": 11382, "name": "Visa"}, {"primary": true, "id": 1722, "name": "Restaurants"}], "fax_number": null, "expansion": {"count": null, "uri": null}, "impression_id": "000b00000074e8b8aedf9e449e96a45b889eb7c3b4", "profile": "http://www.citysearch.com/profile/2922268/smyrna_ga/olive_garden.html", "address": {"city": "Smyrna", "state": "GA", "street": "2467 Cobb Parkway Se", "postal_code": "30080"}, "capProviderId": 1, "distance": null, "has_offers": false, "name": "Olive Garden", "longitude": -84.4772, "has_menu": true, "awards": null, "user_review_count": 2}, {"business_operation_status": 1, "rating": 10.0, "neighborhood": null, "image": "http://images.citysearch.net/assets/imgdb/merchant/2012/3/21/0/zUfdpINR279.jpeg", "scorecard": null, "featured": false, "sample_categories": "Grill Restaurants, Bars & Pubs, Sports Bars, Restaurants, Pizza", "public_id": "blue-moon-pizza-marietta-2", "id": 37244513, "votes": null, "tagline": null, "has_video": false, "website": "http://www.citysearch.com/profile/external/37244513/marietta_ga/blue_moon_pizza.html", "offers": null, "latitude": 33.90373, "politanName": "Atlanta, GA Metro ", "phone_number": "7709842444", "tags": [{"primary": false, "id": 1686, "name": "Bars & Pubs"}, {"primary": false, "id": 1701, "name": "Sports Bars"}, {"primary": false, "id": 1722, "name": "Restaurants"}, {"primary": false, "id": 11299, "name": "Pizza"}, {"primary": false, "id": 11333, "name": "American Express"}, {"primary": false, "id": 11349, "name": "Discover"}, {"primary": false, "id": 11361, "name": "MasterCard"}, {"primary": false, "id": 11382, "name": "Visa"}, {"primary": true, "id": 6191, "name": "Grill Restaurants"}], "fax_number": null, "expansion": {"count": null, "uri": null}, "impression_id": "000b0000000f20df0a30e44c0d8429bc3978623c40", "profile": "http://www.citysearch.com/profile/37244513/marietta_ga/blue_moon_pizza.html", "address": {"city": "Marietta", "state": "GA", "street": "2359 Windy Hill Rd Se Ste 100", "postal_code": "30067"}, "capProviderId": null, "distance": null, "has_offers": false, "name": "Blue Moon Pizza", "longitude": -84.484545, "has_menu": true, "awards": null, "user_review_count": 78}, {"business_operation_status": 1, "rating": 9.0, "neighborhood": null, "image": "http://images.citysearch.net/assets/imgdb2/reinvent/profile/2013/5/13/9/iYzFDawD.jpg", "scorecard": null, "featured": false, "sample_categories": "Restaurants, $, Cheap Eats, Pizza, American Express", "public_id": "st-angelos-smyrna", "id": 37090324, "votes": null, "tagline": null, "has_video": false, "website": "http://www.citysearch.com/profile/external/37090324/smyrna_ga/st_angelos.html", "offers": null, "latitude": 33.838977, "politanName": "Atlanta, GA Metro ", "phone_number": "4047949254", "tags": [{"primary": false, "id": 11231, "name": "$"}, {"primary": false, "id": 11249, "name": "Cheap Eats"}, {"primary": false, "id": 11299, "name": "Pizza"}, {"primary": false, "id": 11333, "name": "American Express"}, {"primary": false, "id": 11339, "name": "Cash"}, {"primary": false, "id": 11349, "name": "Discover"}, {"primary": false, "id": 11361, "name": "MasterCard"}, {"primary": false, "id": 11382, "name": "Visa"}, {"primary": true, "id": 1722, "name": "Restaurants"}], "fax_number": null, "expansion": {"count": null, "uri": null}, "impression_id": "000b000000290f20c6f5764ed1ae6f8113688731f8", "profile": "http://www.citysearch.com/profile/37090324/smyrna_ga/st_angelos.html", "address": {"city": "Smyrna", "state": "GA", "street": "4715 S. Atlanta Rd.", "postal_code": "30080"}, "capProviderId": null, "distance": null, "has_offers": false, "name": "St. Angelos", "longitude": -84.481545, "has_menu": true, "awards": null, "user_review_count": 76}, {"business_operation_status": 1, "rating": 8.0, "neighborhood": "Northside, Northside", "image": "http://images.citysearch.net/assets/imgdb2/csmobile/profile/2013/5/20/20/lFOQeZUt.jpg", "scorecard": null, "featured": false, "sample_categories": "Restaurants, Mexican, $, Cheap Eats, Dine At The Bar", "public_id": "taqueria-del-sol-atlanta", "id": 11340776, "votes": null, "tagline": null, "has_video": false, "website": "http://www.citysearch.com/profile/external/11340776/atlanta_ga/taqueria_del_sol.html", "offers": null, "latitude": 33.787065, "politanName": "Atlanta, GA Metro ", "phone_number": "4043525811", "tags": [{"primary": false, "id": 1722, "name": "Restaurants"}, {"primary": false, "id": 11231, "name": "$"}, {"primary": false, "id": 11249, "name": "Cheap Eats"}, {"primary": false, "id": 11258, "name": "Dine At The Bar"}, {"primary": false, "id": 11263, "name": "Family-Friendly Dining"}, {"primary": false, "id": 11269, "name": "Group Dining"}, {"primary": false, "id": 11284, "name": "Local Favorite"}, {"primary": false, "id": 11286, "name": "Lunch Spot"}, {"primary": false, "id": 11313, "name": "Southwestern"}, {"primary": false, "id": 11333, "name": "American Express"}, {"primary": false, "id": 11361, "name": "MasterCard"}, {"primary": false, "id": 11382, "name": "Visa"}, {"primary": true, "id": 11208, "name": "Mexican"}], "fax_number": null, "expansion": {"count": null, "uri": null}, "impression_id": "000b000000b98fdedd81c244b59c42eb5aebfe79b7", "profile": "http://www.citysearch.com/profile/11340776/atlanta_ga/taqueria_del_sol.html", "address": {"city": "Atlanta", "state": "GA", "street": "1200B Howell Mill Rd NW", "postal_code": "30318"}, "capProviderId": null, "distance": null, "has_offers": false, "name": "Taqueria Del Sol", "longitude": -84.41188, "has_menu": true, "awards": null, "user_review_count": 136}, {"business_operation_status": 1, "rating": 8.0, "neighborhood": "Northside, Northside", "image": "http://images.citysearch.net/assets/imgdb2/reinvent/profile/2013/2/25/13/eyVGRxPl.jpg", "scorecard": null, "featured": false, "sample_categories": "Restaurants, Traditional American, French, $$$$, Date Spot", "public_id": "bacchanalia-atlanta", "id": 3011733, "votes": null, "tagline": null, "has_video": false, "website": "http://www.citysearch.com/profile/external/3011733/atlanta_ga/bacchanalia.html", "offers": null, "latitude": 33.786989, "politanName": "Atlanta, GA Metro ", "phone_number": "4043650410", "tags": [{"primary": false, "id": 11190, "name": "Traditional American"}, {"primary": false, "id": 11219, "name": "French"}, {"primary": false, "id": 11234, "name": "$$$$"}, {"primary": false, "id": 11256, "name": "Date Spot"}, {"primary": false, "id": 11265, "name": "Fine Dining"}, {"primary": false, "id": 11294, "name": "Notable Wine List"}, {"primary": false, "id": 11307, "name": "Romantic Dining"}, {"primary": false, "id": 11315, "name": "Special Occasion Dining"}, {"primary": false, "id": 11333, "name": "American Express"}, {"primary": false, "id": 11348, "name": "Diners Club"}, {"primary": false, "id": 11361, "name": "MasterCard"}, {"primary": false, "id": 11382, "name": "Visa"}, {"primary": true, "id": 1722, "name": "Restaurants"}], "fax_number": null, "expansion": {"count": null, "uri": null}, "impression_id": "000b0000004117495cd4cb4977afab39b5dc6e6024", "profile": "http://www.citysearch.com/profile/3011733/atlanta_ga/bacchanalia.html", "address": {"city": "Atlanta", "state": "GA", "street": "1198 Howell Mill Rd NW", "postal_code": "30318"}, "capProviderId": null, "distance": null, "has_offers": false, "name": "Bacchanalia", "longitude": -84.411764, "has_menu": true, "awards": null, "user_review_count": 46}, {"business_operation_status": 0, "rating": 6.0, "neighborhood": "Northside, Northside", "image": null, "scorecard": null, "featured": false, "sample_categories": "Restaurants, New American, Traditional American, $$$, Business Dining", "public_id": "food-studio-atlanta", "id": 3011750, "votes": null, "tagline": null, "has_video": false, "website": null, "offers": null, "latitude": 33.794633, "politanName": "Atlanta, GA Metro ", "phone_number": "4048156677", "tags": [{"primary": false, "id": 11189, "name": "New American"}, {"primary": false, "id": 11190, "name": "Traditional American"}, {"primary": false, "id": 11233, "name": "$$$"}, {"primary": false, "id": 11244, "name": "Business Dining"}, {"primary": false, "id": 11266, "name": "Fireplace"}, {"primary": false, "id": 11269, "name": "Group Dining"}, {"primary": false, "id": 11294, "name": "Notable Wine List"}, {"primary": false, "id": 11295, "name": "Online Reservations"}, {"primary": false, "id": 11307, "name": "Romantic Dining"}, {"primary": false, "id": 11315, "name": "Special Occasion Dining"}, {"primary": false, "id": 11333, "name": "American Express"}, {"primary": false, "id": 11349, "name": "Discover"}, {"primary": false, "id": 11361, "name": "MasterCard"}, {"primary": false, "id": 11382, "name": "Visa"}, {"primary": true, "id": 1722, "name": "Restaurants"}], "fax_number": null, "expansion": {"count": null, "uri": null}, "impression_id": "000b0000008e6d8b1e3cd4488a8034b7523053ebbc", "profile": "http://www.citysearch.com/profile/3011750/atlanta_ga/food_studio.html", "address": {"city": "Atlanta", "state": "GA", "street": "887 W Marietta St Ste K102", "postal_code": "30318"}, "capProviderId": null, "distance": null, "has_offers": false, "name": "Food Studio", "longitude": -84.448772, "has_menu": true, "awards": null, "user_review_count": 33}, {"business_operation_status": 1, "rating": 9.0, "neighborhood": "Northside, Northside", "image": "http://images.citysearch.net/assets/imgdb2/reinvent/profile/2012/9/20/13/dbXNGLsM.jpg", "scorecard": null, "featured": false, "sample_categories": "Restaurants, Catering, Mexican, $, Cheap Eats", "public_id": "nuevo-laredo-cantina-atlanta", "id": 3011721, "votes": null, "tagline": null, "has_video": false, "website": "http://www.citysearch.com/profile/external/3011721/atlanta_ga/nuevo_laredo_cantina.html", "offers": null, "latitude": 33.81018, "politanName": "Atlanta, GA Metro ", "phone_number": "4043529009", "tags": [{"primary": false, "id": 1705, "name": "Catering"}, {"primary": false, "id": 11208, "name": "Mexican"}, {"primary": false, "id": 11231, "name": "$"}, {"primary": false, "id": 11249, "name": "Cheap Eats"}, {"primary": false, "id": 11286, "name": "Lunch Spot"}, {"primary": false, "id": 11333, "name": "American Express"}, {"primary": false, "id": 11348, "name": "Diners Club"}, {"primary": false, "id": 11349, "name": "Discover"}, {"primary": false, "id": 11361, "name": "MasterCard"}, {"primary": false, "id": 11382, "name": "Visa"}, {"primary": true, "id": 1722, "name": "Restaurants"}], "fax_number": null, "expansion": {"count": null, "uri": null}, "impression_id": "000b00000095f6da800a7249e3b180821201e632cf", "profile": "http://www.citysearch.com/profile/3011721/atlanta_ga/nuevo_laredo_cantina.html", "address": {"city": "Atlanta", "state": "GA", "street": "1495 Chattahoochee Ave NW", "postal_code": "30318"}, "capProviderId": null, "distance": null, "has_offers": false, "name": "Nuevo Laredo Cantina", "longitude": -84.436583, "has_menu": true, "awards": null, "user_review_count": 85}, {"business_operation_status": 1, "rating": 10.0, "neighborhood": null, "image": "http://www.gayot.com/images/reviews/ATRES091001.jpg", "scorecard": null, "featured": false, "sample_categories": "Restaurants, Delis And Delicatessens, Gourmet Foods, Traditional American, $$", "public_id": "muss-turners-inc-smyrna", "id": 41731547, "votes": null, "tagline": null, "has_video": false, "website": "http://www.citysearch.com/profile/external/41731547/smyrna_ga/muss_turner_s_inc.html", "offers": null, "latitude": 33.849301, "politanName": "Atlanta, GA Metro ", "phone_number": "7704341114", "tags": [{"primary": false, "id": 1727, "name": "Delis And Delicatessens"}, {"primary": false, "id": 11169, "name": "Gourmet Foods"}, {"primary": false, "id": 11190, "name": "Traditional American"}, {"primary": false, "id": 11232, "name": "$$"}, {"primary": false, "id": 11263, "name": "Family-Friendly Dining"}, {"primary": false, "id": 11272, "name": "Hidden Find"}, {"primary": false, "id": 11284, "name": "Local Favorite"}, {"primary": false, "id": 11286, "name": "Lunch Spot"}, {"primary": false, "id": 11333, "name": "American Express"}, {"primary": false, "id": 11349, "name": "Discover"}, {"primary": false, "id": 11361, "name": "MasterCard"}, {"primary": false, "id": 11382, "name": "Visa"}, {"primary": true, "id": 1722, "name": "Restaurants"}], "fax_number": null, "expansion": {"count": null, "uri": null}, "impression_id": "000b000000150720c81fa64ed6977377f969638c77", "profile": "http://www.citysearch.com/profile/41731547/smyrna_ga/muss_turner_s_inc.html", "address": {"city": "Smyrna", "state": "GA", "street": "1675 Cumberland Pkwy., Ste. 309", "postal_code": "30080"}, "capProviderId": null, "distance": null, "has_offers": false, "name": "Muss & Turner's Inc", "longitude": -84.492846, "has_menu": true, "awards": null, "user_review_count": 20}], "histograms": [], "tag_ids": [1722], "uri": "http://api.citygridmedia.com:8080/search/places/v2/search/where?has_offers=false&type=restaurant&format=json&page=2&where=30082&rpp=50&histograms=false&publisher=10000009598&region_type=circle", "did_you_mean": "", "regions": [{"latitude": 33.854375999999995, "default_radius": 3.24, "type": "postal_code", "name": "30082", "longitude": -84.535215}], "call_id": "000b000000af40093f1f57471faa30203f9e1f5c0f", "first_hit": 51, "total_hits": 1174, "geo_ids": [26331], "page": 2, "last_hit": 100}}