{"results": {"rpp": 50, "locations": [{"business_operation_status": 1, "rating": null, "neighborhood": null, "image": null, "scorecard": null, "featured": false, "sample_categories": "Restaurants", "public_id": "georges-grill-bbq-marietta", "id": 672294490, "votes": null, "tagline": null, "has_video": false, "website": null, "offers": null, "latitude": 33.997727, "politanName": "Atlanta, GA Metro ", "phone_number": null, "tags": [{"primary": true, "id": 1722, "name": "Restaurants"}], "fax_number": null, "expansion": {"count": null, "uri": null}, "impression_id": "000b00000015f506b5b2f54d29ae60c6710d4d83dc", "profile": "http://www.citysearch.com/profile/672294490/marietta_ga/george_s_grill_bbq.html", "address": {"city": "Marietta", "state": "GA", "street": "1951 Canton Rd NE", "postal_code": "30066"}, "capProviderId": null, "distance": null, "has_offers": false, "name": "George's Grill & BBQ", "longitude": -84.525055, "has_menu": false, "awards": null, "user_review_count": 0}, {"business_operation_status": 1, "rating": null, "neighborhood": null, "image": null, "scorecard": null, "featured": false, "sample_categories": "Ice Cream Parlors", "public_id": "tios-mexican-grill-marietta", "id": 830806670, "votes": null, "tagline": null, "has_video": false, "website": null, "offers": null, "latitude": 33.970818, "politanName": "Atlanta, GA Metro ", "phone_number": "7709779727", "tags": [{"primary": true, "id": 1730, "name": "Ice Cream Parlors"}], "fax_number": null, "expansion": {"count": null, "uri": null}, "impression_id": "000b000000a900d243107a466bb6089dff5bde6acb", "profile": "http://www.citysearch.com/profile/830806670/marietta_ga/tios_mexican_grill.html", "address": {"city": "Marietta", "state": "GA", "street": "821 Woodmont Dr", "postal_code": "30062"}, "capProviderId": null, "distance": null, "has_offers": false, "name": "Tios Mexican Grill", "longitude": -84.49593, "has_menu": true, "awards": null, "user_review_count": 0}, {"business_operation_status": 1, "rating": null, "neighborhood": null, "image": null, "scorecard": null, "featured": false, "sample_categories": "Restaurants, Delis And Delicatessens, Sandwich Shops, Carry Out", "public_id": "subway-marietta-36", "id": 655943030, "votes": null, "tagline": null, "has_video": false, "website": "http://www.citysearch.com/profile/external/655943030/marietta_ga/subway.html", "offers": null, "latitude": 33.995879, "politanName": "Atlanta, GA Metro ", "phone_number": "7703212546", "tags": [{"primary": false, "id": 1727, "name": "Delis And Delicatessens"}, {"primary": false, "id": 1736, "name": "Sandwich Shops"}, {"primary": false, "id": 11247, "name": "Carry Out"}, {"primary": true, "id": 1722, "name": "Restaurants"}], "fax_number": null, "expansion": {"count": null, "uri": null}, "impression_id": "000b000000e83db47b9af0453fa6a2c7f79a7ac52a", "profile": "http://www.citysearch.com/profile/655943030/marietta_ga/subway.html", "address": {"city": "Marietta", "state": "GA", "street": "1860 Sandy Plains Rd # 301", "postal_code": "30066"}, "capProviderId": null, "distance": null, "has_offers": false, "name": "Subway", "longitude": -84.507715, "has_menu": false, "awards": null, "user_review_count": 0}, {"business_operation_status": 1, "rating": null, "neighborhood": null, "image": null, "scorecard": null, "featured": false, "sample_categories": "Restaurants, Traditional American, Carry Out", "public_id": "ihop-restaurant-marietta-3", "id": 682450140, "votes": null, "tagline": null, "has_video": false, "website": "http://www.citysearch.com/profile/external/682450140/marietta_ga/ihop.html", "offers": null, "latitude": 33.94651, "politanName": "Atlanta, GA Metro ", "phone_number": "7704851267", "tags": [{"primary": false, "id": 11190, "name": "Traditional American"}, {"primary": false, "id": 11247, "name": "Carry Out"}, {"primary": true, "id": 1722, "name": "Restaurants"}], "fax_number": null, "expansion": {"count": null, "uri": null}, "impression_id": "000b00000035d172e2f22c441c8cccb9c26a8b85d6", "profile": "http://www.citysearch.com/profile/682450140/marietta_ga/ihop.html", "address": {"city": "Marietta", "state": "GA", "street": "2390 Dallas Hwy SW", "postal_code": "30064"}, "capProviderId": null, "distance": null, "has_offers": false, "name": "IHOP", "longitude": -84.62155, "has_menu": false, "awards": null, "user_review_count": 0}, {"business_operation_status": 1, "rating": null, "neighborhood": null, "image": null, "scorecard": null, "featured": false, "sample_categories": "Restaurants", "public_id": "d-k-wings-marietta", "id": 824095540, "votes": null, "tagline": null, "has_video": false, "website": null, "offers": null, "latitude": 33.902356, "politanName": "Atlanta, GA Metro ", "phone_number": "7708030499", "tags": [{"primary": true, "id": 1722, "name": "Restaurants"}], "fax_number": null, "expansion": {"count": null, "uri": null}, "impression_id": "000b00000081db61dc41214ad3982318a05497a803", "profile": "http://www.citysearch.com/profile/824095540/marietta_ga/d_k_wings.html", "address": {"city": "Marietta", "state": "GA", "street": "451 Pat Mell Rd SW", "postal_code": "30060"}, "capProviderId": null, "distance": null, "has_offers": false, "name": "D K Wings", "longitude": -84.566142, "has_menu": false, "awards": null, "user_review_count": 0}, {"business_operation_status": 1, "rating": null, "neighborhood": null, "image": null, "scorecard": null, "featured": false, "sample_categories": "Restaurants", "public_id": "leo-franco-chef-marietta", "id": 824426470, "votes": null, "tagline": null, "has_video": false, "website": null, "offers": null, "latitude": 33.948481, "politanName": "Atlanta, GA Metro ", "phone_number": "7704999439", "tags": [{"primary": true, "id": 1722, "name": "Restaurants"}], "fax_number": null, "expansion": {"count": null, "uri": null}, "impression_id": "000b000000a067522d6b3d420b9af6b1b795b5b8b4", "profile": "http://www.citysearch.com/profile/824426470/marietta_ga/leo_franco_chef.html", "address": {"city": "Marietta", "state": "GA", "street": "20 Emerson Hill Sq", "postal_code": "30060"}, "capProviderId": null, "distance": null, "has_offers": false, "name": "Leo Franco Chef", "longitude": -84.542181, "has_menu": false, "awards": null, "user_review_count": 0}, {"business_operation_status": 1, "rating": null, "neighborhood": null, "image": null, "scorecard": null, "featured": false, "sample_categories": "Restaurants", "public_id": "bridge-smoke-grill-marietta", "id": 838772530, "votes": null, "tagline": null, "has_video": false, "website": null, "offers": null, "latitude": 33.927554, "politanName": "Atlanta, GA Metro ", "phone_number": "6789033043", "tags": [{"primary": true, "id": 1722, "name": "Restaurants"}], "fax_number": null, "expansion": {"count": null, "uri": null}, "impression_id": "000b00000043e69e632d864dcba9cfce48e3c4b79a", "profile": "http://www.citysearch.com/profile/838772530/marietta_ga/bridge_smoke_grill.html", "address": {"city": "Marietta", "state": "GA", "street": "1038 Franklin Rd SE", "postal_code": "30067"}, "capProviderId": null, "distance": null, "has_offers": false, "name": "Bridge Smoke Grill", "longitude": -84.493666, "has_menu": false, "awards": null, "user_review_count": 0}, {"business_operation_status": 1, "rating": null, "neighborhood": null, "image": null, "scorecard": null, "featured": false, "sample_categories": "Ice Cream Parlors, Frozen Yogurt Shops", "public_id": "baskinrobbins-marietta", "id": 627670240, "votes": null, "tagline": null, "has_video": false, "website": "http://www.citysearch.com/profile/external/627670240/marietta_ga/baskin_robbins.html", "offers": null, "latitude": 34.021176, "politanName": "Atlanta, GA Metro ", "phone_number": "7704223375", "tags": [{"primary": false, "id": 1729, "name": "Frozen Yogurt Shops"}, {"primary": true, "id": 1730, "name": "Ice Cream Parlors"}], "fax_number": null, "expansion": {"count": null, "uri": null}, "impression_id": "000b000000de609efbc2c647b390ece07455b5ab12", "profile": "http://www.citysearch.com/profile/627670240/marietta_ga/baskin_robbins.html", "address": {"city": "Marietta", "state": "GA", "street": "2885 Canton Rd", "postal_code": "30066"}, "capProviderId": null, "distance": null, "has_offers": false, "name": "Baskin-Robbins", "longitude": -84.529098, "has_menu": true, "awards": null, "user_review_count": 2}, {"business_operation_status": 1, "rating": null, "neighborhood": null, "image": null, "scorecard": null, "featured": false, "sample_categories": "Restaurants, Mexican, Carry Out, American Express, Discover", "public_id": "taco-bell-marietta-7", "id": 682721700, "votes": null, "tagline": null, "has_video": false, "website": "http://www.citysearch.com/profile/external/682721700/marietta_ga/taco_bell.html", "offers": null, "latitude": 33.944909, "politanName": "Atlanta, GA Metro ", "phone_number": "7704218815", "tags": [{"primary": false, "id": 11208, "name": "Mexican"}, {"primary": false, "id": 11247, "name": "Carry Out"}, {"primary": false, "id": 11333, "name": "American Express"}, {"primary": false, "id": 11349, "name": "Discover"}, {"primary": false, "id": 11361, "name": "MasterCard"}, {"primary": false, "id": 11382, "name": "Visa"}, {"primary": true, "id": 1722, "name": "Restaurants"}], "fax_number": null, "expansion": {"count": null, "uri": null}, "impression_id": "000b000000f5d3c9026c2c41b9858b1c5c43c78a8c", "profile": "http://www.citysearch.com/profile/682721700/marietta_ga/taco_bell.html", "address": {"city": "Marietta", "state": "GA", "street": "3480 Ernest W Barrett Pkwy Sw", "postal_code": "30064"}, "capProviderId": null, "distance": null, "has_offers": false, "name": "Taco Bell", "longitude": -84.624717, "has_menu": true, "awards": null, "user_review_count": 0}, {"business_operation_status": 1, "rating": null, "neighborhood": null, "image": null, "scorecard": null, "featured": false, "sample_categories": "Ice Cream Parlors, Restaurants", "public_id": "pino-gelalo-of-marietta-marietta", "id": 713581850, "votes": null, "tagline": null, "has_video": false, "website": null, "offers": null, "latitude": 33.952532, "politanName": "Atlanta, GA Metro ", "phone_number": "7702182525", "tags": [{"primary": false, "id": 1722, "name": "Restaurants"}, {"primary": true, "id": 1730, "name": "Ice Cream Parlors"}], "fax_number": null, "expansion": {"count": null, "uri": null}, "impression_id": "000b0000007b073a280f1f4d48a7d3b1ea49aabd03", "profile": "http://www.citysearch.com/profile/713581850/marietta_ga/pino_gelalo_of_marietta.html", "address": {"city": "Marietta", "state": "GA", "street": "21 W Park Sq Ne", "postal_code": "30060"}, "capProviderId": null, "distance": null, "has_offers": false, "name": "Pino Gelalo of Marietta", "longitude": -84.550467, "has_menu": false, "awards": null, "user_review_count": 0}, {"business_operation_status": 1, "rating": null, "neighborhood": null, "image": null, "scorecard": null, "featured": false, "sample_categories": "Ice Cream Parlors", "public_id": "haagendazs-shop-kennesaw", "id": 706821520, "votes": null, "tagline": null, "has_video": false, "website": "http://www.citysearch.com/profile/external/706821520/kennesaw_ga/haagen_dazs_shop.html", "offers": null, "latitude": 34.019128, "politanName": "Atlanta, GA Metro ", "phone_number": "7705903120", "tags": [{"primary": true, "id": 1730, "name": "Ice Cream Parlors"}], "fax_number": null, "expansion": {"count": null, "uri": null}, "impression_id": "000b0000003030fdb7134947d9a7aed712a1fa7c27", "profile": "http://www.citysearch.com/profile/706821520/kennesaw_ga/haagen_dazs_shop.html", "address": {"city": "Kennesaw", "state": "GA", "street": "400 Ernest W Barrett Pkwy NW", "postal_code": "30144"}, "capProviderId": null, "distance": null, "has_offers": false, "name": "Haagen-Dazs Shop", "longitude": -84.563608, "has_menu": true, "awards": null, "user_review_count": 0}, {"business_operation_status": 1, "rating": null, "neighborhood": null, "image": null, "scorecard": null, "featured": false, "sample_categories": "Restaurants", "public_id": "willamsonbros-marietta-2", "id": 609749214, "votes": null, "tagline": null, "has_video": false, "website": null, "offers": null, "latitude": 33.977691, "politanName": "Atlanta, GA Metro ", "phone_number": "7704999797", "tags": [{"primary": true, "id": 1722, "name": "Restaurants"}], "fax_number": null, "expansion": {"count": null, "uri": null}, "impression_id": "000b00000021f68ea3da074cc1b732a3bee07e1916", "profile": "http://www.citysearch.com/profile/609749214/marietta_ga/willamsonbros.html", "address": {"city": "Marietta", "state": "GA", "street": "1160 Hayes Industrial Dr", "postal_code": "30062"}, "capProviderId": null, "distance": null, "has_offers": false, "name": "Willamsonbros", "longitude": -84.542327, "has_menu": false, "awards": null, "user_review_count": 0}, {"business_operation_status": 1, "rating": null, "neighborhood": null, "image": null, "scorecard": null, "featured": false, "sample_categories": "Restaurants, Carry Out", "public_id": "kfc-marietta-10", "id": 713491660, "votes": null, "tagline": null, "has_video": false, "website": "http://www.citysearch.com/profile/external/713491660/marietta_ga/kfc.html", "offers": null, "latitude": 33.999161, "politanName": "Atlanta, GA Metro ", "phone_number": "7704276866", "tags": [{"primary": false, "id": 11247, "name": "Carry Out"}, {"primary": true, "id": 1722, "name": "Restaurants"}], "fax_number": null, "expansion": {"count": null, "uri": null}, "impression_id": "000b00000030a053f7b5c84b32a8e361862fe02aae", "profile": "http://www.citysearch.com/profile/713491660/marietta_ga/kfc.html", "address": {"city": "Marietta", "state": "GA", "street": "2012 Canton Rd", "postal_code": "30066"}, "capProviderId": null, "distance": null, "has_offers": false, "name": "KFC", "longitude": -84.523794, "has_menu": false, "awards": null, "user_review_count": 0}, {"business_operation_status": 1, "rating": null, "neighborhood": null, "image": null, "scorecard": null, "featured": false, "sample_categories": "Delis And Delicatessens, Restaurants", "public_id": "european-deli-marietta", "id": 713573470, "votes": null, "tagline": null, "has_video": false, "website": null, "offers": null, "latitude": 33.980787, "politanName": "Atlanta, GA Metro ", "phone_number": "7706939409", "tags": [{"primary": false, "id": 1722, "name": "Restaurants"}, {"primary": true, "id": 1727, "name": "Delis And Delicatessens"}], "fax_number": null, "expansion": {"count": null, "uri": null}, "impression_id": "000b0000008c71404c669747f78b032d0ba2c78f1a", "profile": "http://www.citysearch.com/profile/713573470/marietta_ga/european_deli.html", "address": {"city": "Marietta", "state": "GA", "street": "3101 Roswell Rd # F1", "postal_code": "30062"}, "capProviderId": null, "distance": null, "has_offers": false, "name": "European Deli", "longitude": -84.464028, "has_menu": false, "awards": null, "user_review_count": 0}, {"business_operation_status": 1, "rating": null, "neighborhood": null, "image": null, "scorecard": null, "featured": false, "sample_categories": "Bars & Clubs, Restaurants", "public_id": "two-monkeys-llc-marietta", "id": 823894470, "votes": null, "tagline": null, "has_video": false, "website": null, "offers": null, "latitude": 33.951907, "politanName": "Atlanta, GA Metro ", "phone_number": "7704220108", "tags": [{"primary": false, "id": 1722, "name": "Restaurants"}, {"primary": true, "id": 164, "name": "Bars & Clubs"}], "fax_number": null, "expansion": {"count": null, "uri": null}, "impression_id": "000b000000dd87aaa34efe4c2082c520053e154337", "profile": "http://www.citysearch.com/profile/823894470/marietta_ga/two_monkeys_llc.html", "address": {"city": "Marietta", "state": "GA", "street": "688 Whitlock Ave NW # G", "postal_code": "30064"}, "capProviderId": null, "distance": null, "has_offers": false, "name": "Two Monkeys LLC", "longitude": -84.572199, "has_menu": false, "awards": null, "user_review_count": 0}, {"business_operation_status": 1, "rating": null, "neighborhood": null, "image": null, "scorecard": null, "featured": false, "sample_categories": "Restaurants", "public_id": "new-china-buffet-kennesaw-2", "id": 830498290, "votes": null, "tagline": null, "has_video": false, "website": null, "offers": null, "latitude": 34.014631, "politanName": "Atlanta, GA Metro ", "phone_number": "7707922262", "tags": [{"primary": true, "id": 1722, "name": "Restaurants"}], "fax_number": null, "expansion": {"count": null, "uri": null}, "impression_id": "000b00000026de90ac71dc42779bb28a20e17050bb", "profile": "http://www.citysearch.com/profile/830498290/kennesaw_ga/new_china_buffet.html", "address": {"city": "Kennesaw", "state": "GA", "street": "Town Center Plz", "postal_code": "30144"}, "capProviderId": null, "distance": null, "has_offers": false, "name": "New China Buffet", "longitude": -84.562889, "has_menu": false, "awards": null, "user_review_count": 0}, {"business_operation_status": 1, "rating": null, "neighborhood": null, "image": null, "scorecard": null, "featured": false, "sample_categories": "Juice & Smoothie Shops", "public_id": "energy-juice-bar-kennesaw", "id": 836019090, "votes": null, "tagline": null, "has_video": false, "website": null, "offers": null, "latitude": 33.999616, "politanName": "Atlanta, GA Metro ", "phone_number": "8622244594", "tags": [{"primary": true, "id": 1735, "name": "Juice & Smoothie Shops"}], "fax_number": null, "expansion": {"count": null, "uri": null}, "impression_id": "000b0000009ddd1143b2ae4aceab8db101f80f1905", "profile": "http://www.citysearch.com/profile/836019090/kennesaw_ga/energy_juice_bar.html", "address": {"city": "Kennesaw", "state": "GA", "street": "1185 Ernest W Barrett Pkwy NW", "postal_code": "30144"}, "capProviderId": null, "distance": null, "has_offers": false, "name": "Energy Juice Bar", "longitude": -84.58372, "has_menu": false, "awards": null, "user_review_count": 0}, {"business_operation_status": 1, "rating": null, "neighborhood": null, "image": null, "scorecard": null, "featured": false, "sample_categories": "Restaurants, Delis And Delicatessens, Sandwich Shops, Carry Out, American Express", "public_id": "quiznos-marietta-3", "id": 43840232, "votes": null, "tagline": null, "has_video": false, "website": null, "offers": null, "latitude": 33.917126, "politanName": "Atlanta, GA Metro ", "phone_number": "6785947600", "tags": [{"primary": false, "id": 1727, "name": "Delis And Delicatessens"}, {"primary": false, "id": 1736, "name": "Sandwich Shops"}, {"primary": false, "id": 11247, "name": "Carry Out"}, {"primary": false, "id": 11333, "name": "American Express"}, {"primary": false, "id": 11347, "name": "Debit Card"}, {"primary": false, "id": 11349, "name": "Discover"}, {"primary": false, "id": 11361, "name": "MasterCard"}, {"primary": false, "id": 11382, "name": "Visa"}, {"primary": true, "id": 1722, "name": "Restaurants"}], "fax_number": null, "expansion": {"count": null, "uri": null}, "impression_id": "000b0000007c4f499d9e8e466e9b65ffc9d9a01c63", "profile": "http://www.citysearch.com/profile/43840232/marietta_ga/quiznos.html", "address": {"city": "Marietta", "state": "GA", "street": "125 Barrett Pkwy Ste 104", "postal_code": "30066"}, "capProviderId": null, "distance": null, "has_offers": false, "name": "Quiznos", "longitude": -84.563854, "has_menu": true, "awards": null, "user_review_count": 0}, {"business_operation_status": 1, "rating": null, "neighborhood": null, "image": null, "scorecard": null, "featured": false, "sample_categories": "Restaurants, Pizza", "public_id": "johnnys-pizza-subs-marietta", "id": 2904727, "votes": null, "tagline": null, "has_video": false, "website": null, "offers": null, "latitude": 33.968758, "politanName": "Atlanta, GA Metro ", "phone_number": "7705658665", "tags": [{"primary": false, "id": 11299, "name": "Pizza"}, {"primary": true, "id": 1722, "name": "Restaurants"}], "fax_number": null, "expansion": {"count": null, "uri": null}, "impression_id": "000b000000297008487bb2492e8d8c2b219bf2ccfc", "profile": "http://www.citysearch.com/profile/2904727/marietta_ga/johnny_s_pizza_subs.html", "address": {"city": "Marietta", "state": "GA", "street": "2100 Roswell Rd", "postal_code": "30062"}, "capProviderId": null, "distance": null, "has_offers": false, "name": "Johnny's Pizza & Subs", "longitude": -84.488447, "has_menu": true, "awards": null, "user_review_count": 0}, {"business_operation_status": 1, "rating": null, "neighborhood": null, "image": null, "scorecard": null, "featured": false, "sample_categories": "Restaurants, Pizza, Carry Out", "public_id": "little-caesars-pizza-marietta-14", "id": 607327154, "votes": null, "tagline": null, "has_video": false, "website": "http://www.citysearch.com/profile/external/607327154/marietta_ga/little_caesars_pizza.html", "offers": null, "latitude": 33.951081, "politanName": "Atlanta, GA Metro ", "phone_number": "7709195595", "tags": [{"primary": false, "id": 1722, "name": "Restaurants"}, {"primary": false, "id": 11247, "name": "Carry Out"}, {"primary": true, "id": 11299, "name": "Pizza"}], "fax_number": null, "expansion": {"count": null, "uri": null}, "impression_id": "000b000000f6ca0f8c347c40ae8add0e3004923ad6", "profile": "http://www.citysearch.com/profile/607327154/marietta_ga/little_caesars_pizza.html", "address": {"city": "Marietta", "state": "GA", "street": "36 Powder Springs St", "postal_code": "30064"}, "capProviderId": null, "distance": null, "has_offers": false, "name": "Little Caesars Pizza", "longitude": -84.55027, "has_menu": false, "awards": null, "user_review_count": 0}, {"business_operation_status": 1, "rating": null, "neighborhood": null, "image": null, "scorecard": null, "featured": false, "sample_categories": "Restaurants", "public_id": "viva-mexico-restaurant-marietta", "id": 611156824, "votes": null, "tagline": null, "has_video": false, "website": null, "offers": null, "latitude": 33.925486, "politanName": "Atlanta, GA Metro ", "phone_number": "7704298909", "tags": [{"primary": true, "id": 1722, "name": "Restaurants"}], "fax_number": null, "expansion": {"count": null, "uri": null}, "impression_id": "000b000000070e824b3c0b453d8c065e6d725c4299", "profile": "http://www.citysearch.com/profile/611156824/marietta_ga/viva_mexico_restaurant.html", "address": {"city": "Marietta", "state": "GA", "street": "1115 Powder Springs St # S", "postal_code": "30064"}, "capProviderId": null, "distance": null, "has_offers": false, "name": "Viva Mexico Restaurant", "longitude": -84.572072, "has_menu": false, "awards": null, "user_review_count": 0}, {"business_operation_status": 1, "rating": null, "neighborhood": null, "image": null, "scorecard": null, "featured": false, "sample_categories": "Restaurants", "public_id": "angels-burrito-on-the-square-marietta", "id": 609728344, "votes": null, "tagline": null, "has_video": false, "website": null, "offers": null, "latitude": 33.952259, "politanName": "Atlanta, GA Metro ", "phone_number": "6785943352", "tags": [{"primary": true, "id": 1722, "name": "Restaurants"}], "fax_number": null, "expansion": {"count": null, "uri": null}, "impression_id": "000b0000009dfd8a2d88204367b96ebf4fa4224b95", "profile": "http://www.citysearch.com/profile/609728344/marietta_ga/angel_s_burrito_on_the_square.html", "address": {"city": "Marietta", "state": "GA", "street": "154 Roswell St SE", "postal_code": "30060"}, "capProviderId": null, "distance": null, "has_offers": false, "name": "Angel's Burrito On The Square", "longitude": -84.548687, "has_menu": false, "awards": null, "user_review_count": 0}, {"business_operation_status": 1, "rating": 8.0, "neighborhood": null, "image": null, "scorecard": null, "featured": false, "sample_categories": "Restaurants, Mexican", "public_id": "el-toro-marietta-2", "id": 2903732, "votes": null, "tagline": null, "has_video": false, "website": null, "offers": null, "latitude": 33.977237, "politanName": "Atlanta, GA Metro ", "phone_number": "7709733173", "tags": [{"primary": false, "id": 1722, "name": "Restaurants"}, {"primary": true, "id": 11208, "name": "Mexican"}], "fax_number": null, "expansion": {"count": null, "uri": null}, "impression_id": "000b00000006d1f5dd892c4b8792a4f6b31ac35a5c", "profile": "http://www.citysearch.com/profile/2903732/marietta_ga/el_toro.html", "address": {"city": "Marietta", "state": "GA", "street": "1060 E Piedmont Rd", "postal_code": "30062"}, "capProviderId": null, "distance": null, "has_offers": false, "name": "El Toro", "longitude": -84.479761, "has_menu": true, "awards": null, "user_review_count": 0}, {"business_operation_status": 1, "rating": null, "neighborhood": null, "image": null, "scorecard": null, "featured": false, "sample_categories": "Restaurants, Food Delivery", "public_id": "r-t-restaurant-svc-marietta", "id": 742250660, "votes": null, "tagline": null, "has_video": false, "website": null, "offers": null, "latitude": 33.911149, "politanName": "Atlanta, GA Metro ", "phone_number": "7704273260", "tags": [{"primary": false, "id": 11267, "name": "Food Delivery"}, {"primary": true, "id": 1722, "name": "Restaurants"}], "fax_number": null, "expansion": {"count": null, "uri": null}, "impression_id": "000b0000001bffb61d6a8449599cd99dc79dc4001a", "profile": "http://www.citysearch.com/profile/742250660/marietta_ga/r_t_restaurant_svc.html", "address": {"city": "Marietta", "state": "GA", "street": "1679 Longwood Dr SW", "postal_code": "30008"}, "capProviderId": null, "distance": null, "has_offers": false, "name": "R & T Restaurant Svc", "longitude": -84.56801, "has_menu": false, "awards": null, "user_review_count": 0}, {"business_operation_status": 1, "rating": null, "neighborhood": null, "image": null, "scorecard": null, "featured": false, "sample_categories": "Ice Cream Parlors, Restaurants, Carry Out", "public_id": "dairy-queen-kennesaw-3", "id": 777729670, "votes": null, "tagline": null, "has_video": false, "website": "http://www.citysearch.com/profile/external/777729670/kennesaw_ga/dairy_queen.html", "offers": null, "latitude": 34.014009, "politanName": "Atlanta, GA Metro ", "phone_number": "7704281468", "tags": [{"primary": false, "id": 1722, "name": "Restaurants"}, {"primary": false, "id": 11247, "name": "Carry Out"}, {"primary": true, "id": 1730, "name": "Ice Cream Parlors"}], "fax_number": null, "expansion": {"count": null, "uri": null}, "impression_id": "000b000000bfca850a6b744f84ad765eb9de9ceaf4", "profile": "http://www.citysearch.com/profile/777729670/kennesaw_ga/dairy_queen.html", "address": {"city": "Kennesaw", "state": "GA", "street": "400 Ernest W Barrett NW # 205", "postal_code": "30144"}, "capProviderId": null, "distance": null, "has_offers": false, "name": "Dairy Queen", "longitude": -84.561425, "has_menu": true, "awards": null, "user_review_count": 0}, {"business_operation_status": 1, "rating": null, "neighborhood": null, "image": null, "scorecard": null, "featured": false, "sample_categories": "Restaurants, Pizza", "public_id": "pizza-rogizio-marietta", "id": 777749830, "votes": null, "tagline": null, "has_video": false, "website": null, "offers": null, "latitude": 33.951936, "politanName": "Atlanta, GA Metro ", "phone_number": "7705782824", "tags": [{"primary": false, "id": 11299, "name": "Pizza"}, {"primary": true, "id": 1722, "name": "Restaurants"}], "fax_number": null, "expansion": {"count": null, "uri": null}, "impression_id": "000b000000826db25eff064c948798631914cb9292", "profile": "http://www.citysearch.com/profile/777749830/marietta_ga/pizza_rogizio.html", "address": {"city": "Marietta", "state": "GA", "street": "1818 Lower Roswell Rd", "postal_code": "30068"}, "capProviderId": null, "distance": null, "has_offers": false, "name": "Pizza Rogizio", "longitude": -84.499113, "has_menu": false, "awards": null, "user_review_count": 0}, {"business_operation_status": 1, "rating": null, "neighborhood": null, "image": null, "scorecard": null, "featured": false, "sample_categories": "Restaurants, Seafood", "public_id": "a-js-famous-seafood-poboys-marietta", "id": 793361500, "votes": null, "tagline": null, "has_video": false, "website": null, "offers": null, "latitude": 33.968758, "politanName": "Atlanta, GA Metro ", "phone_number": "6786273971", "tags": [{"primary": false, "id": 11228, "name": "Seafood"}, {"primary": true, "id": 1722, "name": "Restaurants"}], "fax_number": null, "expansion": {"count": null, "uri": null}, "impression_id": "000b00000006c85228506542afa78921b8afc73eff", "profile": "http://www.citysearch.com/profile/793361500/marietta_ga/a_j_s_famous_seafood_poboys.html", "address": {"city": "Marietta", "state": "GA", "street": "2100 Roswell Rd", "postal_code": "30062"}, "capProviderId": null, "distance": null, "has_offers": false, "name": "A J's Famous Seafood & Poboys", "longitude": -84.488447, "has_menu": false, "awards": null, "user_review_count": 0}, {"business_operation_status": 1, "rating": null, "neighborhood": null, "image": null, "scorecard": null, "featured": false, "sample_categories": "Restaurants, Cafes", "public_id": "socrates-cafe-marietta", "id": 713427300, "votes": null, "tagline": null, "has_video": false, "website": null, "offers": null, "latitude": 33.930756, "politanName": "Atlanta, GA Metro ", "phone_number": "7707926042", "tags": [{"primary": false, "id": 6190, "name": "Cafes"}, {"primary": true, "id": 1722, "name": "Restaurants"}], "fax_number": null, "expansion": {"count": null, "uri": null}, "impression_id": "000b0000002d13170de1264547aa0d228dbbf68995", "profile": "http://www.citysearch.com/profile/713427300/marietta_ga/socrates_cafe.html", "address": {"city": "Marietta", "state": "GA", "street": "1269 Barclay Cir Se", "postal_code": "30060"}, "capProviderId": null, "distance": null, "has_offers": false, "name": "Socrates Cafe", "longitude": -84.514539, "has_menu": false, "awards": null, "user_review_count": 0}, {"business_operation_status": 1, "rating": null, "neighborhood": null, "image": null, "scorecard": null, "featured": false, "sample_categories": "Restaurants", "public_id": "hoof-ale-marietta", "id": 796118290, "votes": null, "tagline": null, "has_video": false, "website": null, "offers": null, "latitude": 33.968758, "politanName": "Atlanta, GA Metro ", "phone_number": "7709710334", "tags": [{"primary": true, "id": 1722, "name": "Restaurants"}], "fax_number": null, "expansion": {"count": null, "uri": null}, "impression_id": "000b00000048464edc56bf4592a2de699c4a67f13d", "profile": "http://www.citysearch.com/profile/796118290/marietta_ga/hoof_ale.html", "address": {"city": "Marietta", "state": "GA", "street": "2100 Roswell Rd", "postal_code": "30062"}, "capProviderId": null, "distance": null, "has_offers": false, "name": "Hoof & Ale", "longitude": -84.488447, "has_menu": false, "awards": null, "user_review_count": 0}, {"business_operation_status": 0, "rating": null, "neighborhood": null, "image": null, "scorecard": null, "featured": false, "sample_categories": "Restaurants, Traditional American", "public_id": "shoneys-marietta", "id": 2900905, "votes": null, "tagline": null, "has_video": false, "website": null, "offers": null, "latitude": 33.9485, "politanName": "Atlanta, GA Metro ", "phone_number": "7704225333", "tags": [{"primary": false, "id": 11190, "name": "Traditional American"}, {"primary": true, "id": 1722, "name": "Restaurants"}], "fax_number": null, "expansion": {"count": null, "uri": null}, "impression_id": "000b0000004a1f2dc8852a46afb76784ba9d9f7501", "profile": "http://www.citysearch.com/profile/2900905/marietta_ga/shoney_s.html", "address": {"city": "Marietta", "state": "GA", "street": "155 Cobb Pkwy S", "postal_code": "30060"}, "capProviderId": null, "distance": null, "has_offers": false, "name": "Shoney's", "longitude": -84.518323, "has_menu": true, "awards": null, "user_review_count": 0}, {"business_operation_status": 1, "rating": null, "neighborhood": null, "image": null, "scorecard": null, "featured": false, "sample_categories": "Coffeehouses", "public_id": "ashley-cooper-coffee-marietta", "id": 816560520, "votes": null, "tagline": null, "has_video": false, "website": null, "offers": null, "latitude": 33.970881, "politanName": "Atlanta, GA Metro ", "phone_number": "7704229615", "tags": [{"primary": true, "id": 1726, "name": "Coffeehouses"}], "fax_number": null, "expansion": {"count": null, "uri": null}, "impression_id": "000b0000008810c39e618a40c99fa5ad16d196f442", "profile": "http://www.citysearch.com/profile/816560520/marietta_ga/ashley_cooper_coffee.html", "address": {"city": "Marietta", "state": "GA", "street": "829 Pickens Industrial Dr # 11", "postal_code": "30062"}, "capProviderId": null, "distance": null, "has_offers": false, "name": "Ashley Cooper Coffee", "longitude": -84.525365, "has_menu": false, "awards": null, "user_review_count": 0}, {"business_operation_status": 1, "rating": null, "neighborhood": null, "image": null, "scorecard": null, "featured": false, "sample_categories": "Restaurants", "public_id": "deli-planet-kennesaw", "id": 828070300, "votes": null, "tagline": null, "has_video": false, "website": null, "offers": null, "latitude": 34.012738, "politanName": "Atlanta, GA Metro ", "phone_number": "6783035062", "tags": [{"primary": true, "id": 1722, "name": "Restaurants"}], "fax_number": null, "expansion": {"count": null, "uri": null}, "impression_id": "000b000000c194e73c756642c5a711d54232325471", "profile": "http://www.citysearch.com/profile/828070300/kennesaw_ga/deli_planet.html", "address": {"city": "Kennesaw", "state": "GA", "street": "440 Ernest W Barrett Pkwy NW", "postal_code": "30144"}, "capProviderId": null, "distance": null, "has_offers": false, "name": "Deli Planet", "longitude": -84.5643, "has_menu": false, "awards": null, "user_review_count": 0}, {"business_operation_status": 1, "rating": null, "neighborhood": null, "image": null, "scorecard": null, "featured": false, "sample_categories": "Doughnut Shops", "public_id": "devs-donuts-marietta", "id": 826828870, "votes": null, "tagline": null, "has_video": false, "website": null, "offers": null, "latitude": 33.901077, "politanName": "Atlanta, GA Metro ", "phone_number": "7607025007", "tags": [{"primary": true, "id": 1734, "name": "Doughnut Shops"}], "fax_number": null, "expansion": {"count": null, "uri": null}, "impression_id": "000b000000db9e4226521e43afb710c4b967739321", "profile": "http://www.citysearch.com/profile/826828870/marietta_ga/dev_s_donuts.html", "address": {"city": "Marietta", "state": "GA", "street": "1812 Pdr Spgs Rd SW # 2115", "postal_code": "30064"}, "capProviderId": null, "distance": null, "has_offers": false, "name": "Dev's Donuts", "longitude": -84.606768, "has_menu": false, "awards": null, "user_review_count": 0}, {"business_operation_status": 1, "rating": null, "neighborhood": null, "image": null, "scorecard": null, "featured": false, "sample_categories": "Restaurants, Mexican, Carry Out", "public_id": "chipotle-mexican-grill-kennesaw", "id": 766807240, "votes": null, "tagline": null, "has_video": false, "website": "http://www.citysearch.com/profile/external/766807240/kennesaw_ga/chipotle_mexican_grill.html", "offers": null, "latitude": 34.019128, "politanName": "Atlanta, GA Metro ", "phone_number": "6782797996", "tags": [{"primary": false, "id": 11208, "name": "Mexican"}, {"primary": false, "id": 11247, "name": "Carry Out"}, {"primary": true, "id": 1722, "name": "Restaurants"}], "fax_number": null, "expansion": {"count": null, "uri": null}, "impression_id": "000b000000ed739ce1c5a14808ac36d9dfeb55d0b6", "profile": "http://www.citysearch.com/profile/766807240/kennesaw_ga/chipotle_mexican_grill.html", "address": {"city": "Kennesaw", "state": "GA", "street": "964 Ernest W Barrett Pkwy NW", "postal_code": "30144"}, "capProviderId": null, "distance": null, "has_offers": false, "name": "Chipotle Mexican Grill", "longitude": -84.563608, "has_menu": false, "awards": null, "user_review_count": 0}, {"business_operation_status": 0, "rating": null, "neighborhood": null, "image": null, "scorecard": null, "featured": false, "sample_categories": "Restaurants, Convenience Stores", "public_id": "pantry-marietta", "id": 777697380, "votes": null, "tagline": null, "has_video": false, "website": null, "offers": null, "latitude": 33.970591, "politanName": "Atlanta, GA Metro ", "phone_number": "7704198988", "tags": [{"primary": false, "id": 1714, "name": "Convenience Stores"}, {"primary": true, "id": 1722, "name": "Restaurants"}], "fax_number": null, "expansion": {"count": null, "uri": null}, "impression_id": "000b0000009bcd6b3525674852814980c03d7dc548", "profile": "http://www.citysearch.com/profile/777697380/marietta_ga/pantry.html", "address": {"city": "Marietta", "state": "GA", "street": "790 Church St Ne # 210", "postal_code": "30060"}, "capProviderId": null, "distance": null, "has_offers": false, "name": "Pantry", "longitude": -84.550288, "has_menu": false, "awards": null, "user_review_count": 0}, {"business_operation_status": 1, "rating": null, "neighborhood": null, "image": null, "scorecard": null, "featured": false, "sample_categories": "Restaurants, Barbecue Restaurants, Carry Out", "public_id": "gem-city-wings-marietta", "id": 777757950, "votes": null, "tagline": null, "has_video": false, "website": null, "offers": null, "latitude": 33.95115, "politanName": "Atlanta, GA Metro ", "phone_number": "6784027331", "tags": [{"primary": false, "id": 1724, "name": "Barbecue Restaurants"}, {"primary": false, "id": 11247, "name": "Carry Out"}, {"primary": true, "id": 1722, "name": "Restaurants"}], "fax_number": null, "expansion": {"count": null, "uri": null}, "impression_id": "000b000000737e795cf5ec415fa853b5a7189caf6e", "profile": "http://www.citysearch.com/profile/777757950/marietta_ga/gem_city_wings.html", "address": {"city": "Marietta", "state": "GA", "street": "20 N Fairground St Ne", "postal_code": "30060"}, "capProviderId": null, "distance": null, "has_offers": false, "name": "Gem City Wings", "longitude": -84.535474, "has_menu": false, "awards": null, "user_review_count": 0}, {"business_operation_status": 1, "rating": null, "neighborhood": null, "image": null, "scorecard": null, "featured": false, "sample_categories": "Restaurants, Bars & Clubs", "public_id": "highlands-grill-sports-tvrn-kennesaw", "id": 787112570, "votes": null, "tagline": null, "has_video": false, "website": null, "offers": null, "latitude": 34.013172, "politanName": "Atlanta, GA Metro ", "phone_number": "7704261515", "tags": [{"primary": false, "id": 164, "name": "Bars & Clubs"}, {"primary": true, "id": 1722, "name": "Restaurants"}], "fax_number": null, "expansion": {"count": null, "uri": null}, "impression_id": "000b000000073913e6404a43fe9356df3372442714", "profile": "http://www.citysearch.com/profile/787112570/kennesaw_ga/highlands_grill_sports_tvrn.html", "address": {"city": "Kennesaw", "state": "GA", "street": "2615 George Busbee Pkwy NW # 2", "postal_code": "30144"}, "capProviderId": null, "distance": null, "has_offers": false, "name": "Highlands Grill & Sports Tvrn", "longitude": -84.567215, "has_menu": false, "awards": null, "user_review_count": 0}, {"business_operation_status": 1, "rating": null, "neighborhood": null, "image": null, "scorecard": null, "featured": false, "sample_categories": "Restaurants", "public_id": "taqueria-la-villa-marietta", "id": 816057700, "votes": null, "tagline": null, "has_video": false, "website": null, "offers": null, "latitude": 33.969085, "politanName": "Atlanta, GA Metro ", "phone_number": "7705908887", "tags": [{"primary": true, "id": 1722, "name": "Restaurants"}], "fax_number": null, "expansion": {"count": null, "uri": null}, "impression_id": "000b00000096a1d9b8a81a4d2889225cac8fd8b98a", "profile": "http://www.citysearch.com/profile/816057700/marietta_ga/taqueria_la_villa.html", "address": {"city": "Marietta", "state": "GA", "street": "745 Cobb Pkwy N", "postal_code": "30062"}, "capProviderId": null, "distance": null, "has_offers": false, "name": "Taqueria La Villa", "longitude": -84.538349, "has_menu": false, "awards": null, "user_review_count": 0}, {"business_operation_status": 1, "rating": null, "neighborhood": null, "image": null, "scorecard": null, "featured": false, "sample_categories": "Restaurants", "public_id": "1848-house-marietta", "id": 816308800, "votes": null, "tagline": null, "has_video": false, "website": null, "offers": null, "latitude": 33.934909, "politanName": "Atlanta, GA Metro ", "phone_number": "7704281848", "tags": [{"primary": true, "id": 1722, "name": "Restaurants"}], "fax_number": null, "expansion": {"count": null, "uri": null}, "impression_id": "000b000000ebd7f2e065454f868d5900185a330efc", "profile": "http://www.citysearch.com/profile/816308800/marietta_ga/1848_house.html", "address": {"city": "Marietta", "state": "GA", "street": "780 S Cobb Dr SE", "postal_code": "30060"}, "capProviderId": null, "distance": null, "has_offers": false, "name": "1848 House", "longitude": -84.547956, "has_menu": false, "awards": null, "user_review_count": 1}, {"business_operation_status": 1, "rating": null, "neighborhood": null, "image": null, "scorecard": null, "featured": false, "sample_categories": "Restaurants", "public_id": "beyond-the-box-designs-inc-marietta", "id": 713390380, "votes": null, "tagline": null, "has_video": false, "website": "http://www.citysearch.com/profile/external/713390380/marietta_ga/beyond_the_box_designs_inc.html", "offers": null, "latitude": 33.950732, "politanName": "Atlanta, GA Metro ", "phone_number": "7704898198", "tags": [{"primary": true, "id": 1722, "name": "Restaurants"}], "fax_number": null, "expansion": {"count": null, "uri": null}, "impression_id": "000b00000081dc89e798ad4c48bd92528d37858a13", "profile": "http://www.citysearch.com/profile/713390380/marietta_ga/beyond_the_box_designs_inc.html", "address": {"city": "Marietta", "state": "GA", "street": "515 Roswell St Ne", "postal_code": "30060"}, "capProviderId": null, "distance": null, "has_offers": false, "name": "Beyond The Box Designs INC", "longitude": -84.537203, "has_menu": false, "awards": null, "user_review_count": 0}, {"business_operation_status": 1, "rating": null, "neighborhood": null, "image": null, "scorecard": null, "featured": false, "sample_categories": "Restaurants, Hamburgers", "public_id": "smashburger-kennesaw", "id": 739079670, "votes": null, "tagline": null, "has_video": false, "website": null, "offers": null, "latitude": 34.014321, "politanName": "Atlanta, GA Metro ", "phone_number": "7704274141", "tags": [{"primary": false, "id": 11270, "name": "Hamburgers"}, {"primary": true, "id": 1722, "name": "Restaurants"}], "fax_number": null, "expansion": {"count": null, "uri": null}, "impression_id": "000b000000ad2742eda8df4d1ba91ec3be0c680184", "profile": "http://www.citysearch.com/profile/739079670/kennesaw_ga/smashburger.html", "address": {"city": "Kennesaw", "state": "GA", "street": "440 Ernest W Barrett Pkwy NW", "postal_code": "30144"}, "capProviderId": null, "distance": null, "has_offers": false, "name": "Smashburger", "longitude": -84.562111, "has_menu": false, "awards": null, "user_review_count": 0}, {"business_operation_status": 1, "rating": null, "neighborhood": null, "image": null, "scorecard": null, "featured": false, "sample_categories": "Restaurants, Pizza, Carry Out", "public_id": "jets-pizza-marietta-2", "id": 766779210, "votes": null, "tagline": null, "has_video": false, "website": "http://www.citysearch.com/profile/external/766779210/marietta_ga/jet_s_pizza.html", "offers": null, "latitude": 33.980787, "politanName": "Atlanta, GA Metro ", "phone_number": "7705095774", "tags": [{"primary": false, "id": 1722, "name": "Restaurants"}, {"primary": false, "id": 11247, "name": "Carry Out"}, {"primary": true, "id": 11299, "name": "Pizza"}], "fax_number": null, "expansion": {"count": null, "uri": null}, "impression_id": "000b00000068a8b582eb0e4dc38461524c6107df6e", "profile": "http://www.citysearch.com/profile/766779210/marietta_ga/jet_s_pizza.html", "address": {"city": "Marietta", "state": "GA", "street": "3101 Roswell Rd", "postal_code": "30062"}, "capProviderId": null, "distance": null, "has_offers": false, "name": "Jet's Pizza", "longitude": -84.464028, "has_menu": false, "awards": null, "user_review_count": 0}, {"business_operation_status": 1, "rating": null, "neighborhood": null, "image": null, "scorecard": null, "featured": false, "sample_categories": "Seafood Markets, Restaurants", "public_id": "cajun-gulf-seafood-marietta", "id": 775189770, "votes": null, "tagline": null, "has_video": false, "website": null, "offers": null, "latitude": 33.970105, "politanName": "Atlanta, GA Metro ", "phone_number": "7705753222", "tags": [{"primary": false, "id": 1722, "name": "Restaurants"}, {"primary": true, "id": 1719, "name": "Seafood Markets"}], "fax_number": null, "expansion": {"count": null, "uri": null}, "impression_id": "000b00000005d0be253b134be6836abd16e50848f4", "profile": "http://www.citysearch.com/profile/775189770/marietta_ga/cajun_gulf_seafood.html", "address": {"city": "Marietta", "state": "GA", "street": "745 Cobb Pkwy N", "postal_code": "30062"}, "capProviderId": null, "distance": null, "has_offers": false, "name": "Cajun Gulf Seafood", "longitude": -84.5389, "has_menu": false, "awards": null, "user_review_count": 0}, {"business_operation_status": 1, "rating": null, "neighborhood": null, "image": null, "scorecard": null, "featured": false, "sample_categories": "Restaurants", "public_id": "amonos-restaurant-kennesaw", "id": 777767990, "votes": null, "tagline": null, "has_video": false, "website": null, "offers": null, "latitude": 34.014516, "politanName": "Atlanta, GA Metro ", "phone_number": "6783550535", "tags": [{"primary": true, "id": 1722, "name": "Restaurants"}], "fax_number": null, "expansion": {"count": null, "uri": null}, "impression_id": "000b00000030333d11e9354cc284695e4b7b42925c", "profile": "http://www.citysearch.com/profile/777767990/kennesaw_ga/amono_s_restaurant.html", "address": {"city": "Kennesaw", "state": "GA", "street": "2700 Town Center Dr NW # A", "postal_code": "30144"}, "capProviderId": null, "distance": null, "has_offers": false, "name": "Amono's Restaurant", "longitude": -84.56447, "has_menu": false, "awards": null, "user_review_count": 0}, {"business_operation_status": 1, "rating": null, "neighborhood": null, "image": null, "scorecard": null, "featured": false, "sample_categories": "Coffeehouses", "public_id": "assoc-coffee-mill-enthusics-marietta", "id": 787109920, "votes": null, "tagline": null, "has_video": false, "website": null, "offers": null, "latitude": 33.969136, "politanName": "Atlanta, GA Metro ", "phone_number": "7704276434", "tags": [{"primary": true, "id": 1726, "name": "Coffeehouses"}], "fax_number": null, "expansion": {"count": null, "uri": null}, "impression_id": "000b00000048d7f1df448f48ae88cba801f7e786df", "profile": "http://www.citysearch.com/profile/787109920/marietta_ga/assoc_coffee_mill_enthusics.html", "address": {"city": "Marietta", "state": "GA", "street": "657 Old Mountain Rd NW", "postal_code": "30064"}, "capProviderId": null, "distance": null, "has_offers": false, "name": "Assoc Coffee Mill Enthusics", "longitude": -84.593531, "has_menu": false, "awards": null, "user_review_count": 0}, {"business_operation_status": 1, "rating": null, "neighborhood": null, "image": null, "scorecard": null, "featured": false, "sample_categories": "Restaurants", "public_id": "righteous-que-marietta", "id": 790722150, "votes": null, "tagline": null, "has_video": false, "website": null, "offers": null, "latitude": 33.976739, "politanName": "Atlanta, GA Metro ", "phone_number": "7709718111", "tags": [{"primary": true, "id": 1722, "name": "Restaurants"}], "fax_number": null, "expansion": {"count": null, "uri": null}, "impression_id": "000b00000073736e4b1d20479898dc04160533feb0", "profile": "http://www.citysearch.com/profile/790722150/marietta_ga/righteous_que.html", "address": {"city": "Marietta", "state": "GA", "street": "1050 E Piedmont Rd", "postal_code": "30062"}, "capProviderId": null, "distance": null, "has_offers": false, "name": "Righteous Que", "longitude": -84.479676, "has_menu": false, "awards": null, "user_review_count": 0}, {"business_operation_status": 1, "rating": null, "neighborhood": null, "image": null, "scorecard": null, "featured": false, "sample_categories": "Restaurants", "public_id": "bikini-beach-kennesaw", "id": 672684390, "votes": null, "tagline": null, "has_video": false, "website": null, "offers": null, "latitude": 33.991946, "politanName": "Atlanta, GA Metro ", "phone_number": "7704268001", "tags": [{"primary": true, "id": 1722, "name": "Restaurants"}], "fax_number": null, "expansion": {"count": null, "uri": null}, "impression_id": "000b00000036d01aabb01546e1aaab9f497e06d9dc", "profile": "http://www.citysearch.com/profile/672684390/kennesaw_ga/bikini_beach.html", "address": {"city": "Kennesaw", "state": "GA", "street": "1619 Collins Road Northwest", "postal_code": "30152"}, "capProviderId": null, "distance": null, "has_offers": false, "name": "Bikini Beach", "longitude": -84.59912, "has_menu": false, "awards": null, "user_review_count": 0}, {"business_operation_status": 0, "rating": null, "neighborhood": null, "image": null, "scorecard": null, "featured": false, "sample_categories": "Restaurants", "public_id": "daily-grind-marietta-2", "id": 672770880, "votes": null, "tagline": null, "has_video": false, "website": null, "offers": null, "latitude": 34.014064, "politanName": "Atlanta, GA Metro ", "phone_number": "7709715199", "tags": [{"primary": true, "id": 1722, "name": "Restaurants"}], "fax_number": null, "expansion": {"count": null, "uri": null}, "impression_id": "000b00000028720a4065bd4d3cb994f0ef55acafd8", "profile": "http://www.citysearch.com/profile/672770880/marietta_ga/daily_grind.html", "address": {"city": "Marietta", "state": "GA", "street": "2595 Sandy Plains Rd", "postal_code": "30066"}, "capProviderId": null, "distance": null, "has_offers": false, "name": "Daily Grind", "longitude": -84.495766, "has_menu": true, "awards": null, "user_review_count": 0}, {"business_operation_status": 1, "rating": null, "neighborhood": null, "image": null, "scorecard": null, "featured": false, "sample_categories": "Restaurants, Chinese", "public_id": "china-inn-marietta", "id": 787127820, "votes": null, "tagline": null, "has_video": false, "website": null, "offers": null, "latitude": 33.950252, "politanName": "Atlanta, GA Metro ", "phone_number": "7705908023", "tags": [{"primary": false, "id": 11252, "name": "Chinese"}, {"primary": true, "id": 1722, "name": "Restaurants"}], "fax_number": null, "expansion": {"count": null, "uri": null}, "impression_id": "000b000000bd67c9ebb4ee435292266e1473959a82", "profile": "http://www.citysearch.com/profile/787127820/marietta_ga/china_inn.html", "address": {"city": "Marietta", "state": "GA", "street": "2500 Dallas Hwy Sw # 200", "postal_code": "30064"}, "capProviderId": null, "distance": null, "has_offers": false, "name": "China Inn", "longitude": -84.638093, "has_menu": false, "awards": null, "user_review_count": 0}, {"business_operation_status": 1, "rating": null, "neighborhood": null, "image": null, "scorecard": null, "featured": false, "sample_categories": "Restaurants", "public_id": "jc-flowers-bonsai-marietta", "id": 787129080, "votes": null, "tagline": null, "has_video": false, "website": null, "offers": null, "latitude": 33.952602, "politanName": "Atlanta, GA Metro ", "phone_number": "7705653912", "tags": [{"primary": true, "id": 1722, "name": "Restaurants"}], "fax_number": null, "expansion": {"count": null, "uri": null}, "impression_id": "000b00000011d31b56ad994a218564f6285ac76928", "profile": "http://www.citysearch.com/profile/787129080/marietta_ga/jc_flowers_bonsai.html", "address": {"city": "Marietta", "state": "GA", "street": "2754 Sandy Plains Rd # 116", "postal_code": "30066"}, "capProviderId": null, "distance": null, "has_offers": false, "name": "Jc Flowers & Bonsai", "longitude": -84.549933, "has_menu": false, "awards": null, "user_review_count": 0}], "histograms": [], "tag_ids": [1722], "uri": "http://api.citygridmedia.com:8080/search/places/v2/search/where?has_offers=false&type=restaurant&format=json&page=14&where=30090&rpp=50&histograms=false&publisher=10000009598&region_type=circle", "did_you_mean": "", "regions": [{"latitude": 33.952149999999996, "default_radius": 0.14, "type": "postal_code", "name": "30090", "longitude": -84.547761}], "call_id": "000b000000d9af3baa934045d3bf421337fa77fb52", "first_hit": 651, "total_hits": 868, "geo_ids": [26336], "page": 14, "last_hit": 700}}