{"results": {"rpp": 50, "locations": [{"business_operation_status": 1, "rating": null, "neighborhood": null, "image": null, "scorecard": null, "featured": false, "sample_categories": "Restaurants, Ice Cream Parlors, Carry Out", "public_id": "mc-donalds-marietta-21", "id": 764880600, "votes": null, "tagline": null, "has_video": false, "website": null, "offers": null, "latitude": 33.952602, "politanName": "Atlanta, GA Metro ", "phone_number": "4047846909", "tags": [{"primary": false, "id": 1730, "name": "Ice Cream Parlors"}, {"primary": false, "id": 11247, "name": "Carry Out"}, {"primary": true, "id": 1722, "name": "Restaurants"}], "fax_number": null, "expansion": {"count": null, "uri": null}, "impression_id": "000b000000e825bed7db0942979463ae99f2791f28", "profile": "http://www.citysearch.com/profile/764880600/marietta_ga/mc_donald_s.html", "address": {"city": "Marietta", "state": "GA", "street": "PO Box 965370", "postal_code": "30066"}, "capProviderId": null, "distance": null, "has_offers": false, "name": "Mc Donald's", "longitude": -84.549933, "has_menu": false, "awards": null, "user_review_count": 0}, {"business_operation_status": 1, "rating": null, "neighborhood": null, "image": null, "scorecard": null, "featured": false, "sample_categories": "Restaurants, Cajun & Creole", "public_id": "franks-cajun-soul-kitchen-marietta", "id": 754804990, "votes": null, "tagline": null, "has_video": false, "website": "http://www.citysearch.com/profile/external/754804990/marietta_ga/frank_s_cajun_soul_kitchen.html", "offers": null, "latitude": 33.92448, "politanName": "Atlanta, GA Metro ", "phone_number": "6783836703", "tags": [{"primary": false, "id": 11245, "name": "Cajun & Creole"}, {"primary": true, "id": 1722, "name": "Restaurants"}], "fax_number": null, "expansion": {"count": null, "uri": null}, "impression_id": "000b0000006a90b40ccdb04dfd925decfa18d22750", "profile": "http://www.citysearch.com/profile/754804990/marietta_ga/frank_s_cajun_soul_kitchen.html", "address": {"city": "Marietta", "state": "GA", "street": "1175 Powder Springs St", "postal_code": "30064"}, "capProviderId": null, "distance": null, "has_offers": false, "name": "Frank's Cajun & Soul Kitchen", "longitude": -84.574615, "has_menu": true, "awards": null, "user_review_count": 1}, {"business_operation_status": 1, "rating": null, "neighborhood": null, "image": null, "scorecard": null, "featured": false, "sample_categories": "Restaurants", "public_id": "la-tagliatellakennesaw-kennesaw", "id": 768794230, "votes": null, "tagline": null, "has_video": false, "website": null, "offers": null, "latitude": 34.002327, "politanName": "Atlanta, GA Metro ", "phone_number": "6789053611", "tags": [{"primary": true, "id": 1722, "name": "Restaurants"}], "fax_number": null, "expansion": {"count": null, "uri": null}, "impression_id": "000b000000092093746fc245b185eae00d5ef1728f", "profile": "http://www.citysearch.com/profile/768794230/kennesaw_ga/la_tagliatella_kennesaw.html", "address": {"city": "Kennesaw", "state": "GA", "street": "2045 Attic Pkwy NW", "postal_code": "30152"}, "capProviderId": null, "distance": null, "has_offers": false, "name": "La Tagliatella-Kennesaw", "longitude": -84.604376, "has_menu": false, "awards": null, "user_review_count": 0}, {"business_operation_status": 1, "rating": null, "neighborhood": null, "image": null, "scorecard": null, "featured": false, "sample_categories": "Restaurants, Chinese", "public_id": "manchu-wok-kennesaw", "id": 2955024, "votes": null, "tagline": null, "has_video": false, "website": null, "offers": null, "latitude": 34.019128, "politanName": "Atlanta, GA Metro ", "phone_number": "7704239488", "tags": [{"primary": false, "id": 11252, "name": "Chinese"}, {"primary": true, "id": 1722, "name": "Restaurants"}], "fax_number": null, "expansion": {"count": null, "uri": null}, "impression_id": "000b000000f0fb0dc278f14bbc82c80c382d9b24cc", "profile": "http://www.citysearch.com/profile/2955024/kennesaw_ga/manchu_wok.html", "address": {"city": "Kennesaw", "state": "GA", "street": "400 Ernest W Barrett Pkwy NW", "postal_code": "30144"}, "capProviderId": null, "distance": null, "has_offers": false, "name": "Manchu Wok", "longitude": -84.563608, "has_menu": true, "awards": null, "user_review_count": 0}, {"business_operation_status": 1, "rating": null, "neighborhood": null, "image": null, "scorecard": null, "featured": false, "sample_categories": "Restaurants", "public_id": "pyramid-restaurant-hookah-marietta", "id": 777743980, "votes": null, "tagline": null, "has_video": false, "website": null, "offers": null, "latitude": 33.942926, "politanName": "Atlanta, GA Metro ", "phone_number": "6782131030", "tags": [{"primary": true, "id": 1722, "name": "Restaurants"}], "fax_number": null, "expansion": {"count": null, "uri": null}, "impression_id": "000b000000582368347b5742b298e27454690e82d1", "profile": "http://www.citysearch.com/profile/777743980/marietta_ga/pyramid_restaurant_hookah.html", "address": {"city": "Marietta", "state": "GA", "street": "600 S Marietta Pkwy Se", "postal_code": "30060"}, "capProviderId": null, "distance": null, "has_offers": false, "name": "Pyramid Restaurant & Hookah", "longitude": -84.534635, "has_menu": false, "awards": null, "user_review_count": 0}, {"business_operation_status": 1, "rating": null, "neighborhood": null, "image": null, "scorecard": null, "featured": false, "sample_categories": "Restaurants, Bistros, Bars & Clubs", "public_id": "north-park-bistro-marietta", "id": 777790950, "votes": null, "tagline": null, "has_video": false, "website": "http://www.citysearch.com/profile/external/777790950/marietta_ga/kish_restaurant_bar.html", "offers": null, "latitude": 33.953606, "politanName": "Atlanta, GA Metro ", "phone_number": "7706726803", "tags": [{"primary": false, "id": 13690, "name": "Bistros"}, {"primary": false, "id": 164, "name": "Bars & Clubs"}, {"primary": true, "id": 1722, "name": "Restaurants"}], "fax_number": null, "expansion": {"count": null, "uri": null}, "impression_id": "000b00000042c31ab1530b49b6824e3fb86753758c", "profile": "http://www.citysearch.com/profile/777790950/marietta_ga/kish_restaurant_bar.html", "address": {"city": "Marietta", "state": "GA", "street": "105 N Park Sq NE", "postal_code": "30060"}, "capProviderId": null, "distance": null, "has_offers": false, "name": "Kish Restaurant & Bar", "longitude": -84.549403, "has_menu": false, "awards": null, "user_review_count": 0}, {"business_operation_status": 1, "rating": null, "neighborhood": null, "image": null, "scorecard": null, "featured": false, "sample_categories": "Restaurants", "public_id": "julias-cafe-marietta", "id": 787109210, "votes": null, "tagline": null, "has_video": false, "website": null, "offers": null, "latitude": 33.938568, "politanName": "Atlanta, GA Metro ", "phone_number": "7704284400", "tags": [{"primary": true, "id": 1722, "name": "Restaurants"}], "fax_number": null, "expansion": {"count": null, "uri": null}, "impression_id": "000b000000e1acfc057fb44a2dbd22375fb4a81823", "profile": "http://www.citysearch.com/profile/787109210/marietta_ga/julia_s_cafe.html", "address": {"city": "Marietta", "state": "GA", "street": "1775 Pkwy Pl NW", "postal_code": "30067"}, "capProviderId": null, "distance": null, "has_offers": false, "name": "Julia's Cafe", "longitude": -84.505213, "has_menu": false, "awards": null, "user_review_count": 0}, {"business_operation_status": 1, "rating": null, "neighborhood": null, "image": null, "scorecard": null, "featured": false, "sample_categories": "Restaurants, Thai", "public_id": "f-j-thai-pepper-llc-kennesaw", "id": 793231080, "votes": null, "tagline": null, "has_video": false, "website": null, "offers": null, "latitude": 34.01386, "politanName": "Atlanta, GA Metro ", "phone_number": "7704199500", "tags": [{"primary": false, "id": 11319, "name": "Thai"}, {"primary": true, "id": 1722, "name": "Restaurants"}], "fax_number": null, "expansion": {"count": null, "uri": null}, "impression_id": "000b000000ec7cc44b1865417c9ff4a10fb1c6b9f4", "profile": "http://www.citysearch.com/profile/793231080/kennesaw_ga/f_j_thai_pepper_llc.html", "address": {"city": "Kennesaw", "state": "GA", "street": "2606 George Busbee Pkwy NW", "postal_code": "30144"}, "capProviderId": null, "distance": null, "has_offers": false, "name": "F J Thai Pepper LLC", "longitude": -84.565725, "has_menu": false, "awards": null, "user_review_count": 0}, {"business_operation_status": 1, "rating": null, "neighborhood": null, "image": null, "scorecard": null, "featured": false, "sample_categories": "Restaurants", "public_id": "el-sarape-marietta", "id": 815403830, "votes": null, "tagline": null, "has_video": false, "website": null, "offers": null, "latitude": 33.969085, "politanName": "Atlanta, GA Metro ", "phone_number": "7705908887", "tags": [{"primary": true, "id": 1722, "name": "Restaurants"}], "fax_number": null, "expansion": {"count": null, "uri": null}, "impression_id": "000b0000008c86584609074b98a601ff6df2c151b9", "profile": "http://www.citysearch.com/profile/815403830/marietta_ga/el_sarape.html", "address": {"city": "Marietta", "state": "GA", "street": "745 Cobb Pkwy N", "postal_code": "30062"}, "capProviderId": null, "distance": null, "has_offers": false, "name": "El Sarape", "longitude": -84.538349, "has_menu": false, "awards": null, "user_review_count": 0}, {"business_operation_status": 1, "rating": null, "neighborhood": null, "image": null, "scorecard": null, "featured": false, "sample_categories": "Restaurants", "public_id": "j-mann-cafe-grille-marietta", "id": 815522810, "votes": null, "tagline": null, "has_video": false, "website": null, "offers": null, "latitude": 33.948544, "politanName": "Atlanta, GA Metro ", "phone_number": "7705280262", "tags": [{"primary": true, "id": 1722, "name": "Restaurants"}], "fax_number": null, "expansion": {"count": null, "uri": null}, "impression_id": "000b000000ee33a103ebfb49719df0c7e35e05e20f", "profile": "http://www.citysearch.com/profile/815522810/marietta_ga/j_mann_cafe_grille.html", "address": {"city": "Marietta", "state": "GA", "street": "191 S Marietta Pkwy SW", "postal_code": "30064"}, "capProviderId": null, "distance": null, "has_offers": false, "name": "J Mann Cafe & Grille", "longitude": -84.550204, "has_menu": false, "awards": null, "user_review_count": 0}, {"business_operation_status": 1, "rating": null, "neighborhood": null, "image": null, "scorecard": null, "featured": false, "sample_categories": "Restaurants", "public_id": "cobb-kennesaw", "id": 812569790, "votes": null, "tagline": null, "has_video": false, "website": null, "offers": null, "latitude": 34.007674, "politanName": "Atlanta, GA Metro ", "phone_number": "7704256895", "tags": [{"primary": true, "id": 1722, "name": "Restaurants"}], "fax_number": null, "expansion": {"count": null, "uri": null}, "impression_id": "000b0000008af449cc3d5a4ee29820ba283534a453", "profile": "http://www.citysearch.com/profile/812569790/kennesaw_ga/cobb.html", "address": {"city": "Kennesaw", "state": "GA", "street": "740 Ernest W Barrett Pkwy NW", "postal_code": "30144"}, "capProviderId": null, "distance": null, "has_offers": false, "name": "Cobb", "longitude": -84.571702, "has_menu": false, "awards": null, "user_review_count": 0}, {"business_operation_status": 1, "rating": null, "neighborhood": null, "image": null, "scorecard": null, "featured": false, "sample_categories": "Restaurants", "public_id": "miramcho-marietta", "id": 815118630, "votes": null, "tagline": null, "has_video": false, "website": null, "offers": null, "latitude": 33.933881, "politanName": "Atlanta, GA Metro ", "phone_number": "7707940330", "tags": [{"primary": true, "id": 1722, "name": "Restaurants"}], "fax_number": null, "expansion": {"count": null, "uri": null}, "impression_id": "000b000000fc2e3596030949e1b52bd33b43d12c21", "profile": "http://www.citysearch.com/profile/815118630/marietta_ga/miramcho.html", "address": {"city": "Marietta", "state": "GA", "street": "760 Sandtown Rd SW", "postal_code": "30008"}, "capProviderId": null, "distance": null, "has_offers": false, "name": "Miramcho", "longitude": -84.555669, "has_menu": false, "awards": null, "user_review_count": 1}, {"business_operation_status": 1, "rating": null, "neighborhood": null, "image": null, "scorecard": null, "featured": false, "sample_categories": "Restaurants", "public_id": "b-a-b-smokehouse-marietta", "id": 818380670, "votes": null, "tagline": null, "has_video": false, "website": null, "offers": null, "latitude": 34.02684, "politanName": "Atlanta, GA Metro ", "phone_number": "7704220604", "tags": [{"primary": true, "id": 1722, "name": "Restaurants"}], "fax_number": null, "expansion": {"count": null, "uri": null}, "impression_id": "000b000000c1c6db6695354cf9bc1b98c8f9bb51fc", "profile": "http://www.citysearch.com/profile/818380670/marietta_ga/b_a_b_smokehouse.html", "address": {"city": "Marietta", "state": "GA", "street": "3050 Canton Rd", "postal_code": "30066"}, "capProviderId": null, "distance": null, "has_offers": false, "name": "B A B Smokehouse", "longitude": -84.527483, "has_menu": false, "awards": null, "user_review_count": 0}, {"business_operation_status": 1, "rating": null, "neighborhood": null, "image": null, "scorecard": null, "featured": false, "sample_categories": "Restaurants, Pizza", "public_id": "bella-bocca-marietta", "id": 822361720, "votes": null, "tagline": null, "has_video": false, "website": null, "offers": null, "latitude": 33.951001, "politanName": "Atlanta, GA Metro ", "phone_number": "7707958984", "tags": [{"primary": false, "id": 1722, "name": "Restaurants"}, {"primary": true, "id": 11299, "name": "Pizza"}], "fax_number": null, "expansion": {"count": null, "uri": null}, "impression_id": "000b0000006f9943b3404345a1a43fc9c269271882", "profile": "http://www.citysearch.com/profile/822361720/marietta_ga/bella_bocca.html", "address": {"city": "Marietta", "state": "GA", "street": "999 Whitlock Ave SW", "postal_code": "30064"}, "capProviderId": null, "distance": null, "has_offers": false, "name": "Bella Bocca", "longitude": -84.57917, "has_menu": false, "awards": null, "user_review_count": 1}, {"business_operation_status": 1, "rating": null, "neighborhood": null, "image": null, "scorecard": null, "featured": false, "sample_categories": "Restaurants, Pizza", "public_id": "jimmys-pizza-marietta", "id": 822422560, "votes": null, "tagline": null, "has_video": false, "website": null, "offers": null, "latitude": 33.901926, "politanName": "Atlanta, GA Metro ", "phone_number": "7704357664", "tags": [{"primary": false, "id": 1722, "name": "Restaurants"}, {"primary": true, "id": 11299, "name": "Pizza"}], "fax_number": null, "expansion": {"count": null, "uri": null}, "impression_id": "000b000000e9092b4841a44d72802015a008e9a80f", "profile": "http://www.citysearch.com/profile/822422560/marietta_ga/jimmy_s_pizza.html", "address": {"city": "Marietta", "state": "GA", "street": "495 Pat Mell Rd SW # 104", "postal_code": "30060"}, "capProviderId": null, "distance": null, "has_offers": false, "name": "Jimmy's Pizza", "longitude": -84.567429, "has_menu": false, "awards": null, "user_review_count": 0}, {"business_operation_status": 0, "rating": null, "neighborhood": null, "image": null, "scorecard": null, "featured": false, "sample_categories": "Restaurants, Pizza", "public_id": "luna-pizza-kennesaw", "id": 824661650, "votes": null, "tagline": null, "has_video": false, "website": null, "offers": null, "latitude": 34.013172, "politanName": "Atlanta, GA Metro ", "phone_number": "6787660449", "tags": [{"primary": false, "id": 1722, "name": "Restaurants"}, {"primary": true, "id": 11299, "name": "Pizza"}], "fax_number": null, "expansion": {"count": null, "uri": null}, "impression_id": "000b000000225c3a99eedf459e8ab3697d9733cd51", "profile": "http://www.citysearch.com/profile/824661650/kennesaw_ga/luna_pizza.html", "address": {"city": "Kennesaw", "state": "GA", "street": "2615 George Busbee Pkwy NW", "postal_code": "30144"}, "capProviderId": null, "distance": null, "has_offers": false, "name": "Luna Pizza", "longitude": -84.567215, "has_menu": false, "awards": null, "user_review_count": 0}, {"business_operation_status": 1, "rating": null, "neighborhood": null, "image": null, "scorecard": null, "featured": false, "sample_categories": "Restaurants", "public_id": "finca-bonita-mexican-grill-marietta", "id": 838631820, "votes": null, "tagline": null, "has_video": false, "website": null, "offers": null, "latitude": 33.951258, "politanName": "Atlanta, GA Metro ", "phone_number": "7704198290", "tags": [{"primary": true, "id": 1722, "name": "Restaurants"}], "fax_number": null, "expansion": {"count": null, "uri": null}, "impression_id": "000b0000003621e6d1c584419b8e098784f58e59a9", "profile": "http://www.citysearch.com/profile/838631820/marietta_ga/finca_bonita_mexican_grill.html", "address": {"city": "Marietta", "state": "GA", "street": "1157 Roswell Rd", "postal_code": "30062"}, "capProviderId": null, "distance": null, "has_offers": false, "name": "Finca Bonita Mexican Grill", "longitude": -84.517723, "has_menu": false, "awards": null, "user_review_count": 1}, {"business_operation_status": 0, "rating": null, "neighborhood": null, "image": null, "scorecard": null, "featured": false, "sample_categories": "Restaurants, Carry Out", "public_id": "atlanta-bread-co-marietta-3", "id": 818761800, "votes": null, "tagline": null, "has_video": false, "website": null, "offers": null, "latitude": 33.947326, "politanName": "Atlanta, GA Metro ", "phone_number": "7704250442", "tags": [{"primary": false, "id": 11247, "name": "Carry Out"}, {"primary": true, "id": 1722, "name": "Restaurants"}], "fax_number": null, "expansion": {"count": null, "uri": null}, "impression_id": "000b000000ffe2c9ca3ac1475189e8d7dcd8e4e82c", "profile": "http://www.citysearch.com/profile/818761800/marietta_ga/atlanta_bread_co.html", "address": {"city": "Marietta", "state": "GA", "street": "3451 Ernest W Barrett NW # 200", "postal_code": "30064"}, "capProviderId": null, "distance": null, "has_offers": false, "name": "Atlanta Bread Co", "longitude": -84.622965, "has_menu": false, "awards": null, "user_review_count": 0}, {"business_operation_status": 1, "rating": null, "neighborhood": null, "image": null, "scorecard": null, "featured": false, "sample_categories": "Restaurants", "public_id": "whitcher-street-caf-marietta", "id": 713628600, "votes": null, "tagline": null, "has_video": false, "website": null, "offers": null, "latitude": 33.967469, "politanName": "Atlanta, GA Metro ", "phone_number": "6785813888", "tags": [{"primary": true, "id": 1722, "name": "Restaurants"}], "fax_number": null, "expansion": {"count": null, "uri": null}, "impression_id": "000b0000003f155f2e4e064db2b28ff3d8e7c27a56", "profile": "http://www.citysearch.com/profile/713628600/marietta_ga/whitcher_street_caf.html", "address": {"city": "Marietta", "state": "GA", "street": "55 Whitcher St Ne", "postal_code": "30060"}, "capProviderId": null, "distance": null, "has_offers": false, "name": "Whitcher Street Caf", "longitude": -84.551412, "has_menu": false, "awards": null, "user_review_count": 0}, {"business_operation_status": 1, "rating": null, "neighborhood": null, "image": null, "scorecard": null, "featured": false, "sample_categories": "Restaurants, Delis And Delicatessens", "public_id": "d-w-cafe-marietta", "id": 775198490, "votes": null, "tagline": null, "has_video": false, "website": null, "offers": null, "latitude": 33.972386, "politanName": "Atlanta, GA Metro ", "phone_number": "6784018966", "tags": [{"primary": false, "id": 1727, "name": "Delis And Delicatessens"}, {"primary": true, "id": 1722, "name": "Restaurants"}], "fax_number": null, "expansion": {"count": null, "uri": null}, "impression_id": "000b0000008a33df3d14e14721b94977283f1b9dc1", "profile": "http://www.citysearch.com/profile/775198490/marietta_ga/d_w_cafe.html", "address": {"city": "Marietta", "state": "GA", "street": "833 Campbell Hill St NW", "postal_code": "30060"}, "capProviderId": null, "distance": null, "has_offers": false, "name": "D W Cafe", "longitude": -84.552023, "has_menu": false, "awards": null, "user_review_count": 0}, {"business_operation_status": 1, "rating": null, "neighborhood": null, "image": null, "scorecard": null, "featured": false, "sample_categories": "Restaurants, Carry Out, Chicken", "public_id": "zaxbys-marietta-6", "id": 787134660, "votes": null, "tagline": null, "has_video": false, "website": "http://www.citysearch.com/profile/external/787134660/marietta_ga/zaxby_s.html", "offers": null, "latitude": 33.952602, "politanName": "Atlanta, GA Metro ", "phone_number": "6788521483", "tags": [{"primary": false, "id": 11247, "name": "Carry Out"}, {"primary": false, "id": 12839, "name": "Chicken"}, {"primary": true, "id": 1722, "name": "Restaurants"}], "fax_number": null, "expansion": {"count": null, "uri": null}, "impression_id": "000b000000069283a5b5324cf2a17ab6256bc45ba7", "profile": "http://www.citysearch.com/profile/787134660/marietta_ga/zaxby_s.html", "address": {"city": "Marietta", "state": "GA", "street": "2756 Sandy Plains Rd", "postal_code": "30066"}, "capProviderId": null, "distance": null, "has_offers": false, "name": "Zaxby's", "longitude": -84.549933, "has_menu": true, "awards": null, "user_review_count": 0}, {"business_operation_status": 1, "rating": 8.0, "neighborhood": null, "image": null, "scorecard": null, "featured": false, "sample_categories": "Restaurants, Chinese", "public_id": "new-china-house-marietta", "id": 2904692, "votes": null, "tagline": null, "has_video": false, "website": "http://www.citysearch.com/profile/external/2904692/marietta_ga/new_china_house.html", "offers": null, "latitude": 33.971616, "politanName": "Atlanta, GA Metro ", "phone_number": "7704286409", "tags": [{"primary": false, "id": 11252, "name": "Chinese"}, {"primary": true, "id": 1722, "name": "Restaurants"}], "fax_number": null, "expansion": {"count": null, "uri": null}, "impression_id": "000b00000006af449c4a11443a9e6e28ad678d0c3d", "profile": "http://www.citysearch.com/profile/2904692/marietta_ga/new_china_house.html", "address": {"city": "Marietta", "state": "GA", "street": "803 Cobb Pkwy N", "postal_code": "30062"}, "capProviderId": null, "distance": null, "has_offers": false, "name": "New China House", "longitude": -84.540539, "has_menu": true, "awards": null, "user_review_count": 1}, {"business_operation_status": 1, "rating": null, "neighborhood": null, "image": null, "scorecard": null, "featured": false, "sample_categories": "Restaurants", "public_id": "bandido-wings-marietta", "id": 838396080, "votes": null, "tagline": null, "has_video": false, "website": null, "offers": null, "latitude": 33.902517, "politanName": "Atlanta, GA Metro ", "phone_number": "7706528890", "tags": [{"primary": true, "id": 1722, "name": "Restaurants"}], "fax_number": null, "expansion": {"count": null, "uri": null}, "impression_id": "000b000000eaef5037d72942bcb298672f3fe11b5f", "profile": "http://www.citysearch.com/profile/838396080/marietta_ga/bandido_wings.html", "address": {"city": "Marietta", "state": "GA", "street": "371 Pat Mell Rd SE # 137", "postal_code": "30060"}, "capProviderId": null, "distance": null, "has_offers": false, "name": "Bandido Wings", "longitude": -84.543334, "has_menu": false, "awards": null, "user_review_count": 0}, {"business_operation_status": 1, "rating": 6.0, "neighborhood": null, "image": null, "scorecard": null, "featured": false, "sample_categories": "Restaurants, Traditional American, Carry Out, Steakhouse, American Express", "public_id": "golden-corral-buffet-grill-kennesaw", "id": 2955047, "votes": null, "tagline": null, "has_video": false, "website": "http://www.citysearch.com/profile/external/2955047/kennesaw_ga/golden_corral_buffet_grill.html", "offers": null, "latitude": 34.007877, "politanName": "Atlanta, GA Metro ", "phone_number": "7704286770", "tags": [{"primary": false, "id": 11190, "name": "Traditional American"}, {"primary": false, "id": 11247, "name": "Carry Out"}, {"primary": false, "id": 11316, "name": "Steakhouse"}, {"primary": false, "id": 11333, "name": "American Express"}, {"primary": false, "id": 11349, "name": "Discover"}, {"primary": false, "id": 11361, "name": "MasterCard"}, {"primary": false, "id": 11382, "name": "Visa"}, {"primary": true, "id": 1722, "name": "Restaurants"}], "fax_number": null, "expansion": {"count": null, "uri": null}, "impression_id": "000b000000483261a0a3124501abd628dc77edaf09", "profile": "http://www.citysearch.com/profile/2955047/kennesaw_ga/golden_corral_buffet_grill.html", "address": {"city": "Kennesaw", "state": "GA", "street": "700 Ernest W Barrett Pkwy NW", "postal_code": "30144"}, "capProviderId": null, "distance": null, "has_offers": false, "name": "Golden Corral Buffet & Grill", "longitude": -84.572373, "has_menu": true, "awards": null, "user_review_count": 8}, {"business_operation_status": 1, "rating": null, "neighborhood": null, "image": null, "scorecard": null, "featured": false, "sample_categories": "Restaurants, Diners, Cafes", "public_id": "campus-cafe-marietta", "id": 33669246, "votes": null, "tagline": null, "has_video": false, "website": null, "offers": null, "latitude": 33.930756, "politanName": "Atlanta, GA Metro ", "phone_number": "7707926042", "tags": [{"primary": false, "id": 1732, "name": "Diners"}, {"primary": false, "id": 6190, "name": "Cafes"}, {"primary": true, "id": 1722, "name": "Restaurants"}], "fax_number": null, "expansion": {"count": null, "uri": null}, "impression_id": "000b00000013c8f78c283d48a1aa23f652c11a9f3d", "profile": "http://www.citysearch.com/profile/33669246/marietta_ga/campus_cafe.html", "address": {"city": "Marietta", "state": "GA", "street": "1269 Barclay Cir SE", "postal_code": "30060"}, "capProviderId": null, "distance": null, "has_offers": false, "name": "Campus Cafe", "longitude": -84.514539, "has_menu": false, "awards": null, "user_review_count": 0}, {"business_operation_status": 1, "rating": null, "neighborhood": null, "image": null, "scorecard": null, "featured": false, "sample_categories": "Doughnut Shops", "public_id": "sublime-doughnuts-marietta", "id": 787115930, "votes": null, "tagline": null, "has_video": false, "website": null, "offers": null, "latitude": 33.918263, "politanName": "Atlanta, GA Metro ", "phone_number": "7704260814", "tags": [{"primary": true, "id": 1734, "name": "Doughnut Shops"}], "fax_number": null, "expansion": {"count": null, "uri": null}, "impression_id": "000b00000049d6a20e6b3143229ae6f28492fcae6f", "profile": "http://www.citysearch.com/profile/787115930/marietta_ga/sublime_doughnuts.html", "address": {"city": "Marietta", "state": "GA", "street": "1345 Old Coach Rd Sw", "postal_code": "30008"}, "capProviderId": null, "distance": null, "has_offers": false, "name": "Sublime Doughnuts", "longitude": -84.572952, "has_menu": false, "awards": null, "user_review_count": 0}, {"business_operation_status": 1, "rating": 10.0, "neighborhood": null, "image": null, "scorecard": null, "featured": false, "sample_categories": "Catering, Restaurants", "public_id": "williamson-brothers-catering-marietta", "id": 2901685, "votes": null, "tagline": null, "has_video": false, "website": "http://www.citysearch.com/profile/external/2901685/marietta_ga/williamson_brothers_catering.html", "offers": null, "latitude": 33.942617, "politanName": "Atlanta, GA Metro ", "phone_number": "7704251739", "tags": [{"primary": false, "id": 1705, "name": "Catering"}, {"primary": true, "id": 1722, "name": "Restaurants"}], "fax_number": null, "expansion": {"count": null, "uri": null}, "impression_id": "000b0000006200ce77dd3e4bf09f3cc067d6086c5b", "profile": "http://www.citysearch.com/profile/2901685/marietta_ga/williamson_brothers_catering.html", "address": {"city": "Marietta", "state": "GA", "street": "403 Sycamore St SE", "postal_code": "30060"}, "capProviderId": null, "distance": null, "has_offers": false, "name": "Williamson Brothers Catering", "longitude": -84.541082, "has_menu": false, "awards": null, "user_review_count": 1}, {"business_operation_status": 1, "rating": null, "neighborhood": null, "image": null, "scorecard": null, "featured": false, "sample_categories": "Restaurants", "public_id": "drive-time-marrietta", "id": 831886880, "votes": null, "tagline": null, "has_video": false, "website": null, "offers": null, "latitude": 33.939976, "politanName": "Atlanta, GA Metro ", "phone_number": "7705773077", "tags": [{"primary": true, "id": 1722, "name": "Restaurants"}], "fax_number": null, "expansion": {"count": null, "uri": null}, "impression_id": "000b00000055cab31eba4f425b8b260a203b4589af", "profile": "http://www.citysearch.com/profile/831886880/marrietta_ga/drive_time.html", "address": {"city": "Marrietta", "state": "GA", "street": "502 S Cobb Parkway", "postal_code": "30060"}, "capProviderId": null, "distance": null, "has_offers": false, "name": "Drive Time", "longitude": -84.515396, "has_menu": false, "awards": null, "user_review_count": 0}, {"business_operation_status": 1, "rating": null, "neighborhood": null, "image": null, "scorecard": null, "featured": false, "sample_categories": "Restaurants", "public_id": "gyro-bros-kennesaw", "id": 836770140, "votes": null, "tagline": null, "has_video": false, "website": null, "offers": null, "latitude": 34.017369, "politanName": "Atlanta, GA Metro ", "phone_number": "7704238887", "tags": [{"primary": true, "id": 1722, "name": "Restaurants"}], "fax_number": null, "expansion": {"count": null, "uri": null}, "impression_id": "000b0000004fa5da47bf71492a895db237a04bb462", "profile": "http://www.citysearch.com/profile/836770140/kennesaw_ga/gyro_bros.html", "address": {"city": "Kennesaw", "state": "GA", "street": "400 Ernest W Barrett Pkwy NW", "postal_code": "30144"}, "capProviderId": null, "distance": null, "has_offers": false, "name": "Gyro Bros", "longitude": -84.564255, "has_menu": false, "awards": null, "user_review_count": 0}, {"business_operation_status": 1, "rating": null, "neighborhood": null, "image": null, "scorecard": null, "featured": false, "sample_categories": "Restaurants, Pizza, Carry Out", "public_id": "little-caesars-pizza-marietta-2", "id": 653582070, "votes": null, "tagline": null, "has_video": false, "website": "http://www.citysearch.com/profile/external/653582070/marietta_ga/little_caesars_pizza.html", "offers": null, "latitude": 33.952972, "politanName": "Atlanta, GA Metro ", "phone_number": "6784014181", "tags": [{"primary": false, "id": 1722, "name": "Restaurants"}, {"primary": false, "id": 11247, "name": "Carry Out"}, {"primary": true, "id": 11299, "name": "Pizza"}], "fax_number": null, "expansion": {"count": null, "uri": null}, "impression_id": "000b0000000d4d3283cff84b34a7468363f18fb980", "profile": "http://www.citysearch.com/profile/653582070/marietta_ga/little_caesars_pizza.html", "address": {"city": "Marietta", "state": "GA", "street": "3405 Dallas Hwy Sw", "postal_code": "30064"}, "capProviderId": null, "distance": null, "has_offers": false, "name": "Little Caesars Pizza", "longitude": -84.651096, "has_menu": false, "awards": null, "user_review_count": 0}, {"business_operation_status": 1, "rating": null, "neighborhood": null, "image": null, "scorecard": null, "featured": false, "sample_categories": "Restaurants", "public_id": "silver-lodestone-inc-marietta-2", "id": 682289320, "votes": null, "tagline": null, "has_video": false, "website": null, "offers": null, "latitude": 33.938198, "politanName": "Atlanta, GA Metro ", "phone_number": "7705907778", "tags": [{"primary": true, "id": 1722, "name": "Restaurants"}], "fax_number": null, "expansion": {"count": null, "uri": null}, "impression_id": "000b000000c30fd74e6c9342bdb15f265be190eee7", "profile": "http://www.citysearch.com/profile/682289320/marietta_ga/silver_lodestone_inc.html", "address": {"city": "Marietta", "state": "GA", "street": "10 Garrison Rd Se", "postal_code": "30008"}, "capProviderId": null, "distance": null, "has_offers": false, "name": "Silver Lodestone INC", "longitude": -84.553364, "has_menu": false, "awards": null, "user_review_count": 0}, {"business_operation_status": 1, "rating": null, "neighborhood": null, "image": null, "scorecard": null, "featured": false, "sample_categories": "Bakeries, Restaurants", "public_id": "lapepite-france-bakery-marietta", "id": 793328380, "votes": null, "tagline": null, "has_video": false, "website": null, "offers": null, "latitude": 33.978482, "politanName": "Atlanta, GA Metro ", "phone_number": "7707904140", "tags": [{"primary": false, "id": 1722, "name": "Restaurants"}, {"primary": true, "id": 1685, "name": "Bakeries"}], "fax_number": null, "expansion": {"count": null, "uri": null}, "impression_id": "000b0000005f19404274284e52a6658a3559e7db15", "profile": "http://www.citysearch.com/profile/793328380/marietta_ga/lapepite_france_bakery.html", "address": {"city": "Marietta", "state": "GA", "street": "1070 Atlanta Industrial Dr", "postal_code": "30066"}, "capProviderId": null, "distance": null, "has_offers": false, "name": "Lapepite France Bakery", "longitude": -84.532674, "has_menu": false, "awards": null, "user_review_count": 0}, {"business_operation_status": 1, "rating": null, "neighborhood": null, "image": null, "scorecard": null, "featured": false, "sample_categories": "Restaurants, Carry Out", "public_id": "long-john-silvers-marietta-3", "id": 764851430, "votes": null, "tagline": null, "has_video": false, "website": null, "offers": null, "latitude": 33.950876, "politanName": "Atlanta, GA Metro ", "phone_number": "7704247755", "tags": [{"primary": false, "id": 11247, "name": "Carry Out"}, {"primary": true, "id": 1722, "name": "Restaurants"}], "fax_number": null, "expansion": {"count": null, "uri": null}, "impression_id": "000b0000003ab3a762f5d94b2a907c114fab201f2a", "profile": "http://www.citysearch.com/profile/764851430/marietta_ga/long_john_silver_s.html", "address": {"city": "Marietta", "state": "GA", "street": "1176 Roswell Rd", "postal_code": "30062"}, "capProviderId": null, "distance": null, "has_offers": false, "name": "Long John Silver's", "longitude": -84.518285, "has_menu": true, "awards": null, "user_review_count": 0}, {"business_operation_status": 1, "rating": null, "neighborhood": null, "image": null, "scorecard": null, "featured": false, "sample_categories": "Restaurants, Carry Out", "public_id": "charleys-grilled-subs-kennesaw", "id": 822392670, "votes": null, "tagline": null, "has_video": false, "website": null, "offers": null, "latitude": 34.017369, "politanName": "Atlanta, GA Metro ", "phone_number": "7702188285", "tags": [{"primary": false, "id": 11247, "name": "Carry Out"}, {"primary": true, "id": 1722, "name": "Restaurants"}], "fax_number": null, "expansion": {"count": null, "uri": null}, "impression_id": "000b0000002aad7f428beb48669fc6e83348b0425d", "profile": "http://www.citysearch.com/profile/822392670/kennesaw_ga/charley_s_grilled_subs.html", "address": {"city": "Kennesaw", "state": "GA", "street": "400 Ernest W Barrett Pkwy NW", "postal_code": "30144"}, "capProviderId": null, "distance": null, "has_offers": false, "name": "Charley's Grilled Subs", "longitude": -84.564255, "has_menu": true, "awards": null, "user_review_count": 0}, {"business_operation_status": 1, "rating": null, "neighborhood": null, "image": null, "scorecard": null, "featured": false, "sample_categories": "Restaurants", "public_id": "dogfathers-marietta", "id": 793344660, "votes": null, "tagline": null, "has_video": false, "website": null, "offers": null, "latitude": 34.017341, "politanName": "Atlanta, GA Metro ", "phone_number": "6783543223", "tags": [{"primary": true, "id": 1722, "name": "Restaurants"}], "fax_number": null, "expansion": {"count": null, "uri": null}, "impression_id": "000b000000cc366fcf691e45958e48c32cd6f1933d", "profile": "http://www.citysearch.com/profile/793344660/marietta_ga/dogfathers.html", "address": {"city": "Marietta", "state": "GA", "street": "2769 Chastain Meadows Pkwy", "postal_code": "30066"}, "capProviderId": null, "distance": null, "has_offers": false, "name": "Dogfathers", "longitude": -84.555709, "has_menu": false, "awards": null, "user_review_count": 0}, {"business_operation_status": 1, "rating": null, "neighborhood": null, "image": null, "scorecard": null, "featured": false, "sample_categories": "Restaurants, Mexican", "public_id": "lunas-taqueria-marietta", "id": 793347450, "votes": null, "tagline": null, "has_video": false, "website": null, "offers": null, "latitude": 33.905061, "politanName": "Atlanta, GA Metro ", "phone_number": "6785569766", "tags": [{"primary": false, "id": 11208, "name": "Mexican"}, {"primary": true, "id": 1722, "name": "Restaurants"}], "fax_number": null, "expansion": {"count": null, "uri": null}, "impression_id": "000b000000a9097dc08b9942358e1c966199a4f315", "profile": "http://www.citysearch.com/profile/793347450/marietta_ga/luna_s_taqueria.html", "address": {"city": "Marietta", "state": "GA", "street": "1977 S Cobb Dr Se", "postal_code": "30060"}, "capProviderId": null, "distance": null, "has_offers": false, "name": "Luna's Taqueria", "longitude": -84.542525, "has_menu": false, "awards": null, "user_review_count": 0}, {"business_operation_status": 1, "rating": null, "neighborhood": null, "image": null, "scorecard": null, "featured": false, "sample_categories": "Restaurants", "public_id": "hollie-guacamole-marietta", "id": 806226200, "votes": null, "tagline": null, "has_video": false, "website": null, "offers": null, "latitude": 33.952258, "politanName": "Atlanta, GA Metro ", "phone_number": "6782732403", "tags": [{"primary": true, "id": 1722, "name": "Restaurants"}], "fax_number": null, "expansion": {"count": null, "uri": null}, "impression_id": "000b00000092887e12cd634a1ab2045535532371ef", "profile": "http://www.citysearch.com/profile/806226200/marietta_ga/hollie_guacamole_.html", "address": {"city": "Marietta", "state": "GA", "street": "154 Roswell St SE", "postal_code": "30060"}, "capProviderId": null, "distance": null, "has_offers": false, "name": "Hollie Guacamole!", "longitude": -84.54874, "has_menu": false, "awards": null, "user_review_count": 0}, {"business_operation_status": 1, "rating": null, "neighborhood": null, "image": null, "scorecard": null, "featured": false, "sample_categories": "Restaurants", "public_id": "whistle-stop-cafe-kennesaw", "id": 611247574, "votes": null, "tagline": null, "has_video": false, "website": null, "offers": null, "latitude": 33.999345, "politanName": "Atlanta, GA Metro ", "phone_number": "7707940100", "tags": [{"primary": true, "id": 1722, "name": "Restaurants"}], "fax_number": null, "expansion": {"count": null, "uri": null}, "impression_id": "000b0000004aa43905aa594b809999c7d69d850d51", "profile": "http://www.citysearch.com/profile/611247574/kennesaw_ga/whistle_stop_cafe.html", "address": {"city": "Kennesaw", "state": "GA", "street": "1200 Ernest W Barrett Pkwy NW # Ste 144", "postal_code": "30144"}, "capProviderId": null, "distance": null, "has_offers": false, "name": "Whistle Stop Cafe", "longitude": -84.586888, "has_menu": false, "awards": null, "user_review_count": 0}, {"business_operation_status": 1, "rating": null, "neighborhood": null, "image": null, "scorecard": null, "featured": false, "sample_categories": "Restaurants", "public_id": "cafe-amazonia-marietta", "id": 808265410, "votes": null, "tagline": null, "has_video": false, "website": null, "offers": null, "latitude": 33.952198, "politanName": "Atlanta, GA Metro ", "phone_number": "7705796773", "tags": [{"primary": true, "id": 1722, "name": "Restaurants"}], "fax_number": null, "expansion": {"count": null, "uri": null}, "impression_id": "000b00000084439a97a3cd4f3eac0cca92cefd7a1f", "profile": "http://www.citysearch.com/profile/808265410/marietta_ga/cafe_amazonia.html", "address": {"city": "Marietta", "state": "GA", "street": "1355 Roswell Rd # 152", "postal_code": "30062"}, "capProviderId": null, "distance": null, "has_offers": false, "name": "Cafe Amazonia", "longitude": -84.512302, "has_menu": false, "awards": null, "user_review_count": 0}, {"business_operation_status": 0, "rating": null, "neighborhood": null, "image": null, "scorecard": null, "featured": false, "sample_categories": "Ice Cream Parlors", "public_id": "ritas-water-ice-marietta-3", "id": 627647380, "votes": null, "tagline": null, "has_video": false, "website": "http://www.citysearch.com/profile/external/627647380/marietta_ga/rita_s_water_ice.html", "offers": null, "latitude": 34.011742, "politanName": "Atlanta, GA Metro ", "phone_number": "7706946029", "tags": [{"primary": true, "id": 1730, "name": "Ice Cream Parlors"}], "fax_number": null, "expansion": {"count": null, "uri": null}, "impression_id": "000b000000cced681a3e5042eea8852086297d2703", "profile": "http://www.citysearch.com/profile/627647380/marietta_ga/rita_s_water_ice.html", "address": {"city": "Marietta", "state": "GA", "street": "2550 Sandy Plains Rd", "postal_code": "30066"}, "capProviderId": null, "distance": null, "has_offers": false, "name": "Rita's Water Ice", "longitude": -84.495056, "has_menu": false, "awards": null, "user_review_count": 0}, {"business_operation_status": 1, "rating": null, "neighborhood": null, "image": null, "scorecard": null, "featured": false, "sample_categories": "Restaurants", "public_id": "mythos-pizzeria-marietta", "id": 627338904, "votes": null, "tagline": null, "has_video": false, "website": null, "offers": null, "latitude": 33.953414, "politanName": "Atlanta, GA Metro ", "phone_number": "7704255100", "tags": [{"primary": true, "id": 1722, "name": "Restaurants"}], "fax_number": null, "expansion": {"count": null, "uri": null}, "impression_id": "000b0000007f9e2bf07d2e40d698eefc8208bc735d", "profile": "http://www.citysearch.com/profile/627338904/marietta_ga/mythos_pizzeria.html", "address": {"city": "Marietta", "state": "GA", "street": "1000 Whitlock Ave NW", "postal_code": "30064"}, "capProviderId": null, "distance": null, "has_offers": false, "name": "Mythos Pizzeria", "longitude": -84.581304, "has_menu": false, "awards": null, "user_review_count": 0}, {"business_operation_status": 1, "rating": null, "neighborhood": null, "image": null, "scorecard": null, "featured": false, "sample_categories": "Restaurants", "public_id": "suniece-cafe-marietta", "id": 655897070, "votes": null, "tagline": null, "has_video": false, "website": null, "offers": null, "latitude": 33.972386, "politanName": "Atlanta, GA Metro ", "phone_number": "7704272005", "tags": [{"primary": true, "id": 1722, "name": "Restaurants"}], "fax_number": null, "expansion": {"count": null, "uri": null}, "impression_id": "000b00000056a8ba4742d34c2a8504d6318b135e9d", "profile": "http://www.citysearch.com/profile/655897070/marietta_ga/suniece_cafe.html", "address": {"city": "Marietta", "state": "GA", "street": "833 Campbell Hill St Nw", "postal_code": "30060"}, "capProviderId": null, "distance": null, "has_offers": false, "name": "Suniece Cafe", "longitude": -84.552023, "has_menu": false, "awards": null, "user_review_count": 0}, {"business_operation_status": 1, "rating": null, "neighborhood": null, "image": null, "scorecard": null, "featured": false, "sample_categories": "Restaurants", "public_id": "vaqueros-marietta", "id": 672714020, "votes": null, "tagline": null, "has_video": false, "website": null, "offers": null, "latitude": 33.953033, "politanName": "Atlanta, GA Metro ", "phone_number": "6787385431", "tags": [{"primary": true, "id": 1722, "name": "Restaurants"}], "fax_number": null, "expansion": {"count": null, "uri": null}, "impression_id": "000b000000066105718f8148209f9b3201865cf9af", "profile": "http://www.citysearch.com/profile/672714020/marietta_ga/vaqueros.html", "address": {"city": "Marietta", "state": "GA", "street": "1000 Whitlock Ave. #400", "postal_code": "30064"}, "capProviderId": null, "distance": null, "has_offers": false, "name": "Vaqueros", "longitude": -84.581202, "has_menu": false, "awards": null, "user_review_count": 0}, {"business_operation_status": 1, "rating": null, "neighborhood": null, "image": null, "scorecard": null, "featured": false, "sample_categories": "Restaurants", "public_id": "elite-kitchen-couture-kennesaw", "id": 632940880, "votes": null, "tagline": null, "has_video": false, "website": null, "offers": null, "latitude": 33.983459, "politanName": "Atlanta, GA Metro ", "phone_number": "7704218807", "tags": [{"primary": true, "id": 1722, "name": "Restaurants"}], "fax_number": null, "expansion": {"count": null, "uri": null}, "impression_id": "000b0000001422eaf9b7194afa9f805ff725a95b23", "profile": "http://www.citysearch.com/profile/632940880/kennesaw_ga/elite_kitchen_couture.html", "address": {"city": "Kennesaw", "state": "GA", "street": "2004 Ector Ct Nw", "postal_code": "30152"}, "capProviderId": null, "distance": null, "has_offers": false, "name": "Elite Kitchen Couture", "longitude": -84.613208, "has_menu": false, "awards": null, "user_review_count": 0}, {"business_operation_status": 1, "rating": null, "neighborhood": null, "image": null, "scorecard": null, "featured": false, "sample_categories": "Restaurants", "public_id": "presto-latin-restaurant-marietta", "id": 672230170, "votes": null, "tagline": null, "has_video": false, "website": null, "offers": null, "latitude": 33.951248, "politanName": "Atlanta, GA Metro ", "phone_number": "7709731282", "tags": [{"primary": true, "id": 1722, "name": "Restaurants"}], "fax_number": null, "expansion": {"count": null, "uri": null}, "impression_id": "000b0000002ac6f0aae1d0447789c25cd98d065890", "profile": "http://www.citysearch.com/profile/672230170/marietta_ga/presto_latin_restaurant.html", "address": {"city": "Marietta", "state": "GA", "street": "1392-B Roswell Road", "postal_code": "30062"}, "capProviderId": null, "distance": null, "has_offers": false, "name": "Presto Latin Restaurant", "longitude": -84.508172, "has_menu": false, "awards": null, "user_review_count": 0}, {"business_operation_status": 1, "rating": null, "neighborhood": null, "image": null, "scorecard": null, "featured": false, "sample_categories": "Restaurants, Carry Out, American Express, Discover, MasterCard", "public_id": "churchs-chicken-marietta-4", "id": 682647720, "votes": null, "tagline": null, "has_video": false, "website": "http://www.citysearch.com/profile/external/682647720/marietta_ga/church_s_chicken.html", "offers": null, "latitude": 33.94964, "politanName": "Atlanta, GA Metro ", "phone_number": "7704241193", "tags": [{"primary": false, "id": 11247, "name": "Carry Out"}, {"primary": false, "id": 11333, "name": "American Express"}, {"primary": false, "id": 11349, "name": "Discover"}, {"primary": false, "id": 11361, "name": "MasterCard"}, {"primary": false, "id": 11382, "name": "Visa"}, {"primary": false, "id": 12839, "name": "Chicken"}, {"primary": true, "id": 1722, "name": "Restaurants"}], "fax_number": null, "expansion": {"count": null, "uri": null}, "impression_id": "000b000000b25801c261d6494191b3abda4c7bd08d", "profile": "http://www.citysearch.com/profile/682647720/marietta_ga/church_s_chicken.html", "address": {"city": "Marietta", "state": "GA", "street": "75 S Marietta Pkwy Sw", "postal_code": "30064"}, "capProviderId": null, "distance": null, "has_offers": false, "name": "Church's Chicken", "longitude": -84.55079, "has_menu": false, "awards": null, "user_review_count": 0}, {"business_operation_status": 1, "rating": null, "neighborhood": null, "image": null, "scorecard": null, "featured": false, "sample_categories": "Restaurants", "public_id": "niks-place-marietta", "id": 618038054, "votes": null, "tagline": null, "has_video": false, "website": "http://www.citysearch.com/profile/external/618038054/marietta_ga/niks_place.html", "offers": null, "latitude": 33.952096, "politanName": "Atlanta, GA Metro ", "phone_number": "7707926666", "tags": [{"primary": true, "id": 1722, "name": "Restaurants"}], "fax_number": null, "expansion": {"count": null, "uri": null}, "impression_id": "000b00000092bcb6aad137451181b9d6ac790b65cc", "profile": "http://www.citysearch.com/profile/618038054/marietta_ga/niks_place.html", "address": {"city": "Marietta", "state": "GA", "street": "Whitlock Ave NW", "postal_code": "30064"}, "capProviderId": null, "distance": null, "has_offers": false, "name": "Niks Place", "longitude": -84.576903, "has_menu": true, "awards": null, "user_review_count": 0}, {"business_operation_status": 1, "rating": null, "neighborhood": null, "image": null, "scorecard": null, "featured": false, "sample_categories": "Restaurants, Ice Cream Parlors, Carry Out", "public_id": "churchs-chicken-marietta-6", "id": 812139520, "votes": null, "tagline": null, "has_video": false, "website": null, "offers": null, "latitude": 33.95153, "politanName": "Atlanta, GA Metro ", "phone_number": "7704228166", "tags": [{"primary": false, "id": 1730, "name": "Ice Cream Parlors"}, {"primary": false, "id": 11247, "name": "Carry Out"}, {"primary": true, "id": 1722, "name": "Restaurants"}], "fax_number": null, "expansion": {"count": null, "uri": null}, "impression_id": "000b0000008e8bd4153d20402cb7a67d0d22bc660d", "profile": "http://www.citysearch.com/profile/812139520/marietta_ga/church_s_chicken.html", "address": {"city": "Marietta", "state": "GA", "street": "23 Powder Springs St", "postal_code": "30064"}, "capProviderId": null, "distance": null, "has_offers": false, "name": "Church's Chicken", "longitude": -84.550217, "has_menu": false, "awards": null, "user_review_count": 0}, {"business_operation_status": 1, "rating": null, "neighborhood": null, "image": null, "scorecard": null, "featured": false, "sample_categories": "Restaurants", "public_id": "san-luis-marietta-2", "id": 815793680, "votes": null, "tagline": null, "has_video": false, "website": null, "offers": null, "latitude": 33.939122, "politanName": "Atlanta, GA Metro ", "phone_number": "7705147050", "tags": [{"primary": true, "id": 1722, "name": "Restaurants"}], "fax_number": null, "expansion": {"count": null, "uri": null}, "impression_id": "000b000000a9979526d1e94188bb481f4e5e4372c9", "profile": "http://www.citysearch.com/profile/815793680/marietta_ga/san_luis.html", "address": {"city": "Marietta", "state": "GA", "street": "971 S Marietta Pkwy SE", "postal_code": "30060"}, "capProviderId": null, "distance": null, "has_offers": false, "name": "San Luis", "longitude": -84.526386, "has_menu": false, "awards": null, "user_review_count": 0}, {"business_operation_status": 1, "rating": 6.0, "neighborhood": null, "image": null, "scorecard": null, "featured": false, "sample_categories": "Restaurants", "public_id": "back-porch-of-marietta-marietta", "id": 37646043, "votes": null, "tagline": null, "has_video": false, "website": "http://www.citysearch.com/profile/external/37646043/marietta_ga/back_porch_of_marietta.html", "offers": null, "latitude": 33.951281, "politanName": "Atlanta, GA Metro ", "phone_number": "7707926666", "tags": [{"primary": true, "id": 1722, "name": "Restaurants"}], "fax_number": null, "expansion": {"count": null, "uri": null}, "impression_id": "000b00000091e1686f918e41cd9e22c66984c0fc59", "profile": "http://www.citysearch.com/profile/37646043/marietta_ga/back_porch_of_marietta.html", "address": {"city": "Marietta", "state": "GA", "street": "645 Whitlock Ave SW", "postal_code": "30064"}, "capProviderId": null, "distance": null, "has_offers": false, "name": "Back Porch Of Marietta", "longitude": -84.571275, "has_menu": false, "awards": null, "user_review_count": 1}], "histograms": [], "tag_ids": [1722], "uri": "http://api.citygridmedia.com:8080/search/places/v2/search/where?has_offers=false&type=restaurant&format=json&page=10&where=30090&rpp=50&histograms=false&publisher=10000009598&region_type=circle", "did_you_mean": "", "regions": [{"latitude": 33.952149999999996, "default_radius": 0.14, "type": "postal_code", "name": "30090", "longitude": -84.547761}], "call_id": "000b000000d699ca31dca64142b0ee6c36b3cfbaed", "first_hit": 451, "total_hits": 868, "geo_ids": [26336], "page": 10, "last_hit": 500}}