{"results": {"rpp": 50, "locations": [{"business_operation_status": 1, "rating": null, "neighborhood": null, "image": null, "scorecard": null, "featured": false, "sample_categories": "Restaurants, Pizza, Carry Out", "public_id": "little-caesars-pizza-marietta-13", "id": 798841470, "votes": null, "tagline": null, "has_video": false, "website": "http://www.citysearch.com/profile/external/798841470/marietta_ga/little_caesars_pizza.html", "offers": null, "latitude": 34.033796, "politanName": "Atlanta, GA Metro ", "phone_number": "7704245051", "tags": [{"primary": false, "id": 1722, "name": "Restaurants"}, {"primary": false, "id": 11247, "name": "Carry Out"}, {"primary": true, "id": 11299, "name": "Pizza"}], "fax_number": null, "expansion": {"count": null, "uri": null}, "impression_id": "000b00000097ac85f7515341bf876be78b66e850fc", "profile": "http://www.citysearch.com/profile/798841470/marietta_ga/little_caesars_pizza.html", "address": {"city": "Marietta", "state": "GA", "street": "3372 Canton Rd", "postal_code": "30066"}, "capProviderId": null, "distance": null, "has_offers": false, "name": "Little Caesars Pizza", "longitude": -84.527673, "has_menu": false, "awards": null, "user_review_count": 0}, {"business_operation_status": 1, "rating": null, "neighborhood": null, "image": null, "scorecard": null, "featured": false, "sample_categories": "Restaurants", "public_id": "peanut-patio-inc-cartersville", "id": 812784770, "votes": null, "tagline": null, "has_video": false, "website": null, "offers": null, "latitude": 34.168871, "politanName": "Atlanta, GA Metro ", "phone_number": "6787219722", "tags": [{"primary": true, "id": 1722, "name": "Restaurants"}], "fax_number": null, "expansion": {"count": null, "uri": null}, "impression_id": "000b0000008d339b5907ea46d38fc7cdb66c742e45", "profile": "http://www.citysearch.com/profile/812784770/cartersville_ga/peanut_patio_inc.html", "address": {"city": "Cartersville", "state": "GA", "street": "39 Pine Ridge Dr SW", "postal_code": "30120"}, "capProviderId": null, "distance": null, "has_offers": false, "name": "Peanut Patio Inc", "longitude": -84.846223, "has_menu": false, "awards": null, "user_review_count": 0}, {"business_operation_status": 1, "rating": 8.0, "neighborhood": null, "image": null, "scorecard": null, "featured": false, "sample_categories": "Restaurants, Pizza, MasterCard, Visa", "public_id": "n-y-pizza-dept-canton", "id": 33593221, "votes": null, "tagline": null, "has_video": false, "website": null, "offers": null, "latitude": 34.178451, "politanName": "Atlanta, GA Metro ", "phone_number": "7707200983", "tags": [{"primary": false, "id": 1722, "name": "Restaurants"}, {"primary": false, "id": 11361, "name": "MasterCard"}, {"primary": false, "id": 11382, "name": "Visa"}, {"primary": true, "id": 11299, "name": "Pizza"}], "fax_number": null, "expansion": {"count": null, "uri": null}, "impression_id": "000b0000005b31d020c03c4397a6e0166377f900ec", "profile": "http://www.citysearch.com/profile/33593221/canton_ga/n_y_pizza_dept.html", "address": {"city": "Canton", "state": "GA", "street": "3760 Sixes Rd Ste 3136", "postal_code": "30114"}, "capProviderId": null, "distance": null, "has_offers": false, "name": "N Y Pizza Dept", "longitude": -84.550142, "has_menu": false, "awards": null, "user_review_count": 1}, {"business_operation_status": 1, "rating": null, "neighborhood": null, "image": null, "scorecard": null, "featured": false, "sample_categories": "Luaus", "public_id": "bergamo-kennesaw", "id": 827735830, "votes": null, "tagline": null, "has_video": false, "website": null, "offers": null, "latitude": 34.05561, "politanName": "Atlanta, GA Metro ", "phone_number": "6784458585", "tags": [{"primary": true, "id": 11285, "name": "Luaus"}], "fax_number": null, "expansion": {"count": null, "uri": null}, "impression_id": "000b000000bf69485dddae4e4cb8869c41f4910fb9", "profile": "http://www.citysearch.com/profile/827735830/kennesaw_ga/bergamo.html", "address": {"city": "Kennesaw", "state": "GA", "street": "4290 Bells Ferry Rd NW # 114", "postal_code": "30144"}, "capProviderId": null, "distance": null, "has_offers": false, "name": "Bergamo", "longitude": -84.554213, "has_menu": false, "awards": null, "user_review_count": 4}, {"business_operation_status": 1, "rating": null, "neighborhood": null, "image": null, "scorecard": null, "featured": false, "sample_categories": "Restaurants", "public_id": "el-toro-mexican-kennesaw", "id": 827881360, "votes": null, "tagline": null, "has_video": false, "website": null, "offers": null, "latitude": 34.02334, "politanName": "Atlanta, GA Metro ", "phone_number": "7704192244", "tags": [{"primary": true, "id": 1722, "name": "Restaurants"}], "fax_number": null, "expansion": {"count": null, "uri": null}, "impression_id": "000b00000029c0bd0f2ef54aed865a1405240763ff", "profile": "http://www.citysearch.com/profile/827881360/kennesaw_ga/el_toro_mexican.html", "address": {"city": "Kennesaw", "state": "GA", "street": "2774 Cobb Pkwy NW", "postal_code": "30152"}, "capProviderId": null, "distance": null, "has_offers": false, "name": "El Toro Mexican", "longitude": -84.624608, "has_menu": false, "awards": null, "user_review_count": 0}, {"business_operation_status": 1, "rating": null, "neighborhood": null, "image": null, "scorecard": null, "featured": false, "sample_categories": "Restaurants, Pizza", "public_id": "pizza-314-kennesaw", "id": 768811740, "votes": null, "tagline": null, "has_video": false, "website": null, "offers": null, "latitude": 34.014045, "politanName": "Atlanta, GA Metro ", "phone_number": "7706931156", "tags": [{"primary": false, "id": 11299, "name": "Pizza"}, {"primary": true, "id": 1722, "name": "Restaurants"}], "fax_number": null, "expansion": {"count": null, "uri": null}, "impression_id": "000b000000aad807a0036a440f8988d35b92f68039", "profile": "http://www.citysearch.com/profile/768811740/kennesaw_ga/pizza_314.html", "address": {"city": "Kennesaw", "state": "GA", "street": "2615 George Busbee Pkwy NW", "postal_code": "30144"}, "capProviderId": null, "distance": null, "has_offers": false, "name": "Pizza 314", "longitude": -84.56696, "has_menu": false, "awards": null, "user_review_count": 0}, {"business_operation_status": 1, "rating": null, "neighborhood": null, "image": null, "scorecard": null, "featured": false, "sample_categories": "Restaurants", "public_id": "front-porch-southern-dining-kennesaw", "id": 773452750, "votes": null, "tagline": null, "has_video": false, "website": "http://www.citysearch.com/profile/external/773452750/kennesaw_ga/front_porch_southern_dining.html", "offers": null, "latitude": 34.025184, "politanName": "Atlanta, GA Metro ", "phone_number": "7707959455", "tags": [{"primary": true, "id": 1722, "name": "Restaurants"}], "fax_number": null, "expansion": {"count": null, "uri": null}, "impression_id": "000b000000e2b2bed8cb834d48af071652445cd117", "profile": "http://www.citysearch.com/profile/773452750/kennesaw_ga/front_porch_southern_dining.html", "address": {"city": "Kennesaw", "state": "GA", "street": "2940 Dallas St NW", "postal_code": "30144"}, "capProviderId": null, "distance": null, "has_offers": false, "name": "Front Porch Southern Dining", "longitude": -84.616866, "has_menu": false, "awards": null, "user_review_count": 0}, {"business_operation_status": 1, "rating": null, "neighborhood": null, "image": null, "scorecard": null, "featured": false, "sample_categories": "Restaurants, Carry Out", "public_id": "firehouse-subs-marietta-4", "id": 621046074, "votes": null, "tagline": null, "has_video": false, "website": null, "offers": null, "latitude": 33.948258, "politanName": "Atlanta, GA Metro ", "phone_number": null, "tags": [{"primary": false, "id": 11247, "name": "Carry Out"}, {"primary": true, "id": 1722, "name": "Restaurants"}], "fax_number": null, "expansion": {"count": null, "uri": null}, "impression_id": "000b000000d21d65775e894ec3875f83f9c99a7bff", "profile": "http://www.citysearch.com/profile/621046074/marietta_ga/firehouse_subs.html", "address": {"city": "Marietta", "state": "GA", "street": "2500 Dallas Hwy SW 650", "postal_code": "30064"}, "capProviderId": null, "distance": null, "has_offers": false, "name": "Firehouse Subs", "longitude": -84.62566, "has_menu": false, "awards": null, "user_review_count": 0}, {"business_operation_status": 1, "rating": null, "neighborhood": null, "image": null, "scorecard": null, "featured": false, "sample_categories": "Restaurants, Delis And Delicatessens, Sandwich Shops, Carry Out", "public_id": "subway-powder", "id": 713516600, "votes": null, "tagline": null, "has_video": false, "website": "http://www.citysearch.com/profile/external/713516600/powder_springs_ga/subway.html", "offers": null, "latitude": 33.903473, "politanName": "Atlanta, GA Metro ", "phone_number": "7702222710", "tags": [{"primary": false, "id": 1727, "name": "Delis And Delicatessens"}, {"primary": false, "id": 1736, "name": "Sandwich Shops"}, {"primary": false, "id": 11247, "name": "Carry Out"}, {"primary": true, "id": 1722, "name": "Restaurants"}], "fax_number": null, "expansion": {"count": null, "uri": null}, "impression_id": "000b0000009d4c4e45d76d4ee29262d68f93130262", "profile": "http://www.citysearch.com/profile/713516600/powder_springs_ga/subway.html", "address": {"city": "Powder Springs", "state": "GA", "street": "4150 Macland Rd", "postal_code": "30127"}, "capProviderId": null, "distance": null, "has_offers": false, "name": "SUBWAY", "longitude": -84.67471, "has_menu": true, "awards": null, "user_review_count": 0}, {"business_operation_status": 1, "rating": null, "neighborhood": null, "image": null, "scorecard": null, "featured": false, "sample_categories": "Restaurants", "public_id": "place-philllps-mr-marietta", "id": 713425060, "votes": null, "tagline": null, "has_video": false, "website": null, "offers": null, "latitude": 34.032215, "politanName": "Atlanta, GA Metro ", "phone_number": "7706720690", "tags": [{"primary": true, "id": 1722, "name": "Restaurants"}], "fax_number": null, "expansion": {"count": null, "uri": null}, "impression_id": "000b00000002cbfedef48b472eb8887ff9245da545", "profile": "http://www.citysearch.com/profile/713425060/marietta_ga/place_philllp_s_mr.html", "address": {"city": "Marietta", "state": "GA", "street": "3402 Canton Rd", "postal_code": "30066"}, "capProviderId": null, "distance": null, "has_offers": false, "name": "Place Philllp's Mr", "longitude": -84.527765, "has_menu": false, "awards": null, "user_review_count": 0}, {"business_operation_status": 0, "rating": null, "neighborhood": null, "image": null, "scorecard": null, "featured": false, "sample_categories": "Restaurants", "public_id": "misty-mornings-cafe-woodstock-2", "id": 713600650, "votes": null, "tagline": null, "has_video": false, "website": null, "offers": null, "latitude": 34.13614, "politanName": "Atlanta, GA Metro ", "phone_number": "6789969696", "tags": [{"primary": true, "id": 1722, "name": "Restaurants"}], "fax_number": null, "expansion": {"count": null, "uri": null}, "impression_id": "000b0000005df537fda28944b7bca914490f941956", "profile": "http://www.citysearch.com/profile/713600650/woodstock_ga/misty_mornings_cafe.html", "address": {"city": "Woodstock", "state": "GA", "street": "106 Myrtle Rd", "postal_code": "30189"}, "capProviderId": null, "distance": null, "has_offers": false, "name": "Misty Mornings Cafe", "longitude": -84.611888, "has_menu": false, "awards": null, "user_review_count": 0}, {"business_operation_status": 1, "rating": null, "neighborhood": null, "image": null, "scorecard": null, "featured": false, "sample_categories": "Grocery Stores, Coffeehouses, Shopping, Drinking Water", "public_id": "a-m-coffee-svc-kennesaw", "id": 36462489, "votes": null, "tagline": null, "has_video": false, "website": null, "offers": null, "latitude": 33.989239, "politanName": "Atlanta, GA Metro ", "phone_number": "7704241902", "tags": [{"primary": false, "id": 1713, "name": "Grocery Stores"}, {"primary": false, "id": 1726, "name": "Coffeehouses"}, {"primary": false, "id": 3849, "name": "Shopping"}, {"primary": true, "id": 11168, "name": "Drinking Water"}], "fax_number": null, "expansion": {"count": null, "uri": null}, "impression_id": "000b000000b36d284619b64bc6953482f3a7abda96", "profile": "http://www.citysearch.com/profile/36462489/kennesaw_ga/a_m_coffee_svc.html", "address": {"city": "Kennesaw", "state": "GA", "street": "4928 Pembridge Ln NW", "postal_code": "30152"}, "capProviderId": null, "distance": null, "has_offers": false, "name": "A M Coffee Svc", "longitude": -84.692308, "has_menu": false, "awards": null, "user_review_count": 0}, {"business_operation_status": 1, "rating": null, "neighborhood": null, "image": null, "scorecard": null, "featured": false, "sample_categories": "Restaurants, Catering, Delis And Delicatessens, American Express, Discover", "public_id": "mc-alisters-deli-kennesaw", "id": 36940938, "votes": null, "tagline": null, "has_video": false, "website": "http://www.citysearch.com/profile/external/36940938/kennesaw_ga/mc_alister_s_deli.html", "offers": null, "latitude": 34.025429, "politanName": "Atlanta, GA Metro ", "phone_number": "7704991581", "tags": [{"primary": false, "id": 1705, "name": "Catering"}, {"primary": false, "id": 1727, "name": "Delis And Delicatessens"}, {"primary": false, "id": 11333, "name": "American Express"}, {"primary": false, "id": 11349, "name": "Discover"}, {"primary": false, "id": 11361, "name": "MasterCard"}, {"primary": false, "id": 11382, "name": "Visa"}, {"primary": true, "id": 1722, "name": "Restaurants"}], "fax_number": null, "expansion": {"count": null, "uri": null}, "impression_id": "000b00000063a449b174444614ac54fe6e37a68813", "profile": "http://www.citysearch.com/profile/36940938/kennesaw_ga/mc_alister_s_deli.html", "address": {"city": "Kennesaw", "state": "GA", "street": "2950 George Busbee Pkwy NW # 102", "postal_code": "30144"}, "capProviderId": null, "distance": null, "has_offers": false, "name": "Mc Alister's Deli", "longitude": -84.566908, "has_menu": true, "awards": null, "user_review_count": 1}, {"business_operation_status": 1, "rating": null, "neighborhood": null, "image": null, "scorecard": null, "featured": false, "sample_categories": "Restaurants, Carry Out", "public_id": "jimmy-johns-kennesaw-2", "id": 621138804, "votes": null, "tagline": null, "has_video": false, "website": "http://www.citysearch.com/profile/external/621138804/kennesaw_ga/jimmy_john_s.html", "offers": null, "latitude": 34.012833, "politanName": "Atlanta, GA Metro ", "phone_number": "6784264030", "tags": [{"primary": false, "id": 11247, "name": "Carry Out"}, {"primary": true, "id": 1722, "name": "Restaurants"}], "fax_number": null, "expansion": {"count": null, "uri": null}, "impression_id": "000b000000b55ece82a17b4edb844f059c2b59dd7b", "profile": "http://www.citysearch.com/profile/621138804/kennesaw_ga/jimmy_john_s.html", "address": {"city": "Kennesaw", "state": "GA", "street": "440 Ernest W Barrett Pkwy NW", "postal_code": "30144"}, "capProviderId": null, "distance": null, "has_offers": false, "name": "Jimmy John's", "longitude": -84.564302, "has_menu": false, "awards": null, "user_review_count": 0}, {"business_operation_status": 0, "rating": null, "neighborhood": null, "image": null, "scorecard": null, "featured": false, "sample_categories": "Restaurants", "public_id": "taco-loco-marietta-3", "id": 672859520, "votes": null, "tagline": null, "has_video": false, "website": null, "offers": null, "latitude": 34.038538, "politanName": "Atlanta, GA Metro ", "phone_number": "7709288060", "tags": [{"primary": true, "id": 1722, "name": "Restaurants"}], "fax_number": null, "expansion": {"count": null, "uri": null}, "impression_id": "000b000000aeba7f6e3da2474497a640bbbbfde753", "profile": "http://www.citysearch.com/profile/672859520/marietta_ga/taco_loco.html", "address": {"city": "Marietta", "state": "GA", "street": "3545 Canton Road", "postal_code": "30066"}, "capProviderId": null, "distance": null, "has_offers": false, "name": "Taco Loco", "longitude": -84.528373, "has_menu": true, "awards": null, "user_review_count": 0}, {"business_operation_status": 1, "rating": null, "neighborhood": null, "image": null, "scorecard": null, "featured": false, "sample_categories": "Restaurants", "public_id": "tres-agaves-mexican-taqueria-canton", "id": 612400274, "votes": null, "tagline": null, "has_video": false, "website": null, "offers": null, "latitude": 34.201836, "politanName": "Atlanta, GA Metro ", "phone_number": "7707041845", "tags": [{"primary": true, "id": 1722, "name": "Restaurants"}], "fax_number": null, "expansion": {"count": null, "uri": null}, "impression_id": "000b0000004909a40b7d0a48609243dd1e27f335c9", "profile": "http://www.citysearch.com/profile/612400274/canton_ga/tres_agaves_mexican_taqueria.html", "address": {"city": "Canton", "state": "GA", "street": "11431 Bells Ferry Rd", "postal_code": "30114"}, "capProviderId": null, "distance": null, "has_offers": false, "name": "Tres Agaves Mexican Taqueria", "longitude": -84.523894, "has_menu": false, "awards": null, "user_review_count": 0}, {"business_operation_status": 1, "rating": null, "neighborhood": null, "image": null, "scorecard": null, "featured": false, "sample_categories": "Restaurants", "public_id": "eat-smart-solutions-marietta", "id": 613912764, "votes": null, "tagline": null, "has_video": false, "website": null, "offers": null, "latitude": 34.041728, "politanName": "Atlanta, GA Metro ", "phone_number": "6782478574", "tags": [{"primary": true, "id": 1722, "name": "Restaurants"}], "fax_number": null, "expansion": {"count": null, "uri": null}, "impression_id": "000b0000003afdf7327f774fc5a2c28409d28735d7", "profile": "http://www.citysearch.com/profile/613912764/marietta_ga/eat_smart_solutions.html", "address": {"city": "Marietta", "state": "GA", "street": "3653 Canton Rd", "postal_code": "30066"}, "capProviderId": null, "distance": null, "has_offers": false, "name": "Eat Smart Solutions", "longitude": -84.529523, "has_menu": false, "awards": null, "user_review_count": 0}, {"business_operation_status": 1, "rating": null, "neighborhood": null, "image": null, "scorecard": null, "featured": false, "sample_categories": "Restaurants", "public_id": "legacy-park-of-georgia-llc-kennesaw", "id": 617695724, "votes": null, "tagline": null, "has_video": false, "website": null, "offers": null, "latitude": 34.048612, "politanName": "Atlanta, GA Metro ", "phone_number": "6783248865", "tags": [{"primary": true, "id": 1722, "name": "Restaurants"}], "fax_number": null, "expansion": {"count": null, "uri": null}, "impression_id": "000b0000006d1c7e17437b4a52947ebe93693a9002", "profile": "http://www.citysearch.com/profile/617695724/kennesaw_ga/the_grille_at_legacy_park.html", "address": {"city": "Kennesaw", "state": "GA", "street": "3900 Legacy Park Blvd NW", "postal_code": "30144"}, "capProviderId": null, "distance": null, "has_offers": false, "name": "The Grille At Legacy Park", "longitude": -84.622496, "has_menu": false, "awards": null, "user_review_count": 0}, {"business_operation_status": 1, "rating": null, "neighborhood": null, "image": null, "scorecard": null, "featured": false, "sample_categories": "Restaurants, Carry Out", "public_id": "waffle-house-marietta-17", "id": 617872834, "votes": null, "tagline": null, "has_video": false, "website": "http://www.citysearch.com/profile/external/617872834/marietta_ga/waffle_house.html", "offers": null, "latitude": 34.067847, "politanName": "Atlanta, GA Metro ", "phone_number": "7709249199", "tags": [{"primary": false, "id": 11247, "name": "Carry Out"}, {"primary": true, "id": 1722, "name": "Restaurants"}], "fax_number": null, "expansion": {"count": null, "uri": null}, "impression_id": "000b000000875cbbeeb3874eb6a49ab192a4303718", "profile": "http://www.citysearch.com/profile/617872834/marietta_ga/waffle_house.html", "address": {"city": "Marietta", "state": "GA", "street": "4797 Canton Rd", "postal_code": "30066"}, "capProviderId": null, "distance": null, "has_offers": false, "name": "Waffle House", "longitude": -84.521855, "has_menu": false, "awards": null, "user_review_count": 0}, {"business_operation_status": 1, "rating": 8.0, "neighborhood": null, "image": null, "scorecard": null, "featured": false, "sample_categories": "Restaurants, Bakeries, Discover, MasterCard, Visa", "public_id": "soho-bagel-co-woodstock", "id": 43863999, "votes": null, "tagline": null, "has_video": false, "website": null, "offers": null, "latitude": 34.107927, "politanName": "Atlanta, GA Metro ", "phone_number": "6783887089", "tags": [{"primary": false, "id": 1685, "name": "Bakeries"}, {"primary": false, "id": 11349, "name": "Discover"}, {"primary": false, "id": 11361, "name": "MasterCard"}, {"primary": false, "id": 11382, "name": "Visa"}, {"primary": true, "id": 1722, "name": "Restaurants"}], "fax_number": null, "expansion": {"count": null, "uri": null}, "impression_id": "000b000000b7e3a8619ac441cfbc3582596fd9a644", "profile": "http://www.citysearch.com/profile/43863999/woodstock_ga/soho_bagel_co.html", "address": {"city": "Woodstock", "state": "GA", "street": "1105 Parkside Ln Ste 1202", "postal_code": "30189"}, "capProviderId": null, "distance": null, "has_offers": false, "name": "Soho Bagel Co", "longitude": -84.553485, "has_menu": false, "awards": null, "user_review_count": 3}, {"business_operation_status": 1, "rating": null, "neighborhood": null, "image": null, "scorecard": null, "featured": false, "sample_categories": "Restaurants", "public_id": "mamas-cafe-acworth", "id": 682266100, "votes": null, "tagline": null, "has_video": false, "website": null, "offers": null, "latitude": 34.081615, "politanName": "Atlanta, GA Metro ", "phone_number": "7708527100", "tags": [{"primary": true, "id": 1722, "name": "Restaurants"}], "fax_number": null, "expansion": {"count": null, "uri": null}, "impression_id": "000b0000005ef5cf7bbf2d44eb88f72c5244414da7", "profile": "http://www.citysearch.com/profile/682266100/acworth_ga/mama_s_cafe.html", "address": {"city": "Acworth", "state": "GA", "street": "5399 Bells Ferry Rd", "postal_code": "30102"}, "capProviderId": null, "distance": null, "has_offers": false, "name": "Mama's Cafe", "longitude": -84.575225, "has_menu": false, "awards": null, "user_review_count": 0}, {"business_operation_status": 1, "rating": null, "neighborhood": null, "image": null, "scorecard": null, "featured": false, "sample_categories": "Restaurants, Traditional American, Carry Out", "public_id": "ihop-restaurant-marietta-3", "id": 682450140, "votes": null, "tagline": null, "has_video": false, "website": "http://www.citysearch.com/profile/external/682450140/marietta_ga/ihop.html", "offers": null, "latitude": 33.94651, "politanName": "Atlanta, GA Metro ", "phone_number": "7704851267", "tags": [{"primary": false, "id": 11190, "name": "Traditional American"}, {"primary": false, "id": 11247, "name": "Carry Out"}, {"primary": true, "id": 1722, "name": "Restaurants"}], "fax_number": null, "expansion": {"count": null, "uri": null}, "impression_id": "000b000000ed7c1e62697f4336856a8f09f95decdf", "profile": "http://www.citysearch.com/profile/682450140/marietta_ga/ihop.html", "address": {"city": "Marietta", "state": "GA", "street": "2390 Dallas Hwy SW", "postal_code": "30064"}, "capProviderId": null, "distance": null, "has_offers": false, "name": "IHOP", "longitude": -84.62155, "has_menu": false, "awards": null, "user_review_count": 0}, {"business_operation_status": 1, "rating": null, "neighborhood": null, "image": null, "scorecard": null, "featured": false, "sample_categories": "Restaurants, Chinese", "public_id": "songs-garden-chinese-rstrnt-woodstock", "id": 787130630, "votes": null, "tagline": null, "has_video": false, "website": null, "offers": null, "latitude": 34.129085, "politanName": "Atlanta, GA Metro ", "phone_number": "7709288440", "tags": [{"primary": false, "id": 11252, "name": "Chinese"}, {"primary": true, "id": 1722, "name": "Restaurants"}], "fax_number": null, "expansion": {"count": null, "uri": null}, "impression_id": "000b000000c7bbf97b6950428e9b2c50e3f602cc01", "profile": "http://www.citysearch.com/profile/787130630/woodstock_ga/song_s_garden_chinese_rstrnt.html", "address": {"city": "Woodstock", "state": "GA", "street": "4451 Towne Lake Pkwy", "postal_code": "30189"}, "capProviderId": null, "distance": null, "has_offers": false, "name": "Song's Garden Chinese Rstrnt", "longitude": -84.576054, "has_menu": false, "awards": null, "user_review_count": 0}, {"business_operation_status": 1, "rating": null, "neighborhood": null, "image": null, "scorecard": null, "featured": false, "sample_categories": "Luaus", "public_id": "el-herradero-kennesaw", "id": 818931270, "votes": null, "tagline": null, "has_video": false, "website": null, "offers": null, "latitude": 34.014345, "politanName": "Atlanta, GA Metro ", "phone_number": "7704231213", "tags": [{"primary": true, "id": 11285, "name": "Luaus"}], "fax_number": null, "expansion": {"count": null, "uri": null}, "impression_id": "000b0000000ce32fb3e5a54a439520cad0d444db20", "profile": "http://www.citysearch.com/profile/818931270/kennesaw_ga/el_herradero.html", "address": {"city": "Kennesaw", "state": "GA", "street": "2479 Cobb Pkwy NW", "postal_code": "30152"}, "capProviderId": null, "distance": null, "has_offers": false, "name": "El Herradero", "longitude": -84.614253, "has_menu": false, "awards": null, "user_review_count": 0}, {"business_operation_status": 1, "rating": null, "neighborhood": null, "image": null, "scorecard": null, "featured": false, "sample_categories": "Restaurants", "public_id": "daves-kennesaw", "id": 33571129, "votes": null, "tagline": null, "has_video": false, "website": null, "offers": null, "latitude": 34.048639, "politanName": "Atlanta, GA Metro ", "phone_number": "7704251010", "tags": [{"primary": true, "id": 1722, "name": "Restaurants"}], "fax_number": null, "expansion": {"count": null, "uri": null}, "impression_id": "000b0000009c1f89ec14c34fc6b52f2a35ed624aa9", "profile": "http://www.citysearch.com/profile/33571129/kennesaw_ga/dave_s.html", "address": {"city": "Kennesaw", "state": "GA", "street": "3900 Legacy Park Blvd NW Ste B100", "postal_code": "30144"}, "capProviderId": null, "distance": null, "has_offers": false, "name": "Dave's", "longitude": -84.622471, "has_menu": true, "awards": null, "user_review_count": 0}, {"business_operation_status": 1, "rating": null, "neighborhood": null, "image": null, "scorecard": null, "featured": false, "sample_categories": "Restaurants, Carry Out", "public_id": "jimmy-johns-kennesaw", "id": 612255804, "votes": null, "tagline": null, "has_video": false, "website": "http://www.citysearch.com/profile/external/612255804/kennesaw_ga/jimmy_john_s.html", "offers": null, "latitude": 34.030272, "politanName": "Atlanta, GA Metro ", "phone_number": "6783100766", "tags": [{"primary": false, "id": 11247, "name": "Carry Out"}, {"primary": true, "id": 1722, "name": "Restaurants"}], "fax_number": null, "expansion": {"count": null, "uri": null}, "impression_id": "000b00000055ec94398f574853aeceb9513c28525c", "profile": "http://www.citysearch.com/profile/612255804/kennesaw_ga/jimmy_john_s.html", "address": {"city": "Kennesaw", "state": "GA", "street": "1133 Chastain Rd NW # 300", "postal_code": "30144"}, "capProviderId": null, "distance": null, "has_offers": false, "name": "Jimmy John's", "longitude": -84.582584, "has_menu": false, "awards": null, "user_review_count": 0}, {"business_operation_status": 1, "rating": null, "neighborhood": null, "image": null, "scorecard": null, "featured": false, "sample_categories": "Restaurants, Bars & Clubs, Lounges", "public_id": "stock-bistro-lounge-woodstock", "id": 617747854, "votes": null, "tagline": null, "has_video": false, "website": "http://www.citysearch.com/profile/external/617747854/woodstock_ga/stock_bistro_lounge.html", "offers": null, "latitude": 34.113484, "politanName": "Atlanta, GA Metro ", "phone_number": "7705166779", "tags": [{"primary": false, "id": 164, "name": "Bars & Clubs"}, {"primary": false, "id": 1697, "name": "Lounges"}, {"primary": true, "id": 1722, "name": "Restaurants"}], "fax_number": null, "expansion": {"count": null, "uri": null}, "impression_id": "000b00000009ed04a6420b493db6c3fe9d2745124e", "profile": "http://www.citysearch.com/profile/617747854/woodstock_ga/stock_bistro_lounge.html", "address": {"city": "Woodstock", "state": "GA", "street": "6424 Bells Ferry Rd #118", "postal_code": "30189"}, "capProviderId": null, "distance": null, "has_offers": false, "name": "Stock Bistro & Lounge", "longitude": -84.580747, "has_menu": false, "awards": null, "user_review_count": 0}, {"business_operation_status": 1, "rating": null, "neighborhood": null, "image": null, "scorecard": null, "featured": false, "sample_categories": "Restaurants, Carry Out, Chicken", "public_id": "chickfila-kennesaw-2", "id": 627656020, "votes": null, "tagline": null, "has_video": false, "website": null, "offers": null, "latitude": 34.034361, "politanName": "Atlanta, GA Metro ", "phone_number": "7704236448", "tags": [{"primary": false, "id": 11247, "name": "Carry Out"}, {"primary": false, "id": 12839, "name": "Chicken"}, {"primary": true, "id": 1722, "name": "Restaurants"}], "fax_number": null, "expansion": {"count": null, "uri": null}, "impression_id": "000b00000029f6373ab0a5421eb89ac6226e8947e0", "profile": "http://www.citysearch.com/profile/627656020/kennesaw_ga/chick_fil_a.html", "address": {"city": "Kennesaw", "state": "GA", "street": "1000 Chastain Rd NW", "postal_code": "30144"}, "capProviderId": null, "distance": null, "has_offers": false, "name": "Chick-Fil-A", "longitude": -84.574216, "has_menu": false, "awards": null, "user_review_count": 0}, {"business_operation_status": 1, "rating": null, "neighborhood": null, "image": null, "scorecard": null, "featured": false, "sample_categories": "Ice Cream Parlors, Frozen Yogurt Shops", "public_id": "baskinrobbins-marietta", "id": 627670240, "votes": null, "tagline": null, "has_video": false, "website": "http://www.citysearch.com/profile/external/627670240/marietta_ga/baskin_robbins.html", "offers": null, "latitude": 34.021176, "politanName": "Atlanta, GA Metro ", "phone_number": "7704223375", "tags": [{"primary": false, "id": 1729, "name": "Frozen Yogurt Shops"}, {"primary": true, "id": 1730, "name": "Ice Cream Parlors"}], "fax_number": null, "expansion": {"count": null, "uri": null}, "impression_id": "000b0000008515539fedfe4402bf7741218126d9ec", "profile": "http://www.citysearch.com/profile/627670240/marietta_ga/baskin_robbins.html", "address": {"city": "Marietta", "state": "GA", "street": "2885 Canton Rd", "postal_code": "30066"}, "capProviderId": null, "distance": null, "has_offers": false, "name": "Baskin-Robbins", "longitude": -84.529098, "has_menu": true, "awards": null, "user_review_count": 2}, {"business_operation_status": 1, "rating": null, "neighborhood": null, "image": null, "scorecard": null, "featured": false, "sample_categories": "Restaurants, Bakeries", "public_id": "banbou-restaurant-bakery-kennesaw", "id": 653623320, "votes": null, "tagline": null, "has_video": false, "website": null, "offers": null, "latitude": 34.050651, "politanName": "Atlanta, GA Metro ", "phone_number": "6784018595", "tags": [{"primary": false, "id": 1685, "name": "Bakeries"}, {"primary": true, "id": 1722, "name": "Restaurants"}], "fax_number": null, "expansion": {"count": null, "uri": null}, "impression_id": "000b000000281ccc8ba53d4186ad25de25cbd217e6", "profile": "http://www.citysearch.com/profile/653623320/kennesaw_ga/banbou_restaurant_bakery.html", "address": {"city": "Kennesaw", "state": "GA", "street": "3600 Cherokee St Nw # 115", "postal_code": "30144"}, "capProviderId": null, "distance": null, "has_offers": false, "name": "Banbou Restaurant & Bakery", "longitude": -84.595684, "has_menu": false, "awards": null, "user_review_count": 0}, {"business_operation_status": 1, "rating": null, "neighborhood": null, "image": null, "scorecard": null, "featured": false, "sample_categories": "Restaurants, Grocery Stores", "public_id": "snack-paradise-kennesaw", "id": 655941070, "votes": null, "tagline": null, "has_video": false, "website": null, "offers": null, "latitude": 34.022182, "politanName": "Atlanta, GA Metro ", "phone_number": "6784027506", "tags": [{"primary": false, "id": 1713, "name": "Grocery Stores"}, {"primary": true, "id": 1722, "name": "Restaurants"}], "fax_number": null, "expansion": {"count": null, "uri": null}, "impression_id": "000b0000003329f188fa524845ae102cc62e1a0ec8", "profile": "http://www.citysearch.com/profile/655941070/kennesaw_ga/snack_paradise.html", "address": {"city": "Kennesaw", "state": "GA", "street": "2851 Cobb Pkwy Nw", "postal_code": "30152"}, "capProviderId": null, "distance": null, "has_offers": false, "name": "Snack Paradise", "longitude": -84.626291, "has_menu": false, "awards": null, "user_review_count": 0}, {"business_operation_status": 1, "rating": null, "neighborhood": null, "image": null, "scorecard": null, "featured": false, "sample_categories": "Restaurants, Mexican, Carry Out, American Express, Discover", "public_id": "taco-bell-marietta-7", "id": 682721700, "votes": null, "tagline": null, "has_video": false, "website": "http://www.citysearch.com/profile/external/682721700/marietta_ga/taco_bell.html", "offers": null, "latitude": 33.944909, "politanName": "Atlanta, GA Metro ", "phone_number": "7704218815", "tags": [{"primary": false, "id": 11208, "name": "Mexican"}, {"primary": false, "id": 11247, "name": "Carry Out"}, {"primary": false, "id": 11333, "name": "American Express"}, {"primary": false, "id": 11349, "name": "Discover"}, {"primary": false, "id": 11361, "name": "MasterCard"}, {"primary": false, "id": 11382, "name": "Visa"}, {"primary": true, "id": 1722, "name": "Restaurants"}], "fax_number": null, "expansion": {"count": null, "uri": null}, "impression_id": "000b000000dd3e9797d64345b7902ddb5e898b5e3a", "profile": "http://www.citysearch.com/profile/682721700/marietta_ga/taco_bell.html", "address": {"city": "Marietta", "state": "GA", "street": "3480 Ernest W Barrett Pkwy Sw", "postal_code": "30064"}, "capProviderId": null, "distance": null, "has_offers": false, "name": "Taco Bell", "longitude": -84.624717, "has_menu": true, "awards": null, "user_review_count": 0}, {"business_operation_status": 1, "rating": null, "neighborhood": null, "image": null, "scorecard": null, "featured": false, "sample_categories": "Grocery Stores, Restaurants, Soul", "public_id": "food-for-the-soul-cartersville", "id": 704223140, "votes": null, "tagline": null, "has_video": false, "website": null, "offers": null, "latitude": 34.201222, "politanName": "Atlanta, GA Metro ", "phone_number": "7706068711", "tags": [{"primary": false, "id": 1722, "name": "Restaurants"}, {"primary": false, "id": 15140, "name": "Soul"}, {"primary": true, "id": 1713, "name": "Grocery Stores"}], "fax_number": null, "expansion": {"count": null, "uri": null}, "impression_id": "000b0000002f4f6fc848804bef966066a9d446f7fb", "profile": "http://www.citysearch.com/profile/704223140/cartersville_ga/food_for_the_soul.html", "address": {"city": "Cartersville", "state": "GA", "street": "233 Market Place Blvd", "postal_code": "30121"}, "capProviderId": null, "distance": null, "has_offers": false, "name": "Food For The Soul", "longitude": -84.791074, "has_menu": false, "awards": null, "user_review_count": 0}, {"business_operation_status": 1, "rating": null, "neighborhood": null, "image": null, "scorecard": null, "featured": false, "sample_categories": "Ice Cream Parlors", "public_id": "haagendazs-shop-kennesaw", "id": 706821520, "votes": null, "tagline": null, "has_video": false, "website": "http://www.citysearch.com/profile/external/706821520/kennesaw_ga/haagen_dazs_shop.html", "offers": null, "latitude": 34.019128, "politanName": "Atlanta, GA Metro ", "phone_number": "7705903120", "tags": [{"primary": true, "id": 1730, "name": "Ice Cream Parlors"}], "fax_number": null, "expansion": {"count": null, "uri": null}, "impression_id": "000b000000fc8d20cbf41647fbbe15759961094a9c", "profile": "http://www.citysearch.com/profile/706821520/kennesaw_ga/haagen_dazs_shop.html", "address": {"city": "Kennesaw", "state": "GA", "street": "400 Ernest W Barrett Pkwy NW", "postal_code": "30144"}, "capProviderId": null, "distance": null, "has_offers": false, "name": "Haagen-Dazs Shop", "longitude": -84.563608, "has_menu": true, "awards": null, "user_review_count": 0}, {"business_operation_status": 1, "rating": null, "neighborhood": null, "image": null, "scorecard": null, "featured": false, "sample_categories": "Restaurants", "public_id": "i-l-s-wayport-cartersville", "id": 612016934, "votes": null, "tagline": null, "has_video": false, "website": null, "offers": null, "latitude": 34.209843, "politanName": "Atlanta, GA Metro ", "phone_number": "7703824651", "tags": [{"primary": true, "id": 1722, "name": "Restaurants"}], "fax_number": null, "expansion": {"count": null, "uri": null}, "impression_id": "000b000000285f480bc32d4473ad87b83a89d89b1f", "profile": "http://www.citysearch.com/profile/612016934/cartersville_ga/i_l_s_wayport.html", "address": {"city": "Cartersville", "state": "GA", "street": "5651 Highway 20 NE", "postal_code": "30121"}, "capProviderId": null, "distance": null, "has_offers": false, "name": "I L S Wayport", "longitude": -84.759269, "has_menu": false, "awards": null, "user_review_count": 0}, {"business_operation_status": 1, "rating": null, "neighborhood": null, "image": null, "scorecard": null, "featured": false, "sample_categories": "Restaurants, Food Stores, Grocery Stores, Asian, Chinese", "public_id": "happy-panda-kennesaw", "id": 732232180, "votes": null, "tagline": null, "has_video": false, "website": "http://www.citysearch.com/profile/external/732232180/kennesaw_ga/happy_panda.html", "offers": null, "latitude": 34.060235, "politanName": "Atlanta, GA Metro ", "phone_number": "7704269188", "tags": [{"primary": false, "id": 1706, "name": "Food Stores"}, {"primary": false, "id": 1713, "name": "Grocery Stores"}, {"primary": false, "id": 11235, "name": "Asian"}, {"primary": false, "id": 11252, "name": "Chinese"}, {"primary": false, "id": 11333, "name": "American Express"}, {"primary": false, "id": 11349, "name": "Discover"}, {"primary": false, "id": 11361, "name": "MasterCard"}, {"primary": false, "id": 11382, "name": "Visa"}, {"primary": true, "id": 1722, "name": "Restaurants"}], "fax_number": null, "expansion": {"count": null, "uri": null}, "impression_id": "000b000000383c66db88ba4d848b2d6cad95f8a0fe", "profile": "http://www.citysearch.com/profile/732232180/kennesaw_ga/happy_panda.html", "address": {"city": "Kennesaw", "state": "GA", "street": "4430 Wade Green Rd NW", "postal_code": "30144"}, "capProviderId": null, "distance": null, "has_offers": false, "name": "Happy Panda", "longitude": -84.592066, "has_menu": true, "awards": null, "user_review_count": 1}, {"business_operation_status": 1, "rating": null, "neighborhood": null, "image": null, "scorecard": null, "featured": false, "sample_categories": "Restaurants", "public_id": "mother-natures-soul-food-cartersville", "id": 820115290, "votes": null, "tagline": null, "has_video": false, "website": null, "offers": null, "latitude": 34.129441, "politanName": "Atlanta, GA Metro ", "phone_number": "7703872818", "tags": [{"primary": true, "id": 1722, "name": "Restaurants"}], "fax_number": null, "expansion": {"count": null, "uri": null}, "impression_id": "000b000000a561ee0b80c34c72991148d1e757f53b", "profile": "http://www.citysearch.com/profile/820115290/cartersville_ga/mother_nature_s_soul_food.html", "address": {"city": "Cartersville", "state": "GA", "street": "1340 Highway 113 SW", "postal_code": "30120"}, "capProviderId": null, "distance": null, "has_offers": false, "name": "Mother Nature's Soul Food", "longitude": -84.853242, "has_menu": false, "awards": null, "user_review_count": 0}, {"business_operation_status": 1, "rating": null, "neighborhood": null, "image": null, "scorecard": null, "featured": false, "sample_categories": "Restaurants", "public_id": "new-china-buffet-kennesaw-2", "id": 830498290, "votes": null, "tagline": null, "has_video": false, "website": null, "offers": null, "latitude": 34.014631, "politanName": "Atlanta, GA Metro ", "phone_number": "7707922262", "tags": [{"primary": true, "id": 1722, "name": "Restaurants"}], "fax_number": null, "expansion": {"count": null, "uri": null}, "impression_id": "000b000000fc1e63f8cec1479484e71b512b81b01f", "profile": "http://www.citysearch.com/profile/830498290/kennesaw_ga/new_china_buffet.html", "address": {"city": "Kennesaw", "state": "GA", "street": "Town Center Plz", "postal_code": "30144"}, "capProviderId": null, "distance": null, "has_offers": false, "name": "New China Buffet", "longitude": -84.562889, "has_menu": false, "awards": null, "user_review_count": 0}, {"business_operation_status": 1, "rating": null, "neighborhood": null, "image": null, "scorecard": null, "featured": false, "sample_categories": "Juice & Smoothie Shops", "public_id": "energy-juice-bar-kennesaw", "id": 836019090, "votes": null, "tagline": null, "has_video": false, "website": null, "offers": null, "latitude": 33.999616, "politanName": "Atlanta, GA Metro ", "phone_number": "8622244594", "tags": [{"primary": true, "id": 1735, "name": "Juice & Smoothie Shops"}], "fax_number": null, "expansion": {"count": null, "uri": null}, "impression_id": "000b0000007a2fe90636074a768c16e70ad2d7d027", "profile": "http://www.citysearch.com/profile/836019090/kennesaw_ga/energy_juice_bar.html", "address": {"city": "Kennesaw", "state": "GA", "street": "1185 Ernest W Barrett Pkwy NW", "postal_code": "30144"}, "capProviderId": null, "distance": null, "has_offers": false, "name": "Energy Juice Bar", "longitude": -84.58372, "has_menu": false, "awards": null, "user_review_count": 0}, {"business_operation_status": 1, "rating": null, "neighborhood": null, "image": null, "scorecard": null, "featured": false, "sample_categories": "Grocery Stores, Restaurants, Pizza, Carry Out", "public_id": "mellow-mushroom-cartersville", "id": 838494440, "votes": null, "tagline": null, "has_video": false, "website": "http://www.citysearch.com/profile/external/838494440/cartersville_ga/mellow_mushroom.html", "offers": null, "latitude": 34.165487, "politanName": "Atlanta, GA Metro ", "phone_number": "7706060330", "tags": [{"primary": false, "id": 1713, "name": "Grocery Stores"}, {"primary": false, "id": 1722, "name": "Restaurants"}, {"primary": false, "id": 11247, "name": "Carry Out"}, {"primary": true, "id": 11299, "name": "Pizza"}], "fax_number": null, "expansion": {"count": null, "uri": null}, "impression_id": "000b000000a7220b6f53374239957d030823d239cb", "profile": "http://www.citysearch.com/profile/838494440/cartersville_ga/mellow_mushroom.html", "address": {"city": "Cartersville", "state": "GA", "street": "28 South Wall Street", "postal_code": "30120"}, "capProviderId": null, "distance": null, "has_offers": false, "name": "Mellow Mushroom", "longitude": -84.794881, "has_menu": true, "awards": null, "user_review_count": 0}, {"business_operation_status": 1, "rating": null, "neighborhood": null, "image": null, "scorecard": null, "featured": false, "sample_categories": "Restaurants, Asian", "public_id": "atami-grill-sushi-marietta", "id": 793235190, "votes": null, "tagline": null, "has_video": false, "website": null, "offers": null, "latitude": 33.955116, "politanName": "Atlanta, GA Metro ", "phone_number": "7706938260", "tags": [{"primary": false, "id": 11235, "name": "Asian"}, {"primary": true, "id": 1722, "name": "Restaurants"}], "fax_number": null, "expansion": {"count": null, "uri": null}, "impression_id": "000b000000e76523eacd0944ebbe774a3aba51927b", "profile": "http://www.citysearch.com/profile/793235190/marietta_ga/atami_grill_sushi.html", "address": {"city": "Marietta", "state": "GA", "street": "3600 Dallas Hwy Sw", "postal_code": "30064"}, "capProviderId": null, "distance": null, "has_offers": false, "name": "Atami Grill & Sushi", "longitude": -84.656027, "has_menu": false, "awards": null, "user_review_count": 0}, {"business_operation_status": 1, "rating": null, "neighborhood": null, "image": null, "scorecard": null, "featured": false, "sample_categories": "Coffeehouses, Restaurants", "public_id": "coffee-creams-cartersville", "id": 2946523, "votes": null, "tagline": null, "has_video": false, "website": null, "offers": null, "latitude": 34.163188, "politanName": "Atlanta, GA Metro ", "phone_number": "7703825330", "tags": [{"primary": false, "id": 1722, "name": "Restaurants"}, {"primary": true, "id": 1726, "name": "Coffeehouses"}], "fax_number": null, "expansion": {"count": null, "uri": null}, "impression_id": "000b0000002bf96232e74e4d908458d286483c13f0", "profile": "http://www.citysearch.com/profile/2946523/cartersville_ga/coffee_creams.html", "address": {"city": "Cartersville", "state": "GA", "street": "241 S Tennessee St", "postal_code": "30120"}, "capProviderId": null, "distance": null, "has_offers": false, "name": "Coffee & Creams", "longitude": -84.793948, "has_menu": false, "awards": null, "user_review_count": 1}, {"business_operation_status": 1, "rating": null, "neighborhood": null, "image": null, "scorecard": null, "featured": false, "sample_categories": "Barbecue Restaurants, Catering, Food Stores, Restaurants", "public_id": "wallace-foods-catering-dallas", "id": 2951275, "votes": null, "tagline": null, "has_video": false, "website": null, "offers": null, "latitude": 33.91823, "politanName": "Atlanta, GA Metro ", "phone_number": "7704458151", "tags": [{"primary": false, "id": 1724, "name": "Barbecue Restaurants"}, {"primary": false, "id": 1705, "name": "Catering"}, {"primary": false, "id": 1706, "name": "Food Stores"}, {"primary": true, "id": 1722, "name": "Restaurants"}], "fax_number": null, "expansion": {"count": null, "uri": null}, "impression_id": "000b00000010949299fbf942ba99ec9d0adbb9f0df", "profile": "http://www.citysearch.com/profile/2951275/dallas_ga/wallace_foods_catering.html", "address": {"city": "Dallas", "state": "GA", "street": "86 Owens Rd", "postal_code": "30157"}, "capProviderId": null, "distance": null, "has_offers": false, "name": "Wallace Foods & Catering", "longitude": -84.777135, "has_menu": false, "awards": null, "user_review_count": 0}, {"business_operation_status": 1, "rating": null, "neighborhood": null, "image": null, "scorecard": null, "featured": false, "sample_categories": "Restaurants, Chinese", "public_id": "best-china-chinese-restaurant-euharlee", "id": 2946501, "votes": null, "tagline": null, "has_video": false, "website": null, "offers": null, "latitude": 34.148169, "politanName": "Atlanta, GA Metro ", "phone_number": "7703867008", "tags": [{"primary": false, "id": 11252, "name": "Chinese"}, {"primary": true, "id": 1722, "name": "Restaurants"}], "fax_number": null, "expansion": {"count": null, "uri": null}, "impression_id": "000b000000a077b0bc81fa4bb6b22309eeab717836", "profile": "http://www.citysearch.com/profile/2946501/euharlee_ga/best_china_chinese_restaurant.html", "address": {"city": "Euharlee", "state": "GA", "street": "12 Euharlee Rd SW", "postal_code": "30120"}, "capProviderId": null, "distance": null, "has_offers": false, "name": "Best China Chinese Restaurant", "longitude": -84.900784, "has_menu": false, "awards": null, "user_review_count": 0}, {"business_operation_status": 1, "rating": null, "neighborhood": null, "image": null, "scorecard": null, "featured": false, "sample_categories": "Ice Cream Parlors, Restaurants, Carry Out", "public_id": "dairy-queen-kennesaw-3", "id": 777729670, "votes": null, "tagline": null, "has_video": false, "website": "http://www.citysearch.com/profile/external/777729670/kennesaw_ga/dairy_queen.html", "offers": null, "latitude": 34.014009, "politanName": "Atlanta, GA Metro ", "phone_number": "7704281468", "tags": [{"primary": false, "id": 1722, "name": "Restaurants"}, {"primary": false, "id": 11247, "name": "Carry Out"}, {"primary": true, "id": 1730, "name": "Ice Cream Parlors"}], "fax_number": null, "expansion": {"count": null, "uri": null}, "impression_id": "000b0000009c0231e3155146ffb873e6dc7e711060", "profile": "http://www.citysearch.com/profile/777729670/kennesaw_ga/dairy_queen.html", "address": {"city": "Kennesaw", "state": "GA", "street": "400 Ernest W Barrett NW # 205", "postal_code": "30144"}, "capProviderId": null, "distance": null, "has_offers": false, "name": "Dairy Queen", "longitude": -84.561425, "has_menu": true, "awards": null, "user_review_count": 0}, {"business_operation_status": 1, "rating": null, "neighborhood": null, "image": null, "scorecard": null, "featured": false, "sample_categories": "Restaurants", "public_id": "city-cafe-dallas-2", "id": 777759730, "votes": null, "tagline": null, "has_video": false, "website": null, "offers": null, "latitude": 34.02964, "politanName": "Atlanta, GA Metro ", "phone_number": "7704432610", "tags": [{"primary": true, "id": 1722, "name": "Restaurants"}], "fax_number": null, "expansion": {"count": null, "uri": null}, "impression_id": "000b000000d3b4d66bc0c14c7d91e1050acccfe6ca", "profile": "http://www.citysearch.com/profile/777759730/dallas_ga/city_cafe.html", "address": {"city": "Dallas", "state": "GA", "street": "8164 Cartersville Hwy", "postal_code": "30132"}, "capProviderId": null, "distance": null, "has_offers": false, "name": "City Cafe", "longitude": -84.848102, "has_menu": false, "awards": null, "user_review_count": 0}, {"business_operation_status": 1, "rating": null, "neighborhood": null, "image": null, "scorecard": null, "featured": false, "sample_categories": "Restaurants", "public_id": "backstreet-cafe-cartersville", "id": 816165330, "votes": null, "tagline": null, "has_video": false, "website": null, "offers": null, "latitude": 34.233756, "politanName": "Atlanta, GA Metro ", "phone_number": "6787216464", "tags": [{"primary": true, "id": 1722, "name": "Restaurants"}], "fax_number": null, "expansion": {"count": null, "uri": null}, "impression_id": "000b000000e4980a43ff02409a88ffd1cade84cad1", "profile": "http://www.citysearch.com/profile/816165330/cartersville_ga/backstreet_cafe.html", "address": {"city": "Cartersville", "state": "GA", "street": "120 Irwin St NW", "postal_code": "30120"}, "capProviderId": null, "distance": null, "has_offers": false, "name": "Backstreet Cafe", "longitude": -84.861709, "has_menu": false, "awards": null, "user_review_count": 0}, {"business_operation_status": 1, "rating": null, "neighborhood": null, "image": null, "scorecard": null, "featured": false, "sample_categories": "Restaurants", "public_id": "jps-oyster-bar-woodstock", "id": 817161350, "votes": null, "tagline": null, "has_video": false, "website": null, "offers": null, "latitude": 34.107712, "politanName": "Atlanta, GA Metro ", "phone_number": "7705919879", "tags": [{"primary": true, "id": 1722, "name": "Restaurants"}], "fax_number": null, "expansion": {"count": null, "uri": null}, "impression_id": "000b0000001a16b953679b4d9896e1c93c10db97ab", "profile": "http://www.citysearch.com/profile/817161350/woodstock_ga/jp_s_oyster_bar.html", "address": {"city": "Woodstock", "state": "GA", "street": "1105 Parkside Ln", "postal_code": "30189"}, "capProviderId": null, "distance": null, "has_offers": false, "name": "Jp's Oyster Bar", "longitude": -84.553184, "has_menu": false, "awards": null, "user_review_count": 0}, {"business_operation_status": 1, "rating": null, "neighborhood": null, "image": null, "scorecard": null, "featured": false, "sample_categories": "Restaurants", "public_id": "mediterranean-buffet-acworth", "id": 824951910, "votes": null, "tagline": null, "has_video": false, "website": null, "offers": null, "latitude": 34.081615, "politanName": "Atlanta, GA Metro ", "phone_number": "7705171340", "tags": [{"primary": true, "id": 1722, "name": "Restaurants"}], "fax_number": null, "expansion": {"count": null, "uri": null}, "impression_id": "000b000000fc4b15c52c9a4d9d9ba95b87d7ac6fd4", "profile": "http://www.citysearch.com/profile/824951910/acworth_ga/mediterranean_buffet.html", "address": {"city": "Acworth", "state": "GA", "street": "5399 Bells Ferry Rd # 100", "postal_code": "30102"}, "capProviderId": null, "distance": null, "has_offers": false, "name": "Mediterranean Buffet", "longitude": -84.575225, "has_menu": false, "awards": null, "user_review_count": 0}, {"business_operation_status": 1, "rating": null, "neighborhood": null, "image": null, "scorecard": null, "featured": false, "sample_categories": "Restaurants", "public_id": "el-herradero-mexican-rstrnt-kennesaw", "id": 824483720, "votes": null, "tagline": null, "has_video": false, "website": null, "offers": null, "latitude": 34.014345, "politanName": "Atlanta, GA Metro ", "phone_number": "7704231213", "tags": [{"primary": true, "id": 1722, "name": "Restaurants"}], "fax_number": null, "expansion": {"count": null, "uri": null}, "impression_id": "000b0000005cdf3a88c5df4a809ecf944e7df2010b", "profile": "http://www.citysearch.com/profile/824483720/kennesaw_ga/el_herradero_mexican_rstrnt.html", "address": {"city": "Kennesaw", "state": "GA", "street": "2479 Cobb Pkwy NW", "postal_code": "30152"}, "capProviderId": null, "distance": null, "has_offers": false, "name": "El Herradero Mexican Rstrnt", "longitude": -84.614253, "has_menu": false, "awards": null, "user_review_count": 0}], "histograms": [], "tag_ids": [1722], "uri": "http://api.citygridmedia.com:8080/search/places/v2/search/where?has_offers=false&type=restaurant&format=json&page=20&where=30101&rpp=50&histograms=false&publisher=10000009598&region_type=circle", "did_you_mean": "", "regions": [{"latitude": 34.042584, "default_radius": 6.64, "type": "postal_code", "name": "30101", "longitude": -84.71322699999999}], "call_id": "000b00000062ba28d1513049afa7f1439ed93c1535", "first_hit": 951, "total_hits": 1249, "geo_ids": [26343], "page": 20, "last_hit": 1000}}