{"results": {"rpp": 50, "locations": [{"business_operation_status": 1, "rating": null, "neighborhood": null, "image": null, "scorecard": null, "featured": false, "sample_categories": "Restaurants", "public_id": "deli-planet-kennesaw", "id": 828070300, "votes": null, "tagline": null, "has_video": false, "website": null, "offers": null, "latitude": 34.012738, "politanName": "Atlanta, GA Metro ", "phone_number": "6783035062", "tags": [{"primary": true, "id": 1722, "name": "Restaurants"}], "fax_number": null, "expansion": {"count": null, "uri": null}, "impression_id": "000b00000025824c2795ab44c8930d4737167d1c38", "profile": "http://www.citysearch.com/profile/828070300/kennesaw_ga/deli_planet.html", "address": {"city": "Kennesaw", "state": "GA", "street": "440 Ernest W Barrett Pkwy NW", "postal_code": "30144"}, "capProviderId": null, "distance": null, "has_offers": false, "name": "Deli Planet", "longitude": -84.5643, "has_menu": false, "awards": null, "user_review_count": 0}, {"business_operation_status": 1, "rating": null, "neighborhood": null, "image": null, "scorecard": null, "featured": false, "sample_categories": "Restaurants, Mexican, Carry Out", "public_id": "chipotle-mexican-grill-kennesaw", "id": 766807240, "votes": null, "tagline": null, "has_video": false, "website": "http://www.citysearch.com/profile/external/766807240/kennesaw_ga/chipotle_mexican_grill.html", "offers": null, "latitude": 34.019128, "politanName": "Atlanta, GA Metro ", "phone_number": "6782797996", "tags": [{"primary": false, "id": 11208, "name": "Mexican"}, {"primary": false, "id": 11247, "name": "Carry Out"}, {"primary": true, "id": 1722, "name": "Restaurants"}], "fax_number": null, "expansion": {"count": null, "uri": null}, "impression_id": "000b000000829557ba86224167a12418caf352ad78", "profile": "http://www.citysearch.com/profile/766807240/kennesaw_ga/chipotle_mexican_grill.html", "address": {"city": "Kennesaw", "state": "GA", "street": "964 Ernest W Barrett Pkwy NW", "postal_code": "30144"}, "capProviderId": null, "distance": null, "has_offers": false, "name": "Chipotle Mexican Grill", "longitude": -84.563608, "has_menu": false, "awards": null, "user_review_count": 0}, {"business_operation_status": 1, "rating": null, "neighborhood": null, "image": null, "scorecard": null, "featured": false, "sample_categories": "Bars & Pubs, Bars & Clubs, Restaurants, American Express, Discover", "public_id": "hiram-station-hiram", "id": 2954107, "votes": null, "tagline": null, "has_video": false, "website": "http://www.citysearch.com/profile/external/2954107/hiram_ga/hiram_station.html", "offers": null, "latitude": 33.902085, "politanName": "Atlanta, GA Metro ", "phone_number": "7704458797", "tags": [{"primary": false, "id": 164, "name": "Bars & Clubs"}, {"primary": false, "id": 1722, "name": "Restaurants"}, {"primary": false, "id": 11333, "name": "American Express"}, {"primary": false, "id": 11349, "name": "Discover"}, {"primary": false, "id": 11361, "name": "MasterCard"}, {"primary": false, "id": 11382, "name": "Visa"}, {"primary": true, "id": 1686, "name": "Bars & Pubs"}], "fax_number": null, "expansion": {"count": null, "uri": null}, "impression_id": "000b00000055587707f2c54b5ab4bf51a690f5c72f", "profile": "http://www.citysearch.com/profile/2954107/hiram_ga/hiram_station.html", "address": {"city": "Hiram", "state": "GA", "street": "3736 Atlanta Hwy Ste F", "postal_code": "30141"}, "capProviderId": null, "distance": null, "has_offers": false, "name": "Hiram Station", "longitude": -84.771417, "has_menu": false, "awards": null, "user_review_count": 1}, {"business_operation_status": 1, "rating": null, "neighborhood": null, "image": null, "scorecard": null, "featured": false, "sample_categories": "Restaurants, Carry Out, Hamburgers", "public_id": "mc-donalds-cartersville-7", "id": 777687480, "votes": null, "tagline": null, "has_video": false, "website": null, "offers": null, "latitude": 34.118857, "politanName": "Atlanta, GA Metro ", "phone_number": "7706072964", "tags": [{"primary": false, "id": 11247, "name": "Carry Out"}, {"primary": false, "id": 11270, "name": "Hamburgers"}, {"primary": true, "id": 1722, "name": "Restaurants"}], "fax_number": null, "expansion": {"count": null, "uri": null}, "impression_id": "000b0000004849c810975842d7a7131039c97d3dc9", "profile": "http://www.citysearch.com/profile/777687480/cartersville_ga/mc_donald_s.html", "address": {"city": "Cartersville", "state": "GA", "street": "150 Old Allatoona Rd Se", "postal_code": "30121"}, "capProviderId": null, "distance": null, "has_offers": false, "name": "Mc Donald's", "longitude": -84.743165, "has_menu": false, "awards": null, "user_review_count": 0}, {"business_operation_status": 1, "rating": null, "neighborhood": null, "image": null, "scorecard": null, "featured": false, "sample_categories": "Restaurants, Bars & Clubs", "public_id": "highlands-grill-sports-tvrn-kennesaw", "id": 787112570, "votes": null, "tagline": null, "has_video": false, "website": null, "offers": null, "latitude": 34.013172, "politanName": "Atlanta, GA Metro ", "phone_number": "7704261515", "tags": [{"primary": false, "id": 164, "name": "Bars & Clubs"}, {"primary": true, "id": 1722, "name": "Restaurants"}], "fax_number": null, "expansion": {"count": null, "uri": null}, "impression_id": "000b000000914fc9f7b78d407f8c6a395e2d56374a", "profile": "http://www.citysearch.com/profile/787112570/kennesaw_ga/highlands_grill_sports_tvrn.html", "address": {"city": "Kennesaw", "state": "GA", "street": "2615 George Busbee Pkwy NW # 2", "postal_code": "30144"}, "capProviderId": null, "distance": null, "has_offers": false, "name": "Highlands Grill & Sports Tvrn", "longitude": -84.567215, "has_menu": false, "awards": null, "user_review_count": 0}, {"business_operation_status": 1, "rating": null, "neighborhood": null, "image": null, "scorecard": null, "featured": false, "sample_categories": "Restaurants, Traditional American", "public_id": "buffalos-southwest-cafe-kennesaw", "id": 787114370, "votes": null, "tagline": null, "has_video": false, "website": null, "offers": null, "latitude": 34.004386, "politanName": "Atlanta, GA Metro ", "phone_number": "7704392831", "tags": [{"primary": false, "id": 11190, "name": "Traditional American"}, {"primary": true, "id": 1722, "name": "Restaurants"}], "fax_number": null, "expansion": {"count": null, "uri": null}, "impression_id": "000b000000029c5b8ba48a478684f239860fa0a22e", "profile": "http://www.citysearch.com/profile/787114370/kennesaw_ga/buffalo_s_southwest_cafe.html", "address": {"city": "Kennesaw", "state": "GA", "street": "4079 Stephanie Ct NW", "postal_code": "30152"}, "capProviderId": null, "distance": null, "has_offers": false, "name": "Buffalo's Southwest Cafe", "longitude": -84.670496, "has_menu": false, "awards": null, "user_review_count": 0}, {"business_operation_status": 1, "rating": null, "neighborhood": null, "image": null, "scorecard": null, "featured": false, "sample_categories": "Restaurants, Carry Out, Hamburgers", "public_id": "mc-donalds-cartersville-8", "id": 787116710, "votes": null, "tagline": null, "has_video": false, "website": null, "offers": null, "latitude": 34.165097, "politanName": "Atlanta, GA Metro ", "phone_number": "7703868162", "tags": [{"primary": false, "id": 11247, "name": "Carry Out"}, {"primary": false, "id": 11270, "name": "Hamburgers"}, {"primary": true, "id": 1722, "name": "Restaurants"}], "fax_number": null, "expansion": {"count": null, "uri": null}, "impression_id": "000b0000003f6f1205b07146eb9f00f0cab2d6817b", "profile": "http://www.citysearch.com/profile/787116710/cartersville_ga/mc_donald_s.html", "address": {"city": "Cartersville", "state": "GA", "street": "Rr 6", "postal_code": "30121"}, "capProviderId": null, "distance": null, "has_offers": false, "name": "Mc Donald's", "longitude": -84.799938, "has_menu": false, "awards": null, "user_review_count": 0}, {"business_operation_status": 1, "rating": null, "neighborhood": null, "image": null, "scorecard": null, "featured": false, "sample_categories": "Cafes", "public_id": "market-cafe-acworth", "id": 787133180, "votes": null, "tagline": null, "has_video": false, "website": null, "offers": null, "latitude": 34.08686, "politanName": "Atlanta, GA Metro ", "phone_number": "6783601802", "tags": [{"primary": true, "id": 6190, "name": "Cafes"}], "fax_number": null, "expansion": {"count": null, "uri": null}, "impression_id": "000b000000ebf51bfaf6094cf7ba0bf51d781b29c9", "profile": "http://www.citysearch.com/profile/787133180/acworth_ga/market_cafe.html", "address": {"city": "Acworth", "state": "GA", "street": "5500 Bells Ferry Rd", "postal_code": "30102"}, "capProviderId": null, "distance": null, "has_offers": false, "name": "Market Cafe", "longitude": -84.576418, "has_menu": false, "awards": null, "user_review_count": 0}, {"business_operation_status": 1, "rating": null, "neighborhood": null, "image": null, "scorecard": null, "featured": false, "sample_categories": "Restaurants, Barbecue Restaurants, Carry Out", "public_id": "wings-street-woodstock", "id": 787133900, "votes": null, "tagline": null, "has_video": false, "website": "http://www.citysearch.com/profile/external/787133900/woodstock_ga/wings_street.html", "offers": null, "latitude": 34.129085, "politanName": "Atlanta, GA Metro ", "phone_number": "7705167700", "tags": [{"primary": false, "id": 1724, "name": "Barbecue Restaurants"}, {"primary": false, "id": 11247, "name": "Carry Out"}, {"primary": true, "id": 1722, "name": "Restaurants"}], "fax_number": null, "expansion": {"count": null, "uri": null}, "impression_id": "000b000000b68dc912b60b4a1da35b9691c890bf0c", "profile": "http://www.citysearch.com/profile/787133900/woodstock_ga/wings_street.html", "address": {"city": "Woodstock", "state": "GA", "street": "4451 Towne Lake Pkwy # 310", "postal_code": "30189"}, "capProviderId": null, "distance": null, "has_offers": false, "name": "Wings Street", "longitude": -84.576054, "has_menu": false, "awards": null, "user_review_count": 0}, {"business_operation_status": 1, "rating": null, "neighborhood": null, "image": null, "scorecard": null, "featured": false, "sample_categories": "Restaurants", "public_id": "ambra-southwestern-medeterranean-cuisine-cartersville", "id": 605570540, "votes": null, "tagline": null, "has_video": false, "website": null, "offers": null, "latitude": 34.164175, "politanName": "Atlanta, GA Metro ", "phone_number": "7703861960", "tags": [{"primary": true, "id": 1722, "name": "Restaurants"}], "fax_number": null, "expansion": {"count": null, "uri": null}, "impression_id": "000b00000048bb8ec8851a4038ad6027689ff3ab80", "profile": "http://www.citysearch.com/profile/605570540/cartersville_ga/ambra_southwestern_medeterranean_cuisine.html", "address": {"city": "Cartersville", "state": "GA", "street": "148 W Main St", "postal_code": "30120"}, "capProviderId": null, "distance": null, "has_offers": false, "name": "Ambra Southwestern & Medeterranean Cuisine", "longitude": -84.798585, "has_menu": true, "awards": null, "user_review_count": 0}, {"business_operation_status": 1, "rating": null, "neighborhood": null, "image": null, "scorecard": null, "featured": false, "sample_categories": "Restaurants, American Express, Discover, MasterCard, Visa", "public_id": "chilitos-kennesaw-2", "id": 605578100, "votes": null, "tagline": null, "has_video": false, "website": null, "offers": null, "latitude": 34.035364, "politanName": "Atlanta, GA Metro ", "phone_number": "6783546660", "tags": [{"primary": false, "id": 11333, "name": "American Express"}, {"primary": false, "id": 11349, "name": "Discover"}, {"primary": false, "id": 11361, "name": "MasterCard"}, {"primary": false, "id": 11382, "name": "Visa"}, {"primary": true, "id": 1722, "name": "Restaurants"}], "fax_number": null, "expansion": {"count": null, "uri": null}, "impression_id": "000b000000b3af90d0f00444aaa773b3ce933a406c", "profile": "http://www.citysearch.com/profile/605578100/kennesaw_ga/chilitos.html", "address": {"city": "Kennesaw", "state": "GA", "street": "745 Chastain Rd Nw # 2020", "postal_code": "30144"}, "capProviderId": null, "distance": null, "has_offers": false, "name": "Chilitos", "longitude": -84.570141, "has_menu": true, "awards": null, "user_review_count": 0}, {"business_operation_status": 1, "rating": null, "neighborhood": null, "image": null, "scorecard": null, "featured": false, "sample_categories": "Restaurants", "public_id": "c-gs-deli-dallas", "id": 826657680, "votes": null, "tagline": null, "has_video": false, "website": null, "offers": null, "latitude": 33.956809, "politanName": "Atlanta, GA Metro ", "phone_number": "7705053500", "tags": [{"primary": true, "id": 1722, "name": "Restaurants"}], "fax_number": null, "expansion": {"count": null, "uri": null}, "impression_id": "000b0000001575797e4b9348cd8b2cd6f6e58e6867", "profile": "http://www.citysearch.com/profile/826657680/dallas_ga/c_g_s_deli.html", "address": {"city": "Dallas", "state": "GA", "street": "4201 Dallas Acworth Hwy", "postal_code": "30132"}, "capProviderId": null, "distance": null, "has_offers": false, "name": "C & G's Deli", "longitude": -84.791704, "has_menu": false, "awards": null, "user_review_count": 0}, {"business_operation_status": 1, "rating": null, "neighborhood": null, "image": null, "scorecard": null, "featured": false, "sample_categories": "Juice & Smoothie Shops", "public_id": "fit-juice-bar-llc-kennesaw", "id": 713624290, "votes": null, "tagline": null, "has_video": false, "website": null, "offers": null, "latitude": 34.058322, "politanName": "Atlanta, GA Metro ", "phone_number": "7704220412", "tags": [{"primary": true, "id": 1735, "name": "Juice & Smoothie Shops"}], "fax_number": null, "expansion": {"count": null, "uri": null}, "impression_id": "000b0000005546919329cc454fa0cc1ec6cbf96a1f", "profile": "http://www.citysearch.com/profile/713624290/kennesaw_ga/fit_juice_bar_llc.html", "address": {"city": "Kennesaw", "state": "GA", "street": "4200 Wade Green Rd NW", "postal_code": "30144"}, "capProviderId": null, "distance": null, "has_offers": false, "name": "Fit Juice Bar LLC", "longitude": -84.590676, "has_menu": false, "awards": null, "user_review_count": 0}, {"business_operation_status": 1, "rating": null, "neighborhood": null, "image": null, "scorecard": null, "featured": false, "sample_categories": "Restaurants", "public_id": "first-watch-kennesaw", "id": 617566284, "votes": null, "tagline": null, "has_video": false, "website": "http://www.citysearch.com/profile/external/617566284/kennesaw_ga/first_watch.html", "offers": null, "latitude": 34.048547, "politanName": "Atlanta, GA Metro ", "phone_number": "6784017431", "tags": [{"primary": true, "id": 1722, "name": "Restaurants"}], "fax_number": null, "expansion": {"count": null, "uri": null}, "impression_id": "000b000000c46ae073dca04f8588569b7d2a728be3", "profile": "http://www.citysearch.com/profile/617566284/kennesaw_ga/first_watch.html", "address": {"city": "Kennesaw", "state": "GA", "street": "3815 Cherokee St NW", "postal_code": "30144"}, "capProviderId": null, "distance": null, "has_offers": false, "name": "First Watch", "longitude": -84.598764, "has_menu": false, "awards": null, "user_review_count": 0}, {"business_operation_status": 1, "rating": null, "neighborhood": null, "image": null, "scorecard": null, "featured": false, "sample_categories": "Restaurants, Hamburgers", "public_id": "smashburger-kennesaw", "id": 739079670, "votes": null, "tagline": null, "has_video": false, "website": null, "offers": null, "latitude": 34.014321, "politanName": "Atlanta, GA Metro ", "phone_number": "7704274141", "tags": [{"primary": false, "id": 11270, "name": "Hamburgers"}, {"primary": true, "id": 1722, "name": "Restaurants"}], "fax_number": null, "expansion": {"count": null, "uri": null}, "impression_id": "000b0000007e7e5ecd90114cc1b763a568bab0ec7b", "profile": "http://www.citysearch.com/profile/739079670/kennesaw_ga/smashburger.html", "address": {"city": "Kennesaw", "state": "GA", "street": "440 Ernest W Barrett Pkwy NW", "postal_code": "30144"}, "capProviderId": null, "distance": null, "has_offers": false, "name": "Smashburger", "longitude": -84.562111, "has_menu": false, "awards": null, "user_review_count": 0}, {"business_operation_status": 1, "rating": null, "neighborhood": null, "image": null, "scorecard": null, "featured": false, "sample_categories": "Restaurants, Brew Pubs", "public_id": "e-street-ale-house-cartersville", "id": 764830810, "votes": null, "tagline": null, "has_video": false, "website": null, "offers": null, "latitude": 34.16242, "politanName": "Atlanta, GA Metro ", "phone_number": "7703874127", "tags": [{"primary": false, "id": 1693, "name": "Brew Pubs"}, {"primary": true, "id": 1722, "name": "Restaurants"}], "fax_number": null, "expansion": {"count": null, "uri": null}, "impression_id": "000b0000005f798e0e1a054d65855d1d22a0f28faa", "profile": "http://www.citysearch.com/profile/764830810/cartersville_ga/e_street_ale_house.html", "address": {"city": "Cartersville", "state": "GA", "street": "120 S Erwin St", "postal_code": "30120"}, "capProviderId": null, "distance": null, "has_offers": false, "name": "E Street Ale House", "longitude": -84.795734, "has_menu": false, "awards": null, "user_review_count": 0}, {"business_operation_status": 1, "rating": null, "neighborhood": null, "image": null, "scorecard": null, "featured": false, "sample_categories": "Restaurants, Carry Out, Pizza", "public_id": "mellow-mushroom-kennesaw-2", "id": 764924500, "votes": null, "tagline": null, "has_video": false, "website": null, "offers": null, "latitude": 34.032505, "politanName": "Atlanta, GA Metro ", "phone_number": "7707958525", "tags": [{"primary": false, "id": 11247, "name": "Carry Out"}, {"primary": false, "id": 11299, "name": "Pizza"}, {"primary": true, "id": 1722, "name": "Restaurants"}], "fax_number": null, "expansion": {"count": null, "uri": null}, "impression_id": "000b000000ae12e68ab1484ef6a92d2b46289278e0", "profile": "http://www.citysearch.com/profile/764924500/kennesaw_ga/mellow_mushroom.html", "address": {"city": "Kennesaw", "state": "GA", "street": "2700 Town Center Dr NW", "postal_code": "30144"}, "capProviderId": null, "distance": null, "has_offers": false, "name": "Mellow Mushroom", "longitude": -84.648513, "has_menu": false, "awards": null, "user_review_count": 0}, {"business_operation_status": 1, "rating": null, "neighborhood": null, "image": null, "scorecard": null, "featured": false, "sample_categories": "Restaurants, Pizza", "public_id": "bills-new-york-style-pizza-cartersville", "id": 647352000, "votes": null, "tagline": null, "has_video": false, "website": null, "offers": null, "latitude": 34.153153, "politanName": "Atlanta, GA Metro ", "phone_number": "7703871188", "tags": [{"primary": false, "id": 1722, "name": "Restaurants"}, {"primary": true, "id": 11299, "name": "Pizza"}], "fax_number": null, "expansion": {"count": null, "uri": null}, "impression_id": "000b0000000eb0fc2196354548bec3a03aa5e34f56", "profile": "http://www.citysearch.com/profile/647352000/cartersville_ga/bill_s_new_york_style_pizza.html", "address": {"city": "Cartersville", "state": "GA", "street": "650 Henderson Dr", "postal_code": "30120"}, "capProviderId": null, "distance": null, "has_offers": false, "name": "Bill's New York Style Pizza", "longitude": -84.8172, "has_menu": false, "awards": null, "user_review_count": 0}, {"business_operation_status": 1, "rating": null, "neighborhood": null, "image": null, "scorecard": null, "featured": false, "sample_categories": "Restaurants", "public_id": "amonos-restaurant-kennesaw", "id": 777767990, "votes": null, "tagline": null, "has_video": false, "website": null, "offers": null, "latitude": 34.014516, "politanName": "Atlanta, GA Metro ", "phone_number": "6783550535", "tags": [{"primary": true, "id": 1722, "name": "Restaurants"}], "fax_number": null, "expansion": {"count": null, "uri": null}, "impression_id": "000b000000675386cb52da4e30a62c62af9d4e3dae", "profile": "http://www.citysearch.com/profile/777767990/kennesaw_ga/amono_s_restaurant.html", "address": {"city": "Kennesaw", "state": "GA", "street": "2700 Town Center Dr NW # A", "postal_code": "30144"}, "capProviderId": null, "distance": null, "has_offers": false, "name": "Amono's Restaurant", "longitude": -84.56447, "has_menu": false, "awards": null, "user_review_count": 0}, {"business_operation_status": 1, "rating": null, "neighborhood": null, "image": null, "scorecard": null, "featured": false, "sample_categories": "Restaurants", "public_id": "bikini-beach-kennesaw", "id": 672684390, "votes": null, "tagline": null, "has_video": false, "website": null, "offers": null, "latitude": 33.991946, "politanName": "Atlanta, GA Metro ", "phone_number": "7704268001", "tags": [{"primary": true, "id": 1722, "name": "Restaurants"}], "fax_number": null, "expansion": {"count": null, "uri": null}, "impression_id": "000b0000000db209ca7fbd49faa52f95c1cb2f56a7", "profile": "http://www.citysearch.com/profile/672684390/kennesaw_ga/bikini_beach.html", "address": {"city": "Kennesaw", "state": "GA", "street": "1619 Collins Road Northwest", "postal_code": "30152"}, "capProviderId": null, "distance": null, "has_offers": false, "name": "Bikini Beach", "longitude": -84.59912, "has_menu": false, "awards": null, "user_review_count": 0}, {"business_operation_status": 1, "rating": null, "neighborhood": null, "image": null, "scorecard": null, "featured": false, "sample_categories": "Restaurants, Chinese", "public_id": "china-inn-marietta", "id": 787127820, "votes": null, "tagline": null, "has_video": false, "website": null, "offers": null, "latitude": 33.950252, "politanName": "Atlanta, GA Metro ", "phone_number": "7705908023", "tags": [{"primary": false, "id": 11252, "name": "Chinese"}, {"primary": true, "id": 1722, "name": "Restaurants"}], "fax_number": null, "expansion": {"count": null, "uri": null}, "impression_id": "000b00000090bffcd20a6c4aef87f66e84cf7239b6", "profile": "http://www.citysearch.com/profile/787127820/marietta_ga/china_inn.html", "address": {"city": "Marietta", "state": "GA", "street": "2500 Dallas Hwy Sw # 200", "postal_code": "30064"}, "capProviderId": null, "distance": null, "has_offers": false, "name": "China Inn", "longitude": -84.638093, "has_menu": false, "awards": null, "user_review_count": 0}, {"business_operation_status": 1, "rating": null, "neighborhood": null, "image": null, "scorecard": null, "featured": false, "sample_categories": "Restaurants, Carry Out, Hamburgers", "public_id": "mc-donalds-kennesaw-5", "id": 793282720, "votes": null, "tagline": null, "has_video": false, "website": "http://www.citysearch.com/profile/external/793282720/kennesaw_ga/mc_donald_s.html", "offers": null, "latitude": 34.023434, "politanName": "Atlanta, GA Metro ", "phone_number": "7704276918", "tags": [{"primary": false, "id": 11247, "name": "Carry Out"}, {"primary": false, "id": 11270, "name": "Hamburgers"}, {"primary": true, "id": 1722, "name": "Restaurants"}], "fax_number": null, "expansion": {"count": null, "uri": null}, "impression_id": "000b0000006b3c3bb93e1749bb867431f56436ef26", "profile": "http://www.citysearch.com/profile/793282720/kennesaw_ga/mc_donald_s.html", "address": {"city": "Kennesaw", "state": "GA", "street": "US 41 & Hwy 293", "postal_code": "30144"}, "capProviderId": null, "distance": null, "has_offers": false, "name": "Mc Donald's", "longitude": -84.61549, "has_menu": false, "awards": null, "user_review_count": 0}, {"business_operation_status": 1, "rating": null, "neighborhood": null, "image": null, "scorecard": null, "featured": false, "sample_categories": "Restaurants", "public_id": "cotton-gin-restaurant-hiram", "id": 812310620, "votes": null, "tagline": null, "has_video": false, "website": null, "offers": null, "latitude": 33.91311, "politanName": "Atlanta, GA Metro ", "phone_number": "7704392141", "tags": [{"primary": true, "id": 1722, "name": "Restaurants"}], "fax_number": null, "expansion": {"count": null, "uri": null}, "impression_id": "000b0000003f42ce5650ee4078aa469ae6ba45668f", "profile": "http://www.citysearch.com/profile/812310620/hiram_ga/cotton_gin_restaurant.html", "address": {"city": "Hiram", "state": "GA", "street": "4971 Hiram Acworth Hwy", "postal_code": "30141"}, "capProviderId": null, "distance": null, "has_offers": false, "name": "Cotton Gin Restaurant", "longitude": -84.746498, "has_menu": false, "awards": null, "user_review_count": 0}, {"business_operation_status": 1, "rating": null, "neighborhood": null, "image": null, "scorecard": null, "featured": false, "sample_categories": "Restaurants", "public_id": "stars-strikes-dallas", "id": 704869870, "votes": null, "tagline": null, "has_video": false, "website": null, "offers": null, "latitude": 33.925416, "politanName": "Atlanta, GA Metro ", "phone_number": "6789655705", "tags": [{"primary": true, "id": 1722, "name": "Restaurants"}], "fax_number": null, "expansion": {"count": null, "uri": null}, "impression_id": "000b000000ec0aa5fc95c84734a12794944d55cdae", "profile": "http://www.citysearch.com/profile/704869870/dallas_ga/stars_strikes.html", "address": {"city": "Dallas", "state": "GA", "street": "2400 Hiram Acworth Hwy", "postal_code": "30157"}, "capProviderId": null, "distance": null, "has_offers": false, "name": "Stars & Strikes", "longitude": -84.74616, "has_menu": false, "awards": null, "user_review_count": 0}, {"business_operation_status": 1, "rating": null, "neighborhood": null, "image": null, "scorecard": null, "featured": false, "sample_categories": "Ice Cream Parlors", "public_id": "its-raining-cats-dogs-marietta", "id": 808564100, "votes": null, "tagline": null, "has_video": false, "website": null, "offers": null, "latitude": 33.946019, "politanName": "Atlanta, GA Metro ", "phone_number": "7705285951", "tags": [{"primary": true, "id": 1730, "name": "Ice Cream Parlors"}], "fax_number": null, "expansion": {"count": null, "uri": null}, "impression_id": "000b000000e1a7c4b3863b437daf109a01a01321ed", "profile": "http://www.citysearch.com/profile/808564100/marietta_ga/its_raining_cats_dogs.html", "address": {"city": "Marietta", "state": "GA", "street": "353 Fenbrook Way SW", "postal_code": "30064"}, "capProviderId": null, "distance": null, "has_offers": false, "name": "Its Raining Cats & Dogs", "longitude": -84.665533, "has_menu": false, "awards": null, "user_review_count": 0}, {"business_operation_status": 1, "rating": null, "neighborhood": null, "image": null, "scorecard": null, "featured": false, "sample_categories": "Restaurants, Pizza", "public_id": "cellinis-pizza-kennesaw", "id": 815588220, "votes": null, "tagline": null, "has_video": false, "website": null, "offers": null, "latitude": 33.975305, "politanName": "Atlanta, GA Metro ", "phone_number": "7704247746", "tags": [{"primary": false, "id": 1722, "name": "Restaurants"}, {"primary": true, "id": 11299, "name": "Pizza"}], "fax_number": null, "expansion": {"count": null, "uri": null}, "impression_id": "000b000000fa98f44c29484689b37c30d247dde504", "profile": "http://www.citysearch.com/profile/815588220/kennesaw_ga/cellinis_pizza.html", "address": {"city": "Kennesaw", "state": "GA", "street": "5596 Karingway CT NW", "postal_code": "30152"}, "capProviderId": null, "distance": null, "has_offers": false, "name": "Cellinis Pizza", "longitude": -84.712638, "has_menu": false, "awards": null, "user_review_count": 0}, {"business_operation_status": 1, "rating": null, "neighborhood": null, "image": null, "scorecard": null, "featured": false, "sample_categories": "Restaurants", "public_id": "terry-burger-kennesaw", "id": 816406770, "votes": null, "tagline": null, "has_video": false, "website": null, "offers": null, "latitude": 33.992629, "politanName": "Atlanta, GA Metro ", "phone_number": "6782906981", "tags": [{"primary": true, "id": 1722, "name": "Restaurants"}], "fax_number": null, "expansion": {"count": null, "uri": null}, "impression_id": "000b0000004c923ed2144542aca2ee10851c65a01f", "profile": "http://www.citysearch.com/profile/816406770/kennesaw_ga/terry_burger.html", "address": {"city": "Kennesaw", "state": "GA", "street": "1595 Stoddard CT NW", "postal_code": "30152"}, "capProviderId": null, "distance": null, "has_offers": false, "name": "Terry Burger", "longitude": -84.660867, "has_menu": false, "awards": null, "user_review_count": 0}, {"business_operation_status": 1, "rating": null, "neighborhood": null, "image": null, "scorecard": null, "featured": false, "sample_categories": "Coffeehouses", "public_id": "jittery-joes-coffee-cartersville-2", "id": 816976200, "votes": null, "tagline": null, "has_video": false, "website": null, "offers": null, "latitude": 34.161709, "politanName": "Atlanta, GA Metro ", "phone_number": "7706061967", "tags": [{"primary": true, "id": 1726, "name": "Coffeehouses"}], "fax_number": null, "expansion": {"count": null, "uri": null}, "impression_id": "000b0000004bf6d6b37fbd4f7083fbac8f76a90354", "profile": "http://www.citysearch.com/profile/816976200/cartersville_ga/jittery_joe_s_coffee.html", "address": {"city": "Cartersville", "state": "GA", "street": "111 Postelle St", "postal_code": "30120"}, "capProviderId": null, "distance": null, "has_offers": false, "name": "Jittery Joe's Coffee", "longitude": -84.790717, "has_menu": false, "awards": null, "user_review_count": 1}, {"business_operation_status": 1, "rating": null, "neighborhood": null, "image": null, "scorecard": null, "featured": false, "sample_categories": "Restaurants, Carry Out", "public_id": "burger-king-acworth-3", "id": 713505750, "votes": null, "tagline": null, "has_video": false, "website": "http://www.citysearch.com/profile/external/713505750/acworth_ga/burger_king.html", "offers": null, "latitude": 34.014321, "politanName": "Atlanta, GA Metro ", "phone_number": "6785811803", "tags": [{"primary": false, "id": 11247, "name": "Carry Out"}, {"primary": true, "id": 1722, "name": "Restaurants"}], "fax_number": null, "expansion": {"count": null, "uri": null}, "impression_id": "000b00000019a58cfc16ac4c9ca43c0d4592c1e81d", "profile": "http://www.citysearch.com/profile/713505750/acworth_ga/burger_king.html", "address": {"city": "Acworth", "state": "GA", "street": "164 Ernest Barrett Pkwy NW", "postal_code": "30102"}, "capProviderId": null, "distance": null, "has_offers": false, "name": "Burger King", "longitude": -84.562111, "has_menu": false, "awards": null, "user_review_count": 0}, {"business_operation_status": 1, "rating": null, "neighborhood": null, "image": null, "scorecard": null, "featured": false, "sample_categories": "Restaurants", "public_id": "fodwl-play-cafe-kennesaw", "id": 713503570, "votes": null, "tagline": null, "has_video": false, "website": null, "offers": null, "latitude": 34.032508, "politanName": "Atlanta, GA Metro ", "phone_number": "7709669686", "tags": [{"primary": true, "id": 1722, "name": "Restaurants"}], "fax_number": null, "expansion": {"count": null, "uri": null}, "impression_id": "000b000000539acecdfb814d9b84d4a8617d529811", "profile": "http://www.citysearch.com/profile/713503570/kennesaw_ga/fowl_play_cafe.html", "address": {"city": "Kennesaw", "state": "GA", "street": "3160 Cobb Pkwy NW", "postal_code": "30152"}, "capProviderId": null, "distance": null, "has_offers": false, "name": "Fowl Play Cafe", "longitude": -84.673299, "has_menu": false, "awards": null, "user_review_count": 0}, {"business_operation_status": 1, "rating": null, "neighborhood": null, "image": null, "scorecard": null, "featured": false, "sample_categories": "Restaurants", "public_id": "linda-mc-entyre-catering-woodstock", "id": 633015150, "votes": null, "tagline": null, "has_video": false, "website": null, "offers": null, "latitude": 34.114833, "politanName": "Atlanta, GA Metro ", "phone_number": "7705169489", "tags": [{"primary": true, "id": 1722, "name": "Restaurants"}], "fax_number": null, "expansion": {"count": null, "uri": null}, "impression_id": "000b000000a5d07b3625084f9fb65261fb10a4cedf", "profile": "http://www.citysearch.com/profile/633015150/woodstock_ga/linda_mc_entyre_catering.html", "address": {"city": "Woodstock", "state": "GA", "street": "2005 Cresthaven Walk", "postal_code": "30189"}, "capProviderId": null, "distance": null, "has_offers": false, "name": "Linda Mc Entyre Catering", "longitude": -84.573272, "has_menu": false, "awards": null, "user_review_count": 0}, {"business_operation_status": 1, "rating": null, "neighborhood": null, "image": null, "scorecard": null, "featured": false, "sample_categories": "Restaurants, Delis And Delicatessens", "public_id": "shortys-subs-such-kennesaw", "id": 744805970, "votes": null, "tagline": null, "has_video": false, "website": null, "offers": null, "latitude": 33.999345, "politanName": "Atlanta, GA Metro ", "phone_number": "6789492867", "tags": [{"primary": false, "id": 1727, "name": "Delis And Delicatessens"}, {"primary": true, "id": 1722, "name": "Restaurants"}], "fax_number": null, "expansion": {"count": null, "uri": null}, "impression_id": "000b00000090069ed3f6ad43f3ac896c16bedf4d37", "profile": "http://www.citysearch.com/profile/744805970/kennesaw_ga/shorty_s_subs_such.html", "address": {"city": "Kennesaw", "state": "GA", "street": "1200 Barrett Pkwy NW Ste 14", "postal_code": "30144"}, "capProviderId": null, "distance": null, "has_offers": false, "name": "Shorty's Subs & Such", "longitude": -84.586888, "has_menu": false, "awards": null, "user_review_count": 0}, {"business_operation_status": 1, "rating": null, "neighborhood": null, "image": null, "scorecard": null, "featured": false, "sample_categories": "Restaurants", "public_id": "ils-wayport-cartersville", "id": 764860030, "votes": null, "tagline": null, "has_video": false, "website": null, "offers": null, "latitude": 34.209896, "politanName": "Atlanta, GA Metro ", "phone_number": "7703824651", "tags": [{"primary": true, "id": 1722, "name": "Restaurants"}], "fax_number": null, "expansion": {"count": null, "uri": null}, "impression_id": "000b00000089fe1d1cf72d434e844cd54e7e9aace1", "profile": "http://www.citysearch.com/profile/764860030/cartersville_ga/ils_wayport.html", "address": {"city": "Cartersville", "state": "GA", "street": "5651 Highway 20 NE", "postal_code": "30121"}, "capProviderId": null, "distance": null, "has_offers": false, "name": "ILS Wayport", "longitude": -84.759408, "has_menu": false, "awards": null, "user_review_count": 0}, {"business_operation_status": 1, "rating": null, "neighborhood": null, "image": null, "scorecard": null, "featured": false, "sample_categories": "Restaurants, Bars & Clubs", "public_id": "hollands-grill-kennesaw", "id": 766753250, "votes": null, "tagline": null, "has_video": false, "website": null, "offers": null, "latitude": 34.014045, "politanName": "Atlanta, GA Metro ", "phone_number": "7704261515", "tags": [{"primary": false, "id": 164, "name": "Bars & Clubs"}, {"primary": true, "id": 1722, "name": "Restaurants"}], "fax_number": null, "expansion": {"count": null, "uri": null}, "impression_id": "000b00000031c73c48180e48fabfa04f4429fce033", "profile": "http://www.citysearch.com/profile/766753250/kennesaw_ga/holland_s_grill.html", "address": {"city": "Kennesaw", "state": "GA", "street": "2615 Busbee Pkwy NW # 28", "postal_code": "30144"}, "capProviderId": null, "distance": null, "has_offers": false, "name": "Holland's Grill", "longitude": -84.56696, "has_menu": true, "awards": null, "user_review_count": 0}, {"business_operation_status": 0, "rating": null, "neighborhood": null, "image": null, "scorecard": null, "featured": false, "sample_categories": "Coffeehouses, Restaurants", "public_id": "expresso-expresso-marietta", "id": 2908344, "votes": null, "tagline": null, "has_video": false, "website": null, "offers": null, "latitude": 34.018009, "politanName": "Atlanta, GA Metro ", "phone_number": "7066375366", "tags": [{"primary": false, "id": 1722, "name": "Restaurants"}, {"primary": true, "id": 1726, "name": "Coffeehouses"}], "fax_number": null, "expansion": {"count": null, "uri": null}, "impression_id": "000b000000629a812477224a69becccc1d777d2d31", "profile": "http://www.citysearch.com/profile/2908344/marietta_ga/expresso_expresso.html", "address": {"city": "Marietta", "state": "GA", "street": "1251 Morgan Chase Dr NE", "postal_code": "30066"}, "capProviderId": null, "distance": null, "has_offers": false, "name": "Expresso Expresso", "longitude": -84.515255, "has_menu": false, "awards": null, "user_review_count": 0}, {"business_operation_status": 1, "rating": null, "neighborhood": null, "image": null, "scorecard": null, "featured": false, "sample_categories": "Restaurants", "public_id": "el-don-acworth", "id": 793360730, "votes": null, "tagline": null, "has_video": false, "website": null, "offers": null, "latitude": 34.087774, "politanName": "Atlanta, GA Metro ", "phone_number": "6784455593", "tags": [{"primary": true, "id": 1722, "name": "Restaurants"}], "fax_number": null, "expansion": {"count": null, "uri": null}, "impression_id": "000b000000642878799efc437486a0c74f8ff0f5e4", "profile": "http://www.citysearch.com/profile/793360730/acworth_ga/el_don.html", "address": {"city": "Acworth", "state": "GA", "street": "5683 Bells Ferry Rd", "postal_code": "30102"}, "capProviderId": null, "distance": null, "has_offers": false, "name": "El Don", "longitude": -84.5771, "has_menu": false, "awards": null, "user_review_count": 0}, {"business_operation_status": 1, "rating": null, "neighborhood": null, "image": null, "scorecard": null, "featured": false, "sample_categories": "Restaurants, Delis And Delicatessens, Sandwich Shops, Carry Out", "public_id": "subway-woodstock-11", "id": 811170020, "votes": null, "tagline": null, "has_video": false, "website": null, "offers": null, "latitude": 34.110969, "politanName": "Atlanta, GA Metro ", "phone_number": "7705917411", "tags": [{"primary": false, "id": 1727, "name": "Delis And Delicatessens"}, {"primary": false, "id": 1736, "name": "Sandwich Shops"}, {"primary": false, "id": 11247, "name": "Carry Out"}, {"primary": true, "id": 1722, "name": "Restaurants"}], "fax_number": null, "expansion": {"count": null, "uri": null}, "impression_id": "000b000000d3828333e871413598da3870c4f5de75", "profile": "http://www.citysearch.com/profile/811170020/woodstock_ga/subway.html", "address": {"city": "Woodstock", "state": "GA", "street": "1018 Braddock Cir", "postal_code": "30189"}, "capProviderId": null, "distance": null, "has_offers": false, "name": "SUBWAY", "longitude": -84.5902, "has_menu": false, "awards": null, "user_review_count": 0}, {"business_operation_status": 1, "rating": null, "neighborhood": null, "image": null, "scorecard": null, "featured": false, "sample_categories": "Restaurants, Carry Out", "public_id": "mc-donalds-canton-33", "id": 728117040, "votes": null, "tagline": null, "has_video": false, "website": "http://www.citysearch.com/profile/external/728117040/canton_ga/mc_donald_s.html", "offers": null, "latitude": 34.176715, "politanName": "Atlanta, GA Metro ", "phone_number": "7703454996", "tags": [{"primary": false, "id": 11247, "name": "Carry Out"}, {"primary": true, "id": 1722, "name": "Restaurants"}], "fax_number": null, "expansion": {"count": null, "uri": null}, "impression_id": "000b000000108d0bb528a5475bb2d05a18f72ca628", "profile": "http://www.citysearch.com/profile/728117040/canton_ga/mc_donald_s.html", "address": {"city": "Canton", "state": "GA", "street": "213 Evergreen Trce", "postal_code": "30114"}, "capProviderId": null, "distance": null, "has_offers": false, "name": "Mc Donald's", "longitude": -84.557041, "has_menu": false, "awards": null, "user_review_count": 0}, {"business_operation_status": 1, "rating": null, "neighborhood": null, "image": null, "scorecard": null, "featured": false, "sample_categories": "Restaurants", "public_id": "abners-family-restaurant-cartersville", "id": 819991070, "votes": null, "tagline": null, "has_video": false, "website": null, "offers": null, "latitude": 34.206961, "politanName": "Atlanta, GA Metro ", "phone_number": "7703867336", "tags": [{"primary": true, "id": 1722, "name": "Restaurants"}], "fax_number": null, "expansion": {"count": null, "uri": null}, "impression_id": "000b000000f5c08ac6cf2147fab04bdf68fbf6eb51", "profile": "http://www.citysearch.com/profile/819991070/cartersville_ga/abner_s_family_restaurant.html", "address": {"city": "Cartersville", "state": "GA", "street": "39 State Route 20 Spur SE", "postal_code": "30121"}, "capProviderId": null, "distance": null, "has_offers": false, "name": "Abner's Family Restaurant", "longitude": -84.757211, "has_menu": false, "awards": null, "user_review_count": 0}, {"business_operation_status": 1, "rating": null, "neighborhood": null, "image": null, "scorecard": null, "featured": false, "sample_categories": "Restaurants, Pizza", "public_id": "cowabunga-inc-cartersville", "id": 642220210, "votes": null, "tagline": null, "has_video": false, "website": null, "offers": null, "latitude": 34.194581, "politanName": "Atlanta, GA Metro ", "phone_number": "7703864100", "tags": [{"primary": false, "id": 1722, "name": "Restaurants"}, {"primary": true, "id": 11299, "name": "Pizza"}], "fax_number": null, "expansion": {"count": null, "uri": null}, "impression_id": "000b0000002825bc8d63ad4a7c8c2d18500ecef730", "profile": "http://www.citysearch.com/profile/642220210/cartersville_ga/cowabunga_inc.html", "address": {"city": "Cartersville", "state": "GA", "street": "851 Joe Frank Harris Se # B", "postal_code": "30120"}, "capProviderId": null, "distance": null, "has_offers": false, "name": "Cowabunga Inc", "longitude": -84.791274, "has_menu": false, "awards": null, "user_review_count": 0}, {"business_operation_status": 0, "rating": null, "neighborhood": null, "image": null, "scorecard": null, "featured": false, "sample_categories": "Restaurants", "public_id": "little-azio-kennesaw", "id": 672589690, "votes": null, "tagline": null, "has_video": false, "website": null, "offers": null, "latitude": 34.037182, "politanName": "Atlanta, GA Metro ", "phone_number": "6782131200", "tags": [{"primary": true, "id": 1722, "name": "Restaurants"}], "fax_number": null, "expansion": {"count": null, "uri": null}, "impression_id": "000b0000006684a5165b2e45be9b987a131dde1b80", "profile": "http://www.citysearch.com/profile/672589690/kennesaw_ga/little_azio.html", "address": {"city": "Kennesaw", "state": "GA", "street": "600 Chastain Rd NW", "postal_code": "30144"}, "capProviderId": null, "distance": null, "has_offers": false, "name": "Little Azio", "longitude": -84.567518, "has_menu": false, "awards": null, "user_review_count": 0}, {"business_operation_status": 1, "rating": null, "neighborhood": null, "image": null, "scorecard": null, "featured": false, "sample_categories": "Restaurants, Delis And Delicatessens", "public_id": "roly-poly-sandwiches-woodstock-2", "id": 682472160, "votes": null, "tagline": null, "has_video": false, "website": "http://www.citysearch.com/profile/external/682472160/woodstock_ga/roly_poly_sandwiches.html", "offers": null, "latitude": 34.104183, "politanName": "Atlanta, GA Metro ", "phone_number": "7709287659", "tags": [{"primary": false, "id": 1727, "name": "Delis And Delicatessens"}, {"primary": true, "id": 1722, "name": "Restaurants"}], "fax_number": null, "expansion": {"count": null, "uri": null}, "impression_id": "000b000000ad4ba14978cf4d47ac95038816dbedc0", "profile": "http://www.citysearch.com/profile/682472160/woodstock_ga/roly_poly_sandwiches.html", "address": {"city": "Woodstock", "state": "GA", "street": "875 Towne Lake Pkwy # 100", "postal_code": "30189"}, "capProviderId": null, "distance": null, "has_offers": false, "name": "Roly Poly Sandwiches", "longitude": -84.53987, "has_menu": true, "awards": null, "user_review_count": 0}, {"business_operation_status": 1, "rating": null, "neighborhood": null, "image": null, "scorecard": null, "featured": false, "sample_categories": "Restaurants", "public_id": "mrs-winners-dallas", "id": 728067290, "votes": null, "tagline": null, "has_video": false, "website": null, "offers": null, "latitude": 33.910855, "politanName": "Atlanta, GA Metro ", "phone_number": "7705057708", "tags": [{"primary": true, "id": 1722, "name": "Restaurants"}], "fax_number": null, "expansion": {"count": null, "uri": null}, "impression_id": "000b0000002d2deb97079b48bc897a578fb2c1dd0b", "profile": "http://www.citysearch.com/profile/728067290/dallas_ga/mrs_winners.html", "address": {"city": "Dallas", "state": "GA", "street": "1195 Merchants Dr", "postal_code": "30132"}, "capProviderId": null, "distance": null, "has_offers": false, "name": "Mrs Winners", "longitude": -84.801564, "has_menu": false, "awards": null, "user_review_count": 0}, {"business_operation_status": 1, "rating": 10.0, "neighborhood": null, "image": null, "scorecard": null, "featured": false, "sample_categories": "Restaurants, Sushi, Japanese, Asian, Carry Out", "public_id": "tokyo-japanese-steakhouse-cartersville", "id": 2947659, "votes": null, "tagline": null, "has_video": false, "website": "http://www.citysearch.com/profile/external/2947659/cartersville_ga/tokyo_japanese_steakhouse.html", "offers": null, "latitude": 34.169333, "politanName": "Atlanta, GA Metro ", "phone_number": "7703879575", "tags": [{"primary": false, "id": 11201, "name": "Sushi"}, {"primary": false, "id": 11202, "name": "Japanese"}, {"primary": false, "id": 11235, "name": "Asian"}, {"primary": false, "id": 11247, "name": "Carry Out"}, {"primary": false, "id": 11316, "name": "Steakhouse"}, {"primary": true, "id": 1722, "name": "Restaurants"}], "fax_number": null, "expansion": {"count": null, "uri": null}, "impression_id": "000b000000abf22d5d1e234c579a17c37ec27d8cae", "profile": "http://www.citysearch.com/profile/2947659/cartersville_ga/tokyo_japanese_steakhouse.html", "address": {"city": "Cartersville", "state": "GA", "street": "402 E Church St 112", "postal_code": "30121"}, "capProviderId": null, "distance": null, "has_offers": false, "name": "Tokyo Japanese Steakhouse", "longitude": -84.787048, "has_menu": true, "awards": null, "user_review_count": 5}, {"business_operation_status": 0, "rating": null, "neighborhood": null, "image": null, "scorecard": null, "featured": false, "sample_categories": "Restaurants, Chinese", "public_id": "china-express-kennesaw", "id": 2955975, "votes": null, "tagline": null, "has_video": false, "website": null, "offers": null, "latitude": 34.050651, "politanName": "Atlanta, GA Metro ", "phone_number": "7704282339", "tags": [{"primary": false, "id": 11252, "name": "Chinese"}, {"primary": true, "id": 1722, "name": "Restaurants"}], "fax_number": null, "expansion": {"count": null, "uri": null}, "impression_id": "000b000000cffc475d41da4fe8a671ba8b26c50f5f", "profile": "http://www.citysearch.com/profile/2955975/kennesaw_ga/china_express.html", "address": {"city": "Kennesaw", "state": "GA", "street": "3896 Cherokee St NW", "postal_code": "30144"}, "capProviderId": null, "distance": null, "has_offers": false, "name": "China Express", "longitude": -84.595684, "has_menu": true, "awards": null, "user_review_count": 0}, {"business_operation_status": 1, "rating": null, "neighborhood": null, "image": null, "scorecard": null, "featured": false, "sample_categories": "Restaurants", "public_id": "tacos-el-sabor-woodstock", "id": 627538314, "votes": null, "tagline": null, "has_video": false, "website": null, "offers": null, "latitude": 34.112098, "politanName": "Atlanta, GA Metro ", "phone_number": "6784028283", "tags": [{"primary": true, "id": 1722, "name": "Restaurants"}], "fax_number": null, "expansion": {"count": null, "uri": null}, "impression_id": "000b000000211664ee306e40bda072fbd36d0d6dc1", "profile": "http://www.citysearch.com/profile/627538314/woodstock_ga/tacos_el_sabor.html", "address": {"city": "Woodstock", "state": "GA", "street": "6425 Bells Ferry Rd", "postal_code": "30189"}, "capProviderId": null, "distance": null, "has_offers": false, "name": "Tacos El Sabor", "longitude": -84.582389, "has_menu": false, "awards": null, "user_review_count": 0}, {"business_operation_status": 1, "rating": null, "neighborhood": null, "image": null, "scorecard": null, "featured": false, "sample_categories": "Restaurants, Barbecue Restaurants", "public_id": "shanes-rib-shack-canton-3", "id": 627658140, "votes": null, "tagline": null, "has_video": false, "website": "http://www.citysearch.com/profile/external/627658140/canton_ga/shane_s_rib_shack.html", "offers": null, "latitude": 34.152288, "politanName": "Atlanta, GA Metro ", "phone_number": "7705178655", "tags": [{"primary": false, "id": 1724, "name": "Barbecue Restaurants"}, {"primary": true, "id": 1722, "name": "Restaurants"}], "fax_number": null, "expansion": {"count": null, "uri": null}, "impression_id": "000b000000b03cd03d746e47a199a299f8dda704f6", "profile": "http://www.citysearch.com/profile/627658140/canton_ga/shane_s_rib_shack.html", "address": {"city": "Canton", "state": "GA", "street": "4504 Holly Springs Pkwy # 101", "postal_code": "30115"}, "capProviderId": null, "distance": null, "has_offers": false, "name": "Shane's Rib Shack", "longitude": -84.510107, "has_menu": false, "awards": null, "user_review_count": 0}, {"business_operation_status": 1, "rating": null, "neighborhood": null, "image": null, "scorecard": null, "featured": false, "sample_categories": "Restaurants", "public_id": "fire-house-subs-cartersville", "id": 628006584, "votes": null, "tagline": null, "has_video": false, "website": null, "offers": null, "latitude": 34.16726, "politanName": "Atlanta, GA Metro ", "phone_number": "6787198743", "tags": [{"primary": true, "id": 1722, "name": "Restaurants"}], "fax_number": null, "expansion": {"count": null, "uri": null}, "impression_id": "000b000000cdf0e1f2add14846a8597982177aede1", "profile": "http://www.citysearch.com/profile/628006584/cartersville_ga/fire_house_subs.html", "address": {"city": "Cartersville", "state": "GA", "street": "413 E Main St", "postal_code": "30121"}, "capProviderId": null, "distance": null, "has_offers": false, "name": "Fire House Subs", "longitude": -84.787662, "has_menu": false, "awards": null, "user_review_count": 0}, {"business_operation_status": 1, "rating": null, "neighborhood": null, "image": null, "scorecard": null, "featured": false, "sample_categories": "Restaurants, Mexican", "public_id": "los-reyes-inc-mexican-rstrnt-cartersville", "id": 2947658, "votes": null, "tagline": null, "has_video": false, "website": null, "offers": null, "latitude": 34.170508, "politanName": "Atlanta, GA Metro ", "phone_number": "7706061463", "tags": [{"primary": false, "id": 11208, "name": "Mexican"}, {"primary": true, "id": 1722, "name": "Restaurants"}], "fax_number": null, "expansion": {"count": null, "uri": null}, "impression_id": "000b000000dd1c63080cfa45d7a45b2793310d925a", "profile": "http://www.citysearch.com/profile/2947658/cartersville_ga/los_reyes.html", "address": {"city": "Cartersville", "state": "GA", "street": "122 N Morningside Dr", "postal_code": "30121"}, "capProviderId": null, "distance": null, "has_offers": false, "name": "Los Reyes", "longitude": -84.786844, "has_menu": true, "awards": null, "user_review_count": 0}, {"business_operation_status": 1, "rating": null, "neighborhood": null, "image": null, "scorecard": null, "featured": false, "sample_categories": "Frozen Yogurt Shops, Restaurants, Ice Cream Parlors, Discover, MasterCard", "public_id": "freshens-kennesaw", "id": 2955857, "votes": null, "tagline": null, "has_video": false, "website": "http://www.citysearch.com/profile/external/2955857/kennesaw_ga/freshens.html", "offers": null, "latitude": 34.019128, "politanName": "Atlanta, GA Metro ", "phone_number": "7704241171", "tags": [{"primary": false, "id": 1722, "name": "Restaurants"}, {"primary": false, "id": 1730, "name": "Ice Cream Parlors"}, {"primary": false, "id": 11349, "name": "Discover"}, {"primary": false, "id": 11361, "name": "MasterCard"}, {"primary": false, "id": 11382, "name": "Visa"}, {"primary": true, "id": 1729, "name": "Frozen Yogurt Shops"}], "fax_number": null, "expansion": {"count": null, "uri": null}, "impression_id": "000b000000562b71f3beea4ee7a844f38acdaf3194", "profile": "http://www.citysearch.com/profile/2955857/kennesaw_ga/freshens.html", "address": {"city": "Kennesaw", "state": "GA", "street": "400 Ernest W Barrett Pkwy NW", "postal_code": "30144"}, "capProviderId": null, "distance": null, "has_offers": false, "name": "Freshens", "longitude": -84.563608, "has_menu": true, "awards": null, "user_review_count": 0}], "histograms": [], "tag_ids": [1722], "uri": "http://api.citygridmedia.com:8080/search/places/v2/search/where?has_offers=false&type=restaurant&format=json&page=21&where=30101&rpp=50&histograms=false&publisher=10000009598&region_type=circle", "did_you_mean": "", "regions": [{"latitude": 34.042584, "default_radius": 6.64, "type": "postal_code", "name": "30101", "longitude": -84.71322699999999}], "call_id": "000b000000d4fb10bc44b44f1baba2035c0298e520", "first_hit": 1001, "total_hits": 1249, "geo_ids": [26343], "page": 21, "last_hit": 1050}}