{"results": {"rpp": 50, "locations": [{"business_operation_status": 1, "rating": null, "neighborhood": null, "image": null, "scorecard": null, "featured": false, "sample_categories": "Restaurants, Caribbean", "public_id": "caribbean-cafe-dallas", "id": 732148300, "votes": null, "tagline": null, "has_video": false, "website": null, "offers": null, "latitude": 33.909628, "politanName": "Atlanta, GA Metro ", "phone_number": "7702228844", "tags": [{"primary": false, "id": 11195, "name": "Caribbean"}, {"primary": true, "id": 1722, "name": "Restaurants"}], "fax_number": null, "expansion": {"count": null, "uri": null}, "impression_id": "000b00000059c13b118cd74408bd45253270f91aca", "profile": "http://www.citysearch.com/profile/732148300/dallas_ga/caribbean_cafe.html", "address": {"city": "Dallas", "state": "GA", "street": "1336 Hiram Acworth Hwy", "postal_code": "30157"}, "capProviderId": null, "distance": null, "has_offers": false, "name": "Caribbean Cafe", "longitude": -84.746817, "has_menu": false, "awards": null, "user_review_count": 0}, {"business_operation_status": 1, "rating": null, "neighborhood": null, "image": null, "scorecard": null, "featured": false, "sample_categories": "Restaurants", "public_id": "tin-drum-asiacafe-marietta", "id": 614029774, "votes": null, "tagline": null, "has_video": false, "website": null, "offers": null, "latitude": 34.013358, "politanName": "Atlanta, GA Metro ", "phone_number": "6785403471", "tags": [{"primary": true, "id": 1722, "name": "Restaurants"}], "fax_number": null, "expansion": {"count": null, "uri": null}, "impression_id": "000b000000d8d095c06fca430994295aeb489ac13e", "profile": "http://www.citysearch.com/profile/614029774/marietta_ga/tin_drum_asiacafe.html", "address": {"city": "Marietta", "state": "GA", "street": "125 Ernest Barrett Pkwy NW", "postal_code": "30066"}, "capProviderId": null, "distance": null, "has_offers": false, "name": "Tin Drum Asiacafe", "longitude": -84.553529, "has_menu": false, "awards": null, "user_review_count": 0}, {"business_operation_status": 1, "rating": null, "neighborhood": null, "image": null, "scorecard": null, "featured": false, "sample_categories": "Restaurants, Bakeries, Delis And Delicatessens, MasterCard, Visa", "public_id": "sunnys-bagel-deli-kennesaw", "id": 2954916, "votes": null, "tagline": null, "has_video": false, "website": "http://www.citysearch.com/profile/external/2954916/kennesaw_ga/sunny_s_bagel_deli.html", "offers": null, "latitude": 34.012738, "politanName": "Atlanta, GA Metro ", "phone_number": "7707950099", "tags": [{"primary": false, "id": 1685, "name": "Bakeries"}, {"primary": false, "id": 1727, "name": "Delis And Delicatessens"}, {"primary": false, "id": 11361, "name": "MasterCard"}, {"primary": false, "id": 11382, "name": "Visa"}, {"primary": true, "id": 1722, "name": "Restaurants"}], "fax_number": null, "expansion": {"count": null, "uri": null}, "impression_id": "000b000000033762757994450ebfdc81a9ceb99e4b", "profile": "http://www.citysearch.com/profile/2954916/kennesaw_ga/sunny_s_bagel_deli.html", "address": {"city": "Kennesaw", "state": "GA", "street": "440 Ernest W Barrett Pkwy NW # 8", "postal_code": "30144"}, "capProviderId": null, "distance": null, "has_offers": false, "name": "Sunny's Bagel & Deli", "longitude": -84.5643, "has_menu": false, "awards": null, "user_review_count": 0}, {"business_operation_status": 0, "rating": null, "neighborhood": null, "image": null, "scorecard": null, "featured": false, "sample_categories": "Restaurants, Delis And Delicatessens", "public_id": "subs-n-such-dallas", "id": 2958336, "votes": null, "tagline": null, "has_video": false, "website": null, "offers": null, "latitude": 33.867883, "politanName": "Atlanta, GA Metro ", "phone_number": "7704431337", "tags": [{"primary": false, "id": 1727, "name": "Delis And Delicatessens"}, {"primary": true, "id": 1722, "name": "Restaurants"}], "fax_number": null, "expansion": {"count": null, "uri": null}, "impression_id": "000b0000008e68a5973fd5407589243b0ec3a44fce", "profile": "http://www.citysearch.com/profile/2958336/dallas_ga/subs_n_such.html", "address": {"city": "Dallas", "state": "GA", "street": "2985 Villa Rica Hwy Ste 1", "postal_code": "30157"}, "capProviderId": null, "distance": null, "has_offers": false, "name": "Subs 'n' Such", "longitude": -84.839834, "has_menu": false, "awards": null, "user_review_count": 1}, {"business_operation_status": 1, "rating": null, "neighborhood": null, "image": null, "scorecard": null, "featured": false, "sample_categories": "Restaurants", "public_id": "sarb-services-inc-kennesaw", "id": 764871430, "votes": null, "tagline": null, "has_video": false, "website": "http://www.citysearch.com/profile/external/764871430/kennesaw_ga/sarb_services_inc.html", "offers": null, "latitude": 34.011992, "politanName": "Atlanta, GA Metro ", "phone_number": "7704237375", "tags": [{"primary": true, "id": 1722, "name": "Restaurants"}], "fax_number": null, "expansion": {"count": null, "uri": null}, "impression_id": "000b0000005b1a865ed2ff463b9dbca8b891ee56ab", "profile": "http://www.citysearch.com/profile/764871430/kennesaw_ga/sarb_services_inc.html", "address": {"city": "Kennesaw", "state": "GA", "street": "2420 Cobb Pkwy NW", "postal_code": "30152"}, "capProviderId": null, "distance": null, "has_offers": false, "name": "Sarb Services Inc", "longitude": -84.610653, "has_menu": false, "awards": null, "user_review_count": 0}, {"business_operation_status": 1, "rating": null, "neighborhood": null, "image": null, "scorecard": null, "featured": false, "sample_categories": "Restaurants", "public_id": "totopos-dallas", "id": 764911840, "votes": null, "tagline": null, "has_video": false, "website": null, "offers": null, "latitude": 33.957866, "politanName": "Atlanta, GA Metro ", "phone_number": "7704433070", "tags": [{"primary": true, "id": 1722, "name": "Restaurants"}], "fax_number": null, "expansion": {"count": null, "uri": null}, "impression_id": "000b000000e8e7e07d66eb45a5ab4036a1062e6836", "profile": "http://www.citysearch.com/profile/764911840/dallas_ga/totopos.html", "address": {"city": "Dallas", "state": "GA", "street": "55 E Paulding Dr", "postal_code": "30157"}, "capProviderId": null, "distance": null, "has_offers": false, "name": "Totopos", "longitude": -84.787071, "has_menu": false, "awards": null, "user_review_count": 0}, {"business_operation_status": 1, "rating": null, "neighborhood": null, "image": null, "scorecard": null, "featured": false, "sample_categories": "Restaurants", "public_id": "savory-corner-kennesaw", "id": 772188670, "votes": null, "tagline": null, "has_video": false, "website": null, "offers": null, "latitude": 34.050651, "politanName": "Atlanta, GA Metro ", "phone_number": "7707959979", "tags": [{"primary": true, "id": 1722, "name": "Restaurants"}], "fax_number": null, "expansion": {"count": null, "uri": null}, "impression_id": "000b000000782258b2b9d24d81bdb3234c2108d99a", "profile": "http://www.citysearch.com/profile/772188670/kennesaw_ga/savory_corner.html", "address": {"city": "Kennesaw", "state": "GA", "street": "2870 Cherokee St NW", "postal_code": "30144"}, "capProviderId": null, "distance": null, "has_offers": false, "name": "Savory Corner", "longitude": -84.595701, "has_menu": false, "awards": null, "user_review_count": 0}, {"business_operation_status": 1, "rating": null, "neighborhood": null, "image": null, "scorecard": null, "featured": false, "sample_categories": "Restaurants", "public_id": "atlwest-mariett-marietta", "id": 787106980, "votes": null, "tagline": null, "has_video": false, "website": null, "offers": null, "latitude": 33.944719, "politanName": "Atlanta, GA Metro ", "phone_number": "7707927933", "tags": [{"primary": true, "id": 1722, "name": "Restaurants"}], "fax_number": null, "expansion": {"count": null, "uri": null}, "impression_id": "000b000000365271541ccb4fa188056b60f0579d03", "profile": "http://www.citysearch.com/profile/787106980/marietta_ga/atl_west_mariett.html", "address": {"city": "Marietta", "state": "GA", "street": "2535 Dallas Hwy Sw", "postal_code": "30064"}, "capProviderId": null, "distance": null, "has_offers": false, "name": "Atl-West Mariett", "longitude": -84.625194, "has_menu": false, "awards": null, "user_review_count": 0}, {"business_operation_status": 1, "rating": 10.0, "neighborhood": null, "image": null, "scorecard": null, "featured": false, "sample_categories": "Delis And Delicatessens, Restaurants, Sandwich Shops", "public_id": "blimpie-subs-sandwiches-acworth", "id": 2939723, "votes": null, "tagline": null, "has_video": false, "website": "http://www.citysearch.com/profile/external/2939723/acworth_ga/blimpie_subs_sandwiches.html", "offers": null, "latitude": 34.088626, "politanName": "Atlanta, GA Metro ", "phone_number": "7709241725", "tags": [{"primary": false, "id": 1722, "name": "Restaurants"}, {"primary": false, "id": 1736, "name": "Sandwich Shops"}, {"primary": true, "id": 1727, "name": "Delis And Delicatessens"}], "fax_number": null, "expansion": {"count": null, "uri": null}, "impression_id": "000b00000047ae13cba6c24dca926039974d76fe18", "profile": "http://www.citysearch.com/profile/2939723/acworth_ga/blimpie_subs_sandwiches.html", "address": {"city": "Acworth", "state": "GA", "street": "6161 Highway 92", "postal_code": "30102"}, "capProviderId": null, "distance": null, "has_offers": false, "name": "Blimpie Subs & Sandwiches", "longitude": -84.586852, "has_menu": true, "awards": null, "user_review_count": 0}, {"business_operation_status": 1, "rating": null, "neighborhood": null, "image": null, "scorecard": null, "featured": false, "sample_categories": "Grocery Stores, Restaurants, New American, Carry Out", "public_id": "food-for-the-soulcartersville-cartersville", "id": 745577410, "votes": null, "tagline": null, "has_video": false, "website": null, "offers": null, "latitude": 34.169004, "politanName": "Atlanta, GA Metro ", "phone_number": "7703348672", "tags": [{"primary": false, "id": 1722, "name": "Restaurants"}, {"primary": false, "id": 11189, "name": "New American"}, {"primary": false, "id": 11247, "name": "Carry Out"}, {"primary": true, "id": 1713, "name": "Grocery Stores"}], "fax_number": null, "expansion": {"count": null, "uri": null}, "impression_id": "000b0000008fa5cbf3069a4d3d943c00e1df899372", "profile": "http://www.citysearch.com/profile/745577410/cartersville_ga/food_for_the_soul_cartersville.html", "address": {"city": "Cartersville", "state": "GA", "street": "485 E Main St", "postal_code": "30121"}, "capProviderId": null, "distance": null, "has_offers": false, "name": "Food For the Soul-Cartersville", "longitude": -84.785422, "has_menu": false, "awards": null, "user_review_count": 0}, {"business_operation_status": 1, "rating": null, "neighborhood": null, "image": null, "scorecard": null, "featured": false, "sample_categories": "Food & Dining, Restaurants, Attorneys & Legal Services, Legal Services, German", "public_id": "frankfurt-doner-woodstock", "id": 750374840, "votes": null, "tagline": null, "has_video": false, "website": null, "offers": null, "latitude": 34.085329, "politanName": "Atlanta, GA Metro ", "phone_number": "6784014991", "tags": [{"primary": false, "id": 1722, "name": "Restaurants"}, {"primary": false, "id": 204, "name": "Attorneys & Legal Services"}, {"primary": false, "id": 232, "name": "Legal Services"}, {"primary": false, "id": 11220, "name": "German"}, {"primary": true, "id": 1684, "name": "Food & Dining"}], "fax_number": null, "expansion": {"count": null, "uri": null}, "impression_id": "000b00000006eac042984c4c1095f7247007d05859", "profile": "http://www.citysearch.com/profile/750374840/woodstock_ga/frankfurt_doner.html", "address": {"city": "Woodstock", "state": "GA", "street": "6845 Hwy 92", "postal_code": "30189"}, "capProviderId": null, "distance": null, "has_offers": false, "name": "Frankfurt Doner", "longitude": -84.555916, "has_menu": false, "awards": null, "user_review_count": 0}, {"business_operation_status": 1, "rating": null, "neighborhood": null, "image": null, "scorecard": null, "featured": false, "sample_categories": "Restaurants, Pizza", "public_id": "pizza-314-woodstock-2", "id": 751319670, "votes": null, "tagline": null, "has_video": false, "website": null, "offers": null, "latitude": 34.113125, "politanName": "Atlanta, GA Metro ", "phone_number": "6784017250", "tags": [{"primary": false, "id": 11299, "name": "Pizza"}, {"primary": true, "id": 1722, "name": "Restaurants"}], "fax_number": null, "expansion": {"count": null, "uri": null}, "impression_id": "000b0000002064b84f1da84a78a277e3e079a76cdd", "profile": "http://www.citysearch.com/profile/751319670/woodstock_ga/pizza_314.html", "address": {"city": "Woodstock", "state": "GA", "street": "6424 Bells Ferry Rd", "postal_code": "30189"}, "capProviderId": null, "distance": null, "has_offers": false, "name": "Pizza 314", "longitude": -84.582117, "has_menu": false, "awards": null, "user_review_count": 0}, {"business_operation_status": 1, "rating": null, "neighborhood": null, "image": null, "scorecard": null, "featured": false, "sample_categories": "Restaurants, Italian", "public_id": "martinos-italian-restaurant-dallas", "id": 766757000, "votes": null, "tagline": null, "has_video": false, "website": null, "offers": null, "latitude": 33.98438, "politanName": "Atlanta, GA Metro ", "phone_number": "6787385561", "tags": [{"primary": false, "id": 11279, "name": "Italian"}, {"primary": true, "id": 1722, "name": "Restaurants"}], "fax_number": null, "expansion": {"count": null, "uri": null}, "impression_id": "000b0000005bb5e6aacff84c309964deda2881194e", "profile": "http://www.citysearch.com/profile/766757000/dallas_ga/martino_s_italian_restaurant.html", "address": {"city": "Dallas", "state": "GA", "street": "8877 Acwoth Dallas Hwy", "postal_code": "30132"}, "capProviderId": null, "distance": null, "has_offers": false, "name": "Martino's Italian Restaurant", "longitude": -84.772457, "has_menu": false, "awards": null, "user_review_count": 0}, {"business_operation_status": 1, "rating": null, "neighborhood": null, "image": null, "scorecard": null, "featured": false, "sample_categories": "Restaurants", "public_id": "la-tagliatellakennesaw-kennesaw", "id": 768794230, "votes": null, "tagline": null, "has_video": false, "website": null, "offers": null, "latitude": 34.002327, "politanName": "Atlanta, GA Metro ", "phone_number": "6789053611", "tags": [{"primary": true, "id": 1722, "name": "Restaurants"}], "fax_number": null, "expansion": {"count": null, "uri": null}, "impression_id": "000b000000fed92f8621dc4137a900c05c94dafa17", "profile": "http://www.citysearch.com/profile/768794230/kennesaw_ga/la_tagliatella_kennesaw.html", "address": {"city": "Kennesaw", "state": "GA", "street": "2045 Attic Pkwy NW", "postal_code": "30152"}, "capProviderId": null, "distance": null, "has_offers": false, "name": "La Tagliatella-Kennesaw", "longitude": -84.604376, "has_menu": false, "awards": null, "user_review_count": 0}, {"business_operation_status": 1, "rating": null, "neighborhood": null, "image": null, "scorecard": null, "featured": false, "sample_categories": "Restaurants, Chinese", "public_id": "manchu-wok-kennesaw", "id": 2955024, "votes": null, "tagline": null, "has_video": false, "website": null, "offers": null, "latitude": 34.019128, "politanName": "Atlanta, GA Metro ", "phone_number": "7704239488", "tags": [{"primary": false, "id": 11252, "name": "Chinese"}, {"primary": true, "id": 1722, "name": "Restaurants"}], "fax_number": null, "expansion": {"count": null, "uri": null}, "impression_id": "000b00000033d177936403452a8a8e39a67211e3a0", "profile": "http://www.citysearch.com/profile/2955024/kennesaw_ga/manchu_wok.html", "address": {"city": "Kennesaw", "state": "GA", "street": "400 Ernest W Barrett Pkwy NW", "postal_code": "30144"}, "capProviderId": null, "distance": null, "has_offers": false, "name": "Manchu Wok", "longitude": -84.563608, "has_menu": true, "awards": null, "user_review_count": 0}, {"business_operation_status": 1, "rating": null, "neighborhood": null, "image": null, "scorecard": null, "featured": false, "sample_categories": "Restaurants", "public_id": "los-reyes-mexican-restaurant-cartersville", "id": 768807830, "votes": null, "tagline": null, "has_video": false, "website": null, "offers": null, "latitude": 34.169858, "politanName": "Atlanta, GA Metro ", "phone_number": "7703870406", "tags": [{"primary": true, "id": 1722, "name": "Restaurants"}], "fax_number": null, "expansion": {"count": null, "uri": null}, "impression_id": "000b000000d298b28021114d9eba72931f30959cf8", "profile": "http://www.citysearch.com/profile/768807830/cartersville_ga/los_reyes_mexican_restaurant.html", "address": {"city": "Cartersville", "state": "GA", "street": "126 N Morningside Dr", "postal_code": "30121"}, "capProviderId": null, "distance": null, "has_offers": false, "name": "Los Reyes Mexican Restaurant", "longitude": -84.787404, "has_menu": false, "awards": null, "user_review_count": 0}, {"business_operation_status": 1, "rating": null, "neighborhood": null, "image": null, "scorecard": null, "featured": false, "sample_categories": "Restaurants", "public_id": "el-caporal-2-bar-grill-marietta", "id": 801060990, "votes": null, "tagline": null, "has_video": false, "website": null, "offers": null, "latitude": 33.955116, "politanName": "Atlanta, GA Metro ", "phone_number": "7704261422", "tags": [{"primary": true, "id": 1722, "name": "Restaurants"}], "fax_number": null, "expansion": {"count": null, "uri": null}, "impression_id": "000b0000009cd768f80b7d4544a384b6f95244686c", "profile": "http://www.citysearch.com/profile/801060990/marietta_ga/el_caporal_2_bar_grill.html", "address": {"city": "Marietta", "state": "GA", "street": "3600 Dallas Hwy Sw", "postal_code": "30064"}, "capProviderId": null, "distance": null, "has_offers": false, "name": "El Caporal 2 Bar & Grill", "longitude": -84.656027, "has_menu": false, "awards": null, "user_review_count": 0}, {"business_operation_status": 1, "rating": null, "neighborhood": null, "image": null, "scorecard": null, "featured": false, "sample_categories": "Restaurants, Thai", "public_id": "f-j-thai-pepper-llc-kennesaw", "id": 793231080, "votes": null, "tagline": null, "has_video": false, "website": null, "offers": null, "latitude": 34.01386, "politanName": "Atlanta, GA Metro ", "phone_number": "7704199500", "tags": [{"primary": false, "id": 11319, "name": "Thai"}, {"primary": true, "id": 1722, "name": "Restaurants"}], "fax_number": null, "expansion": {"count": null, "uri": null}, "impression_id": "000b00000081899979c1954a378f96aec24b24ebc7", "profile": "http://www.citysearch.com/profile/793231080/kennesaw_ga/f_j_thai_pepper_llc.html", "address": {"city": "Kennesaw", "state": "GA", "street": "2606 George Busbee Pkwy NW", "postal_code": "30144"}, "capProviderId": null, "distance": null, "has_offers": false, "name": "F J Thai Pepper LLC", "longitude": -84.565725, "has_menu": false, "awards": null, "user_review_count": 0}, {"business_operation_status": 1, "rating": null, "neighborhood": null, "image": null, "scorecard": null, "featured": false, "sample_categories": "Restaurants", "public_id": "cobb-kennesaw", "id": 812569790, "votes": null, "tagline": null, "has_video": false, "website": null, "offers": null, "latitude": 34.007674, "politanName": "Atlanta, GA Metro ", "phone_number": "7704256895", "tags": [{"primary": true, "id": 1722, "name": "Restaurants"}], "fax_number": null, "expansion": {"count": null, "uri": null}, "impression_id": "000b0000002c311dd8a924414b9f34b5e9364a580f", "profile": "http://www.citysearch.com/profile/812569790/kennesaw_ga/cobb.html", "address": {"city": "Kennesaw", "state": "GA", "street": "740 Ernest W Barrett Pkwy NW", "postal_code": "30144"}, "capProviderId": null, "distance": null, "has_offers": false, "name": "Cobb", "longitude": -84.571702, "has_menu": false, "awards": null, "user_review_count": 0}, {"business_operation_status": 1, "rating": null, "neighborhood": null, "image": null, "scorecard": null, "featured": false, "sample_categories": "Restaurants", "public_id": "caits-tea-room-kennesaw", "id": 820023430, "votes": null, "tagline": null, "has_video": false, "website": null, "offers": null, "latitude": 34.034038, "politanName": "Atlanta, GA Metro ", "phone_number": "7704265177", "tags": [{"primary": true, "id": 1722, "name": "Restaurants"}], "fax_number": null, "expansion": {"count": null, "uri": null}, "impression_id": "000b000000d89e1963c9894388a435f0e10f4c8b94", "profile": "http://www.citysearch.com/profile/820023430/kennesaw_ga/cait_s_tea_room.html", "address": {"city": "Kennesaw", "state": "GA", "street": "2950 Moon Station Rd NW", "postal_code": "30144"}, "capProviderId": null, "distance": null, "has_offers": false, "name": "Cait's Tea Room", "longitude": -84.616388, "has_menu": false, "awards": null, "user_review_count": 0}, {"business_operation_status": 1, "rating": null, "neighborhood": null, "image": null, "scorecard": null, "featured": false, "sample_categories": "Restaurants", "public_id": "b-a-b-smokehouse-marietta", "id": 818380670, "votes": null, "tagline": null, "has_video": false, "website": null, "offers": null, "latitude": 34.02684, "politanName": "Atlanta, GA Metro ", "phone_number": "7704220604", "tags": [{"primary": true, "id": 1722, "name": "Restaurants"}], "fax_number": null, "expansion": {"count": null, "uri": null}, "impression_id": "000b000000f5156c41bf7146d1aca783efdf0ca140", "profile": "http://www.citysearch.com/profile/818380670/marietta_ga/b_a_b_smokehouse.html", "address": {"city": "Marietta", "state": "GA", "street": "3050 Canton Rd", "postal_code": "30066"}, "capProviderId": null, "distance": null, "has_offers": false, "name": "B A B Smokehouse", "longitude": -84.527483, "has_menu": false, "awards": null, "user_review_count": 0}, {"business_operation_status": 0, "rating": null, "neighborhood": null, "image": null, "scorecard": null, "featured": false, "sample_categories": "Restaurants, Pizza", "public_id": "luna-pizza-kennesaw", "id": 824661650, "votes": null, "tagline": null, "has_video": false, "website": null, "offers": null, "latitude": 34.013172, "politanName": "Atlanta, GA Metro ", "phone_number": "6787660449", "tags": [{"primary": false, "id": 1722, "name": "Restaurants"}, {"primary": true, "id": 11299, "name": "Pizza"}], "fax_number": null, "expansion": {"count": null, "uri": null}, "impression_id": "000b000000fb9e007f155f427a822437379a668692", "profile": "http://www.citysearch.com/profile/824661650/kennesaw_ga/luna_pizza.html", "address": {"city": "Kennesaw", "state": "GA", "street": "2615 George Busbee Pkwy NW", "postal_code": "30144"}, "capProviderId": null, "distance": null, "has_offers": false, "name": "Luna Pizza", "longitude": -84.567215, "has_menu": false, "awards": null, "user_review_count": 0}, {"business_operation_status": 1, "rating": null, "neighborhood": null, "image": null, "scorecard": null, "featured": false, "sample_categories": "Restaurants", "public_id": "boxcara-cheesecake-cafe-kennesaw", "id": 823298160, "votes": null, "tagline": null, "has_video": false, "website": null, "offers": null, "latitude": 34.024396, "politanName": "Atlanta, GA Metro ", "phone_number": "7709197740", "tags": [{"primary": true, "id": 1722, "name": "Restaurants"}], "fax_number": null, "expansion": {"count": null, "uri": null}, "impression_id": "000b0000003be898538d99468cabbfff846bd72fe3", "profile": "http://www.citysearch.com/profile/823298160/kennesaw_ga/boxcar_a_cheesecake_cafe.html", "address": {"city": "Kennesaw", "state": "GA", "street": "2893 N Main St NW", "postal_code": "30144"}, "capProviderId": null, "distance": null, "has_offers": false, "name": "Boxcar-A Cheesecake Cafe", "longitude": -84.615917, "has_menu": true, "awards": null, "user_review_count": 3}, {"business_operation_status": 1, "rating": null, "neighborhood": null, "image": null, "scorecard": null, "featured": false, "sample_categories": "Ice Cream Parlors", "public_id": "phoenician-gyro-cafe-marietta", "id": 824983320, "votes": null, "tagline": null, "has_video": false, "website": null, "offers": null, "latitude": 34.068476, "politanName": "Atlanta, GA Metro ", "phone_number": "7705925158", "tags": [{"primary": true, "id": 1730, "name": "Ice Cream Parlors"}], "fax_number": null, "expansion": {"count": null, "uri": null}, "impression_id": "000b00000015a9b4fe3555437980cb4a104a4fc919", "profile": "http://www.citysearch.com/profile/824983320/marietta_ga/phoenician_gyro_cafe.html", "address": {"city": "Marietta", "state": "GA", "street": "4796 Canton Rd # 700", "postal_code": "30066"}, "capProviderId": null, "distance": null, "has_offers": false, "name": "Phoenician Gyro Cafe", "longitude": -84.520809, "has_menu": false, "awards": null, "user_review_count": 0}, {"business_operation_status": 0, "rating": null, "neighborhood": null, "image": null, "scorecard": null, "featured": false, "sample_categories": "Restaurants, Carry Out", "public_id": "atlanta-bread-co-marietta-3", "id": 818761800, "votes": null, "tagline": null, "has_video": false, "website": null, "offers": null, "latitude": 33.947326, "politanName": "Atlanta, GA Metro ", "phone_number": "7704250442", "tags": [{"primary": false, "id": 11247, "name": "Carry Out"}, {"primary": true, "id": 1722, "name": "Restaurants"}], "fax_number": null, "expansion": {"count": null, "uri": null}, "impression_id": "000b0000006edc454f7a154615bb95e3c85cb9eaf4", "profile": "http://www.citysearch.com/profile/818761800/marietta_ga/atlanta_bread_co.html", "address": {"city": "Marietta", "state": "GA", "street": "3451 Ernest W Barrett NW # 200", "postal_code": "30064"}, "capProviderId": null, "distance": null, "has_offers": false, "name": "Atlanta Bread Co", "longitude": -84.622965, "has_menu": false, "awards": null, "user_review_count": 0}, {"business_operation_status": 1, "rating": null, "neighborhood": null, "image": null, "scorecard": null, "featured": false, "sample_categories": "Restaurants", "public_id": "ryans-steakhousecartersville-cartersville", "id": 808701540, "votes": null, "tagline": null, "has_video": false, "website": null, "offers": null, "latitude": 34.191189, "politanName": "Atlanta, GA Metro ", "phone_number": "7706061500", "tags": [{"primary": true, "id": 1722, "name": "Restaurants"}], "fax_number": null, "expansion": {"count": null, "uri": null}, "impression_id": "000b000000ca58e502abbd49f99dc49b85c8862601", "profile": "http://www.citysearch.com/profile/808701540/cartersville_ga/ryan_s_steakhouse_cartersville.html", "address": {"city": "Cartersville", "state": "GA", "street": "823 Joe Frank Harris Pkwy SE", "postal_code": "30120"}, "capProviderId": null, "distance": null, "has_offers": false, "name": "Ryan's Steakhouse-Cartersville", "longitude": -84.78985, "has_menu": false, "awards": null, "user_review_count": 0}, {"business_operation_status": 0, "rating": null, "neighborhood": null, "image": null, "scorecard": null, "featured": false, "sample_categories": "Restaurants, Delis And Delicatessens, Sandwich Shops", "public_id": "m-way-subway-kennesaw", "id": 764862120, "votes": null, "tagline": null, "has_video": false, "website": null, "offers": null, "latitude": 34.048753, "politanName": "Atlanta, GA Metro ", "phone_number": "7704201524", "tags": [{"primary": false, "id": 1727, "name": "Delis And Delicatessens"}, {"primary": false, "id": 1736, "name": "Sandwich Shops"}, {"primary": true, "id": 1722, "name": "Restaurants"}], "fax_number": null, "expansion": {"count": null, "uri": null}, "impression_id": "000b000000e3a279a1cd17497eacc55a1f282fa248", "profile": "http://www.citysearch.com/profile/764862120/kennesaw_ga/m_way_subway.html", "address": {"city": "Kennesaw", "state": "GA", "street": "3920 Madison Bnd NW", "postal_code": "30144"}, "capProviderId": null, "distance": null, "has_offers": false, "name": "M Way Subway", "longitude": -84.641929, "has_menu": false, "awards": null, "user_review_count": 0}, {"business_operation_status": 1, "rating": null, "neighborhood": null, "image": null, "scorecard": null, "featured": false, "sample_categories": "Restaurants", "public_id": "standra-enterprises-inc-woodstock", "id": 825889670, "votes": null, "tagline": null, "has_video": false, "website": null, "offers": null, "latitude": 34.110969, "politanName": "Atlanta, GA Metro ", "phone_number": "7705917411", "tags": [{"primary": true, "id": 1722, "name": "Restaurants"}], "fax_number": null, "expansion": {"count": null, "uri": null}, "impression_id": "000b0000006532cb5ab38c496496f406cdbbbd0d5e", "profile": "http://www.citysearch.com/profile/825889670/woodstock_ga/standra_enterprises_inc.html", "address": {"city": "Woodstock", "state": "GA", "street": "1018 Braddock Cir", "postal_code": "30189"}, "capProviderId": null, "distance": null, "has_offers": false, "name": "Standra Enterprises Inc", "longitude": -84.5902, "has_menu": false, "awards": null, "user_review_count": 0}, {"business_operation_status": 1, "rating": null, "neighborhood": null, "image": null, "scorecard": null, "featured": false, "sample_categories": "Restaurants", "public_id": "golden-choice-pet-foods-llc-kennesaw", "id": 787124940, "votes": null, "tagline": null, "has_video": false, "website": "http://www.citysearch.com/profile/external/787124940/kennesaw_ga/golden_choice_pet_foods_llc.html", "offers": null, "latitude": 34.003702, "politanName": "Atlanta, GA Metro ", "phone_number": "7704255412", "tags": [{"primary": true, "id": 1722, "name": "Restaurants"}], "fax_number": null, "expansion": {"count": null, "uri": null}, "impression_id": "000b00000081a4930bce3247f1ae861170dacc2fcc", "profile": "http://www.citysearch.com/profile/787124940/kennesaw_ga/golden_choice_pet_foods_llc.html", "address": {"city": "Kennesaw", "state": "GA", "street": "2084 Battlewood Dr NW", "postal_code": "30152"}, "capProviderId": null, "distance": null, "has_offers": false, "name": "Golden Choice Pet Foods LLC", "longitude": -84.622899, "has_menu": false, "awards": null, "user_review_count": 0}, {"business_operation_status": 1, "rating": 6.0, "neighborhood": null, "image": null, "scorecard": null, "featured": false, "sample_categories": "Restaurants, Traditional American, Carry Out, Steakhouse, American Express", "public_id": "golden-corral-buffet-grill-kennesaw", "id": 2955047, "votes": null, "tagline": null, "has_video": false, "website": "http://www.citysearch.com/profile/external/2955047/kennesaw_ga/golden_corral_buffet_grill.html", "offers": null, "latitude": 34.007877, "politanName": "Atlanta, GA Metro ", "phone_number": "7704286770", "tags": [{"primary": false, "id": 11190, "name": "Traditional American"}, {"primary": false, "id": 11247, "name": "Carry Out"}, {"primary": false, "id": 11316, "name": "Steakhouse"}, {"primary": false, "id": 11333, "name": "American Express"}, {"primary": false, "id": 11349, "name": "Discover"}, {"primary": false, "id": 11361, "name": "MasterCard"}, {"primary": false, "id": 11382, "name": "Visa"}, {"primary": true, "id": 1722, "name": "Restaurants"}], "fax_number": null, "expansion": {"count": null, "uri": null}, "impression_id": "000b0000000fc06511ece84e01ac892d887e3ff48a", "profile": "http://www.citysearch.com/profile/2955047/kennesaw_ga/golden_corral_buffet_grill.html", "address": {"city": "Kennesaw", "state": "GA", "street": "700 Ernest W Barrett Pkwy NW", "postal_code": "30144"}, "capProviderId": null, "distance": null, "has_offers": false, "name": "Golden Corral Buffet & Grill", "longitude": -84.572373, "has_menu": true, "awards": null, "user_review_count": 8}, {"business_operation_status": 1, "rating": null, "neighborhood": null, "image": null, "scorecard": null, "featured": false, "sample_categories": "Restaurants, Barbecue Restaurants", "public_id": "johnny-mitchells-smokehouse-cartersville", "id": 742227580, "votes": null, "tagline": null, "has_video": false, "website": null, "offers": null, "latitude": 34.165184, "politanName": "Atlanta, GA Metro ", "phone_number": "7703870070", "tags": [{"primary": false, "id": 1724, "name": "Barbecue Restaurants"}, {"primary": true, "id": 1722, "name": "Restaurants"}], "fax_number": null, "expansion": {"count": null, "uri": null}, "impression_id": "000b000000158c53652ea7449da9111b8ef2cdf4b0", "profile": "http://www.citysearch.com/profile/742227580/cartersville_ga/johnny_mitchell_s_smokehouse.html", "address": {"city": "Cartersville", "state": "GA", "street": "117 S Tennessee St", "postal_code": "30120"}, "capProviderId": null, "distance": null, "has_offers": false, "name": "Johnny Mitchell's Smokehouse", "longitude": -84.793614, "has_menu": false, "awards": null, "user_review_count": 0}, {"business_operation_status": 1, "rating": null, "neighborhood": null, "image": null, "scorecard": null, "featured": false, "sample_categories": "Restaurants", "public_id": "tacos-locos-mexican-restaurant-cartersville", "id": 809120750, "votes": null, "tagline": null, "has_video": false, "website": null, "offers": null, "latitude": 34.180992, "politanName": "Atlanta, GA Metro ", "phone_number": "6787198522", "tags": [{"primary": true, "id": 1722, "name": "Restaurants"}], "fax_number": null, "expansion": {"count": null, "uri": null}, "impression_id": "000b0000004ceed9e534814175814a0fb093da8955", "profile": "http://www.citysearch.com/profile/809120750/cartersville_ga/tacos_locos_mexican_restaurant.html", "address": {"city": "Cartersville", "state": "GA", "street": "267 Cassville Rd", "postal_code": "30120"}, "capProviderId": null, "distance": null, "has_offers": false, "name": "Tacos Locos Mexican Restaurant", "longitude": -84.815161, "has_menu": false, "awards": null, "user_review_count": 0}, {"business_operation_status": 1, "rating": null, "neighborhood": null, "image": null, "scorecard": null, "featured": false, "sample_categories": "Restaurants, Chinese, MasterCard, Visa", "public_id": "mr-won-ton-marietta", "id": 2908318, "votes": null, "tagline": null, "has_video": false, "website": "http://www.citysearch.com/profile/external/2908318/marietta_ga/mr_won_ton.html", "offers": null, "latitude": 34.038928, "politanName": "Atlanta, GA Metro ", "phone_number": "7705917706", "tags": [{"primary": false, "id": 11252, "name": "Chinese"}, {"primary": false, "id": 11361, "name": "MasterCard"}, {"primary": false, "id": 11382, "name": "Visa"}, {"primary": true, "id": 1722, "name": "Restaurants"}], "fax_number": null, "expansion": {"count": null, "uri": null}, "impression_id": "000b0000001a4dbffa57294b33a935f9b5d442b0de", "profile": "http://www.citysearch.com/profile/2908318/marietta_ga/mr_won_ton.html", "address": {"city": "Marietta", "state": "GA", "street": "3595 Canton Rd # Ste 328", "postal_code": "30066"}, "capProviderId": null, "distance": null, "has_offers": false, "name": "Mr Won Ton", "longitude": -84.530249, "has_menu": false, "awards": null, "user_review_count": 0}, {"business_operation_status": 1, "rating": null, "neighborhood": null, "image": null, "scorecard": null, "featured": false, "sample_categories": "Restaurants, Hot Dogs", "public_id": "cafe-hambones-cartersville", "id": 790813120, "votes": null, "tagline": null, "has_video": false, "website": null, "offers": null, "latitude": 34.207175, "politanName": "Atlanta, GA Metro ", "phone_number": "4043941730", "tags": [{"primary": false, "id": 11274, "name": "Hot Dogs"}, {"primary": true, "id": 1722, "name": "Restaurants"}], "fax_number": null, "expansion": {"count": null, "uri": null}, "impression_id": "000b00000084cdd76fa17e46168118f8d6e53af534", "profile": "http://www.citysearch.com/profile/790813120/cartersville_ga/cafe_hambones.html", "address": {"city": "Cartersville", "state": "GA", "street": "31 Hwy 20 Spur", "postal_code": "30121"}, "capProviderId": null, "distance": null, "has_offers": false, "name": "Cafe Hambones", "longitude": -84.75769, "has_menu": false, "awards": null, "user_review_count": 0}, {"business_operation_status": 1, "rating": null, "neighborhood": null, "image": null, "scorecard": null, "featured": false, "sample_categories": "Restaurants", "public_id": "gyro-bros-kennesaw", "id": 836770140, "votes": null, "tagline": null, "has_video": false, "website": null, "offers": null, "latitude": 34.017369, "politanName": "Atlanta, GA Metro ", "phone_number": "7704238887", "tags": [{"primary": true, "id": 1722, "name": "Restaurants"}], "fax_number": null, "expansion": {"count": null, "uri": null}, "impression_id": "000b000000673aeaf8d5db4f00ba8853d32b3a57b7", "profile": "http://www.citysearch.com/profile/836770140/kennesaw_ga/gyro_bros.html", "address": {"city": "Kennesaw", "state": "GA", "street": "400 Ernest W Barrett Pkwy NW", "postal_code": "30144"}, "capProviderId": null, "distance": null, "has_offers": false, "name": "Gyro Bros", "longitude": -84.564255, "has_menu": false, "awards": null, "user_review_count": 0}, {"business_operation_status": 1, "rating": null, "neighborhood": null, "image": null, "scorecard": null, "featured": false, "sample_categories": "Restaurants, Delis And Delicatessens, Sandwich Shops, Carry Out", "public_id": "subway-cartersville-12", "id": 838812770, "votes": null, "tagline": null, "has_video": false, "website": "http://www.citysearch.com/profile/external/838812770/cartersville_ga/subway.html", "offers": null, "latitude": 34.184432, "politanName": "Atlanta, GA Metro ", "phone_number": "7706073095", "tags": [{"primary": false, "id": 1727, "name": "Delis And Delicatessens"}, {"primary": false, "id": 1736, "name": "Sandwich Shops"}, {"primary": false, "id": 11247, "name": "Carry Out"}, {"primary": true, "id": 1722, "name": "Restaurants"}], "fax_number": null, "expansion": {"count": null, "uri": null}, "impression_id": "000b000000b0f3eb35962b4920800977e60ef91174", "profile": "http://www.citysearch.com/profile/838812770/cartersville_ga/subway.html", "address": {"city": "Cartersville", "state": "GA", "street": "800 Burnt Hickory Rd SW", "postal_code": "30120"}, "capProviderId": null, "distance": null, "has_offers": false, "name": "Subway", "longitude": -84.830069, "has_menu": false, "awards": null, "user_review_count": 0}, {"business_operation_status": 1, "rating": null, "neighborhood": null, "image": null, "scorecard": null, "featured": false, "sample_categories": "Restaurants, Pizza", "public_id": "marcos-pizza-woodstock", "id": 839845340, "votes": null, "tagline": null, "has_video": false, "website": "http://www.citysearch.com/profile/external/839845340/woodstock_ga/marco_s_pizza.html", "offers": null, "latitude": 34.112656, "politanName": "Atlanta, GA Metro ", "phone_number": "6782132100", "tags": [{"primary": false, "id": 11299, "name": "Pizza"}, {"primary": true, "id": 1722, "name": "Restaurants"}], "fax_number": null, "expansion": {"count": null, "uri": null}, "impression_id": "000b00000041529c11e5044af785541064a8c56907", "profile": "http://www.citysearch.com/profile/839845340/woodstock_ga/marco_s_pizza.html", "address": {"city": "Woodstock", "state": "GA", "street": "2068 Eagle Dr", "postal_code": "30189"}, "capProviderId": null, "distance": null, "has_offers": false, "name": "Marco's Pizza", "longitude": -84.56326, "has_menu": false, "awards": null, "user_review_count": 0}, {"business_operation_status": 1, "rating": null, "neighborhood": null, "image": null, "scorecard": null, "featured": false, "sample_categories": "Restaurants", "public_id": "l-maries-southern-cuisine-kennesaw", "id": 611429574, "votes": null, "tagline": null, "has_video": false, "website": null, "offers": null, "latitude": 34.047379, "politanName": "Atlanta, GA Metro ", "phone_number": "6784012549", "tags": [{"primary": true, "id": 1722, "name": "Restaurants"}], "fax_number": null, "expansion": {"count": null, "uri": null}, "impression_id": "000b000000cb94c9f8443048e4b2dff795cb40edf3", "profile": "http://www.citysearch.com/profile/611429574/kennesaw_ga/l_marie_s_southern_cuisine.html", "address": {"city": "Kennesaw", "state": "GA", "street": "4240 Jiles Rd NW", "postal_code": "30144"}, "capProviderId": null, "distance": null, "has_offers": false, "name": "L Marie's Southern Cuisine", "longitude": -84.601698, "has_menu": true, "awards": null, "user_review_count": 0}, {"business_operation_status": 1, "rating": null, "neighborhood": null, "image": null, "scorecard": null, "featured": false, "sample_categories": "Restaurants", "public_id": "tip-top-tea-shoppe-llc-dallas", "id": 632994140, "votes": null, "tagline": null, "has_video": false, "website": "http://www.citysearch.com/profile/external/632994140/dallas_ga/tip_top_tea_shoppe_llc.html", "offers": null, "latitude": 33.991564, "politanName": "Atlanta, GA Metro ", "phone_number": "7704850240", "tags": [{"primary": true, "id": 1722, "name": "Restaurants"}], "fax_number": null, "expansion": {"count": null, "uri": null}, "impression_id": "000b0000008eb2e1e7e938463e99a4d4f635036547", "profile": "http://www.citysearch.com/profile/632994140/dallas_ga/tip_top_tea_shoppe_llc.html", "address": {"city": "Dallas", "state": "GA", "street": "92 Richaven Pl", "postal_code": "30132"}, "capProviderId": null, "distance": null, "has_offers": false, "name": "Tip Top Tea Shoppe Llc", "longitude": -84.780151, "has_menu": false, "awards": null, "user_review_count": 0}, {"business_operation_status": 1, "rating": null, "neighborhood": null, "image": null, "scorecard": null, "featured": false, "sample_categories": "Restaurants, Pizza, Carry Out", "public_id": "little-caesars-pizza-marietta-2", "id": 653582070, "votes": null, "tagline": null, "has_video": false, "website": "http://www.citysearch.com/profile/external/653582070/marietta_ga/little_caesars_pizza.html", "offers": null, "latitude": 33.952972, "politanName": "Atlanta, GA Metro ", "phone_number": "6784014181", "tags": [{"primary": false, "id": 1722, "name": "Restaurants"}, {"primary": false, "id": 11247, "name": "Carry Out"}, {"primary": true, "id": 11299, "name": "Pizza"}], "fax_number": null, "expansion": {"count": null, "uri": null}, "impression_id": "000b000000380e05b748044ac488c78e7ef4f30593", "profile": "http://www.citysearch.com/profile/653582070/marietta_ga/little_caesars_pizza.html", "address": {"city": "Marietta", "state": "GA", "street": "3405 Dallas Hwy Sw", "postal_code": "30064"}, "capProviderId": null, "distance": null, "has_offers": false, "name": "Little Caesars Pizza", "longitude": -84.651096, "has_menu": false, "awards": null, "user_review_count": 0}, {"business_operation_status": 1, "rating": null, "neighborhood": null, "image": null, "scorecard": null, "featured": false, "sample_categories": "Restaurants, Mexican", "public_id": "tacos-el-don-acworth", "id": 655861490, "votes": null, "tagline": null, "has_video": false, "website": null, "offers": null, "latitude": 34.087005, "politanName": "Atlanta, GA Metro ", "phone_number": "6784455383", "tags": [{"primary": false, "id": 11208, "name": "Mexican"}, {"primary": true, "id": 1722, "name": "Restaurants"}], "fax_number": null, "expansion": {"count": null, "uri": null}, "impression_id": "000b000000acf7f9a154a444a6b76ff1884a58eeaf", "profile": "http://www.citysearch.com/profile/655861490/acworth_ga/tacos_el_don.html", "address": {"city": "Acworth", "state": "GA", "street": "5603 Bells Ferry Rd", "postal_code": "30102"}, "capProviderId": null, "distance": null, "has_offers": false, "name": "Tacos El Don", "longitude": -84.576689, "has_menu": false, "awards": null, "user_review_count": 0}, {"business_operation_status": 1, "rating": null, "neighborhood": null, "image": null, "scorecard": null, "featured": false, "sample_categories": "Restaurants", "public_id": "e-street-grill-llc-cartersville", "id": 627364524, "votes": null, "tagline": null, "has_video": false, "website": null, "offers": null, "latitude": 34.16418, "politanName": "Atlanta, GA Metro ", "phone_number": "6787198420", "tags": [{"primary": true, "id": 1722, "name": "Restaurants"}], "fax_number": null, "expansion": {"count": null, "uri": null}, "impression_id": "000b000000c77ee799ec154890a559976af9c903c0", "profile": "http://www.citysearch.com/profile/627364524/cartersville_ga/e_street_grill_llc.html", "address": {"city": "Cartersville", "state": "GA", "street": "120 S Erwin St", "postal_code": "30120"}, "capProviderId": null, "distance": null, "has_offers": false, "name": "E Street Grill LLC", "longitude": -84.796305, "has_menu": false, "awards": null, "user_review_count": 0}, {"business_operation_status": 1, "rating": null, "neighborhood": null, "image": null, "scorecard": null, "featured": false, "sample_categories": "Restaurants, Barbecue Restaurants", "public_id": "city-wings-marietta", "id": 45550254, "votes": null, "tagline": null, "has_video": false, "website": null, "offers": null, "latitude": 34.03261, "politanName": "Atlanta, GA Metro ", "phone_number": "6783543412", "tags": [{"primary": false, "id": 1724, "name": "Barbecue Restaurants"}, {"primary": true, "id": 1722, "name": "Restaurants"}], "fax_number": null, "expansion": {"count": null, "uri": null}, "impression_id": "000b000000e692e5573a0b47e9b34963c08e625b54", "profile": "http://www.citysearch.com/profile/45550254/marietta_ga/city_wings.html", "address": {"city": "Marietta", "state": "GA", "street": "3349 Canton Rd Ste 8", "postal_code": "30066"}, "capProviderId": null, "distance": null, "has_offers": false, "name": "City Wings", "longitude": -84.528907, "has_menu": true, "awards": null, "user_review_count": 0}, {"business_operation_status": 1, "rating": 10.0, "neighborhood": null, "image": null, "scorecard": null, "featured": false, "sample_categories": "Restaurants", "public_id": "stilesboro-biscuits-kennesaw", "id": 45561009, "votes": null, "tagline": null, "has_video": false, "website": null, "offers": null, "latitude": 33.997874, "politanName": "Atlanta, GA Metro ", "phone_number": "7704295552", "tags": [{"primary": true, "id": 1722, "name": "Restaurants"}], "fax_number": null, "expansion": {"count": null, "uri": null}, "impression_id": "000b000000476bf2d4ed2845f0ae9db3386edd8277", "profile": "http://www.citysearch.com/profile/45561009/kennesaw_ga/stilesboro_biscuits.html", "address": {"city": "Kennesaw", "state": "GA", "street": "3545 Stilesboro Rd NW", "postal_code": "30152"}, "capProviderId": null, "distance": null, "has_offers": false, "name": "Stilesboro Biscuits", "longitude": -84.655238, "has_menu": false, "awards": null, "user_review_count": 3}, {"business_operation_status": 1, "rating": null, "neighborhood": null, "image": null, "scorecard": null, "featured": false, "sample_categories": "Restaurants, Bars & Clubs, Bars & Pubs", "public_id": "ate-track-bar-grill-cartersville", "id": 766805870, "votes": null, "tagline": null, "has_video": false, "website": null, "offers": null, "latitude": 34.166891, "politanName": "Atlanta, GA Metro ", "phone_number": "4703154367", "tags": [{"primary": false, "id": 164, "name": "Bars & Clubs"}, {"primary": false, "id": 1686, "name": "Bars & Pubs"}, {"primary": true, "id": 1722, "name": "Restaurants"}], "fax_number": null, "expansion": {"count": null, "uri": null}, "impression_id": "000b00000064948a0997494865979f669035c1ca1c", "profile": "http://www.citysearch.com/profile/766805870/cartersville_ga/ate_track_bar_grill.html", "address": {"city": "Cartersville", "state": "GA", "street": "25 N Wall St", "postal_code": "30120"}, "capProviderId": null, "distance": null, "has_offers": false, "name": "Ate Track Bar & Grill", "longitude": -84.795456, "has_menu": false, "awards": null, "user_review_count": 0}, {"business_operation_status": 1, "rating": null, "neighborhood": null, "image": null, "scorecard": null, "featured": false, "sample_categories": "Restaurants, Delis And Delicatessens", "public_id": "sub-city-kennesaw", "id": 793292830, "votes": null, "tagline": null, "has_video": false, "website": null, "offers": null, "latitude": 34.029977, "politanName": "Atlanta, GA Metro ", "phone_number": "6784014659", "tags": [{"primary": false, "id": 1727, "name": "Delis And Delicatessens"}, {"primary": true, "id": 1722, "name": "Restaurants"}], "fax_number": null, "expansion": {"count": null, "uri": null}, "impression_id": "000b0000007573eb1f4abb4781a1fa73a27d949e50", "profile": "http://www.citysearch.com/profile/793292830/kennesaw_ga/sub_city.html", "address": {"city": "Kennesaw", "state": "GA", "street": "3103 Cobb Pkwy NW # 114", "postal_code": "30152"}, "capProviderId": null, "distance": null, "has_offers": false, "name": "Sub City", "longitude": -84.656263, "has_menu": false, "awards": null, "user_review_count": 0}, {"business_operation_status": 1, "rating": null, "neighborhood": null, "image": null, "scorecard": null, "featured": false, "sample_categories": "Restaurants", "public_id": "supreme-grill-cartersville", "id": 811244140, "votes": null, "tagline": null, "has_video": false, "website": null, "offers": null, "latitude": 34.151195, "politanName": "Atlanta, GA Metro ", "phone_number": "7703824822", "tags": [{"primary": true, "id": 1722, "name": "Restaurants"}], "fax_number": null, "expansion": {"count": null, "uri": null}, "impression_id": "000b000000c1ddda3f69ab4e7394a168a5af0c2b18", "profile": "http://www.citysearch.com/profile/811244140/cartersville_ga/supreme_grill.html", "address": {"city": "Cartersville", "state": "GA", "street": "122 Old Mill Rd", "postal_code": "30120"}, "capProviderId": null, "distance": null, "has_offers": false, "name": "Supreme Grill", "longitude": -84.785543, "has_menu": false, "awards": null, "user_review_count": 0}, {"business_operation_status": 1, "rating": null, "neighborhood": null, "image": null, "scorecard": null, "featured": false, "sample_categories": "Restaurants", "public_id": "sharons-southern-girls-grill-cartersville", "id": 766765720, "votes": null, "tagline": null, "has_video": false, "website": null, "offers": null, "latitude": 34.155713, "politanName": "Atlanta, GA Metro ", "phone_number": "7703125123", "tags": [{"primary": true, "id": 1722, "name": "Restaurants"}], "fax_number": null, "expansion": {"count": null, "uri": null}, "impression_id": "000b000000ca3c5b0056d74f1baaaecbebeac24bcd", "profile": "http://www.citysearch.com/profile/766765720/cartersville_ga/sharon_s_southern_girls_grill.html", "address": {"city": "Cartersville", "state": "GA", "street": "32 Mission Ridge Dr SW", "postal_code": "30120"}, "capProviderId": null, "distance": null, "has_offers": false, "name": "Sharon's Southern Girls Grill", "longitude": -84.888338, "has_menu": false, "awards": null, "user_review_count": 0}, {"business_operation_status": 1, "rating": null, "neighborhood": null, "image": null, "scorecard": null, "featured": false, "sample_categories": "Restaurants, Carry Out", "public_id": "charleys-grilled-subs-kennesaw", "id": 822392670, "votes": null, "tagline": null, "has_video": false, "website": null, "offers": null, "latitude": 34.017369, "politanName": "Atlanta, GA Metro ", "phone_number": "7702188285", "tags": [{"primary": false, "id": 11247, "name": "Carry Out"}, {"primary": true, "id": 1722, "name": "Restaurants"}], "fax_number": null, "expansion": {"count": null, "uri": null}, "impression_id": "000b000000fc44327c54384604a81ead4689c27cf9", "profile": "http://www.citysearch.com/profile/822392670/kennesaw_ga/charley_s_grilled_subs.html", "address": {"city": "Kennesaw", "state": "GA", "street": "400 Ernest W Barrett Pkwy NW", "postal_code": "30144"}, "capProviderId": null, "distance": null, "has_offers": false, "name": "Charley's Grilled Subs", "longitude": -84.564255, "has_menu": true, "awards": null, "user_review_count": 0}, {"business_operation_status": 1, "rating": null, "neighborhood": null, "image": null, "scorecard": null, "featured": false, "sample_categories": "Restaurants, Pizza", "public_id": "mac-daddys-first-ten-pizza-kennesaw", "id": 823959380, "votes": null, "tagline": null, "has_video": false, "website": null, "offers": null, "latitude": 34.046915, "politanName": "Atlanta, GA Metro ", "phone_number": "6782246724", "tags": [{"primary": false, "id": 11299, "name": "Pizza"}, {"primary": true, "id": 1722, "name": "Restaurants"}], "fax_number": null, "expansion": {"count": null, "uri": null}, "impression_id": "000b0000008dfa746d2070438ab9d9f1eb8c8de85f", "profile": "http://www.citysearch.com/profile/823959380/kennesaw_ga/mac_daddys_first_ten_pizza.html", "address": {"city": "Kennesaw", "state": "GA", "street": "3930 George Busbee Pkwy NW", "postal_code": "30144"}, "capProviderId": null, "distance": null, "has_offers": false, "name": "Mac Daddys First & Ten Pizza", "longitude": -84.581594, "has_menu": false, "awards": null, "user_review_count": 0}], "histograms": [], "tag_ids": [1722], "uri": "http://api.citygridmedia.com:8080/search/places/v2/search/where?has_offers=false&type=restaurant&format=json&page=15&where=30101&rpp=50&histograms=false&publisher=10000009598&region_type=circle", "did_you_mean": "", "regions": [{"latitude": 34.042584, "default_radius": 6.64, "type": "postal_code", "name": "30101", "longitude": -84.71322699999999}], "call_id": "000b000000185a91acaf4c47e4b55417fe44425307", "first_hit": 701, "total_hits": 1249, "geo_ids": [26343], "page": 15, "last_hit": 750}}