{"results": {"rpp": 50, "locations": [{"business_operation_status": 0, "rating": null, "neighborhood": null, "image": null, "scorecard": null, "featured": false, "sample_categories": "Restaurants, Barbecue Restaurants", "public_id": "wingz-n-thingz-powder-spgs", "id": 647346910, "votes": null, "tagline": null, "has_video": false, "website": null, "offers": null, "latitude": 33.80062, "politanName": "Atlanta, GA Metro ", "phone_number": "7706272889", "tags": [{"primary": false, "id": 1724, "name": "Barbecue Restaurants"}, {"primary": true, "id": 1722, "name": "Restaurants"}], "fax_number": null, "expansion": {"count": null, "uri": null}, "impression_id": "000b000000d637a3b4c5db4266a142e79550a79021", "profile": "http://www.citysearch.com/profile/647346910/powder_springs_ga/wingz_n_thingz.html", "address": {"city": "Powder Springs", "state": "GA", "street": "105 Brownsville Rd", "postal_code": "30127"}, "capProviderId": null, "distance": null, "has_offers": false, "name": "Wingz N Thingz", "longitude": -84.75614, "has_menu": false, "awards": null, "user_review_count": 0}, {"business_operation_status": 1, "rating": null, "neighborhood": null, "image": null, "scorecard": null, "featured": false, "sample_categories": "Delis And Delicatessens", "public_id": "kroger-deli-douglasville-4", "id": 706880660, "votes": null, "tagline": null, "has_video": false, "website": null, "offers": null, "latitude": 33.699445, "politanName": "Atlanta, GA Metro ", "phone_number": "7709477144", "tags": [{"primary": true, "id": 1727, "name": "Delis And Delicatessens"}], "fax_number": null, "expansion": {"count": null, "uri": null}, "impression_id": "000b000000029fcf6d032341d4a301d3514bd21cc3", "profile": "http://www.citysearch.com/profile/706880660/douglasville_ga/kroger_deli.html", "address": {"city": "Douglasville", "state": "GA", "street": "3875 Chapel Hill Rd", "postal_code": "30135"}, "capProviderId": null, "distance": null, "has_offers": false, "name": "Kroger Deli", "longitude": -84.718495, "has_menu": false, "awards": null, "user_review_count": 0}, {"business_operation_status": 1, "rating": null, "neighborhood": null, "image": null, "scorecard": null, "featured": false, "sample_categories": "Restaurants", "public_id": "el-barco-mexican-restaurant-marietta-2", "id": 813626580, "votes": null, "tagline": null, "has_video": false, "website": null, "offers": null, "latitude": 33.903309, "politanName": "Atlanta, GA Metro ", "phone_number": "6783555007", "tags": [{"primary": true, "id": 1722, "name": "Restaurants"}], "fax_number": null, "expansion": {"count": null, "uri": null}, "impression_id": "000b0000002a6be6af1cc24a91b6bc8f3fff1161ef", "profile": "http://www.citysearch.com/profile/813626580/marietta_ga/el_barco_mexican_restaurant.html", "address": {"city": "Marietta", "state": "GA", "street": "Arbor Spring CT SW", "postal_code": "30064"}, "capProviderId": null, "distance": null, "has_offers": false, "name": "El Barco Mexican Restaurant", "longitude": -84.629546, "has_menu": false, "awards": null, "user_review_count": 0}, {"business_operation_status": 1, "rating": null, "neighborhood": null, "image": null, "scorecard": null, "featured": false, "sample_categories": "Restaurants", "public_id": "k-j-fish-chicken-marietta", "id": 816880880, "votes": null, "tagline": null, "has_video": false, "website": null, "offers": null, "latitude": 33.894433, "politanName": "Atlanta, GA Metro ", "phone_number": "7704058877", "tags": [{"primary": true, "id": 1722, "name": "Restaurants"}], "fax_number": null, "expansion": {"count": null, "uri": null}, "impression_id": "000b00000037dd41917d944a999ca3675da06cb057", "profile": "http://www.citysearch.com/profile/816880880/marietta_ga/k_j_fish_chicken.html", "address": {"city": "Marietta", "state": "GA", "street": "234 Windy Hill Rd SE", "postal_code": "30060"}, "capProviderId": null, "distance": null, "has_offers": false, "name": "K J Fish & Chicken", "longitude": -84.552798, "has_menu": false, "awards": null, "user_review_count": 0}, {"business_operation_status": 1, "rating": null, "neighborhood": null, "image": null, "scorecard": null, "featured": false, "sample_categories": "Ice Cream Parlors", "public_id": "thai-corner-powder", "id": 817977880, "votes": null, "tagline": null, "has_video": false, "website": null, "offers": null, "latitude": 33.859511, "politanName": "Atlanta, GA Metro ", "phone_number": "7704396889", "tags": [{"primary": true, "id": 1730, "name": "Ice Cream Parlors"}], "fax_number": null, "expansion": {"count": null, "uri": null}, "impression_id": "000b00000073c15b94d0694ee5a2b68df964b4f6f3", "profile": "http://www.citysearch.com/profile/817977880/powder_springs_ga/thai_corner.html", "address": {"city": "Powder Springs", "state": "GA", "street": "4469 Marietta St", "postal_code": "30127"}, "capProviderId": null, "distance": null, "has_offers": false, "name": "Thai Corner", "longitude": -84.68447, "has_menu": false, "awards": null, "user_review_count": 0}, {"business_operation_status": 0, "rating": null, "neighborhood": null, "image": null, "scorecard": null, "featured": false, "sample_categories": "Restaurants, Delis And Delicatessens, Sandwich Shops, Carry Out", "public_id": "blimpie-subs-salads-mableton", "id": 764922590, "votes": null, "tagline": null, "has_video": false, "website": "http://www.citysearch.com/profile/external/764922590/mableton_ga/blimpie_subs_salads.html", "offers": null, "latitude": 33.816948, "politanName": "Atlanta, GA Metro ", "phone_number": "7709443663", "tags": [{"primary": false, "id": 1727, "name": "Delis And Delicatessens"}, {"primary": false, "id": 1736, "name": "Sandwich Shops"}, {"primary": false, "id": 11247, "name": "Carry Out"}, {"primary": true, "id": 1722, "name": "Restaurants"}], "fax_number": null, "expansion": {"count": null, "uri": null}, "impression_id": "000b0000002d2e6126a4664873b9925f9a155617f1", "profile": "http://www.citysearch.com/profile/764922590/mableton_ga/blimpie_subs_salads.html", "address": {"city": "Mableton", "state": "GA", "street": "5624 Mableton Pkwy SW", "postal_code": "30126"}, "capProviderId": null, "distance": null, "has_offers": false, "name": "Blimpie Subs & Salads", "longitude": -84.575419, "has_menu": true, "awards": null, "user_review_count": 0}, {"business_operation_status": 1, "rating": null, "neighborhood": null, "image": null, "scorecard": null, "featured": false, "sample_categories": "Restaurants", "public_id": "real-cabana-restaurant-inc-marietta", "id": 764845910, "votes": null, "tagline": null, "has_video": false, "website": null, "offers": null, "latitude": 33.905083, "politanName": "Atlanta, GA Metro ", "phone_number": "7704364079", "tags": [{"primary": true, "id": 1722, "name": "Restaurants"}], "fax_number": null, "expansion": {"count": null, "uri": null}, "impression_id": "000b000000c7526f61f5da4ad9bd3a664ca07c9e58", "profile": "http://www.citysearch.com/profile/764845910/marietta_ga/real_cabana_restaurant_inc.html", "address": {"city": "Marietta", "state": "GA", "street": "1977 S Cobb Dr SE", "postal_code": "30060"}, "capProviderId": null, "distance": null, "has_offers": false, "name": "Real Cabana Restaurant Inc", "longitude": -84.542545, "has_menu": false, "awards": null, "user_review_count": 0}, {"business_operation_status": 1, "rating": null, "neighborhood": null, "image": null, "scorecard": null, "featured": false, "sample_categories": "Restaurants, Bars & Pubs", "public_id": "breaking-point-sports-bar-marietta", "id": 764906570, "votes": null, "tagline": null, "has_video": false, "website": null, "offers": null, "latitude": 33.936757, "politanName": "Atlanta, GA Metro ", "phone_number": "7704264199", "tags": [{"primary": false, "id": 1686, "name": "Bars & Pubs"}, {"primary": true, "id": 1722, "name": "Restaurants"}], "fax_number": null, "expansion": {"count": null, "uri": null}, "impression_id": "000b00000015c36921859b4931a405d9f8ef7888f7", "profile": "http://www.citysearch.com/profile/764906570/marietta_ga/breaking_point_sports_bar.html", "address": {"city": "Marietta", "state": "GA", "street": "680 Powder Springs St", "postal_code": "30064"}, "capProviderId": null, "distance": null, "has_offers": false, "name": "Breaking Point Sports Bar", "longitude": -84.557357, "has_menu": false, "awards": null, "user_review_count": 0}, {"business_operation_status": 1, "rating": null, "neighborhood": null, "image": null, "scorecard": null, "featured": false, "sample_categories": "Restaurants", "public_id": "a-t-l-best-wings-mableton", "id": 802512510, "votes": null, "tagline": null, "has_video": false, "website": null, "offers": null, "latitude": 33.833318, "politanName": "Atlanta, GA Metro ", "phone_number": "7709418700", "tags": [{"primary": true, "id": 1722, "name": "Restaurants"}], "fax_number": null, "expansion": {"count": null, "uri": null}, "impression_id": "000b000000e2ed3c72f1864cec8b8bb0b0fe44a4a2", "profile": "http://www.citysearch.com/profile/802512510/mableton_ga/a_t_l_best_wings.html", "address": {"city": "Mableton", "state": "GA", "street": "5005 Floyd Rd Sw", "postal_code": "30126"}, "capProviderId": null, "distance": null, "has_offers": false, "name": "A T L Best Wings", "longitude": -84.575479, "has_menu": false, "awards": null, "user_review_count": 0}, {"business_operation_status": 1, "rating": null, "neighborhood": null, "image": null, "scorecard": null, "featured": false, "sample_categories": "Restaurants, Carry Out, Hamburgers, American Express, Discover", "public_id": "krystal-marietta-3", "id": 43852561, "votes": null, "tagline": null, "has_video": false, "website": "http://www.citysearch.com/profile/external/43852561/marietta_ga/krystal.html", "offers": null, "latitude": 33.944405, "politanName": "Atlanta, GA Metro ", "phone_number": "7707929020", "tags": [{"primary": false, "id": 11247, "name": "Carry Out"}, {"primary": false, "id": 11270, "name": "Hamburgers"}, {"primary": false, "id": 11333, "name": "American Express"}, {"primary": false, "id": 11349, "name": "Discover"}, {"primary": false, "id": 11361, "name": "MasterCard"}, {"primary": false, "id": 11382, "name": "Visa"}, {"primary": true, "id": 1722, "name": "Restaurants"}], "fax_number": null, "expansion": {"count": null, "uri": null}, "impression_id": "000b0000005df119dab20a48db87c0cad9a81e8486", "profile": "http://www.citysearch.com/profile/43852561/marietta_ga/krystal.html", "address": {"city": "Marietta", "state": "GA", "street": "3520 Ernest W Barrett Pkwy SW", "postal_code": "30064"}, "capProviderId": null, "distance": null, "has_offers": false, "name": "Krystal", "longitude": -84.624735, "has_menu": true, "awards": null, "user_review_count": 0}, {"business_operation_status": 1, "rating": null, "neighborhood": null, "image": null, "scorecard": null, "featured": false, "sample_categories": "Restaurants, Barbecue Restaurants", "public_id": "wings-fiesta-smyrna", "id": 43853119, "votes": null, "tagline": null, "has_video": false, "website": null, "offers": null, "latitude": 33.892507, "politanName": "Atlanta, GA Metro ", "phone_number": "7704349999", "tags": [{"primary": false, "id": 1724, "name": "Barbecue Restaurants"}, {"primary": true, "id": 1722, "name": "Restaurants"}], "fax_number": null, "expansion": {"count": null, "uri": null}, "impression_id": "000b000000caef9b67974b4cb4a8076328d7c1c256", "profile": "http://www.citysearch.com/profile/43853119/smyrna_ga/wings_fiesta.html", "address": {"city": "Smyrna", "state": "GA", "street": "2500 S Cobb Dr SE", "postal_code": "30080"}, "capProviderId": null, "distance": null, "has_offers": false, "name": "Wings Fiesta", "longitude": -84.537976, "has_menu": false, "awards": null, "user_review_count": 0}, {"business_operation_status": 1, "rating": null, "neighborhood": null, "image": null, "scorecard": null, "featured": false, "sample_categories": "Catering, Restaurants, Sandwich Shops, Ham, Pork", "public_id": "honeybaked-ham-marietta-2", "id": 45112957, "votes": null, "tagline": null, "has_video": false, "website": "http://www.citysearch.com/profile/external/45112957/marietta_ga/honeybaked_ham.html", "offers": null, "latitude": 33.944997, "politanName": "Atlanta, GA Metro ", "phone_number": "7707950196", "tags": [{"primary": false, "id": 1705, "name": "Catering"}, {"primary": false, "id": 1722, "name": "Restaurants"}, {"primary": false, "id": 1736, "name": "Sandwich Shops"}, {"primary": false, "id": 11125, "name": "Pork"}, {"primary": false, "id": 11333, "name": "American Express"}, {"primary": false, "id": 11347, "name": "Debit Card"}, {"primary": false, "id": 11349, "name": "Discover"}, {"primary": false, "id": 11361, "name": "MasterCard"}, {"primary": false, "id": 11382, "name": "Visa"}, {"primary": true, "id": 11124, "name": "Ham"}], "fax_number": null, "expansion": {"count": null, "uri": null}, "impression_id": "000b0000007cada35b678a400594e4317f5e73fcc0", "profile": "http://www.citysearch.com/profile/45112957/marietta_ga/honeybaked_ham.html", "address": {"city": "Marietta", "state": "GA", "street": "3405 Dallas Hwy SW 408", "postal_code": "30064"}, "capProviderId": null, "distance": null, "has_offers": false, "name": "Honeybaked Ham", "longitude": -84.623325, "has_menu": true, "awards": null, "user_review_count": 0}, {"business_operation_status": 1, "rating": null, "neighborhood": null, "image": null, "scorecard": null, "featured": false, "sample_categories": "Ice Cream Parlors", "public_id": "marble-slab-creamery-smyrna", "id": 822378770, "votes": null, "tagline": null, "has_video": false, "website": null, "offers": null, "latitude": 33.884889, "politanName": "Atlanta, GA Metro ", "phone_number": "7704333336", "tags": [{"primary": true, "id": 1730, "name": "Ice Cream Parlors"}], "fax_number": null, "expansion": {"count": null, "uri": null}, "impression_id": "000b00000092936893e2714f70b07fb0c56465e7b9", "profile": "http://www.citysearch.com/profile/822378770/smyrna_ga/marble_slab_creamery.html", "address": {"city": "Smyrna", "state": "GA", "street": "400 Village Green Cir SE", "postal_code": "30080"}, "capProviderId": null, "distance": null, "has_offers": false, "name": "Marble Slab Creamery", "longitude": -84.516415, "has_menu": false, "awards": null, "user_review_count": 0}, {"business_operation_status": 1, "rating": null, "neighborhood": null, "image": null, "scorecard": null, "featured": false, "sample_categories": "Restaurants", "public_id": "champs-barbq-smyrna", "id": 819797740, "votes": null, "tagline": null, "has_video": false, "website": null, "offers": null, "latitude": 33.896088, "politanName": "Atlanta, GA Metro ", "phone_number": "7704386618", "tags": [{"primary": true, "id": 1722, "name": "Restaurants"}], "fax_number": null, "expansion": {"count": null, "uri": null}, "impression_id": "000b0000006fbfeb4e876e42e5bfa82eeb50f564e5", "profile": "http://www.citysearch.com/profile/819797740/smyrna_ga/champs_bar_b_q.html", "address": {"city": "Smyrna", "state": "GA", "street": "2300 S Cobb Dr SE", "postal_code": "30080"}, "capProviderId": null, "distance": null, "has_offers": false, "name": "Champs Bar-B-Q", "longitude": -84.539784, "has_menu": false, "awards": null, "user_review_count": 0}, {"business_operation_status": 1, "rating": 6.0, "neighborhood": null, "image": null, "scorecard": null, "featured": false, "sample_categories": "Restaurants, Bars & Pubs, Taverns, Barbecue Restaurants, MasterCard", "public_id": "wings-pub-smyrna", "id": 2922999, "votes": null, "tagline": null, "has_video": false, "website": null, "offers": null, "latitude": 33.894336, "politanName": "Atlanta, GA Metro ", "phone_number": "7704350007", "tags": [{"primary": false, "id": 1686, "name": "Bars & Pubs"}, {"primary": false, "id": 1702, "name": "Taverns"}, {"primary": false, "id": 1724, "name": "Barbecue Restaurants"}, {"primary": false, "id": 11361, "name": "MasterCard"}, {"primary": false, "id": 11382, "name": "Visa"}, {"primary": true, "id": 1722, "name": "Restaurants"}], "fax_number": null, "expansion": {"count": null, "uri": null}, "impression_id": "000b000000d366b339be4044108a45ddaed65ea86b", "profile": "http://www.citysearch.com/profile/2922999/smyrna_ga/wings_pub.html", "address": {"city": "Smyrna", "state": "GA", "street": "1024 Windy Hill Rd SE", "postal_code": "30080"}, "capProviderId": null, "distance": null, "has_offers": false, "name": "Wings Pub", "longitude": -84.52318, "has_menu": false, "awards": null, "user_review_count": 0}, {"business_operation_status": 1, "rating": null, "neighborhood": null, "image": null, "scorecard": null, "featured": false, "sample_categories": "Restaurants, Seafood", "public_id": "b-b-fish-wing-powder", "id": 764896700, "votes": null, "tagline": null, "has_video": false, "website": null, "offers": null, "latitude": 33.846609, "politanName": "Atlanta, GA Metro ", "phone_number": "7702222740", "tags": [{"primary": false, "id": 11228, "name": "Seafood"}, {"primary": true, "id": 1722, "name": "Restaurants"}], "fax_number": null, "expansion": {"count": null, "uri": null}, "impression_id": "000b000000a7998f3f8b3d47c0839599b79fa1a09c", "profile": "http://www.citysearch.com/profile/764896700/powder_springs_ga/b_b_fish_wing.html", "address": {"city": "Powder Springs", "state": "GA", "street": "4400 Brownsville Rd", "postal_code": "30127"}, "capProviderId": null, "distance": null, "has_offers": false, "name": "B & B Fish & Wing", "longitude": -84.699113, "has_menu": false, "awards": null, "user_review_count": 0}, {"business_operation_status": 1, "rating": null, "neighborhood": null, "image": null, "scorecard": null, "featured": false, "sample_categories": "Restaurants, Hamburgers", "public_id": "juniors-cheeseburgers-marietta", "id": 793366980, "votes": null, "tagline": null, "has_video": false, "website": null, "offers": null, "latitude": 33.881461, "politanName": "Atlanta, GA Metro ", "phone_number": "6783543333", "tags": [{"primary": false, "id": 11270, "name": "Hamburgers"}, {"primary": true, "id": 1722, "name": "Restaurants"}], "fax_number": null, "expansion": {"count": null, "uri": null}, "impression_id": "000b000000c6b6f593d6054817a174b964932087da", "profile": "http://www.citysearch.com/profile/793366980/marietta_ga/juniors_cheeseburgers.html", "address": {"city": "Marietta", "state": "GA", "street": "2325 Powder Springs Rd Sw", "postal_code": "30064"}, "capProviderId": null, "distance": null, "has_offers": false, "name": "Juniors Cheeseburgers", "longitude": -84.619677, "has_menu": false, "awards": null, "user_review_count": 0}, {"business_operation_status": 1, "rating": 8.0, "neighborhood": null, "image": null, "scorecard": null, "featured": false, "sample_categories": "Ice Cream Parlors, Dessert Shops", "public_id": "bambi-ice-cream-smyrna", "id": 37647413, "votes": null, "tagline": null, "has_video": false, "website": null, "offers": null, "latitude": 33.902095, "politanName": "Atlanta, GA Metro ", "phone_number": "7703191929", "tags": [{"primary": false, "id": 1728, "name": "Dessert Shops"}, {"primary": true, "id": 1730, "name": "Ice Cream Parlors"}], "fax_number": null, "expansion": {"count": null, "uri": null}, "impression_id": "000b000000faae7043a9d148d6976fb76cfa1fe0fe", "profile": "http://www.citysearch.com/profile/37647413/smyrna_ga/bambi_ice_cream.html", "address": {"city": "Smyrna", "state": "GA", "street": "441 Pat Mell Rd SE", "postal_code": "30080"}, "capProviderId": null, "distance": null, "has_offers": false, "name": "Bambi Ice Cream", "longitude": -84.540382, "has_menu": false, "awards": null, "user_review_count": 1}, {"business_operation_status": 1, "rating": null, "neighborhood": null, "image": null, "scorecard": null, "featured": false, "sample_categories": "Bakeries, Restaurants", "public_id": "back-2-basics-bakery-lithia-spgs", "id": 43861078, "votes": null, "tagline": null, "has_video": false, "website": null, "offers": null, "latitude": 33.781495, "politanName": "Atlanta, GA Metro ", "phone_number": "7709417851", "tags": [{"primary": false, "id": 1722, "name": "Restaurants"}, {"primary": true, "id": 1685, "name": "Bakeries"}], "fax_number": null, "expansion": {"count": null, "uri": null}, "impression_id": "000b000000dbf4908643f74a3ea66f8ac02d58f106", "profile": "http://www.citysearch.com/profile/43861078/lithia_springs_ga/back_2_basics_bakery.html", "address": {"city": "Lithia Springs", "state": "GA", "street": "2970 Skyview Dr Lot 94", "postal_code": "30122"}, "capProviderId": null, "distance": null, "has_offers": false, "name": "Back 2 Basics Bakery", "longitude": -84.643902, "has_menu": false, "awards": null, "user_review_count": 0}, {"business_operation_status": 1, "rating": null, "neighborhood": null, "image": null, "scorecard": null, "featured": false, "sample_categories": "Restaurants", "public_id": "jalapeno-joes-lithia", "id": 814946090, "votes": null, "tagline": null, "has_video": false, "website": null, "offers": null, "latitude": 33.784776, "politanName": "Atlanta, GA Metro ", "phone_number": "7707391906", "tags": [{"primary": true, "id": 1722, "name": "Restaurants"}], "fax_number": null, "expansion": {"count": null, "uri": null}, "impression_id": "000b0000004d0c18b8fcea45a5ae7dc177ded33b6b", "profile": "http://www.citysearch.com/profile/814946090/lithia_springs_ga/jalapeno_joe_s.html", "address": {"city": "Lithia Springs", "state": "GA", "street": "853 Thornton Rd", "postal_code": "30122"}, "capProviderId": null, "distance": null, "has_offers": false, "name": "Jalapeno Joe's", "longitude": -84.612385, "has_menu": false, "awards": null, "user_review_count": 1}, {"business_operation_status": 1, "rating": null, "neighborhood": null, "image": null, "scorecard": null, "featured": false, "sample_categories": "Restaurants", "public_id": "moore-moore-investments-inc-dallas", "id": 601315709, "votes": null, "tagline": null, "has_video": false, "website": null, "offers": null, "latitude": 33.935025, "politanName": "Atlanta, GA Metro ", "phone_number": "7704432856", "tags": [{"primary": true, "id": 1722, "name": "Restaurants"}], "fax_number": null, "expansion": {"count": null, "uri": null}, "impression_id": "000b0000005266fc623eb14835ab0a469dce46bbad", "profile": "http://www.citysearch.com/profile/601315709/dallas_ga/moore_moore_investments_inc.html", "address": {"city": "Dallas", "state": "GA", "street": "3615 Marietta Hwy", "postal_code": "30157"}, "capProviderId": null, "distance": null, "has_offers": false, "name": "Moore & Moore Investments Inc", "longitude": -84.73087, "has_menu": false, "awards": null, "user_review_count": 0}, {"business_operation_status": 1, "rating": null, "neighborhood": null, "image": null, "scorecard": null, "featured": false, "sample_categories": "Restaurants", "public_id": "sparkmans-powder", "id": 827802510, "votes": null, "tagline": null, "has_video": false, "website": null, "offers": null, "latitude": 33.859155, "politanName": "Atlanta, GA Metro ", "phone_number": "7704394588", "tags": [{"primary": true, "id": 1722, "name": "Restaurants"}], "fax_number": null, "expansion": {"count": null, "uri": null}, "impression_id": "000b000000a33165d208da4c2189c5026504a1ba72", "profile": "http://www.citysearch.com/profile/827802510/powder_springs_ga/sparkman_s.html", "address": {"city": "Powder Springs", "state": "GA", "street": "4136 Austell Powder Springs Rd", "postal_code": "30127"}, "capProviderId": null, "distance": null, "has_offers": false, "name": "Sparkman's", "longitude": -84.65957, "has_menu": false, "awards": null, "user_review_count": 0}, {"business_operation_status": 1, "rating": null, "neighborhood": null, "image": null, "scorecard": null, "featured": false, "sample_categories": "Restaurants", "public_id": "scotts-eats-sweets-mableton", "id": 608948894, "votes": null, "tagline": null, "has_video": false, "website": null, "offers": null, "latitude": 33.817787, "politanName": "Atlanta, GA Metro ", "phone_number": "4045145322", "tags": [{"primary": true, "id": 1722, "name": "Restaurants"}], "fax_number": null, "expansion": {"count": null, "uri": null}, "impression_id": "000b0000007992c3c3fe5c4ce69486a224af793ea5", "profile": "http://www.citysearch.com/profile/608948894/mableton_ga/scott_s_eats_sweets.html", "address": {"city": "Mableton", "state": "GA", "street": "1150 Veterans Memorial Hwy SW", "postal_code": "30126"}, "capProviderId": null, "distance": null, "has_offers": false, "name": "Scott's Eats & Sweets", "longitude": -84.587972, "has_menu": false, "awards": null, "user_review_count": 0}, {"business_operation_status": 1, "rating": null, "neighborhood": null, "image": null, "scorecard": null, "featured": false, "sample_categories": "Restaurants", "public_id": "car-checkers-powder-spgs", "id": 2950697, "votes": null, "tagline": null, "has_video": false, "website": null, "offers": null, "latitude": 33.935913, "politanName": "Atlanta, GA Metro ", "phone_number": "7705148100", "tags": [{"primary": true, "id": 1722, "name": "Restaurants"}], "fax_number": null, "expansion": {"count": null, "uri": null}, "impression_id": "000b0000001ee5cdcd416a4ffc8d4d2bd122ff3f12", "profile": "http://www.citysearch.com/profile/2950697/powder_springs_ga/car_checkers.html", "address": {"city": "Powder Springs", "state": "GA", "street": "591 Leah Dr", "postal_code": "30127"}, "capProviderId": null, "distance": null, "has_offers": false, "name": "Car Checkers", "longitude": -84.663484, "has_menu": false, "awards": null, "user_review_count": 0}, {"business_operation_status": 1, "rating": null, "neighborhood": null, "image": null, "scorecard": null, "featured": false, "sample_categories": "Restaurants", "public_id": "mexican-taqueria-smyrna", "id": 623985844, "votes": null, "tagline": null, "has_video": false, "website": null, "offers": null, "latitude": 33.889788, "politanName": "Atlanta, GA Metro ", "phone_number": "7709891248", "tags": [{"primary": true, "id": 1722, "name": "Restaurants"}], "fax_number": null, "expansion": {"count": null, "uri": null}, "impression_id": "000b000000701eae9130d940e789cb5e7c1f43e922", "profile": "http://www.citysearch.com/profile/623985844/smyrna_ga/mexican_taqueria.html", "address": {"city": "Smyrna", "state": "GA", "street": "2599 S Cobb Dr SE", "postal_code": "30080"}, "capProviderId": null, "distance": null, "has_offers": false, "name": "Mexican Taqueria", "longitude": -84.536114, "has_menu": false, "awards": null, "user_review_count": 0}, {"business_operation_status": 1, "rating": null, "neighborhood": null, "image": null, "scorecard": null, "featured": false, "sample_categories": "Restaurants, Cajun & Creole", "public_id": "on-the-bayou-smyrna", "id": 764832940, "votes": null, "tagline": null, "has_video": false, "website": null, "offers": null, "latitude": 33.879071, "politanName": "Atlanta, GA Metro ", "phone_number": "7704343329", "tags": [{"primary": false, "id": 11245, "name": "Cajun & Creole"}, {"primary": true, "id": 1722, "name": "Restaurants"}], "fax_number": null, "expansion": {"count": null, "uri": null}, "impression_id": "000b000000361461d2478b436f86ae2bb813fd38b8", "profile": "http://www.citysearch.com/profile/764832940/smyrna_ga/on_the_bayou.html", "address": {"city": "Smyrna", "state": "GA", "street": "3120 S Cobb Dr SE", "postal_code": "30080"}, "capProviderId": null, "distance": null, "has_offers": false, "name": "On the Bayou", "longitude": -84.532683, "has_menu": false, "awards": null, "user_review_count": 0}, {"business_operation_status": 1, "rating": null, "neighborhood": null, "image": null, "scorecard": null, "featured": false, "sample_categories": "Restaurants", "public_id": "culture-lab-marietta", "id": 764843290, "votes": null, "tagline": null, "has_video": false, "website": null, "offers": null, "latitude": 33.883313, "politanName": "Atlanta, GA Metro ", "phone_number": "7705750926", "tags": [{"primary": true, "id": 1722, "name": "Restaurants"}], "fax_number": null, "expansion": {"count": null, "uri": null}, "impression_id": "000b0000003b3b569513784006907306b17aa5249a", "profile": "http://www.citysearch.com/profile/764843290/marietta_ga/culture_lab.html", "address": {"city": "Marietta", "state": "GA", "street": "2200 Powder Springs Rd SW", "postal_code": "30064"}, "capProviderId": null, "distance": null, "has_offers": false, "name": "Culture Lab", "longitude": -84.620092, "has_menu": false, "awards": null, "user_review_count": 0}, {"business_operation_status": 1, "rating": null, "neighborhood": null, "image": null, "scorecard": null, "featured": false, "sample_categories": "Restaurants", "public_id": "rancho-el-molcajete-mableton", "id": 728113990, "votes": null, "tagline": null, "has_video": false, "website": null, "offers": null, "latitude": 33.816965, "politanName": "Atlanta, GA Metro ", "phone_number": "7708966031", "tags": [{"primary": true, "id": 1722, "name": "Restaurants"}], "fax_number": null, "expansion": {"count": null, "uri": null}, "impression_id": "000b0000000e9ebae86be949fd892fe760a61a4119", "profile": "http://www.citysearch.com/profile/728113990/mableton_ga/rancho_el_molcajete.html", "address": {"city": "Mableton", "state": "GA", "street": "499 Veterans Memorial Hwy Sw", "postal_code": "30126"}, "capProviderId": null, "distance": null, "has_offers": false, "name": "Rancho El Molcajete", "longitude": -84.568558, "has_menu": false, "awards": null, "user_review_count": 0}, {"business_operation_status": 1, "rating": null, "neighborhood": null, "image": null, "scorecard": null, "featured": false, "sample_categories": "Restaurants", "public_id": "tropical-eats-mableton", "id": 787139770, "votes": null, "tagline": null, "has_video": false, "website": null, "offers": null, "latitude": 33.815312, "politanName": "Atlanta, GA Metro ", "phone_number": "7709480044", "tags": [{"primary": true, "id": 1722, "name": "Restaurants"}], "fax_number": null, "expansion": {"count": null, "uri": null}, "impression_id": "000b000000ace9f4efdc2444fd9462b97c54727be4", "profile": "http://www.citysearch.com/profile/787139770/mableton_ga/tropical_eats.html", "address": {"city": "Mableton", "state": "GA", "street": "302 Veterans Memorial Hwy Sw", "postal_code": "30126"}, "capProviderId": null, "distance": null, "has_offers": false, "name": "Tropical Eats", "longitude": -84.561339, "has_menu": false, "awards": null, "user_review_count": 0}, {"business_operation_status": 1, "rating": null, "neighborhood": null, "image": null, "scorecard": null, "featured": false, "sample_categories": "Restaurants, Seafood", "public_id": "surf-turf-austell", "id": 757931480, "votes": null, "tagline": null, "has_video": false, "website": null, "offers": null, "latitude": 33.77728, "politanName": "Atlanta, GA Metro ", "phone_number": "6784031083", "tags": [{"primary": false, "id": 11228, "name": "Seafood"}, {"primary": true, "id": 1722, "name": "Restaurants"}], "fax_number": null, "expansion": {"count": null, "uri": null}, "impression_id": "000b000000a8d87c1474b24598a0d61017fa7eba87", "profile": "http://www.citysearch.com/profile/757931480/austell_ga/surf_turf.html", "address": {"city": "Austell", "state": "GA", "street": "366 Six Flags Dr # 15", "postal_code": "30168"}, "capProviderId": null, "distance": null, "has_offers": false, "name": "Surf & Turf", "longitude": -84.559025, "has_menu": false, "awards": null, "user_review_count": 0}, {"business_operation_status": 1, "rating": null, "neighborhood": null, "image": null, "scorecard": null, "featured": false, "sample_categories": "Restaurants, Carry Out, Chicken", "public_id": "popeyes-chicken-biscuits-marietta-3", "id": 764903940, "votes": null, "tagline": null, "has_video": false, "website": null, "offers": null, "latitude": 33.922747, "politanName": "Atlanta, GA Metro ", "phone_number": "7707947031", "tags": [{"primary": false, "id": 11247, "name": "Carry Out"}, {"primary": false, "id": 12839, "name": "Chicken"}, {"primary": true, "id": 1722, "name": "Restaurants"}], "fax_number": null, "expansion": {"count": null, "uri": null}, "impression_id": "000b000000935dd9411eca4061a722799811a18950", "profile": "http://www.citysearch.com/profile/764903940/marietta_ga/popeye_s_chicken_biscuits.html", "address": {"city": "Marietta", "state": "GA", "street": "1444 Livingston Dr SW", "postal_code": "30064"}, "capProviderId": null, "distance": null, "has_offers": false, "name": "Popeye's Chicken & Biscuits", "longitude": -84.596038, "has_menu": false, "awards": null, "user_review_count": 0}, {"business_operation_status": 1, "rating": null, "neighborhood": null, "image": null, "scorecard": null, "featured": false, "sample_categories": "Restaurants", "public_id": "eat-run-chicken-fish-austell", "id": 813668140, "votes": null, "tagline": null, "has_video": false, "website": null, "offers": null, "latitude": 33.776643, "politanName": "Atlanta, GA Metro ", "phone_number": "6789457016", "tags": [{"primary": true, "id": 1722, "name": "Restaurants"}], "fax_number": null, "expansion": {"count": null, "uri": null}, "impression_id": "000b0000007a788723189d4d148e97875a0c4b38cb", "profile": "http://www.citysearch.com/profile/813668140/austell_ga/eat_run_chicken_fish.html", "address": {"city": "Austell", "state": "GA", "street": "361 Six Flags Dr", "postal_code": "30168"}, "capProviderId": null, "distance": null, "has_offers": false, "name": "Eat & Run Chicken & Fish", "longitude": -84.565938, "has_menu": false, "awards": null, "user_review_count": 0}, {"business_operation_status": 1, "rating": null, "neighborhood": null, "image": null, "scorecard": null, "featured": false, "sample_categories": "Restaurants, Barbecue Restaurants", "public_id": "boyds-bar-be-que-smyrna", "id": 793283860, "votes": null, "tagline": null, "has_video": false, "website": null, "offers": null, "latitude": 33.890044, "politanName": "Atlanta, GA Metro ", "phone_number": "6783099726", "tags": [{"primary": false, "id": 1724, "name": "Barbecue Restaurants"}, {"primary": true, "id": 1722, "name": "Restaurants"}], "fax_number": null, "expansion": {"count": null, "uri": null}, "impression_id": "000b000000bdd90035a6714b8abfc345685e782a66", "profile": "http://www.citysearch.com/profile/793283860/smyrna_ga/boyd_s_bar_be_que.html", "address": {"city": "Smyrna", "state": "GA", "street": "2599 S Cobb Dr Se", "postal_code": "30080"}, "capProviderId": null, "distance": null, "has_offers": false, "name": "Boyd's Bar Be Que", "longitude": -84.536832, "has_menu": false, "awards": null, "user_review_count": 0}, {"business_operation_status": 1, "rating": 10.0, "neighborhood": null, "image": null, "scorecard": null, "featured": false, "sample_categories": "Restaurants, Food Delivery, Traditional American, Carry Out", "public_id": "jolly-joes-cafe-mableton", "id": 2949724, "votes": null, "tagline": null, "has_video": false, "website": null, "offers": null, "latitude": 33.81733, "politanName": "Atlanta, GA Metro ", "phone_number": "7709410484", "tags": [{"primary": false, "id": 1722, "name": "Restaurants"}, {"primary": false, "id": 11190, "name": "Traditional American"}, {"primary": false, "id": 11247, "name": "Carry Out"}, {"primary": true, "id": 11267, "name": "Food Delivery"}], "fax_number": null, "expansion": {"count": null, "uri": null}, "impression_id": "000b000000f3f9c387152f40b6aae85c52696ca350", "profile": "http://www.citysearch.com/profile/2949724/mableton_ga/jolly_joes_cafe.html", "address": {"city": "Mableton", "state": "GA", "street": "1153 Veterans Memorial Hwy SW", "postal_code": "30126"}, "capProviderId": null, "distance": null, "has_offers": false, "name": "Jolly Joes Cafe", "longitude": -84.588134, "has_menu": false, "awards": null, "user_review_count": 2}, {"business_operation_status": 1, "rating": null, "neighborhood": null, "image": null, "scorecard": null, "featured": false, "sample_categories": "Barbecue Restaurants", "public_id": "24-bbq-breakfast-llc-mableton", "id": 728055840, "votes": null, "tagline": null, "has_video": false, "website": null, "offers": null, "latitude": 33.783418, "politanName": "Atlanta, GA Metro ", "phone_number": "7704856433", "tags": [{"primary": true, "id": 1724, "name": "Barbecue Restaurants"}], "fax_number": null, "expansion": {"count": null, "uri": null}, "impression_id": "000b000000589f1257134248b69372fbc3f6ea7864", "profile": "http://www.citysearch.com/profile/728055840/mableton_ga/24_bbq_breakfast_llc.html", "address": {"city": "Mableton", "state": "GA", "street": "6960 Mableton Pkwy Se", "postal_code": "30126"}, "capProviderId": null, "distance": null, "has_offers": false, "name": "24 BBQ & Breakfast LLC", "longitude": -84.541117, "has_menu": false, "awards": null, "user_review_count": 0}, {"business_operation_status": 1, "rating": null, "neighborhood": null, "image": null, "scorecard": null, "featured": false, "sample_categories": "Restaurants, Bars & Clubs, Bars & Pubs", "public_id": "boomers-bar-grill-smyrna", "id": 764862000, "votes": null, "tagline": null, "has_video": false, "website": null, "offers": null, "latitude": 33.899075, "politanName": "Atlanta, GA Metro ", "phone_number": "7709569555", "tags": [{"primary": false, "id": 164, "name": "Bars & Clubs"}, {"primary": false, "id": 1686, "name": "Bars & Pubs"}, {"primary": true, "id": 1722, "name": "Restaurants"}], "fax_number": null, "expansion": {"count": null, "uri": null}, "impression_id": "000b0000008b5b61cc806d44599fd8ffa07ac4e59c", "profile": "http://www.citysearch.com/profile/764862000/smyrna_ga/boomer_s_bar_grill.html", "address": {"city": "Smyrna", "state": "GA", "street": "2105 S Cobb Dr SE", "postal_code": "30080"}, "capProviderId": null, "distance": null, "has_offers": false, "name": "Boomer's Bar & Grill", "longitude": -84.54028, "has_menu": false, "awards": null, "user_review_count": 0}, {"business_operation_status": 1, "rating": null, "neighborhood": null, "image": null, "scorecard": null, "featured": false, "sample_categories": "Restaurants", "public_id": "eat-smart-solutions-by-sldmstr-douglasville", "id": 787136440, "votes": null, "tagline": null, "has_video": false, "website": null, "offers": null, "latitude": 33.797877, "politanName": "Atlanta, GA Metro ", "phone_number": "7709477008", "tags": [{"primary": true, "id": 1722, "name": "Restaurants"}], "fax_number": null, "expansion": {"count": null, "uri": null}, "impression_id": "000b000000464c7aa7bb6c4e2ea3e66c9ad3a21122", "profile": "http://www.citysearch.com/profile/787136440/douglasville_ga/eat_smart_solutions_by_sldmstr.html", "address": {"city": "Douglasville", "state": "GA", "street": "14 Paradise Pointe", "postal_code": "30134"}, "capProviderId": null, "distance": null, "has_offers": false, "name": "Eat Smart Solutions By Sldmstr", "longitude": -84.778664, "has_menu": false, "awards": null, "user_review_count": 0}, {"business_operation_status": 1, "rating": null, "neighborhood": null, "image": null, "scorecard": null, "featured": false, "sample_categories": "Juice & Smoothie Shops, Vitamins", "public_id": "juice-plus-douglasville", "id": 821859010, "votes": null, "tagline": null, "has_video": false, "website": null, "offers": null, "latitude": 33.724983, "politanName": "Atlanta, GA Metro ", "phone_number": "4048805471", "tags": [{"primary": false, "id": 11164, "name": "Vitamins"}, {"primary": true, "id": 1735, "name": "Juice & Smoothie Shops"}], "fax_number": null, "expansion": {"count": null, "uri": null}, "impression_id": "000b0000009600a47a44c94bfabdc3057d0fc8df20", "profile": "http://www.citysearch.com/profile/821859010/douglasville_ga/juice_plus.html", "address": {"city": "Douglasville", "state": "GA", "street": "2959 Chapel Hill Rd", "postal_code": "30135"}, "capProviderId": null, "distance": null, "has_offers": false, "name": "Juice Plus", "longitude": -84.73576, "has_menu": false, "awards": null, "user_review_count": 0}, {"business_operation_status": 1, "rating": 8.0, "neighborhood": null, "image": null, "scorecard": null, "featured": false, "sample_categories": "Restaurants, Mexican", "public_id": "el-dorado-restaurant-marietta", "id": 2901664, "votes": null, "tagline": null, "has_video": false, "website": null, "offers": null, "latitude": 33.902097, "politanName": "Atlanta, GA Metro ", "phone_number": "7704347772", "tags": [{"primary": false, "id": 1722, "name": "Restaurants"}, {"primary": true, "id": 11208, "name": "Mexican"}], "fax_number": null, "expansion": {"count": null, "uri": null}, "impression_id": "000b0000002346b9c5365543e09148b8bdb4459273", "profile": "http://www.citysearch.com/profile/2901664/marietta_ga/el_dorado_restaurant.html", "address": {"city": "Marietta", "state": "GA", "street": "325 Pat Mell Rd SE", "postal_code": "30060"}, "capProviderId": null, "distance": null, "has_offers": false, "name": "El Dorado Restaurant", "longitude": -84.546463, "has_menu": true, "awards": null, "user_review_count": 0}, {"business_operation_status": 1, "rating": null, "neighborhood": null, "image": null, "scorecard": null, "featured": false, "sample_categories": "Restaurants", "public_id": "tropical-smoothie-cafe-smyrna", "id": 807164030, "votes": null, "tagline": null, "has_video": false, "website": null, "offers": null, "latitude": 33.884019, "politanName": "Atlanta, GA Metro ", "phone_number": "7704369980", "tags": [{"primary": true, "id": 1722, "name": "Restaurants"}], "fax_number": null, "expansion": {"count": null, "uri": null}, "impression_id": "000b00000064739da24ccc4fdf80d1e95bbbe954fb", "profile": "http://www.citysearch.com/profile/807164030/smyrna_ga/tropical_smoothie_cafe.html", "address": {"city": "Smyrna", "state": "GA", "street": "1265 W Spring St SE", "postal_code": "30080"}, "capProviderId": null, "distance": null, "has_offers": false, "name": "Tropical Smoothie Cafe", "longitude": -84.515924, "has_menu": false, "awards": null, "user_review_count": 0}, {"business_operation_status": 1, "rating": null, "neighborhood": null, "image": null, "scorecard": null, "featured": false, "sample_categories": "Restaurants", "public_id": "marietta-marietta-2", "id": 838727430, "votes": null, "tagline": null, "has_video": false, "website": null, "offers": null, "latitude": 33.924583, "politanName": "Atlanta, GA Metro ", "phone_number": "7705907388", "tags": [{"primary": true, "id": 1722, "name": "Restaurants"}], "fax_number": null, "expansion": {"count": null, "uri": null}, "impression_id": "000b000000ff6fe6e252f44ccaae4bdddbbace688c", "profile": "http://www.citysearch.com/profile/838727430/marietta_ga/marietta.html", "address": {"city": "Marietta", "state": "GA", "street": "1180 Powder Springs St", "postal_code": "30064"}, "capProviderId": null, "distance": null, "has_offers": false, "name": "Marietta", "longitude": -84.575231, "has_menu": false, "awards": null, "user_review_count": 0}, {"business_operation_status": 1, "rating": null, "neighborhood": null, "image": null, "scorecard": null, "featured": false, "sample_categories": "Restaurants", "public_id": "peppers-grill-bar-marietta", "id": 672240030, "votes": null, "tagline": null, "has_video": false, "website": null, "offers": null, "latitude": 33.865697, "politanName": "Atlanta, GA Metro ", "phone_number": "7704368181", "tags": [{"primary": true, "id": 1722, "name": "Restaurants"}], "fax_number": null, "expansion": {"count": null, "uri": null}, "impression_id": "000b00000049a3571422b04ef9bad54fd5cc2d05a5", "profile": "http://www.citysearch.com/profile/672240030/marietta_ga/pepper_s_grill_bar.html", "address": {"city": "Marietta", "state": "GA", "street": "3565 Austell Road SW", "postal_code": "30008"}, "capProviderId": null, "distance": null, "has_offers": false, "name": "Pepper's Grill & Bar", "longitude": -84.592502, "has_menu": false, "awards": null, "user_review_count": 1}, {"business_operation_status": 1, "rating": null, "neighborhood": null, "image": null, "scorecard": null, "featured": false, "sample_categories": "Restaurants, Chinese", "public_id": "panda-xpress-lithia", "id": 787089480, "votes": null, "tagline": null, "has_video": false, "website": null, "offers": null, "latitude": 33.793995, "politanName": "Atlanta, GA Metro ", "phone_number": "6782323124", "tags": [{"primary": false, "id": 11252, "name": "Chinese"}, {"primary": true, "id": 1722, "name": "Restaurants"}], "fax_number": null, "expansion": {"count": null, "uri": null}, "impression_id": "000b000000196343c1cae246dba6b4589ed2c4dffd", "profile": "http://www.citysearch.com/profile/787089480/lithia_springs_ga/panda_xpress.html", "address": {"city": "Lithia Springs", "state": "GA", "street": "Po Box 1365", "postal_code": "30122"}, "capProviderId": null, "distance": null, "has_offers": false, "name": "Panda Xpress", "longitude": -84.66049, "has_menu": false, "awards": null, "user_review_count": 0}, {"business_operation_status": 1, "rating": null, "neighborhood": null, "image": null, "scorecard": null, "featured": false, "sample_categories": "Restaurants", "public_id": "baileys-diner-powder", "id": 823022250, "votes": null, "tagline": null, "has_video": false, "website": null, "offers": null, "latitude": 33.85832, "politanName": "Atlanta, GA Metro ", "phone_number": "6783841220", "tags": [{"primary": true, "id": 1722, "name": "Restaurants"}], "fax_number": null, "expansion": {"count": null, "uri": null}, "impression_id": "000b0000008721e515e5f9484ca2eebdf0c417cdc4", "profile": "http://www.citysearch.com/profile/823022250/powder_springs_ga/bailey_s_diner.html", "address": {"city": "Powder Springs", "state": "GA", "street": "4093 Marietta St", "postal_code": "30127"}, "capProviderId": null, "distance": null, "has_offers": false, "name": "Bailey's Diner", "longitude": -84.67366, "has_menu": false, "awards": null, "user_review_count": 0}, {"business_operation_status": 1, "rating": null, "neighborhood": null, "image": null, "scorecard": null, "featured": false, "sample_categories": "Restaurants", "public_id": "kds-cafe-inc-powder", "id": 828806350, "votes": null, "tagline": null, "has_video": false, "website": null, "offers": null, "latitude": 33.842913, "politanName": "Atlanta, GA Metro ", "phone_number": "7709434912", "tags": [{"primary": true, "id": 1722, "name": "Restaurants"}], "fax_number": null, "expansion": {"count": null, "uri": null}, "impression_id": "000b00000059b5ee9ce96843adb1bb98c8be354bfe", "profile": "http://www.citysearch.com/profile/828806350/powder_springs_ga/kds_cafe_inc.html", "address": {"city": "Powder Springs", "state": "GA", "street": "4565 Ridgeview Dr", "postal_code": "30127"}, "capProviderId": null, "distance": null, "has_offers": false, "name": "Kds Cafe Inc", "longitude": -84.721382, "has_menu": false, "awards": null, "user_review_count": 0}, {"business_operation_status": 1, "rating": null, "neighborhood": null, "image": null, "scorecard": null, "featured": false, "sample_categories": "Ice Cream Parlors", "public_id": "smyrna-old-fashioned-ice-cream-smyrna", "id": 829274170, "votes": null, "tagline": null, "has_video": false, "website": null, "offers": null, "latitude": 33.8824, "politanName": "Atlanta, GA Metro ", "phone_number": "7704345560", "tags": [{"primary": true, "id": 1730, "name": "Ice Cream Parlors"}], "fax_number": null, "expansion": {"count": null, "uri": null}, "impression_id": "000b000000da292d4b24b744cbb633a13b0463cc22", "profile": "http://www.citysearch.com/profile/829274170/smyrna_ga/smyrna_old_fashioned_ice_cream.html", "address": {"city": "Smyrna", "state": "GA", "street": "885 Flagler Cir SE", "postal_code": "30080"}, "capProviderId": null, "distance": null, "has_offers": false, "name": "Smyrna Old Fashioned Ice Cream", "longitude": -84.527884, "has_menu": false, "awards": null, "user_review_count": 0}, {"business_operation_status": 1, "rating": null, "neighborhood": null, "image": null, "scorecard": null, "featured": false, "sample_categories": "Restaurants", "public_id": "el-tapatio-mableton", "id": 832623600, "votes": null, "tagline": null, "has_video": false, "website": null, "offers": null, "latitude": 33.823999, "politanName": "Atlanta, GA Metro ", "phone_number": "7707458920", "tags": [{"primary": true, "id": 1722, "name": "Restaurants"}], "fax_number": null, "expansion": {"count": null, "uri": null}, "impression_id": "000b000000866fc441076d4306b43aee41733cba58", "profile": "http://www.citysearch.com/profile/832623600/mableton_ga/el_tapatio.html", "address": {"city": "Mableton", "state": "GA", "street": "5345 Floyd Rd Sw", "postal_code": "30126"}, "capProviderId": null, "distance": null, "has_offers": false, "name": "El Tapatio", "longitude": -84.574687, "has_menu": true, "awards": null, "user_review_count": 0}, {"business_operation_status": 1, "rating": null, "neighborhood": null, "image": null, "scorecard": null, "featured": false, "sample_categories": "Restaurants", "public_id": "brikishani-enterprises-llc-marietta", "id": 732135290, "votes": null, "tagline": null, "has_video": false, "website": null, "offers": null, "latitude": 33.875537, "politanName": "Atlanta, GA Metro ", "phone_number": "6787990175", "tags": [{"primary": true, "id": 1722, "name": "Restaurants"}], "fax_number": null, "expansion": {"count": null, "uri": null}, "impression_id": "000b000000d79deda402f9405a8f5defa560ba76e9", "profile": "http://www.citysearch.com/profile/732135290/marietta_ga/brikishani_enterprises_llc.html", "address": {"city": "Marietta", "state": "GA", "street": "1727 Silverchase Dr SW", "postal_code": "30008"}, "capProviderId": null, "distance": null, "has_offers": false, "name": "Brikishani Enterprises LLC", "longitude": -84.605105, "has_menu": false, "awards": null, "user_review_count": 0}, {"business_operation_status": 1, "rating": null, "neighborhood": null, "image": null, "scorecard": null, "featured": false, "sample_categories": "Restaurants", "public_id": "underwood-enterprises-inc-mableton", "id": 732242390, "votes": null, "tagline": null, "has_video": false, "website": null, "offers": null, "latitude": 33.835202, "politanName": "Atlanta, GA Metro ", "phone_number": "7708238349", "tags": [{"primary": true, "id": 1722, "name": "Restaurants"}], "fax_number": null, "expansion": {"count": null, "uri": null}, "impression_id": "000b0000003618c302f21449929e2a15d4013432a7", "profile": "http://www.citysearch.com/profile/732242390/mableton_ga/underwood_enterprises_inc.html", "address": {"city": "Mableton", "state": "GA", "street": "4870 Floyd Rd SW # 30", "postal_code": "30126"}, "capProviderId": null, "distance": null, "has_offers": false, "name": "Underwood Enterprises Inc", "longitude": -84.576887, "has_menu": false, "awards": null, "user_review_count": 0}, {"business_operation_status": 1, "rating": null, "neighborhood": null, "image": null, "scorecard": null, "featured": false, "sample_categories": "Restaurants", "public_id": "pegasus-foods-inc-powder", "id": 732186320, "votes": null, "tagline": null, "has_video": false, "website": null, "offers": null, "latitude": 33.906794, "politanName": "Atlanta, GA Metro ", "phone_number": "7704391489", "tags": [{"primary": true, "id": 1722, "name": "Restaurants"}], "fax_number": null, "expansion": {"count": null, "uri": null}, "impression_id": "000b0000006a6a660811394ceba97df1ddd9cf8306", "profile": "http://www.citysearch.com/profile/732186320/powder_springs_ga/pegasus_foods_inc.html", "address": {"city": "Powder Springs", "state": "GA", "street": "3640 Velma Dr", "postal_code": "30127"}, "capProviderId": null, "distance": null, "has_offers": false, "name": "Pegasus Foods Inc", "longitude": -84.660285, "has_menu": false, "awards": null, "user_review_count": 0}], "histograms": [], "tag_ids": [1722], "uri": "http://api.citygridmedia.com:8080/search/places/v2/search/where?has_offers=false&type=restaurant&format=json&page=10&where=30106&rpp=50&histograms=false&publisher=10000009598&region_type=circle", "did_you_mean": "", "regions": [{"latitude": 33.836465, "default_radius": 3.78, "type": "postal_code", "name": "30106", "longitude": -84.627708}], "call_id": "000b000000c62bd5926ab242938894d236188d4ecc", "first_hit": 451, "total_hits": 761, "geo_ids": [26348], "page": 10, "last_hit": 500}}