{"results": {"rpp": 50, "locations": [{"business_operation_status": 1, "rating": null, "neighborhood": null, "image": null, "scorecard": null, "featured": false, "sample_categories": "Restaurants, Chinese", "public_id": "china-palace-douglasville", "id": 647322410, "votes": null, "tagline": null, "has_video": false, "website": null, "offers": null, "latitude": 33.706721, "politanName": "Atlanta, GA Metro ", "phone_number": "6788388118", "tags": [{"primary": false, "id": 11252, "name": "Chinese"}, {"primary": true, "id": 1722, "name": "Restaurants"}], "fax_number": null, "expansion": {"count": null, "uri": null}, "impression_id": "000b0000000b64ce0917f84f4b9445cab4c4ed5df0", "profile": "http://www.citysearch.com/profile/647322410/douglasville_ga/china_palace.html", "address": {"city": "Douglasville", "state": "GA", "street": "3697 Highway 5", "postal_code": "30135"}, "capProviderId": null, "distance": null, "has_offers": false, "name": "China Palace", "longitude": -84.7782, "has_menu": true, "awards": null, "user_review_count": 0}, {"business_operation_status": 1, "rating": null, "neighborhood": null, "image": null, "scorecard": null, "featured": false, "sample_categories": "Restaurants, Mexican", "public_id": "taco-bell-austell", "id": 622069590, "votes": null, "tagline": null, "has_video": false, "website": "http://www.citysearch.com/profile/external/622069590/austell_ga/taco_bell.html", "offers": null, "latitude": 33.778818, "politanName": "Atlanta, GA Metro ", "phone_number": "7707398676", "tags": [{"primary": false, "id": 11208, "name": "Mexican"}, {"primary": true, "id": 1722, "name": "Restaurants"}], "fax_number": null, "expansion": {"count": null, "uri": null}, "impression_id": "000b0000004748936bc7284a719732cae4aac5ff32", "profile": "http://www.citysearch.com/profile/622069590/austell_ga/taco_bell.html", "address": {"city": "Austell", "state": "GA", "street": "987 Thorton Rd", "postal_code": "30168"}, "capProviderId": null, "distance": null, "has_offers": false, "name": "Taco Bell", "longitude": -84.60743, "has_menu": false, "awards": null, "user_review_count": 0}, {"business_operation_status": 1, "rating": null, "neighborhood": null, "image": null, "scorecard": null, "featured": false, "sample_categories": "Restaurants", "public_id": "peldng-garden-restaurant-smyrna", "id": 713430280, "votes": null, "tagline": null, "has_video": false, "website": null, "offers": null, "latitude": 33.891107, "politanName": "Atlanta, GA Metro ", "phone_number": "7704324048", "tags": [{"primary": true, "id": 1722, "name": "Restaurants"}], "fax_number": null, "expansion": {"count": null, "uri": null}, "impression_id": "000b0000007f328761573745289eb61bdb92516bd1", "profile": "http://www.citysearch.com/profile/713430280/smyrna_ga/peldng_garden_restaurant.html", "address": {"city": "Smyrna", "state": "GA", "street": "2526 S Cobb Dr Se", "postal_code": "30080"}, "capProviderId": null, "distance": null, "has_offers": false, "name": "Peldng Garden Restaurant", "longitude": -84.537851, "has_menu": false, "awards": null, "user_review_count": 0}, {"business_operation_status": 1, "rating": null, "neighborhood": null, "image": null, "scorecard": null, "featured": false, "sample_categories": "Barbecue Restaurants, Restaurants", "public_id": "off-the-bone-bbq-powder-spg", "id": 691217520, "votes": null, "tagline": null, "has_video": false, "website": null, "offers": null, "latitude": 33.846609, "politanName": "Atlanta, GA Metro ", "phone_number": "6785675996", "tags": [{"primary": false, "id": 1722, "name": "Restaurants"}, {"primary": true, "id": 1724, "name": "Barbecue Restaurants"}], "fax_number": null, "expansion": {"count": null, "uri": null}, "impression_id": "000b000000a8c3adf8886a4cff9aa0e7adfc869c1c", "profile": "http://www.citysearch.com/profile/691217520/powder_springs_ga/off_the_bone_bbq.html", "address": {"city": "Powder Springs", "state": "GA", "street": "4400 Brownsville Rd", "postal_code": "30127"}, "capProviderId": null, "distance": null, "has_offers": false, "name": "Off The Bone BBQ", "longitude": -84.699113, "has_menu": false, "awards": null, "user_review_count": 0}, {"business_operation_status": 1, "rating": null, "neighborhood": null, "image": null, "scorecard": null, "featured": false, "sample_categories": "Restaurants", "public_id": "nashville-restaurant-mgmt-smyrna", "id": 713616520, "votes": null, "tagline": null, "has_video": false, "website": null, "offers": null, "latitude": 33.871625, "politanName": "Atlanta, GA Metro ", "phone_number": "7704389400", "tags": [{"primary": true, "id": 1722, "name": "Restaurants"}], "fax_number": null, "expansion": {"count": null, "uri": null}, "impression_id": "000b000000f83869389a834505b0033a6c71d4960f", "profile": "http://www.citysearch.com/profile/713616520/smyrna_ga/nashville_restaurant_mgmt.html", "address": {"city": "Smyrna", "state": "GA", "street": "3350 S Cobb Dr Se", "postal_code": "30080"}, "capProviderId": null, "distance": null, "has_offers": false, "name": "Nashville Restaurant Mgmt", "longitude": -84.528763, "has_menu": false, "awards": null, "user_review_count": 0}, {"business_operation_status": 1, "rating": null, "neighborhood": null, "image": null, "scorecard": null, "featured": false, "sample_categories": "Restaurants", "public_id": "borber-restaurant-hiram", "id": 732143050, "votes": null, "tagline": null, "has_video": false, "website": null, "offers": null, "latitude": 33.876664, "politanName": "Atlanta, GA Metro ", "phone_number": "7707785401", "tags": [{"primary": true, "id": 1722, "name": "Restaurants"}], "fax_number": null, "expansion": {"count": null, "uri": null}, "impression_id": "000b00000056cf2999464441aab9b22a96f47d8383", "profile": "http://www.citysearch.com/profile/732143050/hiram_ga/borber_restaurant.html", "address": {"city": "Hiram", "state": "GA", "street": "25 Travelers Path", "postal_code": "30141"}, "capProviderId": null, "distance": null, "has_offers": false, "name": "Borber Restaurant", "longitude": -84.73037, "has_menu": false, "awards": null, "user_review_count": 0}, {"business_operation_status": 1, "rating": null, "neighborhood": null, "image": null, "scorecard": null, "featured": false, "sample_categories": "Restaurants, Bars & Pubs", "public_id": "coney-island-sports-bar-gril-mableton", "id": 764843230, "votes": null, "tagline": null, "has_video": false, "website": null, "offers": null, "latitude": 33.791516, "politanName": "Atlanta, GA Metro ", "phone_number": "7709447775", "tags": [{"primary": false, "id": 1686, "name": "Bars & Pubs"}, {"primary": true, "id": 1722, "name": "Restaurants"}], "fax_number": null, "expansion": {"count": null, "uri": null}, "impression_id": "000b000000d660268f7e8244dc80bb34716f4a7b5c", "profile": "http://www.citysearch.com/profile/764843230/mableton_ga/coney_island_sports_bar_gril.html", "address": {"city": "Mableton", "state": "GA", "street": "6037 Mableton Pkwy SE", "postal_code": "30126"}, "capProviderId": null, "distance": null, "has_offers": false, "name": "Coney Island Sports Bar & Gril", "longitude": -84.555393, "has_menu": false, "awards": null, "user_review_count": 0}, {"business_operation_status": 1, "rating": null, "neighborhood": null, "image": null, "scorecard": null, "featured": false, "sample_categories": "Restaurants, Delis And Delicatessens, Sandwich Shops, Carry Out", "public_id": "subway-marietta-47", "id": 713567500, "votes": null, "tagline": null, "has_video": false, "website": "http://www.citysearch.com/profile/external/713567500/marietta_ga/subway.html", "offers": null, "latitude": 33.882452, "politanName": "Atlanta, GA Metro ", "phone_number": "7704365640", "tags": [{"primary": false, "id": 1727, "name": "Delis And Delicatessens"}, {"primary": false, "id": 1736, "name": "Sandwich Shops"}, {"primary": false, "id": 11247, "name": "Carry Out"}, {"primary": true, "id": 1722, "name": "Restaurants"}], "fax_number": null, "expansion": {"count": null, "uri": null}, "impression_id": "000b000000ce8096e123ee487ab36c6e500d1ec595", "profile": "http://www.citysearch.com/profile/713567500/marietta_ga/subway.html", "address": {"city": "Marietta", "state": "GA", "street": "2909 Austell Rd Sw # 114", "postal_code": "30008"}, "capProviderId": null, "distance": null, "has_offers": false, "name": "SUBWAY", "longitude": -84.58798, "has_menu": false, "awards": null, "user_review_count": 0}, {"business_operation_status": 1, "rating": null, "neighborhood": null, "image": null, "scorecard": null, "featured": false, "sample_categories": "Ice Cream Parlors, Restaurants, Dessert Shops, Information & Referral Services", "public_id": "noels-ice-cream-smyrna", "id": 2924493, "votes": null, "tagline": null, "has_video": false, "website": null, "offers": null, "latitude": 33.867003, "politanName": "Atlanta, GA Metro ", "phone_number": "7703330515", "tags": [{"primary": false, "id": 1722, "name": "Restaurants"}, {"primary": false, "id": 1728, "name": "Dessert Shops"}, {"primary": false, "id": 624, "name": "Information & Referral Services"}, {"primary": true, "id": 1730, "name": "Ice Cream Parlors"}], "fax_number": null, "expansion": {"count": null, "uri": null}, "impression_id": "000b0000008f1db5eb62ea478f9ecfe5664d3116cd", "profile": "http://www.citysearch.com/profile/2924493/smyrna_ga/noels_ice_cream.html", "address": {"city": "Smyrna", "state": "GA", "street": "3539 Westbrook Dr SE", "postal_code": "30082"}, "capProviderId": null, "distance": null, "has_offers": false, "name": "Noels Ice Cream", "longitude": -84.526611, "has_menu": false, "awards": null, "user_review_count": 1}, {"business_operation_status": 1, "rating": null, "neighborhood": null, "image": null, "scorecard": null, "featured": false, "sample_categories": "Restaurants", "public_id": "suze-powder-spgs", "id": 672949260, "votes": null, "tagline": null, "has_video": false, "website": null, "offers": null, "latitude": 33.859549, "politanName": "Atlanta, GA Metro ", "phone_number": "2143506135", "tags": [{"primary": true, "id": 1722, "name": "Restaurants"}], "fax_number": null, "expansion": {"count": null, "uri": null}, "impression_id": "000b000000aff100c12c5643b0a4d6d5ce87a86d47", "profile": "http://www.citysearch.com/profile/672949260/powder_springs_ga/suze.html", "address": {"city": "Powder Springs", "state": "GA", "street": "4535Northwest Hwy", "postal_code": "30127"}, "capProviderId": null, "distance": null, "has_offers": false, "name": "Suze", "longitude": -84.683824, "has_menu": false, "awards": null, "user_review_count": 0}, {"business_operation_status": 1, "rating": null, "neighborhood": null, "image": null, "scorecard": null, "featured": false, "sample_categories": "Restaurants, Carry Out, Pizza", "public_id": "sbarro-smyrna-2", "id": 682322420, "votes": null, "tagline": null, "has_video": false, "website": "http://www.citysearch.com/profile/external/682322420/smyrna_ga/sbarro.html", "offers": null, "latitude": 33.87774, "politanName": "Atlanta, GA Metro ", "phone_number": "7704443994", "tags": [{"primary": false, "id": 11247, "name": "Carry Out"}, {"primary": false, "id": 11299, "name": "Pizza"}, {"primary": true, "id": 1722, "name": "Restaurants"}], "fax_number": null, "expansion": {"count": null, "uri": null}, "impression_id": "000b000000906aed8de04743df9d1b8246618953b6", "profile": "http://www.citysearch.com/profile/682322420/smyrna_ga/sbarro.html", "address": {"city": "Smyrna", "state": "GA", "street": "3030 Montclair Cir Se", "postal_code": "30080"}, "capProviderId": null, "distance": null, "has_offers": false, "name": "Sbarro", "longitude": -84.508306, "has_menu": false, "awards": null, "user_review_count": 0}, {"business_operation_status": 1, "rating": null, "neighborhood": null, "image": null, "scorecard": null, "featured": false, "sample_categories": "Restaurants", "public_id": "fad-restaurant-marietta", "id": 682613120, "votes": null, "tagline": null, "has_video": false, "website": null, "offers": null, "latitude": 33.865697, "politanName": "Atlanta, GA Metro ", "phone_number": "7704318505", "tags": [{"primary": true, "id": 1722, "name": "Restaurants"}], "fax_number": null, "expansion": {"count": null, "uri": null}, "impression_id": "000b000000e612dc9241484a0c8062978cfaa3ce19", "profile": "http://www.citysearch.com/profile/682613120/marietta_ga/fad_restaurant.html", "address": {"city": "Marietta", "state": "GA", "street": "3565 Austell Rd Sw # 1061", "postal_code": "30008"}, "capProviderId": null, "distance": null, "has_offers": false, "name": "Fad Restaurant", "longitude": -84.592502, "has_menu": false, "awards": null, "user_review_count": 0}, {"business_operation_status": 1, "rating": null, "neighborhood": null, "image": null, "scorecard": null, "featured": false, "sample_categories": "Restaurants, Barbecue Restaurants", "public_id": "staqs-bar-b-que-smyrna", "id": 647325040, "votes": null, "tagline": null, "has_video": false, "website": null, "offers": null, "latitude": 33.890026, "politanName": "Atlanta, GA Metro ", "phone_number": "7704384301", "tags": [{"primary": false, "id": 1724, "name": "Barbecue Restaurants"}, {"primary": true, "id": 1722, "name": "Restaurants"}], "fax_number": null, "expansion": {"count": null, "uri": null}, "impression_id": "000b0000004e5ae06418404c3ea198a31ab654f776", "profile": "http://www.citysearch.com/profile/647325040/smyrna_ga/staqs_bar_b_que.html", "address": {"city": "Smyrna", "state": "GA", "street": "2599 S Cobb Dr Se", "postal_code": "30080"}, "capProviderId": null, "distance": null, "has_offers": false, "name": "Staqs Bar B Que", "longitude": -84.536726, "has_menu": true, "awards": null, "user_review_count": 0}, {"business_operation_status": 1, "rating": null, "neighborhood": null, "image": null, "scorecard": null, "featured": false, "sample_categories": "Restaurants, Delis And Delicatessens", "public_id": "best-wings-deli-douglasville-2", "id": 728017940, "votes": null, "tagline": null, "has_video": false, "website": null, "offers": null, "latitude": 33.747372, "politanName": "Atlanta, GA Metro ", "phone_number": "7709477809", "tags": [{"primary": false, "id": 1727, "name": "Delis And Delicatessens"}, {"primary": true, "id": 1722, "name": "Restaurants"}], "fax_number": null, "expansion": {"count": null, "uri": null}, "impression_id": "000b000000ae18e097681e4e619630790672c0e133", "profile": "http://www.citysearch.com/profile/728017940/douglasville_ga/best_wings_deli.html", "address": {"city": "Douglasville", "state": "GA", "street": "2134 Fairburn Rd", "postal_code": "30135"}, "capProviderId": null, "distance": null, "has_offers": false, "name": "Best Wings & Deli", "longitude": -84.699929, "has_menu": false, "awards": null, "user_review_count": 0}, {"business_operation_status": 1, "rating": null, "neighborhood": null, "image": null, "scorecard": null, "featured": false, "sample_categories": "Restaurants, Caribbean", "public_id": "caribbean-cafe-dallas", "id": 732148300, "votes": null, "tagline": null, "has_video": false, "website": null, "offers": null, "latitude": 33.909628, "politanName": "Atlanta, GA Metro ", "phone_number": "7702228844", "tags": [{"primary": false, "id": 11195, "name": "Caribbean"}, {"primary": true, "id": 1722, "name": "Restaurants"}], "fax_number": null, "expansion": {"count": null, "uri": null}, "impression_id": "000b00000014d865bf3c6949119055ae49734c0147", "profile": "http://www.citysearch.com/profile/732148300/dallas_ga/caribbean_cafe.html", "address": {"city": "Dallas", "state": "GA", "street": "1336 Hiram Acworth Hwy", "postal_code": "30157"}, "capProviderId": null, "distance": null, "has_offers": false, "name": "Caribbean Cafe", "longitude": -84.746817, "has_menu": false, "awards": null, "user_review_count": 0}, {"business_operation_status": 1, "rating": null, "neighborhood": null, "image": null, "scorecard": null, "featured": false, "sample_categories": "Restaurants, Carry Out, Chicken", "public_id": "churchs-chicken-lithia", "id": 757951440, "votes": null, "tagline": null, "has_video": false, "website": "http://www.citysearch.com/profile/external/757951440/lithia_springs_ga/church_s_chicken.html", "offers": null, "latitude": 33.790275, "politanName": "Atlanta, GA Metro ", "phone_number": "7709416077", "tags": [{"primary": false, "id": 11247, "name": "Carry Out"}, {"primary": false, "id": 12839, "name": "Chicken"}, {"primary": true, "id": 1722, "name": "Restaurants"}], "fax_number": null, "expansion": {"count": null, "uri": null}, "impression_id": "000b000000dce68666025b4ae4976206d11f3b58cd", "profile": "http://www.citysearch.com/profile/757951440/lithia_springs_ga/church_s_chicken.html", "address": {"city": "Lithia Springs", "state": "GA", "street": "570 Thornton Rd", "postal_code": "30122"}, "capProviderId": null, "distance": null, "has_offers": false, "name": "Church's Chicken", "longitude": -84.623974, "has_menu": false, "awards": null, "user_review_count": 0}, {"business_operation_status": 1, "rating": null, "neighborhood": null, "image": null, "scorecard": null, "featured": false, "sample_categories": "Restaurants, Pizza", "public_id": "marios-ny-pizza-smyrna", "id": 764838040, "votes": null, "tagline": null, "has_video": false, "website": null, "offers": null, "latitude": 33.883027, "politanName": "Atlanta, GA Metro ", "phone_number": "7704379199", "tags": [{"primary": false, "id": 11299, "name": "Pizza"}, {"primary": true, "id": 1722, "name": "Restaurants"}], "fax_number": null, "expansion": {"count": null, "uri": null}, "impression_id": "000b000000cb311457346f45ada30d5e4b4580bf5e", "profile": "http://www.citysearch.com/profile/764838040/smyrna_ga/marios_ny_pizza.html", "address": {"city": "Smyrna", "state": "GA", "street": "2930 S Cobb Dr SE", "postal_code": "30080"}, "capProviderId": null, "distance": null, "has_offers": false, "name": "Marios Ny Pizza", "longitude": -84.534643, "has_menu": false, "awards": null, "user_review_count": 0}, {"business_operation_status": 1, "rating": null, "neighborhood": null, "image": null, "scorecard": null, "featured": false, "sample_categories": "Restaurants", "public_id": "atlwest-mariett-marietta", "id": 787106980, "votes": null, "tagline": null, "has_video": false, "website": null, "offers": null, "latitude": 33.944719, "politanName": "Atlanta, GA Metro ", "phone_number": "7707927933", "tags": [{"primary": true, "id": 1722, "name": "Restaurants"}], "fax_number": null, "expansion": {"count": null, "uri": null}, "impression_id": "000b000000f63d8476725245589500329a899326c0", "profile": "http://www.citysearch.com/profile/787106980/marietta_ga/atl_west_mariett.html", "address": {"city": "Marietta", "state": "GA", "street": "2535 Dallas Hwy Sw", "postal_code": "30064"}, "capProviderId": null, "distance": null, "has_offers": false, "name": "Atl-West Mariett", "longitude": -84.625194, "has_menu": false, "awards": null, "user_review_count": 0}, {"business_operation_status": 1, "rating": null, "neighborhood": null, "image": null, "scorecard": null, "featured": false, "sample_categories": "Restaurants, Chinese, American Express, Discover, MasterCard", "public_id": "china-sun-restaurant-marietta", "id": 2906495, "votes": null, "tagline": null, "has_video": false, "website": null, "offers": null, "latitude": 33.926201, "politanName": "Atlanta, GA Metro ", "phone_number": "7704268780", "tags": [{"primary": false, "id": 11252, "name": "Chinese"}, {"primary": false, "id": 11333, "name": "American Express"}, {"primary": false, "id": 11349, "name": "Discover"}, {"primary": false, "id": 11361, "name": "MasterCard"}, {"primary": false, "id": 11382, "name": "Visa"}, {"primary": true, "id": 1722, "name": "Restaurants"}], "fax_number": null, "expansion": {"count": null, "uri": null}, "impression_id": "000b000000a35b21670e124a789fd016861fee6f6a", "profile": "http://www.citysearch.com/profile/2906495/marietta_ga/china_sun_restaurant.html", "address": {"city": "Marietta", "state": "GA", "street": "1150 Powder Springs St Ste 20", "postal_code": "30064"}, "capProviderId": null, "distance": null, "has_offers": false, "name": "China Sun Restaurant", "longitude": -84.574094, "has_menu": false, "awards": null, "user_review_count": 1}, {"business_operation_status": 0, "rating": null, "neighborhood": null, "image": null, "scorecard": null, "featured": false, "sample_categories": "Restaurants, Chinese", "public_id": "shanghai-chinese-restaurant-powder", "id": 777776470, "votes": null, "tagline": null, "has_video": false, "website": null, "offers": null, "latitude": 33.874992, "politanName": "Atlanta, GA Metro ", "phone_number": "7704395868", "tags": [{"primary": false, "id": 11252, "name": "Chinese"}, {"primary": true, "id": 1722, "name": "Restaurants"}], "fax_number": null, "expansion": {"count": null, "uri": null}, "impression_id": "000b0000001aacac07ec7c43629b7812c0d98a38b8", "profile": "http://www.citysearch.com/profile/777776470/powder_springs_ga/shanghai_chinese_restaurant.html", "address": {"city": "Powder Springs", "state": "GA", "street": "3219 New Macland Rd", "postal_code": "30127"}, "capProviderId": null, "distance": null, "has_offers": false, "name": "Shanghai Chinese Restaurant", "longitude": -84.676289, "has_menu": true, "awards": null, "user_review_count": 2}, {"business_operation_status": 1, "rating": null, "neighborhood": null, "image": null, "scorecard": null, "featured": false, "sample_categories": "Restaurants, Carry Out, Chicken", "public_id": "popeyes-chicken-biscuits-lithia", "id": 773419390, "votes": null, "tagline": null, "has_video": false, "website": "http://www.citysearch.com/profile/external/773419390/lithia_springs_ga/popeye_s_chicken_biscuits.html", "offers": null, "latitude": 33.789316, "politanName": "Atlanta, GA Metro ", "phone_number": "7709440898", "tags": [{"primary": false, "id": 11247, "name": "Carry Out"}, {"primary": false, "id": 12839, "name": "Chicken"}, {"primary": true, "id": 1722, "name": "Restaurants"}], "fax_number": null, "expansion": {"count": null, "uri": null}, "impression_id": "000b0000001c288d5458f942d58367db344479332d", "profile": "http://www.citysearch.com/profile/773419390/lithia_springs_ga/popeye_s_chicken_biscuits.html", "address": {"city": "Lithia Springs", "state": "GA", "street": "608 Thornton Rd", "postal_code": "30122"}, "capProviderId": null, "distance": null, "has_offers": false, "name": "Popeye's Chicken & Biscuits", "longitude": -84.621752, "has_menu": false, "awards": null, "user_review_count": 0}, {"business_operation_status": 1, "rating": null, "neighborhood": null, "image": null, "scorecard": null, "featured": false, "sample_categories": "Restaurants, Chinese", "public_id": "beijing-lithia", "id": 793324500, "votes": null, "tagline": null, "has_video": false, "website": null, "offers": null, "latitude": 33.76865, "politanName": "Atlanta, GA Metro ", "phone_number": "7707329999", "tags": [{"primary": false, "id": 11252, "name": "Chinese"}, {"primary": true, "id": 1722, "name": "Restaurants"}], "fax_number": null, "expansion": {"count": null, "uri": null}, "impression_id": "000b000000d972546bfd484d85bd920e3e152c80c9", "profile": "http://www.citysearch.com/profile/793324500/lithia_springs_ga/beijing.html", "address": {"city": "Lithia Springs", "state": "GA", "street": "100 Interstate West Pkwy", "postal_code": "30122"}, "capProviderId": null, "distance": null, "has_offers": false, "name": "Beijing", "longitude": -84.599743, "has_menu": false, "awards": null, "user_review_count": 0}, {"business_operation_status": 1, "rating": null, "neighborhood": null, "image": null, "scorecard": null, "featured": false, "sample_categories": "Restaurants", "public_id": "chili-llc-douglasville", "id": 809001270, "votes": null, "tagline": null, "has_video": false, "website": null, "offers": null, "latitude": 33.695226, "politanName": "Atlanta, GA Metro ", "phone_number": "6787153443", "tags": [{"primary": true, "id": 1722, "name": "Restaurants"}], "fax_number": null, "expansion": {"count": null, "uri": null}, "impression_id": "000b0000005f394b4bd3824639bd7af53e65648508", "profile": "http://www.citysearch.com/profile/809001270/douglasville_ga/chili_llc.html", "address": {"city": "Douglasville", "state": "GA", "street": "3811 Highway 166", "postal_code": "30135"}, "capProviderId": null, "distance": null, "has_offers": false, "name": "Chili LLC", "longitude": -84.665579, "has_menu": false, "awards": null, "user_review_count": 0}, {"business_operation_status": 1, "rating": null, "neighborhood": null, "image": null, "scorecard": null, "featured": false, "sample_categories": "Restaurants", "public_id": "playing-field-powder", "id": 821625510, "votes": null, "tagline": null, "has_video": false, "website": null, "offers": null, "latitude": 33.85832, "politanName": "Atlanta, GA Metro ", "phone_number": "7702226478", "tags": [{"primary": true, "id": 1722, "name": "Restaurants"}], "fax_number": null, "expansion": {"count": null, "uri": null}, "impression_id": "000b00000092dc8c1afef440e8b58c06e1167d65f7", "profile": "http://www.citysearch.com/profile/821625510/powder_springs_ga/playing_field.html", "address": {"city": "Powder Springs", "state": "GA", "street": "4093 Marietta St # C", "postal_code": "30127"}, "capProviderId": null, "distance": null, "has_offers": false, "name": "Playing Field", "longitude": -84.67366, "has_menu": false, "awards": null, "user_review_count": 0}, {"business_operation_status": 1, "rating": null, "neighborhood": null, "image": null, "scorecard": null, "featured": false, "sample_categories": "Restaurants, Pizza", "public_id": "ultimate-pizzeria-powder", "id": 819270680, "votes": null, "tagline": null, "has_video": false, "website": null, "offers": null, "latitude": 33.846609, "politanName": "Atlanta, GA Metro ", "phone_number": "7704391169", "tags": [{"primary": false, "id": 1722, "name": "Restaurants"}, {"primary": true, "id": 11299, "name": "Pizza"}], "fax_number": null, "expansion": {"count": null, "uri": null}, "impression_id": "000b0000004b13ebc32dcd4a8f8319a0d8424b0e37", "profile": "http://www.citysearch.com/profile/819270680/powder_springs_ga/ultimate_pizzeria.html", "address": {"city": "Powder Springs", "state": "GA", "street": "4400 Brownsville Rd", "postal_code": "30127"}, "capProviderId": null, "distance": null, "has_offers": false, "name": "Ultimate Pizzeria", "longitude": -84.699113, "has_menu": false, "awards": null, "user_review_count": 0}, {"business_operation_status": 1, "rating": null, "neighborhood": null, "image": null, "scorecard": null, "featured": false, "sample_categories": "Restaurants, Pizza", "public_id": "jimmys-pizza-marietta", "id": 822422560, "votes": null, "tagline": null, "has_video": false, "website": null, "offers": null, "latitude": 33.901926, "politanName": "Atlanta, GA Metro ", "phone_number": "7704357664", "tags": [{"primary": false, "id": 1722, "name": "Restaurants"}, {"primary": true, "id": 11299, "name": "Pizza"}], "fax_number": null, "expansion": {"count": null, "uri": null}, "impression_id": "000b000000aecd78e1aa2e46698d996f8f9180cd25", "profile": "http://www.citysearch.com/profile/822422560/marietta_ga/jimmy_s_pizza.html", "address": {"city": "Marietta", "state": "GA", "street": "495 Pat Mell Rd SW # 104", "postal_code": "30060"}, "capProviderId": null, "distance": null, "has_offers": false, "name": "Jimmy's Pizza", "longitude": -84.567429, "has_menu": false, "awards": null, "user_review_count": 0}, {"business_operation_status": 1, "rating": null, "neighborhood": null, "image": null, "scorecard": null, "featured": false, "sample_categories": "Restaurants", "public_id": "hong-kong-city-buffet-douglasville", "id": 815115460, "votes": null, "tagline": null, "has_video": false, "website": null, "offers": null, "latitude": 33.751118, "politanName": "Atlanta, GA Metro ", "phone_number": "7705777760", "tags": [{"primary": true, "id": 1722, "name": "Restaurants"}], "fax_number": null, "expansion": {"count": null, "uri": null}, "impression_id": "000b0000008b29a4ee52a4464cb4248438cb9150d5", "profile": "http://www.citysearch.com/profile/815115460/douglasville_ga/hong_kong_city_buffet.html", "address": {"city": "Douglasville", "state": "GA", "street": "5864 Fairburn Rd", "postal_code": "30134"}, "capProviderId": null, "distance": null, "has_offers": false, "name": "Hong Kong City Buffet", "longitude": -84.72622, "has_menu": false, "awards": null, "user_review_count": 0}, {"business_operation_status": 1, "rating": null, "neighborhood": null, "image": null, "scorecard": null, "featured": false, "sample_categories": "Restaurants, Carry Out", "public_id": "waffle-house-lithia", "id": 832999140, "votes": null, "tagline": null, "has_video": false, "website": "http://www.citysearch.com/profile/external/832999140/lithia_springs_ga/waffle_house.html", "offers": null, "latitude": 33.766845, "politanName": "Atlanta, GA Metro ", "phone_number": "7709446713", "tags": [{"primary": false, "id": 11247, "name": "Carry Out"}, {"primary": true, "id": 1722, "name": "Restaurants"}], "fax_number": null, "expansion": {"count": null, "uri": null}, "impression_id": "000b000000c2ff3aa416cd484fad5bce8053d5845a", "profile": "http://www.citysearch.com/profile/832999140/lithia_springs_ga/waffle_house.html", "address": {"city": "Lithia Springs", "state": "GA", "street": "1371 Lee Rd", "postal_code": "30122"}, "capProviderId": null, "distance": null, "has_offers": false, "name": "Waffle House", "longitude": -84.651868, "has_menu": true, "awards": null, "user_review_count": 0}, {"business_operation_status": 1, "rating": null, "neighborhood": null, "image": null, "scorecard": null, "featured": false, "sample_categories": "Restaurants", "public_id": "bandido-wings-marietta", "id": 838396080, "votes": null, "tagline": null, "has_video": false, "website": null, "offers": null, "latitude": 33.902517, "politanName": "Atlanta, GA Metro ", "phone_number": "7706528890", "tags": [{"primary": true, "id": 1722, "name": "Restaurants"}], "fax_number": null, "expansion": {"count": null, "uri": null}, "impression_id": "000b0000008fcefbccf1e144548d641965c76311e8", "profile": "http://www.citysearch.com/profile/838396080/marietta_ga/bandido_wings.html", "address": {"city": "Marietta", "state": "GA", "street": "371 Pat Mell Rd SE # 137", "postal_code": "30060"}, "capProviderId": null, "distance": null, "has_offers": false, "name": "Bandido Wings", "longitude": -84.543334, "has_menu": false, "awards": null, "user_review_count": 0}, {"business_operation_status": 1, "rating": null, "neighborhood": null, "image": null, "scorecard": null, "featured": false, "sample_categories": "Restaurants", "public_id": "el-caribe-restaurant-mableton", "id": 790752020, "votes": null, "tagline": null, "has_video": false, "website": null, "offers": null, "latitude": 33.818318, "politanName": "Atlanta, GA Metro ", "phone_number": "7709447982", "tags": [{"primary": true, "id": 1722, "name": "Restaurants"}], "fax_number": null, "expansion": {"count": null, "uri": null}, "impression_id": "000b000000e3d3f439be754166b651bd5c790fded2", "profile": "http://www.citysearch.com/profile/790752020/mableton_ga/el_caribe_restaurant.html", "address": {"city": "Mableton", "state": "GA", "street": "679 Veterans Memorial Hwy Sw", "postal_code": "30126"}, "capProviderId": null, "distance": null, "has_offers": false, "name": "El Caribe Restaurant", "longitude": -84.574544, "has_menu": false, "awards": null, "user_review_count": 0}, {"business_operation_status": 1, "rating": null, "neighborhood": null, "image": null, "scorecard": null, "featured": false, "sample_categories": "Restaurants", "public_id": "pink-camel-douglasville", "id": 798852890, "votes": null, "tagline": null, "has_video": false, "website": null, "offers": null, "latitude": 33.689438, "politanName": "Atlanta, GA Metro ", "phone_number": "7709499222", "tags": [{"primary": true, "id": 1722, "name": "Restaurants"}], "fax_number": null, "expansion": {"count": null, "uri": null}, "impression_id": "000b0000005257f7aa50c84016985e3bb10b0a54ca", "profile": "http://www.citysearch.com/profile/798852890/douglasville_ga/pink_camel.html", "address": {"city": "Douglasville", "state": "GA", "street": "3756 Chisel Ct", "postal_code": "30135"}, "capProviderId": null, "distance": null, "has_offers": false, "name": "Pink Camel", "longitude": -84.697858, "has_menu": false, "awards": null, "user_review_count": 0}, {"business_operation_status": 1, "rating": null, "neighborhood": null, "image": null, "scorecard": null, "featured": false, "sample_categories": "Restaurants", "public_id": "puras-portas-corporate-office-austell", "id": 819677350, "votes": null, "tagline": null, "has_video": false, "website": null, "offers": null, "latitude": 33.785267, "politanName": "Atlanta, GA Metro ", "phone_number": "7709485711", "tags": [{"primary": true, "id": 1722, "name": "Restaurants"}], "fax_number": null, "expansion": {"count": null, "uri": null}, "impression_id": "000b00000046b81755bf9d405088b8f713462c379d", "profile": "http://www.citysearch.com/profile/819677350/austell_ga/puras_portas_corporate_office.html", "address": {"city": "Austell", "state": "GA", "street": "6955 Oak Ridge Pkwy", "postal_code": "30168"}, "capProviderId": null, "distance": null, "has_offers": false, "name": "Puras Portas Corporate Office", "longitude": -84.607051, "has_menu": false, "awards": null, "user_review_count": 0}, {"business_operation_status": 1, "rating": null, "neighborhood": null, "image": null, "scorecard": null, "featured": false, "sample_categories": "Restaurants", "public_id": "beaver-creek-mableton", "id": 820805410, "votes": null, "tagline": null, "has_video": false, "website": null, "offers": null, "latitude": 33.81695, "politanName": "Atlanta, GA Metro ", "phone_number": "7709489451", "tags": [{"primary": true, "id": 1722, "name": "Restaurants"}], "fax_number": null, "expansion": {"count": null, "uri": null}, "impression_id": "000b0000009581d08da44e4525b1f526db5ac93c68", "profile": "http://www.citysearch.com/profile/820805410/mableton_ga/beaver_creek.html", "address": {"city": "Mableton", "state": "GA", "street": "499 Veterans Memorial Hwy SW", "postal_code": "30126"}, "capProviderId": null, "distance": null, "has_offers": false, "name": "Beaver Creek", "longitude": -84.568566, "has_menu": false, "awards": null, "user_review_count": 0}, {"business_operation_status": 1, "rating": null, "neighborhood": null, "image": null, "scorecard": null, "featured": false, "sample_categories": "Restaurants, Cajun & Creole", "public_id": "carlas-cajun-kitchen-lithia-spgs", "id": 648925220, "votes": null, "tagline": null, "has_video": false, "website": null, "offers": null, "latitude": 33.774233, "politanName": "Atlanta, GA Metro ", "phone_number": "6783989159", "tags": [{"primary": false, "id": 11245, "name": "Cajun & Creole"}, {"primary": true, "id": 1722, "name": "Restaurants"}], "fax_number": null, "expansion": {"count": null, "uri": null}, "impression_id": "000b00000094ef3eaade56492186ef8a3ad9b4b7b7", "profile": "http://www.citysearch.com/profile/648925220/lithia_springs_ga/carla_s_cajun_kitchen.html", "address": {"city": "Lithia Springs", "state": "GA", "street": "7413 Lee Rd", "postal_code": "30122"}, "capProviderId": null, "distance": null, "has_offers": false, "name": "Carla's Cajun Kitchen", "longitude": -84.654048, "has_menu": false, "awards": null, "user_review_count": 1}, {"business_operation_status": 1, "rating": null, "neighborhood": null, "image": null, "scorecard": null, "featured": false, "sample_categories": "Restaurants, Pizza, Carry Out", "public_id": "little-caesars-pizza-marietta-2", "id": 653582070, "votes": null, "tagline": null, "has_video": false, "website": "http://www.citysearch.com/profile/external/653582070/marietta_ga/little_caesars_pizza.html", "offers": null, "latitude": 33.952972, "politanName": "Atlanta, GA Metro ", "phone_number": "6784014181", "tags": [{"primary": false, "id": 1722, "name": "Restaurants"}, {"primary": false, "id": 11247, "name": "Carry Out"}, {"primary": true, "id": 11299, "name": "Pizza"}], "fax_number": null, "expansion": {"count": null, "uri": null}, "impression_id": "000b0000001a249d930fca4a5ea67639e2fc5cff28", "profile": "http://www.citysearch.com/profile/653582070/marietta_ga/little_caesars_pizza.html", "address": {"city": "Marietta", "state": "GA", "street": "3405 Dallas Hwy Sw", "postal_code": "30064"}, "capProviderId": null, "distance": null, "has_offers": false, "name": "Little Caesars Pizza", "longitude": -84.651096, "has_menu": false, "awards": null, "user_review_count": 0}, {"business_operation_status": 1, "rating": null, "neighborhood": null, "image": null, "scorecard": null, "featured": false, "sample_categories": "Restaurants", "public_id": "mcdonalds-powder-spgs", "id": 672512120, "votes": null, "tagline": null, "has_video": false, "website": null, "offers": null, "latitude": 33.859152, "politanName": "Atlanta, GA Metro ", "phone_number": "7704210722", "tags": [{"primary": true, "id": 1722, "name": "Restaurants"}], "fax_number": null, "expansion": {"count": null, "uri": null}, "impression_id": "000b00000038ca27346bf542c3b4ffcd95b65d5daa", "profile": "http://www.citysearch.com/profile/672512120/powder_springs_ga/mcdonald_s.html", "address": {"city": "Powder Springs", "state": "GA", "street": "1195 Powder Springs Rd Southwest", "postal_code": "30127"}, "capProviderId": null, "distance": null, "has_offers": false, "name": "McDonald's", "longitude": -84.672873, "has_menu": false, "awards": null, "user_review_count": 0}, {"business_operation_status": 1, "rating": null, "neighborhood": null, "image": null, "scorecard": null, "featured": false, "sample_categories": "Restaurants, Fast Food, Carry Out, Hamburgers, American Express", "public_id": "mc-donalds-mableton", "id": 45993503, "votes": null, "tagline": null, "has_video": false, "website": "http://www.citysearch.com/profile/external/45993503/mableton_ga/mc_donald_s.html", "offers": null, "latitude": 33.806368, "politanName": "Atlanta, GA Metro ", "phone_number": "6783988614", "tags": [{"primary": false, "id": 11199, "name": "Fast Food"}, {"primary": false, "id": 11247, "name": "Carry Out"}, {"primary": false, "id": 11270, "name": "Hamburgers"}, {"primary": false, "id": 11333, "name": "American Express"}, {"primary": false, "id": 11349, "name": "Discover"}, {"primary": false, "id": 11361, "name": "MasterCard"}, {"primary": false, "id": 11382, "name": "Visa"}, {"primary": true, "id": 1722, "name": "Restaurants"}], "fax_number": null, "expansion": {"count": null, "uri": null}, "impression_id": "000b00000005171af62b3f4fb19865f785dd0539b8", "profile": "http://www.citysearch.com/profile/45993503/mableton_ga/mc_donald_s.html", "address": {"city": "Mableton", "state": "GA", "street": "840 Veterans Memorial Hwy SE", "postal_code": "30126"}, "capProviderId": null, "distance": null, "has_offers": false, "name": "Mc Donald's", "longitude": -84.530894, "has_menu": true, "awards": null, "user_review_count": 0}, {"business_operation_status": 1, "rating": null, "neighborhood": null, "image": null, "scorecard": null, "featured": false, "sample_categories": "Restaurants, Seafood, Carry Out, MasterCard, Visa", "public_id": "captain-ds-seafood-mableton-2", "id": 682515390, "votes": null, "tagline": null, "has_video": false, "website": "http://www.citysearch.com/profile/external/682515390/mableton_ga/captain_d_s_seafood.html", "offers": null, "latitude": 33.819503, "politanName": "Atlanta, GA Metro ", "phone_number": "7709486116", "tags": [{"primary": false, "id": 11228, "name": "Seafood"}, {"primary": false, "id": 11247, "name": "Carry Out"}, {"primary": false, "id": 11361, "name": "MasterCard"}, {"primary": false, "id": 11382, "name": "Visa"}, {"primary": true, "id": 1722, "name": "Restaurants"}], "fax_number": null, "expansion": {"count": null, "uri": null}, "impression_id": "000b000000f4b7d2b2b47544ad9d99d9de491f4793", "profile": "http://www.citysearch.com/profile/682515390/mableton_ga/captain_d_s_seafood.html", "address": {"city": "Mableton", "state": "GA", "street": "5545 Floyd Rd Sw", "postal_code": "30126"}, "capProviderId": null, "distance": null, "has_offers": false, "name": "Captain D's Seafood", "longitude": -84.576206, "has_menu": true, "awards": null, "user_review_count": 0}, {"business_operation_status": 1, "rating": null, "neighborhood": null, "image": null, "scorecard": null, "featured": false, "sample_categories": "Restaurants", "public_id": "hunts-restaurant-powder", "id": 817353960, "votes": null, "tagline": null, "has_video": false, "website": null, "offers": null, "latitude": 33.859549, "politanName": "Atlanta, GA Metro ", "phone_number": "6785679575", "tags": [{"primary": true, "id": 1722, "name": "Restaurants"}], "fax_number": null, "expansion": {"count": null, "uri": null}, "impression_id": "000b000000cc8d41f0a6f441dbbfc998d4be9cf4d6", "profile": "http://www.citysearch.com/profile/817353960/powder_springs_ga/hunt_s_restaurant.html", "address": {"city": "Powder Springs", "state": "GA", "street": "3934 Austell Powder Springs Rd", "postal_code": "30127"}, "capProviderId": null, "distance": null, "has_offers": false, "name": "Hunt's Restaurant", "longitude": -84.683824, "has_menu": false, "awards": null, "user_review_count": 3}, {"business_operation_status": 0, "rating": null, "neighborhood": null, "image": null, "scorecard": null, "featured": false, "sample_categories": "Restaurants", "public_id": "williams-poboys-snowballs-douglasville", "id": 768839770, "votes": null, "tagline": null, "has_video": false, "website": null, "offers": null, "latitude": 33.680221, "politanName": "Atlanta, GA Metro ", "phone_number": "7707453644", "tags": [{"primary": true, "id": 1722, "name": "Restaurants"}], "fax_number": null, "expansion": {"count": null, "uri": null}, "impression_id": "000b00000041b073a7c78c4f3997c83e30e31f3e67", "profile": "http://www.citysearch.com/profile/768839770/douglasville_ga/william_s_poboys_snowballs.html", "address": {"city": "Douglasville", "state": "GA", "street": "3153 Lower Creek Dr", "postal_code": "30135"}, "capProviderId": null, "distance": null, "has_offers": false, "name": "William's Poboys & Snowballs", "longitude": -84.690636, "has_menu": false, "awards": null, "user_review_count": 0}, {"business_operation_status": 1, "rating": null, "neighborhood": null, "image": null, "scorecard": null, "featured": false, "sample_categories": "Delis And Delicatessens", "public_id": "us-deli-mableton", "id": 764935400, "votes": null, "tagline": null, "has_video": false, "website": null, "offers": null, "latitude": 33.806264, "politanName": "Atlanta, GA Metro ", "phone_number": "7709484700", "tags": [{"primary": true, "id": 1727, "name": "Delis And Delicatessens"}], "fax_number": null, "expansion": {"count": null, "uri": null}, "impression_id": "000b0000001497eb6035894879929526a6e21db48b", "profile": "http://www.citysearch.com/profile/764935400/mableton_ga/us_deli.html", "address": {"city": "Mableton", "state": "GA", "street": "873 Veterans Memorial Hwy SE", "postal_code": "30126"}, "capProviderId": null, "distance": null, "has_offers": false, "name": "US Deli", "longitude": -84.528772, "has_menu": false, "awards": null, "user_review_count": 0}, {"business_operation_status": 1, "rating": null, "neighborhood": null, "image": null, "scorecard": null, "featured": false, "sample_categories": "Restaurants, Carry Out", "public_id": "burger-king-douglasville-5", "id": 764840540, "votes": null, "tagline": null, "has_video": false, "website": "http://www.citysearch.com/profile/external/764840540/douglasville_ga/burger_king.html", "offers": null, "latitude": 33.750858, "politanName": "Atlanta, GA Metro ", "phone_number": "7709497746", "tags": [{"primary": false, "id": 11247, "name": "Carry Out"}, {"primary": true, "id": 1722, "name": "Restaurants"}], "fax_number": null, "expansion": {"count": null, "uri": null}, "impression_id": "000b000000763475f8996f4c80bc439b46b41595fd", "profile": "http://www.citysearch.com/profile/764840540/douglasville_ga/burger_king.html", "address": {"city": "Douglasville", "state": "GA", "street": "5614 Fairburn Rd", "postal_code": "30134"}, "capProviderId": null, "distance": null, "has_offers": false, "name": "Burger King", "longitude": -84.71908, "has_menu": true, "awards": null, "user_review_count": 0}, {"business_operation_status": 1, "rating": 8.0, "neighborhood": null, "image": null, "scorecard": null, "featured": false, "sample_categories": "Restaurants, Mexican", "public_id": "la-cabana-marietta", "id": 2906494, "votes": null, "tagline": null, "has_video": false, "website": "http://www.citysearch.com/profile/external/2906494/marietta_ga/la_cabana.html", "offers": null, "latitude": 33.907683, "politanName": "Atlanta, GA Metro ", "phone_number": "7704257756", "tags": [{"primary": false, "id": 11208, "name": "Mexican"}, {"primary": true, "id": 1722, "name": "Restaurants"}], "fax_number": null, "expansion": {"count": null, "uri": null}, "impression_id": "000b0000000f6ba575b41448a28b07455924f23e2d", "profile": "http://www.citysearch.com/profile/2906494/marietta_ga/la_cabana.html", "address": {"city": "Marietta", "state": "GA", "street": "1651 Powder Springs Rd SW Ste 1", "postal_code": "30064"}, "capProviderId": null, "distance": null, "has_offers": false, "name": "La Cabana", "longitude": -84.601655, "has_menu": true, "awards": null, "user_review_count": 2}, {"business_operation_status": 1, "rating": null, "neighborhood": null, "image": null, "scorecard": null, "featured": false, "sample_categories": "Restaurants", "public_id": "baileys-family-restaurant-powder", "id": 828137130, "votes": null, "tagline": null, "has_video": false, "website": null, "offers": null, "latitude": 33.856981, "politanName": "Atlanta, GA Metro ", "phone_number": "7704391123", "tags": [{"primary": true, "id": 1722, "name": "Restaurants"}], "fax_number": null, "expansion": {"count": null, "uri": null}, "impression_id": "000b0000002bdb836745e74267a82d0be1c5e5075f", "profile": "http://www.citysearch.com/profile/828137130/powder_springs_ga/bailey_s_family_restaurant.html", "address": {"city": "Powder Springs", "state": "GA", "street": "4041 Atlanta St", "postal_code": "30127"}, "capProviderId": null, "distance": null, "has_offers": false, "name": "Bailey's Family Restaurant", "longitude": -84.672069, "has_menu": false, "awards": null, "user_review_count": 4}, {"business_operation_status": 1, "rating": null, "neighborhood": null, "image": null, "scorecard": null, "featured": false, "sample_categories": "Restaurants", "public_id": "tme-enterprises-i-ltd-mableton", "id": 2949244, "votes": null, "tagline": null, "has_video": false, "website": null, "offers": null, "latitude": 33.818546, "politanName": "Atlanta, GA Metro ", "phone_number": "7709443911", "tags": [{"primary": true, "id": 1722, "name": "Restaurants"}], "fax_number": null, "expansion": {"count": null, "uri": null}, "impression_id": "000b000000042926dbd94a4c178a8dc4e4c96e0e74", "profile": "http://www.citysearch.com/profile/2949244/mableton_ga/tme_enterprises_i_ltd.html", "address": {"city": "Mableton", "state": "GA", "street": "737 Veterans Memorial Hwy SW", "postal_code": "30126"}, "capProviderId": null, "distance": null, "has_offers": false, "name": "Tme Enterprises I Ltd", "longitude": -84.575739, "has_menu": false, "awards": null, "user_review_count": 0}, {"business_operation_status": 1, "rating": null, "neighborhood": null, "image": null, "scorecard": null, "featured": false, "sample_categories": "Grocery Stores, Health Food Stores, Herbal Medicine, Weight Loss, Herbs", "public_id": "herb-shop-the-smyrna", "id": 604614262, "votes": null, "tagline": null, "has_video": false, "website": null, "offers": null, "latitude": 33.873647, "politanName": "Atlanta, GA Metro ", "phone_number": "7704358567", "tags": [{"primary": false, "id": 1713, "name": "Grocery Stores"}, {"primary": false, "id": 1716, "name": "Health Food Stores"}, {"primary": false, "id": 1800, "name": "Herbal Medicine"}, {"primary": false, "id": 11170, "name": "Herbs"}, {"primary": false, "id": 11200, "name": "Health Food"}, {"primary": true, "id": 1931, "name": "Weight Loss"}], "fax_number": null, "expansion": {"count": null, "uri": null}, "impression_id": "000b000000dd707ec93f4d4880b05c9fbbc773cc51", "profile": "http://www.citysearch.com/profile/604614262/smyrna_ga/herb_shop_the.html", "address": {"city": "Smyrna", "state": "GA", "street": "3240 S Cobb Dr Se Ste D", "postal_code": "30080"}, "capProviderId": null, "distance": null, "has_offers": false, "name": "Herb Shop The", "longitude": -84.530458, "has_menu": false, "awards": null, "user_review_count": 2}, {"business_operation_status": 1, "rating": null, "neighborhood": null, "image": null, "scorecard": null, "featured": false, "sample_categories": "Restaurants, Mexican", "public_id": "lunas-taqueria-marietta", "id": 793347450, "votes": null, "tagline": null, "has_video": false, "website": null, "offers": null, "latitude": 33.905061, "politanName": "Atlanta, GA Metro ", "phone_number": "6785569766", "tags": [{"primary": false, "id": 11208, "name": "Mexican"}, {"primary": true, "id": 1722, "name": "Restaurants"}], "fax_number": null, "expansion": {"count": null, "uri": null}, "impression_id": "000b0000006673388453ff49dba04a7b6b0ebb8a72", "profile": "http://www.citysearch.com/profile/793347450/marietta_ga/luna_s_taqueria.html", "address": {"city": "Marietta", "state": "GA", "street": "1977 S Cobb Dr Se", "postal_code": "30060"}, "capProviderId": null, "distance": null, "has_offers": false, "name": "Luna's Taqueria", "longitude": -84.542525, "has_menu": false, "awards": null, "user_review_count": 0}, {"business_operation_status": 1, "rating": null, "neighborhood": null, "image": null, "scorecard": null, "featured": false, "sample_categories": "Restaurants, Pizza, Carry Out", "public_id": "dominos-pizza-marietta-17", "id": 608562794, "votes": null, "tagline": null, "has_video": false, "website": "http://www.citysearch.com/profile/external/608562794/marietta_ga/domino_s_pizza.html", "offers": null, "latitude": 33.876575, "politanName": "Atlanta, GA Metro ", "phone_number": "7709555585", "tags": [{"primary": false, "id": 1722, "name": "Restaurants"}, {"primary": false, "id": 11247, "name": "Carry Out"}, {"primary": true, "id": 11299, "name": "Pizza"}], "fax_number": null, "expansion": {"count": null, "uri": null}, "impression_id": "000b0000005cdde53c888944378e9cee5a1069f5c8", "profile": "http://www.citysearch.com/profile/608562794/marietta_ga/domino_s_pizza.html", "address": {"city": "Marietta", "state": "GA", "street": "1230 Pair Rd SW", "postal_code": "30067"}, "capProviderId": null, "distance": null, "has_offers": false, "name": "Domino's Pizza", "longitude": -84.589289, "has_menu": false, "awards": null, "user_review_count": 0}, {"business_operation_status": 1, "rating": null, "neighborhood": null, "image": null, "scorecard": null, "featured": false, "sample_categories": "Restaurants, Fast Food, Carry Out, Hamburgers, American Express", "public_id": "mc-donalds-mableton-2", "id": 601310556, "votes": null, "tagline": null, "has_video": false, "website": "http://www.citysearch.com/profile/external/601310556/mableton_ga/mcdonald_s.html", "offers": null, "latitude": 33.835672, "politanName": "Atlanta, GA Metro ", "phone_number": "7709444853", "tags": [{"primary": false, "id": 11199, "name": "Fast Food"}, {"primary": false, "id": 11247, "name": "Carry Out"}, {"primary": false, "id": 11270, "name": "Hamburgers"}, {"primary": false, "id": 11333, "name": "American Express"}, {"primary": false, "id": 11349, "name": "Discover"}, {"primary": false, "id": 11361, "name": "MasterCard"}, {"primary": false, "id": 11382, "name": "Visa"}, {"primary": true, "id": 1722, "name": "Restaurants"}], "fax_number": null, "expansion": {"count": null, "uri": null}, "impression_id": "000b0000009fb2117d88334326adabf087e143fbb4", "profile": "http://www.citysearch.com/profile/601310556/mableton_ga/mcdonald_s.html", "address": {"city": "Mableton", "state": "GA", "street": "4860 Floyd Rd Sw", "postal_code": "30126"}, "capProviderId": null, "distance": null, "has_offers": false, "name": "McDonald's", "longitude": -84.576914, "has_menu": false, "awards": null, "user_review_count": 0}, {"business_operation_status": 1, "rating": null, "neighborhood": null, "image": null, "scorecard": null, "featured": false, "sample_categories": "Restaurants", "public_id": "the-olive-tree-lithia-spgs", "id": 673007600, "votes": null, "tagline": null, "has_video": false, "website": "http://www.citysearch.com/profile/external/673007600/lithia_springs_ga/the_olive_tree.html", "offers": null, "latitude": 33.784778, "politanName": "Atlanta, GA Metro ", "phone_number": "7709481288", "tags": [{"primary": true, "id": 1722, "name": "Restaurants"}], "fax_number": null, "expansion": {"count": null, "uri": null}, "impression_id": "000b00000063f1283ebf8444f68033155595c25d99", "profile": "http://www.citysearch.com/profile/673007600/lithia_springs_ga/the_olive_tree.html", "address": {"city": "Lithia Springs", "state": "GA", "street": "849 Thornton Rd", "postal_code": "30122"}, "capProviderId": null, "distance": null, "has_offers": false, "name": "The Olive Tree", "longitude": -84.612367, "has_menu": false, "awards": null, "user_review_count": 0}], "histograms": [], "tag_ids": [1722], "uri": "http://api.citygridmedia.com:8080/search/places/v2/search/where?has_offers=false&type=restaurant&format=json&page=9&where=30106&rpp=50&histograms=false&publisher=10000009598&region_type=circle", "did_you_mean": "", "regions": [{"latitude": 33.836465, "default_radius": 3.78, "type": "postal_code", "name": "30106", "longitude": -84.627708}], "call_id": "000b000000ec0c5fb964884d1f94a5e56249f77a5a", "first_hit": 401, "total_hits": 761, "geo_ids": [26348], "page": 9, "last_hit": 450}}