{"results": {"rpp": 50, "locations": [{"business_operation_status": 1, "rating": null, "neighborhood": null, "image": null, "scorecard": null, "featured": false, "sample_categories": "Restaurants", "public_id": "poblanoiis-mexican-grill-acworth", "id": 672389870, "votes": null, "tagline": null, "has_video": false, "website": null, "offers": null, "latitude": 34.036897, "politanName": "Atlanta, GA Metro ", "phone_number": null, "tags": [{"primary": true, "id": 1722, "name": "Restaurants"}], "fax_number": null, "expansion": {"count": null, "uri": null}, "impression_id": "000b00000015e70b661d2a4a8b9ecd4d67dd3d5d73", "profile": "http://www.citysearch.com/profile/672389870/acworth_ga/poblano_s_mexican_grill.html", "address": {"city": "Acworth", "state": "GA", "street": "3344 Cobb Parkway", "postal_code": "30101"}, "capProviderId": null, "distance": null, "has_offers": false, "name": "Poblano\ufffd\ufffd\u00f4s Mexican Grill", "longitude": -84.67988, "has_menu": false, "awards": null, "user_review_count": 0}, {"business_operation_status": 1, "rating": null, "neighborhood": null, "image": null, "scorecard": null, "featured": false, "sample_categories": "Restaurants", "public_id": "little-gumbas-acworth", "id": 817697620, "votes": null, "tagline": null, "has_video": false, "website": null, "offers": null, "latitude": 34.030244, "politanName": "Atlanta, GA Metro ", "phone_number": "6785748956", "tags": [{"primary": true, "id": 1722, "name": "Restaurants"}], "fax_number": null, "expansion": {"count": null, "uri": null}, "impression_id": "000b00000082b69ca6a5a649babd20d0a527e5fbea", "profile": "http://www.citysearch.com/profile/817697620/acworth_ga/little_gumbas.html", "address": {"city": "Acworth", "state": "GA", "street": "22 Old Stilesboro Rd", "postal_code": "30101"}, "capProviderId": null, "distance": null, "has_offers": false, "name": "Little Gumbas", "longitude": -84.741165, "has_menu": false, "awards": null, "user_review_count": 0}, {"business_operation_status": 1, "rating": null, "neighborhood": null, "image": null, "scorecard": null, "featured": false, "sample_categories": "Restaurants, Seafood", "public_id": "fish-time-restaurant-bar-acworth", "id": 713647060, "votes": null, "tagline": null, "has_video": false, "website": null, "offers": null, "latitude": 34.050728, "politanName": "Atlanta, GA Metro ", "phone_number": "7709742323", "tags": [{"primary": false, "id": 11228, "name": "Seafood"}, {"primary": true, "id": 1722, "name": "Restaurants"}], "fax_number": null, "expansion": {"count": null, "uri": null}, "impression_id": "000b00000018b8c01b41504c9cb925a12fad698b4d", "profile": "http://www.citysearch.com/profile/713647060/acworth_ga/fish_time_restaurant_bar.html", "address": {"city": "Acworth", "state": "GA", "street": "3979 S Main St", "postal_code": "30101"}, "capProviderId": null, "distance": null, "has_offers": false, "name": "Fish Time Restaurant & Bar", "longitude": -84.663654, "has_menu": false, "awards": null, "user_review_count": 0}, {"business_operation_status": 1, "rating": null, "neighborhood": null, "image": null, "scorecard": null, "featured": false, "sample_categories": "Restaurants, Carry Out", "public_id": "wing-street-acworth-3", "id": 764934400, "votes": null, "tagline": null, "has_video": false, "website": null, "offers": null, "latitude": 34.033755, "politanName": "Atlanta, GA Metro ", "phone_number": "7709660555", "tags": [{"primary": false, "id": 11247, "name": "Carry Out"}, {"primary": true, "id": 1722, "name": "Restaurants"}], "fax_number": null, "expansion": {"count": null, "uri": null}, "impression_id": "000b000000802e6c7f61d440999bc5c54037a1a734", "profile": "http://www.citysearch.com/profile/764934400/acworth_ga/wing_street.html", "address": {"city": "Acworth", "state": "GA", "street": "3265 Cobb Pkwy NW # 3", "postal_code": "30101"}, "capProviderId": null, "distance": null, "has_offers": false, "name": "Wing Street", "longitude": -84.677156, "has_menu": false, "awards": null, "user_review_count": 0}, {"business_operation_status": 1, "rating": null, "neighborhood": null, "image": null, "scorecard": null, "featured": false, "sample_categories": "Restaurants, Barbecue Restaurants, Carry Out", "public_id": "wingstreet-acworth-2", "id": 728120470, "votes": null, "tagline": null, "has_video": false, "website": null, "offers": null, "latitude": 34.083387, "politanName": "Atlanta, GA Metro ", "phone_number": "4049757444", "tags": [{"primary": false, "id": 1724, "name": "Barbecue Restaurants"}, {"primary": false, "id": 11247, "name": "Carry Out"}, {"primary": true, "id": 1722, "name": "Restaurants"}], "fax_number": null, "expansion": {"count": null, "uri": null}, "impression_id": "000b000000da633a12411f4b58bfb9e3f18d634fa6", "profile": "http://www.citysearch.com/profile/728120470/acworth_ga/wingstreet.html", "address": {"city": "Acworth", "state": "GA", "street": "5070 Glade Rd", "postal_code": "30101"}, "capProviderId": null, "distance": null, "has_offers": false, "name": "Wingstreet", "longitude": -84.676474, "has_menu": false, "awards": null, "user_review_count": 0}, {"business_operation_status": 1, "rating": null, "neighborhood": null, "image": null, "scorecard": null, "featured": false, "sample_categories": "Restaurants", "public_id": "abbondanza-acworth", "id": 655873520, "votes": null, "tagline": null, "has_video": false, "website": null, "offers": null, "latitude": 34.050728, "politanName": "Atlanta, GA Metro ", "phone_number": "7706938752", "tags": [{"primary": true, "id": 1722, "name": "Restaurants"}], "fax_number": null, "expansion": {"count": null, "uri": null}, "impression_id": "000b000000b07205663ac84f1980acad3fd9af5a7d", "profile": "http://www.citysearch.com/profile/655873520/acworth_ga/abbondanza.html", "address": {"city": "Acworth", "state": "GA", "street": "3979 S Main St", "postal_code": "30101"}, "capProviderId": null, "distance": null, "has_offers": false, "name": "Abbondanza", "longitude": -84.663654, "has_menu": false, "awards": null, "user_review_count": 0}, {"business_operation_status": 1, "rating": null, "neighborhood": null, "image": null, "scorecard": null, "featured": false, "sample_categories": "Restaurants, Traditional American, Carry Out, MasterCard, Visa", "public_id": "waffle-house-acworth-6", "id": 682723260, "votes": null, "tagline": null, "has_video": false, "website": "http://www.citysearch.com/profile/external/682723260/acworth_ga/waffle_house.html", "offers": null, "latitude": 34.07789, "politanName": "Atlanta, GA Metro ", "phone_number": "7709170683", "tags": [{"primary": false, "id": 11190, "name": "Traditional American"}, {"primary": false, "id": 11247, "name": "Carry Out"}, {"primary": false, "id": 11361, "name": "MasterCard"}, {"primary": false, "id": 11382, "name": "Visa"}, {"primary": true, "id": 1722, "name": "Restaurants"}], "fax_number": null, "expansion": {"count": null, "uri": null}, "impression_id": "000b000000e4a5e4b322684a04a83da5875ce9f57a", "profile": "http://www.citysearch.com/profile/682723260/acworth_ga/waffle_house.html", "address": {"city": "Acworth", "state": "GA", "street": "5350 Cherokee St # 857", "postal_code": "30101"}, "capProviderId": null, "distance": null, "has_offers": false, "name": "Waffle House", "longitude": -84.676435, "has_menu": true, "awards": null, "user_review_count": 0}, {"business_operation_status": 1, "rating": null, "neighborhood": null, "image": null, "scorecard": null, "featured": false, "sample_categories": "Restaurants", "public_id": "pizzahut-acworth", "id": 713588360, "votes": null, "tagline": null, "has_video": false, "website": null, "offers": null, "latitude": 34.060456, "politanName": "Atlanta, GA Metro ", "phone_number": "7709754306", "tags": [{"primary": true, "id": 1722, "name": "Restaurants"}], "fax_number": null, "expansion": {"count": null, "uri": null}, "impression_id": "000b000000600865f473d74ddba73ab3283f2028d1", "profile": "http://www.citysearch.com/profile/713588360/acworth_ga/pizzahut.html", "address": {"city": "Acworth", "state": "GA", "street": "3298 Cobb Pkwy NW", "postal_code": "30101"}, "capProviderId": null, "distance": null, "has_offers": false, "name": "Pizzahut", "longitude": -84.721428, "has_menu": false, "awards": null, "user_review_count": 0}, {"business_operation_status": 1, "rating": null, "neighborhood": null, "image": null, "scorecard": null, "featured": false, "sample_categories": "Restaurants", "public_id": "trackside-taqueria-acworth", "id": 607264814, "votes": null, "tagline": null, "has_video": false, "website": null, "offers": null, "latitude": 34.063964, "politanName": "Atlanta, GA Metro ", "phone_number": "6783836420", "tags": [{"primary": true, "id": 1722, "name": "Restaurants"}], "fax_number": null, "expansion": {"count": null, "uri": null}, "impression_id": "000b0000006b3f96d864694cfda96bd3bd1b760674", "profile": "http://www.citysearch.com/profile/607264814/acworth_ga/trackside_taqueria.html", "address": {"city": "Acworth", "state": "GA", "street": "4628 S Main St", "postal_code": "30101"}, "capProviderId": null, "distance": null, "has_offers": false, "name": "Trackside Taqueria", "longitude": -84.671776, "has_menu": false, "awards": null, "user_review_count": 0}, {"business_operation_status": 1, "rating": null, "neighborhood": null, "image": null, "scorecard": null, "featured": false, "sample_categories": "Tea Room", "public_id": "teacup-cottage-llc-acworth", "id": 837720870, "votes": null, "tagline": null, "has_video": false, "website": null, "offers": null, "latitude": 34.066773, "politanName": "Atlanta, GA Metro ", "phone_number": "6785746011", "tags": [{"primary": true, "id": 11318, "name": "Tea Room"}], "fax_number": null, "expansion": {"count": null, "uri": null}, "impression_id": "000b000000acbbe7569ab841daaf0ab937528b18cc", "profile": "http://www.citysearch.com/profile/837720870/acworth_ga/teacup_cottage_llc.html", "address": {"city": "Acworth", "state": "GA", "street": "4851 N Main St", "postal_code": "30101"}, "capProviderId": null, "distance": null, "has_offers": false, "name": "Teacup Cottage LLC", "longitude": -84.679142, "has_menu": false, "awards": null, "user_review_count": 2}, {"business_operation_status": 1, "rating": null, "neighborhood": null, "image": null, "scorecard": null, "featured": false, "sample_categories": "Coffeehouses, Restaurants", "public_id": "starbucks-acworth", "id": 601307156, "votes": null, "tagline": null, "has_video": false, "website": "http://www.citysearch.com/profile/external/601307156/acworth_ga/starbucks.html", "offers": null, "latitude": 34.04985, "politanName": "Atlanta, GA Metro ", "phone_number": "7709669262", "tags": [{"primary": false, "id": 1722, "name": "Restaurants"}, {"primary": true, "id": 1726, "name": "Coffeehouses"}], "fax_number": null, "expansion": {"count": null, "uri": null}, "impression_id": "000b0000004003405ee289491e8f18819d32a09862", "profile": "http://www.citysearch.com/profile/601307156/acworth_ga/starbucks.html", "address": {"city": "Acworth", "state": "GA", "street": "3622 Cobb Pkwy Nw", "postal_code": "30101"}, "capProviderId": null, "distance": null, "has_offers": false, "name": "Starbucks", "longitude": -84.700546, "has_menu": true, "awards": null, "user_review_count": 0}, {"business_operation_status": 1, "rating": null, "neighborhood": null, "image": null, "scorecard": null, "featured": false, "sample_categories": "Restaurants, Catering, Delis And Delicatessens, Sandwich Shops, Carry Out", "public_id": "blimpie-subs-salads-cartersville", "id": 777810100, "votes": null, "tagline": null, "has_video": false, "website": "http://www.citysearch.com/profile/external/777810100/cartersville_ga/blimpie_subs_salads.html", "offers": null, "latitude": 34.082722, "politanName": "Atlanta, GA Metro ", "phone_number": "7703871440", "tags": [{"primary": false, "id": 1705, "name": "Catering"}, {"primary": false, "id": 1727, "name": "Delis And Delicatessens"}, {"primary": false, "id": 1736, "name": "Sandwich Shops"}, {"primary": false, "id": 11247, "name": "Carry Out"}, {"primary": true, "id": 1722, "name": "Restaurants"}], "fax_number": null, "expansion": {"count": null, "uri": null}, "impression_id": "000b000000b872ceb3078d477885c83ab179dc04f4", "profile": "http://www.citysearch.com/profile/777810100/cartersville_ga/blimpie_subs_salads.html", "address": {"city": "Cartersville", "state": "GA", "street": "921 Joe Frank Harris Pky Se #a", "postal_code": "30120"}, "capProviderId": null, "distance": null, "has_offers": false, "name": "Blimpie Subs & Salads", "longitude": -84.731632, "has_menu": true, "awards": null, "user_review_count": 0}, {"business_operation_status": 1, "rating": null, "neighborhood": null, "image": null, "scorecard": null, "featured": false, "sample_categories": "Ice Cream Parlors", "public_id": "yogurt-fresco-acworth", "id": 713649060, "votes": null, "tagline": null, "has_video": false, "website": null, "offers": null, "latitude": 33.998646, "politanName": "Atlanta, GA Metro ", "phone_number": "7704227979", "tags": [{"primary": true, "id": 1730, "name": "Ice Cream Parlors"}], "fax_number": null, "expansion": {"count": null, "uri": null}, "impression_id": "000b0000004ec2b834ad124e3b9655fb6d4da5bb86", "profile": "http://www.citysearch.com/profile/713649060/acworth_ga/yogurt_fresco.html", "address": {"city": "Acworth", "state": "GA", "street": "5340 Brookstone Dr NW", "postal_code": "30101"}, "capProviderId": null, "distance": null, "has_offers": false, "name": "Yogurt Fresco", "longitude": -84.707915, "has_menu": false, "awards": null, "user_review_count": 0}, {"business_operation_status": 1, "rating": null, "neighborhood": null, "image": null, "scorecard": null, "featured": false, "sample_categories": "Coffeehouses", "public_id": "main-street-coffee-wine-bar-acworth", "id": 611266694, "votes": null, "tagline": null, "has_video": false, "website": null, "offers": null, "latitude": 34.066772, "politanName": "Atlanta, GA Metro ", "phone_number": "6786953667", "tags": [{"primary": true, "id": 1726, "name": "Coffeehouses"}], "fax_number": null, "expansion": {"count": null, "uri": null}, "impression_id": "000b00000084a89148dba849f3acf5376e6fe924f6", "profile": "http://www.citysearch.com/profile/611266694/acworth_ga/main_street_coffee_wine_bar.html", "address": {"city": "Acworth", "state": "GA", "street": "4843 N Main St", "postal_code": "30101"}, "capProviderId": null, "distance": null, "has_offers": false, "name": "Main Street Coffee & Wine Bar", "longitude": -84.67914, "has_menu": false, "awards": null, "user_review_count": 0}, {"business_operation_status": 1, "rating": null, "neighborhood": null, "image": null, "scorecard": null, "featured": false, "sample_categories": "Pubs, Bars & Clubs, Bars & Pubs, Restaurants", "public_id": "center-street-tavern-acworth", "id": 732185820, "votes": null, "tagline": null, "has_video": false, "website": null, "offers": null, "latitude": 34.065933, "politanName": "Atlanta, GA Metro ", "phone_number": "7709170004", "tags": [{"primary": false, "id": 164, "name": "Bars & Clubs"}, {"primary": false, "id": 1686, "name": "Bars & Pubs"}, {"primary": false, "id": 1722, "name": "Restaurants"}, {"primary": true, "id": 1687, "name": "Pubs"}], "fax_number": null, "expansion": {"count": null, "uri": null}, "impression_id": "000b000000e43320c6fbdd4518904bd25bcc0e2366", "profile": "http://www.citysearch.com/profile/732185820/acworth_ga/center_street_tavern.html", "address": {"city": "Acworth", "state": "GA", "street": "4381 Senator Richard B Russell Sq", "postal_code": "30101"}, "capProviderId": null, "distance": null, "has_offers": false, "name": "Center Street Tavern", "longitude": -84.67688, "has_menu": false, "awards": null, "user_review_count": 0}, {"business_operation_status": 1, "rating": null, "neighborhood": null, "image": null, "scorecard": null, "featured": false, "sample_categories": "Restaurants, Barbecue Restaurants", "public_id": "shanes-rib-shack-acworth", "id": 764895820, "votes": null, "tagline": null, "has_video": false, "website": "http://www.citysearch.com/profile/external/764895820/acworth_ga/shanes_rib_shack.html", "offers": null, "latitude": 34.036773, "politanName": "Atlanta, GA Metro ", "phone_number": "7705299742", "tags": [{"primary": false, "id": 1724, "name": "Barbecue Restaurants"}, {"primary": true, "id": 1722, "name": "Restaurants"}], "fax_number": null, "expansion": {"count": null, "uri": null}, "impression_id": "000b0000006cf142df6fae496f86138f74575a959f", "profile": "http://www.citysearch.com/profile/764895820/acworth_ga/shanes_rib_shack.html", "address": {"city": "Acworth", "state": "GA", "street": "3348 Cobb Pkwy NW # 100", "postal_code": "30101"}, "capProviderId": null, "distance": null, "has_offers": false, "name": "Shanes Rib Shack", "longitude": -84.68004, "has_menu": true, "awards": null, "user_review_count": 0}, {"business_operation_status": 1, "rating": null, "neighborhood": null, "image": null, "scorecard": null, "featured": false, "sample_categories": "Restaurants, Mexican", "public_id": "publanos-mexican-grill-acworth", "id": 655926840, "votes": null, "tagline": null, "has_video": false, "website": "http://www.citysearch.com/profile/external/655926840/acworth_ga/publanos_mexican_grill.html", "offers": null, "latitude": 34.036897, "politanName": "Atlanta, GA Metro ", "phone_number": "7709750993", "tags": [{"primary": false, "id": 11208, "name": "Mexican"}, {"primary": true, "id": 1722, "name": "Restaurants"}], "fax_number": null, "expansion": {"count": null, "uri": null}, "impression_id": "000b000000f707b582fa6544ef9368a9816773326d", "profile": "http://www.citysearch.com/profile/655926840/acworth_ga/publanos_mexican_grill.html", "address": {"city": "Acworth", "state": "GA", "street": "3344 Cobb Pkwy Nw", "postal_code": "30101"}, "capProviderId": null, "distance": null, "has_offers": false, "name": "Publanos Mexican Grill", "longitude": -84.67988, "has_menu": false, "awards": null, "user_review_count": 0}, {"business_operation_status": 1, "rating": null, "neighborhood": null, "image": null, "scorecard": null, "featured": false, "sample_categories": "Restaurants", "public_id": "karlas-kafe-acworth", "id": 764927070, "votes": null, "tagline": null, "has_video": false, "website": null, "offers": null, "latitude": 34.038484, "politanName": "Atlanta, GA Metro ", "phone_number": "6784584876", "tags": [{"primary": true, "id": 1722, "name": "Restaurants"}], "fax_number": null, "expansion": {"count": null, "uri": null}, "impression_id": "000b000000c9e65c5018f34637866819cf5b9e7f40", "profile": "http://www.citysearch.com/profile/764927070/acworth_ga/karla_s_kafe.html", "address": {"city": "Acworth", "state": "GA", "street": "3459 Cobb Pkwy NW", "postal_code": "30101"}, "capProviderId": null, "distance": null, "has_offers": false, "name": "Karla's Kafe", "longitude": -84.691795, "has_menu": false, "awards": null, "user_review_count": 0}, {"business_operation_status": 1, "rating": null, "neighborhood": null, "image": null, "scorecard": null, "featured": false, "sample_categories": "Restaurants, Barbecue Restaurants", "public_id": "birdies-wings-more-dallas", "id": 793298080, "votes": null, "tagline": null, "has_video": false, "website": "http://www.citysearch.com/profile/external/793298080/dallas_ga/birdie_s_wings_more.html", "offers": null, "latitude": 34.010309, "politanName": "Atlanta, GA Metro ", "phone_number": "6785747470", "tags": [{"primary": false, "id": 1724, "name": "Barbecue Restaurants"}, {"primary": true, "id": 1722, "name": "Restaurants"}], "fax_number": null, "expansion": {"count": null, "uri": null}, "impression_id": "000b000000a03a2645d87d4a18a2a324e79fdb735e", "profile": "http://www.citysearch.com/profile/793298080/dallas_ga/birdie_s_wings_more.html", "address": {"city": "Dallas", "state": "GA", "street": "8876 Dallas Acworth Hwy", "postal_code": "30132"}, "capProviderId": null, "distance": null, "has_offers": false, "name": "Birdie's Wings & More", "longitude": -84.753348, "has_menu": false, "awards": null, "user_review_count": 0}, {"business_operation_status": 1, "rating": null, "neighborhood": null, "image": null, "scorecard": null, "featured": false, "sample_categories": "Delis And Delicatessens", "public_id": "kroger-deli-acworth-3", "id": 706509510, "votes": null, "tagline": null, "has_video": false, "website": "http://www.citysearch.com/profile/external/706509510/acworth_ga/kroger_deli.html", "offers": null, "latitude": 34.060456, "politanName": "Atlanta, GA Metro ", "phone_number": "7709758652", "tags": [{"primary": true, "id": 1727, "name": "Delis And Delicatessens"}], "fax_number": null, "expansion": {"count": null, "uri": null}, "impression_id": "000b000000f682c1db95c6418ab7f76d9bb22414a7", "profile": "http://www.citysearch.com/profile/706509510/acworth_ga/kroger_deli.html", "address": {"city": "Acworth", "state": "GA", "street": "3330 Cobb Pkwy NW # 30", "postal_code": "30101"}, "capProviderId": null, "distance": null, "has_offers": false, "name": "Kroger Deli", "longitude": -84.721428, "has_menu": false, "awards": null, "user_review_count": 0}, {"business_operation_status": 1, "rating": null, "neighborhood": null, "image": null, "scorecard": null, "featured": false, "sample_categories": "Restaurants", "public_id": "zorbas-kitchen-acworth", "id": 764937910, "votes": null, "tagline": null, "has_video": false, "website": null, "offers": null, "latitude": 34.039365, "politanName": "Atlanta, GA Metro ", "phone_number": "7705296900", "tags": [{"primary": true, "id": 1722, "name": "Restaurants"}], "fax_number": null, "expansion": {"count": null, "uri": null}, "impression_id": "000b000000783e7437a5fa402ab00cf4822a07fe2f", "profile": "http://www.citysearch.com/profile/764937910/acworth_ga/zorba_s_kitchen.html", "address": {"city": "Acworth", "state": "GA", "street": "3450 Cobb Pkwy NW", "postal_code": "30101"}, "capProviderId": null, "distance": null, "has_offers": false, "name": "Zorba's Kitchen", "longitude": -84.689961, "has_menu": false, "awards": null, "user_review_count": 0}, {"business_operation_status": 1, "rating": null, "neighborhood": null, "image": null, "scorecard": null, "featured": false, "sample_categories": "Restaurants, Fast Food, Carry Out, Hamburgers, American Express", "public_id": "mc-donalds-acworth", "id": 45560369, "votes": null, "tagline": null, "has_video": false, "website": "http://www.citysearch.com/profile/external/45560369/acworth_ga/mc_donald_s.html", "offers": null, "latitude": 34.000342, "politanName": "Atlanta, GA Metro ", "phone_number": "7702189065", "tags": [{"primary": false, "id": 11199, "name": "Fast Food"}, {"primary": false, "id": 11247, "name": "Carry Out"}, {"primary": false, "id": 11270, "name": "Hamburgers"}, {"primary": false, "id": 11333, "name": "American Express"}, {"primary": false, "id": 11361, "name": "MasterCard"}, {"primary": false, "id": 11382, "name": "Visa"}, {"primary": true, "id": 1722, "name": "Restaurants"}], "fax_number": null, "expansion": {"count": null, "uri": null}, "impression_id": "000b00000054820129ecf645ff8f8d33befb33f6ca", "profile": "http://www.citysearch.com/profile/45560369/acworth_ga/mc_donald_s.html", "address": {"city": "Acworth", "state": "GA", "street": "1855 Mars Hill Rd NW", "postal_code": "30101"}, "capProviderId": null, "distance": null, "has_offers": false, "name": "Mc Donald's", "longitude": -84.708385, "has_menu": true, "awards": null, "user_review_count": 0}, {"business_operation_status": 1, "rating": null, "neighborhood": null, "image": null, "scorecard": null, "featured": false, "sample_categories": "Restaurants", "public_id": "volcano-steak-sushi-acworth", "id": 625813834, "votes": null, "tagline": null, "has_video": false, "website": null, "offers": null, "latitude": 33.99646, "politanName": "Atlanta, GA Metro ", "phone_number": "7704209888", "tags": [{"primary": true, "id": 1722, "name": "Restaurants"}], "fax_number": null, "expansion": {"count": null, "uri": null}, "impression_id": "000b000000fa2b662734de4fde8e7d60c0204ce76c", "profile": "http://www.citysearch.com/profile/625813834/acworth_ga/volcano_steak_sushi.html", "address": {"city": "Acworth", "state": "GA", "street": "1720 Mars Hill Rd NW", "postal_code": "30101"}, "capProviderId": null, "distance": null, "has_offers": false, "name": "Volcano Steak & Sushi", "longitude": -84.70439, "has_menu": false, "awards": null, "user_review_count": 0}, {"business_operation_status": 1, "rating": null, "neighborhood": null, "image": null, "scorecard": null, "featured": false, "sample_categories": "Restaurants, Carry Out", "public_id": "kfc-acworth-4", "id": 728083890, "votes": null, "tagline": null, "has_video": false, "website": "http://www.citysearch.com/profile/external/728083890/acworth_ga/kfc.html", "offers": null, "latitude": 34.083385, "politanName": "Atlanta, GA Metro ", "phone_number": "7709745420", "tags": [{"primary": false, "id": 11247, "name": "Carry Out"}, {"primary": true, "id": 1722, "name": "Restaurants"}], "fax_number": null, "expansion": {"count": null, "uri": null}, "impression_id": "000b00000020a7659230d949de9359cc90c5419595", "profile": "http://www.citysearch.com/profile/728083890/acworth_ga/kfc.html", "address": {"city": "Acworth", "state": "GA", "street": "5040 Glade Rd NW", "postal_code": "30101"}, "capProviderId": null, "distance": null, "has_offers": false, "name": "KFC", "longitude": -84.676474, "has_menu": false, "awards": null, "user_review_count": 0}, {"business_operation_status": 0, "rating": null, "neighborhood": null, "image": null, "scorecard": null, "featured": false, "sample_categories": "Restaurants, French", "public_id": "seasons-de-provence-acworth", "id": 43863427, "votes": null, "tagline": null, "has_video": false, "website": null, "offers": null, "latitude": 34.065841, "politanName": "Atlanta, GA Metro ", "phone_number": "6785747188", "tags": [{"primary": false, "id": 11219, "name": "French"}, {"primary": true, "id": 1722, "name": "Restaurants"}], "fax_number": null, "expansion": {"count": null, "uri": null}, "impression_id": "000b0000001aa18f27887148589f771731c23bd3b2", "profile": "http://www.citysearch.com/profile/43863427/acworth_ga/seasons_de_provence.html", "address": {"city": "Acworth", "state": "GA", "street": "4416 Senator Russell Ave", "postal_code": "30101"}, "capProviderId": null, "distance": null, "has_offers": false, "name": "Seasons De Provence", "longitude": -84.67833, "has_menu": true, "awards": null, "user_review_count": 0}, {"business_operation_status": 1, "rating": null, "neighborhood": null, "image": null, "scorecard": null, "featured": false, "sample_categories": "Restaurants, Pizza, Carry Out", "public_id": "dominos-pizza-acworth-3", "id": 806463440, "votes": null, "tagline": null, "has_video": false, "website": null, "offers": null, "latitude": 34.051802, "politanName": "Atlanta, GA Metro ", "phone_number": "4049753030", "tags": [{"primary": false, "id": 1722, "name": "Restaurants"}, {"primary": false, "id": 11247, "name": "Carry Out"}, {"primary": true, "id": 11299, "name": "Pizza"}], "fax_number": null, "expansion": {"count": null, "uri": null}, "impression_id": "000b000000ac6f4b7c4d37478692385adc8b0780a4", "profile": "http://www.citysearch.com/profile/806463440/acworth_ga/domino_s_pizza.html", "address": {"city": "Acworth", "state": "GA", "street": "3985 Baker Rd Ste 20", "postal_code": "30101"}, "capProviderId": null, "distance": null, "has_offers": false, "name": "Domino's Pizza", "longitude": -84.615362, "has_menu": false, "awards": null, "user_review_count": 0}, {"business_operation_status": 1, "rating": null, "neighborhood": null, "image": null, "scorecard": null, "featured": false, "sample_categories": "Restaurants, Mexican", "public_id": "la-corona-mexican-grill-acworth", "id": 741378690, "votes": null, "tagline": null, "has_video": false, "website": null, "offers": null, "latitude": 34.061593, "politanName": "Atlanta, GA Metro ", "phone_number": "7709176190", "tags": [{"primary": false, "id": 11208, "name": "Mexican"}, {"primary": true, "id": 1722, "name": "Restaurants"}], "fax_number": null, "expansion": {"count": null, "uri": null}, "impression_id": "000b0000001bd909726c23464e877ba4273e2eba15", "profile": "http://www.citysearch.com/profile/741378690/acworth_ga/la_corona_mexican_grill.html", "address": {"city": "Acworth", "state": "GA", "street": "4417 S Main St", "postal_code": "30101"}, "capProviderId": null, "distance": null, "has_offers": false, "name": "La Corona Mexican Grill", "longitude": -84.665864, "has_menu": false, "awards": null, "user_review_count": 0}, {"business_operation_status": 1, "rating": null, "neighborhood": null, "image": null, "scorecard": null, "featured": false, "sample_categories": "Restaurants, Carry Out", "public_id": "waffle-house-acworth-9", "id": 610937594, "votes": null, "tagline": null, "has_video": false, "website": "http://www.citysearch.com/profile/external/610937594/acworth_ga/waffle_house.html", "offers": null, "latitude": 34.084403, "politanName": "Atlanta, GA Metro ", "phone_number": "7709170083", "tags": [{"primary": false, "id": 11247, "name": "Carry Out"}, {"primary": true, "id": 1722, "name": "Restaurants"}], "fax_number": null, "expansion": {"count": null, "uri": null}, "impression_id": "000b00000019ed07ef2864468ba6f236cc1e0a821f", "profile": "http://www.citysearch.com/profile/610937594/acworth_ga/waffle_house.html", "address": {"city": "Acworth", "state": "GA", "street": "5350 Glade Rd NW", "postal_code": "30101"}, "capProviderId": null, "distance": null, "has_offers": false, "name": "Waffle House", "longitude": -84.67642, "has_menu": false, "awards": null, "user_review_count": 0}, {"business_operation_status": 1, "rating": null, "neighborhood": null, "image": null, "scorecard": null, "featured": false, "sample_categories": "Restaurants, Pizza, Carry Out, MasterCard, Visa", "public_id": "dominos-pizza-kennesaw-2", "id": 2903801, "votes": null, "tagline": null, "has_video": false, "website": "http://www.citysearch.com/profile/external/2903801/kennesaw_ga/domino_s_pizza.html", "offers": null, "latitude": 34.051943, "politanName": "Atlanta, GA Metro ", "phone_number": "7704225545", "tags": [{"primary": false, "id": 1722, "name": "Restaurants"}, {"primary": false, "id": 11247, "name": "Carry Out"}, {"primary": false, "id": 11361, "name": "MasterCard"}, {"primary": false, "id": 11382, "name": "Visa"}, {"primary": true, "id": 11299, "name": "Pizza"}], "fax_number": null, "expansion": {"count": null, "uri": null}, "impression_id": "000b0000008c7f58a8836e40ba934721b991105877", "profile": "http://www.citysearch.com/profile/2903801/kennesaw_ga/domino_s_pizza.html", "address": {"city": "Kennesaw", "state": "GA", "street": "4055 Royal Dr NW", "postal_code": "30144"}, "capProviderId": null, "distance": null, "has_offers": false, "name": "Domino's Pizza", "longitude": -84.607333, "has_menu": true, "awards": null, "user_review_count": 0}, {"business_operation_status": 1, "rating": null, "neighborhood": null, "image": null, "scorecard": null, "featured": false, "sample_categories": "Restaurants", "public_id": "volcano-steak-sushi-acworth", "id": 625057854, "votes": null, "tagline": null, "has_video": false, "website": null, "offers": null, "latitude": 33.99646, "politanName": "Atlanta, GA Metro ", "phone_number": "7704209888", "tags": [{"primary": true, "id": 1722, "name": "Restaurants"}], "fax_number": null, "expansion": {"count": null, "uri": null}, "impression_id": "000b0000002f158d0fdd704787ae604e63e49aa470", "profile": "http://www.citysearch.com/profile/625057854/acworth_ga/volcano_steak_sushi.html", "address": {"city": "Acworth", "state": "GA", "street": "1720 Mars Hill Rd NW", "postal_code": "30101"}, "capProviderId": null, "distance": null, "has_offers": false, "name": "Volcano Steak & Sushi", "longitude": -84.70439, "has_menu": false, "awards": null, "user_review_count": 0}, {"business_operation_status": 1, "rating": null, "neighborhood": null, "image": null, "scorecard": null, "featured": false, "sample_categories": "Restaurants, Cafes", "public_id": "reveille-cafe-acworth", "id": 751333550, "votes": null, "tagline": null, "has_video": false, "website": null, "offers": null, "latitude": 33.998289, "politanName": "Atlanta, GA Metro ", "phone_number": "7706351900", "tags": [{"primary": false, "id": 6190, "name": "Cafes"}, {"primary": true, "id": 1722, "name": "Restaurants"}], "fax_number": null, "expansion": {"count": null, "uri": null}, "impression_id": "000b000000fedcec13452e48b8a00fc6783c3f7569", "profile": "http://www.citysearch.com/profile/751333550/acworth_ga/reveille_cafe.html", "address": {"city": "Acworth", "state": "GA", "street": "5330 Brookstone Dr NW # 210", "postal_code": "30101"}, "capProviderId": null, "distance": null, "has_offers": false, "name": "Reveille Cafe", "longitude": -84.710018, "has_menu": false, "awards": null, "user_review_count": 0}, {"business_operation_status": 1, "rating": null, "neighborhood": null, "image": null, "scorecard": null, "featured": false, "sample_categories": "Restaurants, Delis And Delicatessens, Sandwich Shops, Carry Out, American Express", "public_id": "subway-acworth-12", "id": 682706260, "votes": null, "tagline": null, "has_video": false, "website": "http://www.citysearch.com/profile/external/682706260/acworth_ga/subway.html", "offers": null, "latitude": 34.060456, "politanName": "Atlanta, GA Metro ", "phone_number": "7709171230", "tags": [{"primary": false, "id": 1727, "name": "Delis And Delicatessens"}, {"primary": false, "id": 1736, "name": "Sandwich Shops"}, {"primary": false, "id": 11247, "name": "Carry Out"}, {"primary": false, "id": 11333, "name": "American Express"}, {"primary": false, "id": 11349, "name": "Discover"}, {"primary": false, "id": 11361, "name": "MasterCard"}, {"primary": false, "id": 11382, "name": "Visa"}, {"primary": true, "id": 1722, "name": "Restaurants"}], "fax_number": null, "expansion": {"count": null, "uri": null}, "impression_id": "000b000000b697f85a17924b2f8ff6c448e2e5ce1e", "profile": "http://www.citysearch.com/profile/682706260/acworth_ga/subway.html", "address": {"city": "Acworth", "state": "GA", "street": "3330 Cobb Pkwy Nw", "postal_code": "30101"}, "capProviderId": null, "distance": null, "has_offers": false, "name": "Subway", "longitude": -84.721428, "has_menu": true, "awards": null, "user_review_count": 1}, {"business_operation_status": 1, "rating": null, "neighborhood": null, "image": null, "scorecard": null, "featured": false, "sample_categories": "Ice Cream Parlors, Restaurants", "public_id": "maggie-moos-acworth-2", "id": 751357150, "votes": null, "tagline": null, "has_video": false, "website": null, "offers": null, "latitude": 34.039261, "politanName": "Atlanta, GA Metro ", "phone_number": "6782245681", "tags": [{"primary": false, "id": 1722, "name": "Restaurants"}, {"primary": true, "id": 1730, "name": "Ice Cream Parlors"}], "fax_number": null, "expansion": {"count": null, "uri": null}, "impression_id": "000b0000004489914a638d44b18e3131c942966845", "profile": "http://www.citysearch.com/profile/751357150/acworth_ga/maggie_moo_s.html", "address": {"city": "Acworth", "state": "GA", "street": "142 Flagstone Way", "postal_code": "30101"}, "capProviderId": null, "distance": null, "has_offers": false, "name": "Maggie Moo's", "longitude": -84.775909, "has_menu": false, "awards": null, "user_review_count": 0}, {"business_operation_status": 1, "rating": 8.0, "neighborhood": null, "image": "http://images.citysearch.net/assets/imgdb/merchant/2015/3/18/0/zKAXTjbf208.jpeg", "scorecard": null, "featured": true, "sample_categories": "Restaurants, New American, Traditional American, Seafood, $$", "public_id": "longhorn-steakhouse-marietta-2", "id": 2906120, "votes": null, "tagline": "Come in today & enjoy what we call a \"cut-above\" experience", "has_video": false, "website": "http://www.citysearch.com/profile/external/2906120/marietta_ga/longhorn_steakhouse.html", "offers": null, "latitude": 33.947061, "politanName": "Atlanta, GA Metro ", "phone_number": "6787019006", "tags": [{"primary": false, "id": 11189, "name": "New American"}, {"primary": false, "id": 11190, "name": "Traditional American"}, {"primary": false, "id": 11228, "name": "Seafood"}, {"primary": false, "id": 11232, "name": "$$"}, {"primary": false, "id": 11247, "name": "Carry Out"}, {"primary": false, "id": 11258, "name": "Dine At The Bar"}, {"primary": false, "id": 11263, "name": "Family-Friendly Dining"}, {"primary": false, "id": 11269, "name": "Group Dining"}, {"primary": false, "id": 11316, "name": "Steakhouse"}, {"primary": false, "id": 11333, "name": "American Express"}, {"primary": false, "id": 11349, "name": "Discover"}, {"primary": false, "id": 11361, "name": "MasterCard"}, {"primary": false, "id": 11382, "name": "Visa"}, {"primary": true, "id": 1722, "name": "Restaurants"}], "fax_number": null, "expansion": {"count": null, "uri": null}, "impression_id": "000b0000002d85f825ea264e9d94c7216c38b2e39d", "profile": "http://www.citysearch.com/profile/2906120/marietta_ga/longhorn_steakhouse.html", "address": {"city": "Marietta", "state": "GA", "street": "2636 Dallas Hwy. SW", "postal_code": "30064"}, "capProviderId": 1, "distance": null, "has_offers": false, "name": "LongHorn Steakhouse", "longitude": -84.628665, "has_menu": true, "awards": null, "user_review_count": 2}, {"business_operation_status": 1, "rating": null, "neighborhood": null, "image": "http://images.citysearch.net/assets/imgdb/merchant/2015/3/18/0/zKAXTjbf208.jpeg", "scorecard": null, "featured": true, "sample_categories": "Restaurants, New American, Traditional American, Seafood, $$", "public_id": "longhorn-steakhouse-cartersville-2", "id": 620242514, "votes": null, "tagline": "Come in today & enjoy what we call a \"cut-above\" experience", "has_video": false, "website": "http://www.citysearch.com/profile/external/620242514/cartersville_ga/longhorn_steakhouse.html", "offers": null, "latitude": 34.167829, "politanName": "Atlanta, GA Metro ", "phone_number": "6789924154", "tags": [{"primary": false, "id": 11189, "name": "New American"}, {"primary": false, "id": 11190, "name": "Traditional American"}, {"primary": false, "id": 11228, "name": "Seafood"}, {"primary": false, "id": 11232, "name": "$$"}, {"primary": false, "id": 11247, "name": "Carry Out"}, {"primary": false, "id": 11258, "name": "Dine At The Bar"}, {"primary": false, "id": 11263, "name": "Family-Friendly Dining"}, {"primary": false, "id": 11269, "name": "Group Dining"}, {"primary": false, "id": 11316, "name": "Steakhouse"}, {"primary": false, "id": 11333, "name": "American Express"}, {"primary": false, "id": 11349, "name": "Discover"}, {"primary": false, "id": 11361, "name": "MasterCard"}, {"primary": false, "id": 11382, "name": "Visa"}, {"primary": true, "id": 1722, "name": "Restaurants"}], "fax_number": null, "expansion": {"count": null, "uri": null}, "impression_id": "000b000000fd6511fe380c4e92a105856aed3b8bc1", "profile": "http://www.citysearch.com/profile/620242514/cartersville_ga/longhorn_steakhouse.html", "address": {"city": "Cartersville", "state": "GA", "street": "463 East Main Street", "postal_code": "30120"}, "capProviderId": 1, "distance": null, "has_offers": false, "name": "LongHorn Steakhouse", "longitude": -84.785091, "has_menu": true, "awards": null, "user_review_count": 0}, {"business_operation_status": 1, "rating": 7.0, "neighborhood": null, "image": "http://images.citysearch.net/assets/imgdb/merchant/2015/3/3/0/XbDaJnPm123.jpeg", "scorecard": null, "featured": true, "sample_categories": "Restaurants, New American, Carry Out, Family Style Dining, Family-Friendly Dining", "public_id": "olive-garden-kennesaw", "id": 2955103, "votes": null, "tagline": "Buy One Take One is Back! Starting at $12.99", "has_video": false, "website": "http://www.citysearch.com/profile/external/2955103/kennesaw_ga/olive_garden.html", "offers": null, "latitude": 34.01221, "politanName": "Atlanta, GA Metro ", "phone_number": "7704243668", "tags": [{"primary": false, "id": 11189, "name": "New American"}, {"primary": false, "id": 11247, "name": "Carry Out"}, {"primary": false, "id": 11262, "name": "Family Style Dining"}, {"primary": false, "id": 11263, "name": "Family-Friendly Dining"}, {"primary": false, "id": 11279, "name": "Italian"}, {"primary": false, "id": 11286, "name": "Lunch Spot"}, {"primary": false, "id": 11333, "name": "American Express"}, {"primary": false, "id": 11349, "name": "Discover"}, {"primary": false, "id": 11361, "name": "MasterCard"}, {"primary": false, "id": 11382, "name": "Visa"}, {"primary": true, "id": 1722, "name": "Restaurants"}], "fax_number": null, "expansion": {"count": null, "uri": null}, "impression_id": "000b00000002ab9a6be92443c08662ee122729c069", "profile": "http://www.citysearch.com/profile/2955103/kennesaw_ga/olive_garden.html", "address": {"city": "Kennesaw", "state": "GA", "street": "429 Barrett Pkwy", "postal_code": "30144"}, "capProviderId": 1, "distance": null, "has_offers": false, "name": "Olive Garden", "longitude": -84.562972, "has_menu": true, "awards": null, "user_review_count": 4}, {"business_operation_status": 1, "rating": 8.0, "neighborhood": null, "image": null, "scorecard": null, "featured": false, "sample_categories": "Restaurants, Traditional American, $$, Cajun & Creole, Family-Friendly Dining", "public_id": "copelands-of-new-orleans-kennesaw", "id": 11526325, "votes": null, "tagline": null, "has_video": false, "website": "http://www.citysearch.com/profile/external/11526325/kennesaw_ga/copeland_s_of_new_orleans.html", "offers": null, "latitude": 34.001836, "politanName": "Atlanta, GA Metro ", "phone_number": "7709199612", "tags": [{"primary": false, "id": 11190, "name": "Traditional American"}, {"primary": false, "id": 11232, "name": "$$"}, {"primary": false, "id": 11245, "name": "Cajun & Creole"}, {"primary": false, "id": 11263, "name": "Family-Friendly Dining"}, {"primary": false, "id": 11269, "name": "Group Dining"}, {"primary": false, "id": 11333, "name": "American Express"}, {"primary": false, "id": 11349, "name": "Discover"}, {"primary": false, "id": 11361, "name": "MasterCard"}, {"primary": false, "id": 11382, "name": "Visa"}, {"primary": true, "id": 1722, "name": "Restaurants"}], "fax_number": null, "expansion": {"count": null, "uri": null}, "impression_id": "000b000000b29fac4a95aa4f32b361af7919149912", "profile": "http://www.citysearch.com/profile/11526325/kennesaw_ga/copeland_s_of_new_orleans.html", "address": {"city": "Kennesaw", "state": "GA", "street": "1142 Ernest W Barrett Pkwy NW", "postal_code": "30144"}, "capProviderId": null, "distance": null, "has_offers": false, "name": "Copeland's Of New Orleans", "longitude": -84.582883, "has_menu": true, "awards": null, "user_review_count": 14}, {"business_operation_status": 1, "rating": 8.0, "neighborhood": null, "image": "http://images.citysearch.net/assets/imgdb/merchant/2010/1/7/0/daEalvab67.jpeg", "scorecard": null, "featured": false, "sample_categories": "Bars & Pubs, Bars & Clubs, Irish Pubs, Sports Bars, Restaurants", "public_id": "paddys-pub-eatery-kennesaw", "id": 603367432, "votes": null, "tagline": "Authentic Irish Pub with a great beer selection", "has_video": false, "website": "http://www.citysearch.com/profile/external/603367432/kennesaw_ga/paddy_s_pub_eatery.html", "offers": null, "latitude": 34.022601, "politanName": "Atlanta, GA Metro ", "phone_number": "7704211234", "tags": [{"primary": false, "id": 164, "name": "Bars & Clubs"}, {"primary": false, "id": 1688, "name": "Irish Pubs"}, {"primary": false, "id": 1701, "name": "Sports Bars"}, {"primary": false, "id": 1722, "name": "Restaurants"}, {"primary": false, "id": 11263, "name": "Family-Friendly Dining"}, {"primary": true, "id": 1686, "name": "Bars & Pubs"}], "fax_number": null, "expansion": {"count": null, "uri": null}, "impression_id": "000b000000191dabccb37d48a695cb9d818882da42", "profile": "http://www.citysearch.com/profile/603367432/kennesaw_ga/paddy_s_pub_eatery.html", "address": {"city": "Kennesaw", "state": "GA", "street": "2196 Cobb Pkwy NW", "postal_code": "30152"}, "capProviderId": null, "distance": null, "has_offers": false, "name": "Paddy's Pub & Eatery", "longitude": -84.626408, "has_menu": false, "awards": null, "user_review_count": 22}, {"business_operation_status": 1, "rating": 10.0, "neighborhood": null, "image": null, "scorecard": null, "featured": false, "sample_categories": "Restaurants, Sushi, Japanese, Asian", "public_id": "yellow-tail-sushi-bar-kennesaw", "id": 602697492, "votes": null, "tagline": "Yellow Fin Sushi  \"The Best Japanese Fusion Restaurant in Kennesaw\"", "has_video": false, "website": null, "offers": null, "latitude": 34.035364, "politanName": "Atlanta, GA Metro ", "phone_number": "7704212918", "tags": [{"primary": false, "id": 11201, "name": "Sushi"}, {"primary": false, "id": 11202, "name": "Japanese"}, {"primary": false, "id": 11235, "name": "Asian"}, {"primary": true, "id": 1722, "name": "Restaurants"}], "fax_number": null, "expansion": {"count": null, "uri": null}, "impression_id": "000b0000008f735d6e35704d089cd2169f3d7c2306", "profile": "http://www.citysearch.com/profile/602697492/kennesaw_ga/yellow_tail_sushi_bar.html", "address": {"city": "Kennesaw", "state": "GA", "street": "745 Chastain Road NW Suite 1030", "postal_code": "30144"}, "capProviderId": null, "distance": null, "has_offers": false, "name": "Yellow Tail Sushi & Bar", "longitude": -84.570141, "has_menu": false, "awards": null, "user_review_count": 9}, {"business_operation_status": 0, "rating": 10.0, "neighborhood": null, "image": "http://images.citysearch.net/assets/imgdb/b7/11/e1/25/2e/46/4d/70/bd/cd/94/07/61/9c/45/a1.jpg", "scorecard": null, "featured": false, "sample_categories": "Spanish", "public_id": "a-taste-of-puerto-rico-marietta", "id": 47566700, "votes": null, "tagline": "Marietta's Puerto Rican Experience!", "has_video": false, "website": null, "offers": null, "latitude": 34.0531, "politanName": "Atlanta, GA Metro ", "phone_number": "6787979992", "tags": [{"primary": true, "id": 11314, "name": "Spanish"}], "fax_number": null, "expansion": {"count": null, "uri": null}, "impression_id": "000b000000e90978b10cce4bada0aeb7047039ffd2", "profile": "http://www.citysearch.com/profile/47566700/marietta_ga/a_taste_of_puerto_rico.html", "address": {"city": "Marietta", "state": "GA", "street": "2769 Chastain Meadow Pkwy", "postal_code": "30066"}, "capProviderId": null, "distance": null, "has_offers": false, "name": "A Taste of Puerto Rico", "longitude": -84.512148, "has_menu": false, "awards": null, "user_review_count": 4}, {"business_operation_status": 1, "rating": null, "neighborhood": null, "image": "http://images.citysearch.net/assets/imgdb/merchant/2010/12/23/0/PJvPGMvM24.jpeg", "scorecard": null, "featured": false, "sample_categories": "Restaurants, Chicken Wings, Neighborhood Bars, Sports Bars, Catering", "public_id": "otters-chicken-sports-bar-grill-marietta", "id": 604423012, "votes": null, "tagline": "Otter's Chicken Sports Bar & Grill, Marrietta | If The Kernel Had Our Chicken, He'd Be A General By Now", "has_video": false, "website": "http://www.citysearch.com/profile/external/604423012/marietta_ga/otter_s_chicken_sports_bar_grill.html", "offers": "$2 Draft Beer Specials", "latitude": 33.952164, "politanName": "Atlanta, GA Metro ", "phone_number": "7704288333", "tags": [{"primary": false, "id": 13700, "name": "Chicken Wings"}, {"primary": false, "id": 1698, "name": "Neighborhood Bars"}, {"primary": false, "id": 1701, "name": "Sports Bars"}, {"primary": false, "id": 1705, "name": "Catering"}, {"primary": false, "id": 11085, "name": "Draft Beer"}, {"primary": false, "id": 11190, "name": "Traditional American"}, {"primary": false, "id": 11231, "name": "$"}, {"primary": false, "id": 11237, "name": "Bar Menu"}, {"primary": false, "id": 11245, "name": "Cajun & Creole"}, {"primary": false, "id": 11247, "name": "Carry Out"}, {"primary": false, "id": 11263, "name": "Family-Friendly Dining"}, {"primary": false, "id": 11284, "name": "Local Favorite"}, {"primary": false, "id": 11286, "name": "Lunch Spot"}, {"primary": false, "id": 11292, "name": "Notable Beer List"}, {"primary": false, "id": 11296, "name": "Outdoor Dining"}, {"primary": false, "id": 11333, "name": "American Express"}, {"primary": false, "id": 11339, "name": "Cash"}, {"primary": false, "id": 11340, "name": "Casual"}, {"primary": false, "id": 11361, "name": "MasterCard"}, {"primary": false, "id": 11369, "name": "Parking Lot"}, {"primary": false, "id": 11382, "name": "Visa"}, {"primary": false, "id": 12821, "name": "Casual Date Spot"}, {"primary": false, "id": 12839, "name": "Chicken"}, {"primary": true, "id": 1722, "name": "Restaurants"}], "fax_number": null, "expansion": {"count": null, "uri": null}, "impression_id": "000b000000e5dada01f97746cfa73270a99138c875", "profile": "http://www.citysearch.com/profile/604423012/marietta_ga/otter_s_chicken_sports_bar_grill.html", "address": {"city": "Marietta", "state": "GA", "street": "3625 Dallas Hwy SW Ste 690", "postal_code": "30064"}, "capProviderId": null, "distance": null, "has_offers": true, "name": "Otter's Chicken Sports Bar & Grill", "longitude": -84.657799, "has_menu": false, "awards": null, "user_review_count": 0}, {"business_operation_status": 1, "rating": 10.0, "neighborhood": null, "image": "http://images.citysearch.net/assets/imgdb/merchant/2010/8/19/0/ZenXAKOc169.jpeg", "scorecard": null, "featured": false, "sample_categories": "Restaurants, Sandwich Shops, Pizza, $, Carry Out", "public_id": "g-angelos-marietta", "id": 2908297, "votes": null, "tagline": "We Deliver the Best Pizza, in Marietta, to Your Door Step!", "has_video": false, "website": "http://www.citysearch.com/profile/external/2908297/marietta_ga/g_angelo_s.html", "offers": "Carry Out Special!", "latitude": 34.030179, "politanName": "Atlanta, GA Metro ", "phone_number": "7704241800", "tags": [{"primary": false, "id": 1722, "name": "Restaurants"}, {"primary": false, "id": 1736, "name": "Sandwich Shops"}, {"primary": false, "id": 11231, "name": "$"}, {"primary": false, "id": 11247, "name": "Carry Out"}, {"primary": false, "id": 11249, "name": "Cheap Eats"}, {"primary": false, "id": 11256, "name": "Date Spot"}, {"primary": false, "id": 11262, "name": "Family Style Dining"}, {"primary": false, "id": 11263, "name": "Family-Friendly Dining"}, {"primary": false, "id": 11267, "name": "Food Delivery"}, {"primary": false, "id": 11269, "name": "Group Dining"}, {"primary": false, "id": 11279, "name": "Italian"}, {"primary": false, "id": 11284, "name": "Local Favorite"}, {"primary": false, "id": 11286, "name": "Lunch Spot"}, {"primary": false, "id": 11333, "name": "American Express"}, {"primary": false, "id": 11339, "name": "Cash"}, {"primary": false, "id": 11340, "name": "Casual"}, {"primary": false, "id": 11349, "name": "Discover"}, {"primary": false, "id": 11361, "name": "MasterCard"}, {"primary": false, "id": 11369, "name": "Parking Lot"}, {"primary": false, "id": 11382, "name": "Visa"}, {"primary": false, "id": 12821, "name": "Casual Date Spot"}, {"primary": false, "id": 14890, "name": "Comfort Food"}, {"primary": true, "id": 11299, "name": "Pizza"}], "fax_number": null, "expansion": {"count": null, "uri": null}, "impression_id": "000b000000714a96c3468b4295b968ab9c79203bea", "profile": "http://www.citysearch.com/profile/2908297/marietta_ga/g_angelo_s.html", "address": {"city": "Marietta", "state": "GA", "street": "3205 Canton Rd 108", "postal_code": "30066"}, "capProviderId": null, "distance": null, "has_offers": true, "name": "G' Angelo's", "longitude": -84.528473, "has_menu": true, "awards": null, "user_review_count": 5}, {"business_operation_status": 0, "rating": null, "neighborhood": null, "image": "http://images.citysearch.net/assets/imgdb/be/2b/5e/ce/3d/91/43/fe/82/af/b4/d3/e5/22/ff/e1.jpg", "scorecard": null, "featured": false, "sample_categories": "Restaurants, Bars & Clubs, Sports Bars, Barbecue Restaurants, Traditional American", "public_id": "smokey-bones-kennesaw", "id": 603147292, "votes": null, "tagline": "Good food, good drinks and good times at Smokey Bones Bar & Fire Grill", "has_video": false, "website": "http://www.citysearch.com/profile/external/603147292/kennesaw_ga/smokey_bones.html", "offers": null, "latitude": 34.012685, "politanName": "Atlanta, GA Metro ", "phone_number": "6782907771", "tags": [{"primary": false, "id": 164, "name": "Bars & Clubs"}, {"primary": false, "id": 1701, "name": "Sports Bars"}, {"primary": false, "id": 1724, "name": "Barbecue Restaurants"}, {"primary": false, "id": 11190, "name": "Traditional American"}, {"primary": false, "id": 11247, "name": "Carry Out"}, {"primary": false, "id": 11375, "name": "Shop Online"}, {"primary": true, "id": 1722, "name": "Restaurants"}], "fax_number": null, "expansion": {"count": null, "uri": null}, "impression_id": "000b0000002949586d4dc3498d81d7e7655608d665", "profile": "http://www.citysearch.com/profile/603147292/kennesaw_ga/smokey_bones.html", "address": {"city": "Kennesaw", "state": "GA", "street": "2475 George Busbee Parkway", "postal_code": "30144"}, "capProviderId": null, "distance": null, "has_offers": false, "name": "Smokey Bones", "longitude": -84.56563, "has_menu": true, "awards": null, "user_review_count": 7}, {"business_operation_status": 1, "rating": 8.0, "neighborhood": null, "image": "http://images.citysearch.net/assets/imgdb/merchant/2010/8/13/0/QnBUvXuT46.jpeg", "scorecard": null, "featured": false, "sample_categories": "Restaurants, Carry Out, Cheap Eats, Food Delivery, Pizza", "public_id": "papa-johns-pizza-woodstock-2", "id": 2964977, "votes": null, "tagline": "Better Ingredients.  Better Pizza.  Papa John's.", "has_video": false, "website": "http://www.citysearch.com/profile/external/2964977/woodstock_ga/papa_john_s_pizza.html", "offers": null, "latitude": 34.108667, "politanName": "Atlanta, GA Metro ", "phone_number": "7705917272", "tags": [{"primary": false, "id": 11247, "name": "Carry Out"}, {"primary": false, "id": 11249, "name": "Cheap Eats"}, {"primary": false, "id": 11267, "name": "Food Delivery"}, {"primary": false, "id": 11299, "name": "Pizza"}, {"primary": false, "id": 11333, "name": "American Express"}, {"primary": false, "id": 11349, "name": "Discover"}, {"primary": false, "id": 11361, "name": "MasterCard"}, {"primary": false, "id": 11382, "name": "Visa"}, {"primary": true, "id": 1722, "name": "Restaurants"}], "fax_number": null, "expansion": {"count": null, "uri": null}, "impression_id": "000b000000ecb3ee5f029c42b3a588c84c1db11377", "profile": "http://www.citysearch.com/profile/2964977/woodstock_ga/papa_john_s_pizza.html", "address": {"city": "Woodstock", "state": "GA", "street": "2035 Towne Lake Pkwy", "postal_code": "30189"}, "capProviderId": null, "distance": null, "has_offers": false, "name": "Papa John's Pizza", "longitude": -84.551604, "has_menu": true, "awards": null, "user_review_count": 1}, {"business_operation_status": 1, "rating": null, "neighborhood": null, "image": "http://images.citysearch.net/assets/imgdb/merchant/2010/8/13/0/QnBUvXuT46.jpeg", "scorecard": null, "featured": false, "sample_categories": "Restaurants, Carry Out, Cheap Eats, Food Delivery, Pizza", "public_id": "papa-johns-pizza-kennesaw-2", "id": 2957208, "votes": null, "tagline": "Better Ingredients.  Better Pizza.  Papa John's.", "has_video": false, "website": "http://www.citysearch.com/profile/external/2957208/kennesaw_ga/papa_john_s_pizza.html", "offers": null, "latitude": 34.02334, "politanName": "Atlanta, GA Metro ", "phone_number": "7704285333", "tags": [{"primary": false, "id": 11247, "name": "Carry Out"}, {"primary": false, "id": 11249, "name": "Cheap Eats"}, {"primary": false, "id": 11267, "name": "Food Delivery"}, {"primary": false, "id": 11299, "name": "Pizza"}, {"primary": false, "id": 11333, "name": "American Express"}, {"primary": false, "id": 11349, "name": "Discover"}, {"primary": false, "id": 11361, "name": "MasterCard"}, {"primary": false, "id": 11382, "name": "Visa"}, {"primary": true, "id": 1722, "name": "Restaurants"}], "fax_number": null, "expansion": {"count": null, "uri": null}, "impression_id": "000b000000cbe9a68b3511415eb4dda872aa5e9305", "profile": "http://www.citysearch.com/profile/2957208/kennesaw_ga/papa_john_s_pizza.html", "address": {"city": "Kennesaw", "state": "GA", "street": "2774 Cobb Pkwy NW Ste 103", "postal_code": "30152"}, "capProviderId": null, "distance": null, "has_offers": false, "name": "Papa John's Pizza", "longitude": -84.624608, "has_menu": true, "awards": null, "user_review_count": 1}, {"business_operation_status": 1, "rating": null, "neighborhood": null, "image": "http://images.citysearch.net/assets/imgdb/merchant/2010/8/13/0/QnBUvXuT46.jpeg", "scorecard": null, "featured": false, "sample_categories": "Restaurants, Carry Out, Cheap Eats, Food Delivery, Pizza", "public_id": "papa-johns-pizza-kennesaw", "id": 2955050, "votes": null, "tagline": "Better Ingredients.  Better Pizza.  Papa John's.", "has_video": false, "website": "http://www.citysearch.com/profile/external/2955050/kennesaw_ga/papa_john_s_pizza.html", "offers": null, "latitude": 34.060359, "politanName": "Atlanta, GA Metro ", "phone_number": "7709192169", "tags": [{"primary": false, "id": 11247, "name": "Carry Out"}, {"primary": false, "id": 11249, "name": "Cheap Eats"}, {"primary": false, "id": 11267, "name": "Food Delivery"}, {"primary": false, "id": 11299, "name": "Pizza"}, {"primary": false, "id": 11333, "name": "American Express"}, {"primary": false, "id": 11349, "name": "Discover"}, {"primary": false, "id": 11361, "name": "MasterCard"}, {"primary": false, "id": 11382, "name": "Visa"}, {"primary": true, "id": 1722, "name": "Restaurants"}], "fax_number": null, "expansion": {"count": null, "uri": null}, "impression_id": "000b000000412d4286dc504e4ab5428158f6c4bb51", "profile": "http://www.citysearch.com/profile/2955050/kennesaw_ga/papa_john_s_pizza.html", "address": {"city": "Kennesaw", "state": "GA", "street": "4450 Wade Green Rd NW", "postal_code": "30144"}, "capProviderId": null, "distance": null, "has_offers": false, "name": "Papa John's Pizza", "longitude": -84.592668, "has_menu": true, "awards": null, "user_review_count": 0}, {"business_operation_status": 1, "rating": null, "neighborhood": null, "image": "http://images.citysearch.net/assets/imgdb/merchant/2010/8/13/0/QnBUvXuT46.jpeg", "scorecard": null, "featured": false, "sample_categories": "Restaurants, Carry Out, Cheap Eats, Food Delivery, Pizza", "public_id": "papa-johns-pizza-cartersville", "id": 2945923, "votes": null, "tagline": "Better Ingredients.  Better Pizza.  Papa John's.", "has_video": false, "website": "http://www.citysearch.com/profile/external/2945923/cartersville_ga/papa_john_s_pizza.html", "offers": null, "latitude": 34.166193, "politanName": "Atlanta, GA Metro ", "phone_number": "7706068787", "tags": [{"primary": false, "id": 11247, "name": "Carry Out"}, {"primary": false, "id": 11249, "name": "Cheap Eats"}, {"primary": false, "id": 11267, "name": "Food Delivery"}, {"primary": false, "id": 11299, "name": "Pizza"}, {"primary": false, "id": 11361, "name": "MasterCard"}, {"primary": false, "id": 11382, "name": "Visa"}, {"primary": true, "id": 1722, "name": "Restaurants"}], "fax_number": null, "expansion": {"count": null, "uri": null}, "impression_id": "000b0000000dfd46a4fa6d48c3beae2f50b0b78913", "profile": "http://www.citysearch.com/profile/2945923/cartersville_ga/papa_john_s_pizza.html", "address": {"city": "Cartersville", "state": "GA", "street": "7 S Dixie Ave", "postal_code": "30120"}, "capProviderId": null, "distance": null, "has_offers": false, "name": "Papa John's Pizza", "longitude": -84.789706, "has_menu": true, "awards": null, "user_review_count": 0}, {"business_operation_status": 1, "rating": null, "neighborhood": null, "image": "http://images.citysearch.net/assets/imgdb/c7/65/a7/46/05/48/42/f1/8d/df/02/14/66/11/15/f9.JPG", "scorecard": null, "featured": false, "sample_categories": "Neighborhood Bars, Restaurants, After Work, Notable Beer List, Mexican", "public_id": "taco-mac-marietta-marietta", "id": 602949692, "votes": null, "tagline": "Atlanta's original Buffalo wings & largest draught selection in town!", "has_video": false, "website": "http://www.citysearch.com/profile/external/602949692/marietta_ga/taco_mac_marietta.html", "offers": null, "latitude": 33.953449, "politanName": "Atlanta, GA Metro ", "phone_number": "7707951144", "tags": [{"primary": false, "id": 1722, "name": "Restaurants"}, {"primary": false, "id": 10015, "name": "After Work"}, {"primary": false, "id": 11102, "name": "Notable Beer List"}, {"primary": false, "id": 11208, "name": "Mexican"}, {"primary": false, "id": 11237, "name": "Bar Menu"}, {"primary": false, "id": 11238, "name": "Bar Scene"}, {"primary": false, "id": 11258, "name": "Dine At The Bar"}, {"primary": false, "id": 11263, "name": "Family-Friendly Dining"}, {"primary": false, "id": 11292, "name": "Notable Beer List"}, {"primary": false, "id": 11313, "name": "Southwestern"}, {"primary": false, "id": 11333, "name": "American Express"}, {"primary": false, "id": 11361, "name": "MasterCard"}, {"primary": false, "id": 11382, "name": "Visa"}, {"primary": false, "id": 12821, "name": "Casual Date Spot"}, {"primary": true, "id": 1698, "name": "Neighborhood Bars"}], "fax_number": "7707958736", "expansion": {"count": null, "uri": null}, "impression_id": "000b00000043b3dc2f77884bc2b73e1fed9136a5fc", "profile": "http://www.citysearch.com/profile/602949692/marietta_ga/taco_mac_marietta.html", "address": {"city": "Marietta", "state": "GA", "street": "2650 Dallas Highway, Suite 110", "postal_code": "30064"}, "capProviderId": null, "distance": null, "has_offers": false, "name": "Taco Mac Marietta", "longitude": -84.658913, "has_menu": true, "awards": null, "user_review_count": 1}, {"business_operation_status": 1, "rating": null, "neighborhood": null, "image": "http://images.citysearch.net/assets/imgdb/merchant/2010/8/13/0/QnBUvXuT46.jpeg", "scorecard": null, "featured": false, "sample_categories": "Restaurants, Carry Out, Cheap Eats, Food Delivery, Pizza", "public_id": "papa-johns-pizza-powder-spgs", "id": 2950207, "votes": null, "tagline": "Better Ingredients.  Better Pizza.  Papa John's.", "has_video": false, "website": "http://www.citysearch.com/profile/external/2950207/powder_springs_ga/papa_john_s_pizza.html", "offers": null, "latitude": 33.941758, "politanName": "Atlanta, GA Metro ", "phone_number": "7705141444", "tags": [{"primary": false, "id": 11247, "name": "Carry Out"}, {"primary": false, "id": 11249, "name": "Cheap Eats"}, {"primary": false, "id": 11267, "name": "Food Delivery"}, {"primary": false, "id": 11299, "name": "Pizza"}, {"primary": true, "id": 1722, "name": "Restaurants"}], "fax_number": null, "expansion": {"count": null, "uri": null}, "impression_id": "000b000000aa73563520874c79baee54ffa710e760", "profile": "http://www.citysearch.com/profile/2950207/powder_springs_ga/papa_john_s_pizza.html", "address": {"city": "Powder Springs", "state": "GA", "street": "5200 Dallas Hwy", "postal_code": "30127"}, "capProviderId": null, "distance": null, "has_offers": false, "name": "Papa John's Pizza", "longitude": -84.702798, "has_menu": true, "awards": null, "user_review_count": 0}, {"business_operation_status": 1, "rating": null, "neighborhood": null, "image": "http://o1.aolcdn.com/dims-shared/dims3/PATCH/resize/600x450/http://hss-prod.hss.aol.com/hss/storage/patch/356f3528935281699a6f07eaccb0ce1c", "scorecard": null, "featured": false, "sample_categories": "Catering, Restaurants, Pizza, Carry Out, Food Delivery", "public_id": "pizza-hut-marietta-5", "id": 33645246, "votes": null, "tagline": "Order From Pizza Hut Online Today! Choose Real Taste and So Much More.", "has_video": false, "website": "http://www.citysearch.com/profile/external/33645246/marietta_ga/pizza_hut.html", "offers": null, "latitude": 33.948072, "politanName": "Atlanta, GA Metro ", "phone_number": "6787979722", "tags": [{"primary": false, "id": 1705, "name": "Catering"}, {"primary": false, "id": 11299, "name": "Pizza"}, {"primary": false, "id": 11247, "name": "Carry Out"}, {"primary": false, "id": 11267, "name": "Food Delivery"}, {"primary": false, "id": 11333, "name": "American Express"}, {"primary": false, "id": 11349, "name": "Discover"}, {"primary": false, "id": 11361, "name": "MasterCard"}, {"primary": false, "id": 11382, "name": "Visa"}, {"primary": true, "id": 1722, "name": "Restaurants"}], "fax_number": null, "expansion": {"count": null, "uri": null}, "impression_id": "000b000000e624bc513f8b46288ed21c66d57a5309", "profile": "http://www.citysearch.com/profile/33645246/marietta_ga/pizza_hut.html", "address": {"city": "Marietta", "state": "GA", "street": "2650 Dallas Hwy SW 210", "postal_code": "30064"}, "capProviderId": null, "distance": null, "has_offers": false, "name": "Pizza Hut", "longitude": -84.628919, "has_menu": true, "awards": null, "user_review_count": 0}], "histograms": [], "tag_ids": [1722], "uri": "http://api.citygridmedia.com:8080/search/places/v2/search/where?has_offers=false&type=restaurant&format=json&page=4&where=30101&rpp=50&histograms=false&publisher=10000009598&region_type=circle", "did_you_mean": "", "regions": [{"latitude": 34.042584, "default_radius": 6.64, "type": "postal_code", "name": "30101", "longitude": -84.71322699999999}], "call_id": "000b00000018e154bb66c5417a933dfe1c90345e47", "first_hit": 151, "total_hits": 1249, "geo_ids": [26343], "page": 4, "last_hit": 200}}