{"results": {"rpp": 50, "locations": [{"business_operation_status": 1, "rating": null, "neighborhood": null, "image": null, "scorecard": null, "featured": false, "sample_categories": "Bars & Pubs, Bars & Clubs, Restaurants", "public_id": "phoenix-bar-grill-hiram", "id": 647338520, "votes": null, "tagline": null, "has_video": false, "website": null, "offers": null, "latitude": 33.902083, "politanName": "Atlanta, GA Metro ", "phone_number": "6784025632", "tags": [{"primary": false, "id": 164, "name": "Bars & Clubs"}, {"primary": false, "id": 1722, "name": "Restaurants"}, {"primary": true, "id": 1686, "name": "Bars & Pubs"}], "fax_number": null, "expansion": {"count": null, "uri": null}, "impression_id": "000b00000018767eb8471e4cec86db13a452ab2c3a", "profile": "http://www.citysearch.com/profile/647338520/hiram_ga/phoenix_bar_grill.html", "address": {"city": "Hiram", "state": "GA", "street": "3716 Atlanta Hwy", "postal_code": "30141"}, "capProviderId": null, "distance": null, "has_offers": false, "name": "Phoenix Bar & Grill", "longitude": -84.771419, "has_menu": false, "awards": null, "user_review_count": 0}, {"business_operation_status": 0, "rating": null, "neighborhood": null, "image": null, "scorecard": null, "featured": false, "sample_categories": "Restaurants, Carry Out", "public_id": "burger-king-woodstock-5", "id": 682536910, "votes": null, "tagline": null, "has_video": false, "website": "http://www.citysearch.com/profile/external/682536910/woodstock_ga/burger_king.html", "offers": null, "latitude": 34.111148, "politanName": "Atlanta, GA Metro ", "phone_number": "7705911443", "tags": [{"primary": false, "id": 11247, "name": "Carry Out"}, {"primary": true, "id": 1722, "name": "Restaurants"}], "fax_number": null, "expansion": {"count": null, "uri": null}, "impression_id": "000b000000ab6beb0e9c804dbdb18b7907a6d328dc", "profile": "http://www.citysearch.com/profile/682536910/woodstock_ga/burger_king.html", "address": {"city": "Woodstock", "state": "GA", "street": "2975 Eagle Dr", "postal_code": "30189"}, "capProviderId": null, "distance": null, "has_offers": false, "name": "Burger King", "longitude": -84.555144, "has_menu": false, "awards": null, "user_review_count": 0}, {"business_operation_status": 1, "rating": null, "neighborhood": null, "image": null, "scorecard": null, "featured": false, "sample_categories": "Restaurants", "public_id": "masse-grill-bar-kennesaw", "id": 839969040, "votes": null, "tagline": null, "has_video": false, "website": null, "offers": null, "latitude": 34.020439, "politanName": "Atlanta, GA Metro ", "phone_number": "7704263095", "tags": [{"primary": true, "id": 1722, "name": "Restaurants"}], "fax_number": null, "expansion": {"count": null, "uri": null}, "impression_id": "000b0000003065b1b61c4e4ffe8e39a9dd258908ae", "profile": "http://www.citysearch.com/profile/839969040/kennesaw_ga/masse_grill_bar.html", "address": {"city": "Kennesaw", "state": "GA", "street": "2975 Ring Rd NW", "postal_code": "30144"}, "capProviderId": null, "distance": null, "has_offers": false, "name": "Masse Grill & Bar", "longitude": -84.566579, "has_menu": false, "awards": null, "user_review_count": 0}, {"business_operation_status": 1, "rating": null, "neighborhood": null, "image": null, "scorecard": null, "featured": false, "sample_categories": "Restaurants", "public_id": "brusters-kennesaw", "id": 821944740, "votes": null, "tagline": null, "has_video": false, "website": null, "offers": null, "latitude": 34.023434, "politanName": "Atlanta, GA Metro ", "phone_number": "7704939014", "tags": [{"primary": true, "id": 1722, "name": "Restaurants"}], "fax_number": null, "expansion": {"count": null, "uri": null}, "impression_id": "000b0000005b111be0c5d04fac882d0c9ab6ca5483", "profile": "http://www.citysearch.com/profile/821944740/kennesaw_ga/brusters.html", "address": {"city": "Kennesaw", "state": "GA", "street": "101 Riverwalk CT", "postal_code": "30144"}, "capProviderId": null, "distance": null, "has_offers": false, "name": "Brusters", "longitude": -84.61549, "has_menu": false, "awards": null, "user_review_count": 0}, {"business_operation_status": 1, "rating": null, "neighborhood": null, "image": null, "scorecard": null, "featured": false, "sample_categories": "Restaurants", "public_id": "beef-o-bradys-dallas", "id": 834307060, "votes": null, "tagline": null, "has_video": false, "website": "http://www.citysearch.com/profile/external/834307060/dallas_ga/beef_o_brady_s.html", "offers": null, "latitude": 33.957866, "politanName": "Atlanta, GA Metro ", "phone_number": "6783838247", "tags": [{"primary": true, "id": 1722, "name": "Restaurants"}], "fax_number": null, "expansion": {"count": null, "uri": null}, "impression_id": "000b000000f46cf1442413451cb708f4565948624a", "profile": "http://www.citysearch.com/profile/834307060/dallas_ga/beef_o_brady_s.html", "address": {"city": "Dallas", "state": "GA", "street": "55 E Paulding Dr", "postal_code": "30157"}, "capProviderId": null, "distance": null, "has_offers": false, "name": "Beef 'o' Brady's", "longitude": -84.787071, "has_menu": true, "awards": null, "user_review_count": 0}, {"business_operation_status": 0, "rating": null, "neighborhood": null, "image": null, "scorecard": null, "featured": false, "sample_categories": "Restaurants, Delis And Delicatessens, Sandwich Shops, Carry Out", "public_id": "subway-dallas-171", "id": 764874110, "votes": null, "tagline": null, "has_video": false, "website": null, "offers": null, "latitude": 33.958443, "politanName": "Atlanta, GA Metro ", "phone_number": "7709477033", "tags": [{"primary": false, "id": 1727, "name": "Delis And Delicatessens"}, {"primary": false, "id": 1736, "name": "Sandwich Shops"}, {"primary": false, "id": 11247, "name": "Carry Out"}, {"primary": true, "id": 1722, "name": "Restaurants"}], "fax_number": null, "expansion": {"count": null, "uri": null}, "impression_id": "000b000000a1586f5c6b144c88a2803ed8eedcdefc", "profile": "http://www.citysearch.com/profile/764874110/dallas_ga/subway.html", "address": {"city": "Dallas", "state": "GA", "street": "33 E Paulding Dr", "postal_code": "30157"}, "capProviderId": null, "distance": null, "has_offers": false, "name": "SUBWAY", "longitude": -84.788935, "has_menu": true, "awards": null, "user_review_count": 0}, {"business_operation_status": 1, "rating": null, "neighborhood": null, "image": null, "scorecard": null, "featured": false, "sample_categories": "Seafood Markets, Restaurants, Seafood", "public_id": "dallas-seafood-co-dallas", "id": 772188920, "votes": null, "tagline": null, "has_video": false, "website": null, "offers": null, "latitude": 33.911206, "politanName": "Atlanta, GA Metro ", "phone_number": "7705057313", "tags": [{"primary": false, "id": 1722, "name": "Restaurants"}, {"primary": false, "id": 11228, "name": "Seafood"}, {"primary": true, "id": 1719, "name": "Seafood Markets"}], "fax_number": null, "expansion": {"count": null, "uri": null}, "impression_id": "000b000000841f2c1aca5743f3b36457b6a826f5be", "profile": "http://www.citysearch.com/profile/772188920/dallas_ga/dallas_seafood_co.html", "address": {"city": "Dallas", "state": "GA", "street": "1195 Merchants Dr", "postal_code": "30132"}, "capProviderId": null, "distance": null, "has_offers": false, "name": "Dallas Seafood Co", "longitude": -84.801304, "has_menu": false, "awards": null, "user_review_count": 0}, {"business_operation_status": 1, "rating": null, "neighborhood": null, "image": null, "scorecard": null, "featured": false, "sample_categories": "Pasta Manufacturers, Restaurants, Wholesale Foods, Italian Food Products, $", "public_id": "costas-pasta-kennesaw", "id": 2957371, "votes": null, "tagline": null, "has_video": false, "website": "http://www.citysearch.com/profile/external/2957371/kennesaw_ga/costas_pasta.html", "offers": null, "latitude": 34.002327, "politanName": "Atlanta, GA Metro ", "phone_number": "7705148814", "tags": [{"primary": false, "id": 2373, "name": "Pasta Manufacturers"}, {"primary": false, "id": 1722, "name": "Restaurants"}, {"primary": false, "id": 5693, "name": "Wholesale Foods"}, {"primary": false, "id": 11154, "name": "Italian Food Products"}, {"primary": false, "id": 11231, "name": "$"}, {"primary": false, "id": 11279, "name": "Italian"}], "fax_number": null, "expansion": {"count": null, "uri": null}, "impression_id": "000b000000ecbfa52997204f52b34fe3881353ad06", "profile": "http://www.citysearch.com/profile/2957371/kennesaw_ga/costas_pasta.html", "address": {"city": "Kennesaw", "state": "GA", "street": "2045 Attic Pkwy NW", "postal_code": "30152"}, "capProviderId": null, "distance": null, "has_offers": false, "name": "Costas Pasta", "longitude": -84.604376, "has_menu": false, "awards": null, "user_review_count": 0}, {"business_operation_status": 1, "rating": null, "neighborhood": null, "image": null, "scorecard": null, "featured": false, "sample_categories": "Restaurants, Pizza", "public_id": "brothers-pizza-kennesaw", "id": 793255470, "votes": null, "tagline": null, "has_video": false, "website": null, "offers": null, "latitude": 34.020417, "politanName": "Atlanta, GA Metro ", "phone_number": "6784016215", "tags": [{"primary": false, "id": 11299, "name": "Pizza"}, {"primary": true, "id": 1722, "name": "Restaurants"}], "fax_number": null, "expansion": {"count": null, "uri": null}, "impression_id": "000b0000003c8e28124fee410ea8694a4b70f2c65c", "profile": "http://www.citysearch.com/profile/793255470/kennesaw_ga/brothers_pizza.html", "address": {"city": "Kennesaw", "state": "GA", "street": "2740 Summers St NW", "postal_code": "30144"}, "capProviderId": null, "distance": null, "has_offers": false, "name": "Brothers Pizza", "longitude": -84.614273, "has_menu": false, "awards": null, "user_review_count": 0}, {"business_operation_status": 1, "rating": null, "neighborhood": null, "image": null, "scorecard": null, "featured": false, "sample_categories": "Restaurants", "public_id": "j-ps-oyster-bar-woodstock", "id": 810045420, "votes": null, "tagline": null, "has_video": false, "website": null, "offers": null, "latitude": 34.107712, "politanName": "Atlanta, GA Metro ", "phone_number": "7705919899", "tags": [{"primary": true, "id": 1722, "name": "Restaurants"}], "fax_number": null, "expansion": {"count": null, "uri": null}, "impression_id": "000b0000003f799f5a06514dcb92e82572e7671692", "profile": "http://www.citysearch.com/profile/810045420/woodstock_ga/j_p_s_oyster_bar.html", "address": {"city": "Woodstock", "state": "GA", "street": "1105 Parkside Ln", "postal_code": "30189"}, "capProviderId": null, "distance": null, "has_offers": false, "name": "J P's Oyster Bar", "longitude": -84.553184, "has_menu": false, "awards": null, "user_review_count": 0}, {"business_operation_status": 1, "rating": null, "neighborhood": null, "image": null, "scorecard": null, "featured": false, "sample_categories": "Restaurants", "public_id": "planet-smoothie-marietta-7", "id": 812605020, "votes": null, "tagline": null, "has_video": false, "website": null, "offers": null, "latitude": 33.947326, "politanName": "Atlanta, GA Metro ", "phone_number": "7704272700", "tags": [{"primary": true, "id": 1722, "name": "Restaurants"}], "fax_number": null, "expansion": {"count": null, "uri": null}, "impression_id": "000b0000004270dc60862d4efbb63cf011cfeb93ec", "profile": "http://www.citysearch.com/profile/812605020/marietta_ga/planet_smoothie.html", "address": {"city": "Marietta", "state": "GA", "street": "3451 Ernest W Barrett NW # 145", "postal_code": "30064"}, "capProviderId": null, "distance": null, "has_offers": false, "name": "Planet Smoothie", "longitude": -84.622965, "has_menu": true, "awards": null, "user_review_count": 0}, {"business_operation_status": 1, "rating": null, "neighborhood": null, "image": null, "scorecard": null, "featured": false, "sample_categories": "Restaurants", "public_id": "noble-romans-kennesaw", "id": 814445600, "votes": null, "tagline": null, "has_video": false, "website": null, "offers": null, "latitude": 34.031399, "politanName": "Atlanta, GA Metro ", "phone_number": "7709660507", "tags": [{"primary": true, "id": 1722, "name": "Restaurants"}], "fax_number": null, "expansion": {"count": null, "uri": null}, "impression_id": "000b000000e07628637f5f49e3b57057090e079ac8", "profile": "http://www.citysearch.com/profile/814445600/kennesaw_ga/noble_roman_s.html", "address": {"city": "Kennesaw", "state": "GA", "street": "3140 Cobb Pkwy NW", "postal_code": "30152"}, "capProviderId": null, "distance": null, "has_offers": false, "name": "Noble Roman's", "longitude": -84.657284, "has_menu": false, "awards": null, "user_review_count": 0}, {"business_operation_status": 1, "rating": null, "neighborhood": null, "image": null, "scorecard": null, "featured": false, "sample_categories": "Restaurants", "public_id": "cocoa-bean-cafe-inc-kennesaw", "id": 820344180, "votes": null, "tagline": null, "has_video": false, "website": null, "offers": null, "latitude": 34.049377, "politanName": "Atlanta, GA Metro ", "phone_number": "7704225300", "tags": [{"primary": true, "id": 1722, "name": "Restaurants"}], "fax_number": null, "expansion": {"count": null, "uri": null}, "impression_id": "000b000000c54476ba31334742b3acdafcf9991ea7", "profile": "http://www.citysearch.com/profile/820344180/kennesaw_ga/cocoa_bean_cafe_inc.html", "address": {"city": "Kennesaw", "state": "GA", "street": "2090 Baker Rd NW # 104", "postal_code": "30144"}, "capProviderId": null, "distance": null, "has_offers": false, "name": "Cocoa Bean Cafe Inc", "longitude": -84.61011, "has_menu": false, "awards": null, "user_review_count": 5}, {"business_operation_status": 1, "rating": null, "neighborhood": null, "image": null, "scorecard": null, "featured": false, "sample_categories": "Restaurants", "public_id": "breakers-coffee-cartersville", "id": 822957450, "votes": null, "tagline": null, "has_video": false, "website": null, "offers": null, "latitude": 34.116501, "politanName": "Atlanta, GA Metro ", "phone_number": "7703863713", "tags": [{"primary": true, "id": 1722, "name": "Restaurants"}], "fax_number": null, "expansion": {"count": null, "uri": null}, "impression_id": "000b000000f2608878d3a943b785d69138aa72f43d", "profile": "http://www.citysearch.com/profile/822957450/cartersville_ga/breakers_coffee.html", "address": {"city": "Cartersville", "state": "GA", "street": "446 Old Alabama Rd SE", "postal_code": "30120"}, "capProviderId": null, "distance": null, "has_offers": false, "name": "Breakers Coffee", "longitude": -84.794438, "has_menu": false, "awards": null, "user_review_count": 0}, {"business_operation_status": 1, "rating": null, "neighborhood": null, "image": null, "scorecard": null, "featured": false, "sample_categories": "Restaurants", "public_id": "hong-kong-kennesaw", "id": 838053690, "votes": null, "tagline": null, "has_video": false, "website": null, "offers": null, "latitude": 34.02334, "politanName": "Atlanta, GA Metro ", "phone_number": "7704256212", "tags": [{"primary": true, "id": 1722, "name": "Restaurants"}], "fax_number": null, "expansion": {"count": null, "uri": null}, "impression_id": "000b0000001022ceb219f443abbe8ccad4ac7e18a8", "profile": "http://www.citysearch.com/profile/838053690/kennesaw_ga/hong_kong.html", "address": {"city": "Kennesaw", "state": "GA", "street": "2774 Cobb Pkwy NW # 104", "postal_code": "30152"}, "capProviderId": null, "distance": null, "has_offers": false, "name": "Hong Kong", "longitude": -84.624608, "has_menu": false, "awards": null, "user_review_count": 0}, {"business_operation_status": 1, "rating": null, "neighborhood": null, "image": null, "scorecard": null, "featured": false, "sample_categories": "Restaurants, Carry Out", "public_id": "five-guys-burgers-fries-canton-6", "id": 764843540, "votes": null, "tagline": null, "has_video": false, "website": null, "offers": null, "latitude": 34.178451, "politanName": "Atlanta, GA Metro ", "phone_number": "6783504020", "tags": [{"primary": false, "id": 11247, "name": "Carry Out"}, {"primary": true, "id": 1722, "name": "Restaurants"}], "fax_number": null, "expansion": {"count": null, "uri": null}, "impression_id": "000b000000ba2b5cf070204d07aff3dd6bd591370a", "profile": "http://www.citysearch.com/profile/764843540/canton_ga/five_guys_burgers_fries.html", "address": {"city": "Canton", "state": "GA", "street": "3760 Sixes Rd # 126", "postal_code": "30114"}, "capProviderId": null, "distance": null, "has_offers": false, "name": "Five Guys Burgers & Fries", "longitude": -84.550142, "has_menu": false, "awards": null, "user_review_count": 0}, {"business_operation_status": 1, "rating": null, "neighborhood": null, "image": null, "scorecard": null, "featured": false, "sample_categories": "Restaurants, Delis And Delicatessens", "public_id": "planet-sub-marietta", "id": 770774340, "votes": null, "tagline": null, "has_video": false, "website": null, "offers": null, "latitude": 34.013859, "politanName": "Atlanta, GA Metro ", "phone_number": "7705750206", "tags": [{"primary": false, "id": 1727, "name": "Delis And Delicatessens"}, {"primary": true, "id": 1722, "name": "Restaurants"}], "fax_number": null, "expansion": {"count": null, "uri": null}, "impression_id": "000b0000004c24d50f88794a5eb8556156979c1c6d", "profile": "http://www.citysearch.com/profile/770774340/marietta_ga/planet_sub.html", "address": {"city": "Marietta", "state": "GA", "street": "125 Barrett Pkwy", "postal_code": "30066"}, "capProviderId": null, "distance": null, "has_offers": false, "name": "Planet Sub", "longitude": -84.554543, "has_menu": false, "awards": null, "user_review_count": 0}, {"business_operation_status": 1, "rating": null, "neighborhood": null, "image": null, "scorecard": null, "featured": false, "sample_categories": "Restaurants", "public_id": "golden-cafe-woodstock", "id": 38058510, "votes": null, "tagline": null, "has_video": false, "website": null, "offers": null, "latitude": 34.127082, "politanName": "Atlanta, GA Metro ", "phone_number": "6784453828", "tags": [{"primary": true, "id": 1722, "name": "Restaurants"}], "fax_number": null, "expansion": {"count": null, "uri": null}, "impression_id": "000b0000006fdeba2a04f04788ab9aaafe44c1cb8e", "profile": "http://www.citysearch.com/profile/38058510/woodstock_ga/golden_cafe.html", "address": {"city": "Woodstock", "state": "GA", "street": "1025 Rose Creek Dr # 35380", "postal_code": "30189"}, "capProviderId": null, "distance": null, "has_offers": false, "name": "Golden Cafe", "longitude": -84.573312, "has_menu": false, "awards": null, "user_review_count": 0}, {"business_operation_status": 1, "rating": null, "neighborhood": null, "image": null, "scorecard": null, "featured": false, "sample_categories": "Restaurants", "public_id": "komatsu-cartersville", "id": 43861406, "votes": null, "tagline": null, "has_video": false, "website": "http://www.citysearch.com/profile/external/43861406/cartersville_ga/komatsu.html", "offers": null, "latitude": 34.17169, "politanName": "Atlanta, GA Metro ", "phone_number": "7706075615", "tags": [{"primary": true, "id": 1722, "name": "Restaurants"}], "fax_number": null, "expansion": {"count": null, "uri": null}, "impression_id": "000b0000004f3f96af8e6b47d2905a9a6a182e5016", "profile": "http://www.citysearch.com/profile/43861406/cartersville_ga/komatsu.html", "address": {"city": "Cartersville", "state": "GA", "street": "1515 E Main St SE", "postal_code": "30121"}, "capProviderId": null, "distance": null, "has_offers": false, "name": "Komatsu", "longitude": -84.745959, "has_menu": false, "awards": null, "user_review_count": 0}, {"business_operation_status": 1, "rating": 9.0, "neighborhood": null, "image": null, "scorecard": null, "featured": false, "sample_categories": "Restaurants, Greek", "public_id": "bobs-kebobs-kennesaw", "id": 41612270, "votes": null, "tagline": null, "has_video": false, "website": null, "offers": null, "latitude": 33.999764, "politanName": "Atlanta, GA Metro ", "phone_number": "7704224362", "tags": [{"primary": false, "id": 1722, "name": "Restaurants"}, {"primary": true, "id": 11268, "name": "Greek"}], "fax_number": null, "expansion": {"count": null, "uri": null}, "impression_id": "000b0000003ded2f276ba241b39b5e01674eca7a63", "profile": "http://www.citysearch.com/profile/41612270/kennesaw_ga/bob_s_kebobs.html", "address": {"city": "Kennesaw", "state": "GA", "street": "1200 Earnest Barrett Pkwy", "postal_code": "30144"}, "capProviderId": null, "distance": null, "has_offers": false, "name": "Bob's Kebobs", "longitude": -84.585396, "has_menu": false, "awards": null, "user_review_count": 0}, {"business_operation_status": 0, "rating": null, "neighborhood": null, "image": null, "scorecard": null, "featured": false, "sample_categories": "Restaurants, Bars & Clubs, Carry Out", "public_id": "winstons-food-spirits-kennesaw", "id": 777722010, "votes": null, "tagline": null, "has_video": false, "website": null, "offers": null, "latitude": 34.050651, "politanName": "Atlanta, GA Metro ", "phone_number": "7705905225", "tags": [{"primary": false, "id": 164, "name": "Bars & Clubs"}, {"primary": false, "id": 11247, "name": "Carry Out"}, {"primary": true, "id": 1722, "name": "Restaurants"}], "fax_number": null, "expansion": {"count": null, "uri": null}, "impression_id": "000b000000eee7ebf288794087a60473126213af77", "profile": "http://www.citysearch.com/profile/777722010/kennesaw_ga/winston_s_food_spirits.html", "address": {"city": "Kennesaw", "state": "GA", "street": "3895 Cherokee St NW # 310", "postal_code": "30144"}, "capProviderId": null, "distance": null, "has_offers": false, "name": "Winston's Food & Spirits", "longitude": -84.595701, "has_menu": false, "awards": null, "user_review_count": 0}, {"business_operation_status": 1, "rating": null, "neighborhood": null, "image": null, "scorecard": null, "featured": false, "sample_categories": "Coffeehouses", "public_id": "coffeeamcom-woodstock", "id": 810900540, "votes": null, "tagline": null, "has_video": false, "website": null, "offers": null, "latitude": 34.080772, "politanName": "Atlanta, GA Metro ", "phone_number": "6784943575", "tags": [{"primary": true, "id": 1726, "name": "Coffeehouses"}], "fax_number": null, "expansion": {"count": null, "uri": null}, "impression_id": "000b000000ab38d7f520524428a5d32db603d73747", "profile": "http://www.citysearch.com/profile/810900540/woodstock_ga/coffeeam_com.html", "address": {"city": "Woodstock", "state": "GA", "street": "100 Londonderry CT", "postal_code": "30188"}, "capProviderId": null, "distance": null, "has_offers": false, "name": "COFFEEAM.COM", "longitude": -84.501362, "has_menu": false, "awards": null, "user_review_count": 0}, {"business_operation_status": 1, "rating": null, "neighborhood": null, "image": null, "scorecard": null, "featured": false, "sample_categories": "Restaurants, Pizza", "public_id": "marcos-pizza-kennesaw", "id": 619235134, "votes": null, "tagline": null, "has_video": false, "website": "http://www.citysearch.com/profile/external/619235134/kennesaw_ga/marco_s_pizza.html", "offers": null, "latitude": 34.058006, "politanName": "Atlanta, GA Metro ", "phone_number": "6786266668", "tags": [{"primary": false, "id": 1722, "name": "Restaurants"}, {"primary": true, "id": 11299, "name": "Pizza"}], "fax_number": null, "expansion": {"count": null, "uri": null}, "impression_id": "000b000000d086662d1b3543f6b86da8501eaa08a7", "profile": "http://www.citysearch.com/profile/619235134/kennesaw_ga/marco_s_pizza.html", "address": {"city": "Kennesaw", "state": "GA", "street": "4250 Wade Green Rd NW", "postal_code": "30144"}, "capProviderId": null, "distance": null, "has_offers": false, "name": "Marco's Pizza", "longitude": -84.592307, "has_menu": false, "awards": null, "user_review_count": 0}, {"business_operation_status": 1, "rating": null, "neighborhood": null, "image": null, "scorecard": null, "featured": false, "sample_categories": "Restaurants", "public_id": "grill-depot-cartersville-4", "id": 820817920, "votes": null, "tagline": null, "has_video": false, "website": null, "offers": null, "latitude": 34.17621, "politanName": "Atlanta, GA Metro ", "phone_number": "7706068358", "tags": [{"primary": true, "id": 1722, "name": "Restaurants"}], "fax_number": null, "expansion": {"count": null, "uri": null}, "impression_id": "000b000000f27b20f20e7d4e408928a594843b55e8", "profile": "http://www.citysearch.com/profile/820817920/cartersville_ga/grill_depot.html", "address": {"city": "Cartersville", "state": "GA", "street": "501 N Tennessee St", "postal_code": "30120"}, "capProviderId": null, "distance": null, "has_offers": false, "name": "Grill Depot", "longitude": -84.792982, "has_menu": false, "awards": null, "user_review_count": 0}, {"business_operation_status": 1, "rating": null, "neighborhood": null, "image": null, "scorecard": null, "featured": false, "sample_categories": "Restaurants", "public_id": "savory-corner-kennesaw-2", "id": 839498940, "votes": null, "tagline": null, "has_video": false, "website": null, "offers": null, "latitude": 34.006214, "politanName": "Atlanta, GA Metro ", "phone_number": "7703295419", "tags": [{"primary": true, "id": 1722, "name": "Restaurants"}], "fax_number": null, "expansion": {"count": null, "uri": null}, "impression_id": "000b0000005c453fd46f75413b8fa09296555c8ea2", "profile": "http://www.citysearch.com/profile/839498940/kennesaw_ga/savory_corner.html", "address": {"city": "Kennesaw", "state": "GA", "street": "2120 Barrett Park Dr NW", "postal_code": "30144"}, "capProviderId": null, "distance": null, "has_offers": false, "name": "Savory Corner", "longitude": -84.595772, "has_menu": false, "awards": null, "user_review_count": 0}, {"business_operation_status": 1, "rating": null, "neighborhood": null, "image": null, "scorecard": null, "featured": false, "sample_categories": "Restaurants", "public_id": "american-wing-co-kennesaw", "id": 839999600, "votes": null, "tagline": null, "has_video": false, "website": null, "offers": null, "latitude": 34.017369, "politanName": "Atlanta, GA Metro ", "phone_number": "7706357648", "tags": [{"primary": true, "id": 1722, "name": "Restaurants"}], "fax_number": null, "expansion": {"count": null, "uri": null}, "impression_id": "000b000000e489182313cf492bb71c1e291c15a39b", "profile": "http://www.citysearch.com/profile/839999600/kennesaw_ga/american_wing_co.html", "address": {"city": "Kennesaw", "state": "GA", "street": "400 Ernest W Barrett Pkwy NW", "postal_code": "30144"}, "capProviderId": null, "distance": null, "has_offers": false, "name": "American Wing Co", "longitude": -84.564255, "has_menu": false, "awards": null, "user_review_count": 0}, {"business_operation_status": 1, "rating": 4.0, "neighborhood": null, "image": null, "scorecard": null, "featured": false, "sample_categories": "Bars & Pubs, Bars & Clubs, Taverns, Restaurants", "public_id": "alley-sports-bar-grill-cartersville-2", "id": 41343630, "votes": null, "tagline": null, "has_video": false, "website": null, "offers": null, "latitude": 34.161761, "politanName": "Atlanta, GA Metro ", "phone_number": "7703871885", "tags": [{"primary": false, "id": 164, "name": "Bars & Clubs"}, {"primary": false, "id": 1702, "name": "Taverns"}, {"primary": false, "id": 1722, "name": "Restaurants"}, {"primary": true, "id": 1686, "name": "Bars & Pubs"}], "fax_number": null, "expansion": {"count": null, "uri": null}, "impression_id": "000b0000000b24ee856d7247f69cbc68ba7c8a4155", "profile": "http://www.citysearch.com/profile/41343630/cartersville_ga/alley_sports_bar_grill.html", "address": {"city": "Cartersville", "state": "GA", "street": "4 West Ave", "postal_code": "30120"}, "capProviderId": null, "distance": null, "has_offers": false, "name": "Alley Sports Bar & Grill", "longitude": -84.793976, "has_menu": false, "awards": null, "user_review_count": 1}, {"business_operation_status": 1, "rating": null, "neighborhood": null, "image": null, "scorecard": null, "featured": false, "sample_categories": "Ice Cream Parlors, Restaurants", "public_id": "brusters-real-ice-cream-kennesaw-3", "id": 764842490, "votes": null, "tagline": null, "has_video": false, "website": "http://www.citysearch.com/profile/external/764842490/kennesaw_ga/bruster_s_real_ice_cream.html", "offers": null, "latitude": 34.022576, "politanName": "Atlanta, GA Metro ", "phone_number": "7706930780", "tags": [{"primary": false, "id": 1722, "name": "Restaurants"}, {"primary": true, "id": 1730, "name": "Ice Cream Parlors"}], "fax_number": null, "expansion": {"count": null, "uri": null}, "impression_id": "000b000000a349b6112b874361bd20b6a96ce277b1", "profile": "http://www.citysearch.com/profile/764842490/kennesaw_ga/bruster_s_real_ice_cream.html", "address": {"city": "Kennesaw", "state": "GA", "street": "2770 Cobb Pkwy NW", "postal_code": "30152"}, "capProviderId": null, "distance": null, "has_offers": false, "name": "Bruster's Real Ice Cream", "longitude": -84.626397, "has_menu": false, "awards": null, "user_review_count": 0}, {"business_operation_status": 1, "rating": null, "neighborhood": null, "image": null, "scorecard": null, "featured": false, "sample_categories": "Restaurants, Delis And Delicatessens, Sandwich Shops", "public_id": "blimpie-subs-sandwiches-kennesaw", "id": 43863262, "votes": null, "tagline": null, "has_video": false, "website": null, "offers": null, "latitude": 34.031732, "politanName": "Atlanta, GA Metro ", "phone_number": "7704291173", "tags": [{"primary": false, "id": 1727, "name": "Delis And Delicatessens"}, {"primary": false, "id": 1736, "name": "Sandwich Shops"}, {"primary": true, "id": 1722, "name": "Restaurants"}], "fax_number": null, "expansion": {"count": null, "uri": null}, "impression_id": "000b000000029d3ccbf13b417bb259e07df397971a", "profile": "http://www.citysearch.com/profile/43863262/kennesaw_ga/blimpie_subs_sandwiches.html", "address": {"city": "Kennesaw", "state": "GA", "street": "1025 Chastain Rd NW", "postal_code": "30144"}, "capProviderId": null, "distance": null, "has_offers": false, "name": "Blimpie Subs & Sandwiches", "longitude": -84.580243, "has_menu": true, "awards": null, "user_review_count": 0}, {"business_operation_status": 1, "rating": null, "neighborhood": null, "image": null, "scorecard": null, "featured": false, "sample_categories": "Restaurants, Pizza, American Express, Discover, MasterCard", "public_id": "pizza-atena-kennesaw", "id": 45560564, "votes": null, "tagline": null, "has_video": false, "website": null, "offers": null, "latitude": 34.047379, "politanName": "Atlanta, GA Metro ", "phone_number": "6787971888", "tags": [{"primary": false, "id": 1722, "name": "Restaurants"}, {"primary": false, "id": 11333, "name": "American Express"}, {"primary": false, "id": 11349, "name": "Discover"}, {"primary": false, "id": 11361, "name": "MasterCard"}, {"primary": false, "id": 11382, "name": "Visa"}, {"primary": true, "id": 11299, "name": "Pizza"}], "fax_number": null, "expansion": {"count": null, "uri": null}, "impression_id": "000b0000008d13dde2ea64402ab20ef79e3f4e4c3f", "profile": "http://www.citysearch.com/profile/45560564/kennesaw_ga/pizza_atena.html", "address": {"city": "Kennesaw", "state": "GA", "street": "4240 Jiles Rd NW Ste C", "postal_code": "30144"}, "capProviderId": null, "distance": null, "has_offers": false, "name": "Pizza Atena", "longitude": -84.601698, "has_menu": false, "awards": null, "user_review_count": 0}, {"business_operation_status": 1, "rating": null, "neighborhood": null, "image": null, "scorecard": null, "featured": false, "sample_categories": "Restaurants", "public_id": "nathans-hotdog-kennesaw", "id": 812541450, "votes": null, "tagline": null, "has_video": false, "website": null, "offers": null, "latitude": 34.033088, "politanName": "Atlanta, GA Metro ", "phone_number": "7704255554", "tags": [{"primary": true, "id": 1722, "name": "Restaurants"}], "fax_number": null, "expansion": {"count": null, "uri": null}, "impression_id": "000b000000b05f73923830406d8a5d8a07b5411052", "profile": "http://www.citysearch.com/profile/812541450/kennesaw_ga/nathans_hotdog.html", "address": {"city": "Kennesaw", "state": "GA", "street": "2430 George Busbee Pkwy NW", "postal_code": "30144"}, "capProviderId": null, "distance": null, "has_offers": false, "name": "Nathans Hotdog", "longitude": -84.568648, "has_menu": false, "awards": null, "user_review_count": 0}, {"business_operation_status": 1, "rating": null, "neighborhood": null, "image": null, "scorecard": null, "featured": false, "sample_categories": "Restaurants", "public_id": "taqueria-rioverde-cartersville", "id": 812914140, "votes": null, "tagline": null, "has_video": false, "website": null, "offers": null, "latitude": 34.175223, "politanName": "Atlanta, GA Metro ", "phone_number": "7703866059", "tags": [{"primary": true, "id": 1722, "name": "Restaurants"}], "fax_number": null, "expansion": {"count": null, "uri": null}, "impression_id": "000b0000002e82aeff4c6f4c388f2314ddaf431afa", "profile": "http://www.citysearch.com/profile/812914140/cartersville_ga/taqueria_rioverde.html", "address": {"city": "Cartersville", "state": "GA", "street": "128 Market Sq", "postal_code": "30120"}, "capProviderId": null, "distance": null, "has_offers": false, "name": "Taqueria Rioverde", "longitude": -84.787817, "has_menu": false, "awards": null, "user_review_count": 0}, {"business_operation_status": 1, "rating": null, "neighborhood": null, "image": null, "scorecard": null, "featured": false, "sample_categories": "Restaurants", "public_id": "party-q-marietta", "id": 618063354, "votes": null, "tagline": null, "has_video": false, "website": null, "offers": null, "latitude": 34.020818, "politanName": "Atlanta, GA Metro ", "phone_number": "6786977808", "tags": [{"primary": true, "id": 1722, "name": "Restaurants"}], "fax_number": null, "expansion": {"count": null, "uri": null}, "impression_id": "000b000000c1dfe116f12d4f1caab718ad005af38f", "profile": "http://www.citysearch.com/profile/618063354/marietta_ga/party_q.html", "address": {"city": "Marietta", "state": "GA", "street": "2821 Chastain Meadows Pkwy", "postal_code": "30066"}, "capProviderId": null, "distance": null, "has_offers": false, "name": "Party Q", "longitude": -84.55554, "has_menu": false, "awards": null, "user_review_count": 0}, {"business_operation_status": 1, "rating": null, "neighborhood": null, "image": null, "scorecard": null, "featured": false, "sample_categories": "Restaurants, Carry Out, Hamburgers", "public_id": "mc-donalds-dallas-4", "id": 622122650, "votes": null, "tagline": null, "has_video": false, "website": "http://www.citysearch.com/profile/external/622122650/dallas_ga/mc_donald_s.html", "offers": null, "latitude": 33.868024, "politanName": "Atlanta, GA Metro ", "phone_number": "7705055233", "tags": [{"primary": false, "id": 11247, "name": "Carry Out"}, {"primary": false, "id": 11270, "name": "Hamburgers"}, {"primary": true, "id": 1722, "name": "Restaurants"}], "fax_number": null, "expansion": {"count": null, "uri": null}, "impression_id": "000b00000047b35a13d4e54744bd7371a4fd0af760", "profile": "http://www.citysearch.com/profile/622122650/dallas_ga/mc_donald_s.html", "address": {"city": "Dallas", "state": "GA", "street": "3036 Villa Rica Hwy # 102", "postal_code": "30157"}, "capProviderId": null, "distance": null, "has_offers": false, "name": "Mc Donald's", "longitude": -84.842547, "has_menu": true, "awards": null, "user_review_count": 0}, {"business_operation_status": 1, "rating": null, "neighborhood": null, "image": null, "scorecard": null, "featured": false, "sample_categories": "Restaurants, Delis And Delicatessens, Sandwich Shops, Carry Out, Soups", "public_id": "subway-marietta-41", "id": 43853244, "votes": null, "tagline": null, "has_video": false, "website": "http://www.citysearch.com/profile/external/43853244/marietta_ga/subway.html", "offers": null, "latitude": 33.945791, "politanName": "Atlanta, GA Metro ", "phone_number": "7704277107", "tags": [{"primary": false, "id": 1727, "name": "Delis And Delicatessens"}, {"primary": false, "id": 1736, "name": "Sandwich Shops"}, {"primary": false, "id": 11247, "name": "Carry Out"}, {"primary": false, "id": 11311, "name": "Soups"}, {"primary": false, "id": 11361, "name": "MasterCard"}, {"primary": false, "id": 11382, "name": "Visa"}, {"primary": true, "id": 1722, "name": "Restaurants"}], "fax_number": null, "expansion": {"count": null, "uri": null}, "impression_id": "000b0000008754e35814b34b88a083352e32197b31", "profile": "http://www.citysearch.com/profile/43853244/marietta_ga/subway.html", "address": {"city": "Marietta", "state": "GA", "street": "2475 Dallas Hwy SW", "postal_code": "30064"}, "capProviderId": null, "distance": null, "has_offers": false, "name": "Subway", "longitude": -84.623056, "has_menu": true, "awards": null, "user_review_count": 0}, {"business_operation_status": 1, "rating": null, "neighborhood": null, "image": null, "scorecard": null, "featured": false, "sample_categories": "Restaurants", "public_id": "cafe-212-cartersville", "id": 648922460, "votes": null, "tagline": null, "has_video": false, "website": null, "offers": null, "latitude": 34.16406, "politanName": "Atlanta, GA Metro ", "phone_number": "7703348112", "tags": [{"primary": true, "id": 1722, "name": "Restaurants"}], "fax_number": null, "expansion": {"count": null, "uri": null}, "impression_id": "000b00000000868bdbe01f41009fce02d1591fec86", "profile": "http://www.citysearch.com/profile/648922460/cartersville_ga/cafe_212.html", "address": {"city": "Cartersville", "state": "GA", "street": "212 S Tennessee St", "postal_code": "30120"}, "capProviderId": null, "distance": null, "has_offers": false, "name": "Cafe 212", "longitude": -84.793634, "has_menu": false, "awards": null, "user_review_count": 0}, {"business_operation_status": 0, "rating": null, "neighborhood": null, "image": null, "scorecard": null, "featured": false, "sample_categories": "Restaurants, Traditional American, Carry Out", "public_id": "golden-corral-buffet-grill-cartersville", "id": 647348800, "votes": null, "tagline": null, "has_video": false, "website": null, "offers": null, "latitude": 34.16506, "politanName": "Atlanta, GA Metro ", "phone_number": "7703861377", "tags": [{"primary": false, "id": 11190, "name": "Traditional American"}, {"primary": false, "id": 11247, "name": "Carry Out"}, {"primary": true, "id": 1722, "name": "Restaurants"}], "fax_number": null, "expansion": {"count": null, "uri": null}, "impression_id": "000b000000cbdef98f5ce140068e79c48bf88e2532", "profile": "http://www.citysearch.com/profile/647348800/cartersville_ga/golden_corral_buffet_grill.html", "address": {"city": "Cartersville", "state": "GA", "street": "118 S Morningside Dr", "postal_code": "30121"}, "capProviderId": null, "distance": null, "has_offers": false, "name": "Golden Corral Buffet & Grill", "longitude": -84.788543, "has_menu": false, "awards": null, "user_review_count": 0}, {"business_operation_status": 1, "rating": null, "neighborhood": null, "image": null, "scorecard": null, "featured": false, "sample_categories": "Restaurants, Vegetarian", "public_id": "loving-hut-ii-vegetarian-kennesaw", "id": 655872850, "votes": null, "tagline": null, "has_video": false, "website": null, "offers": null, "latitude": 34.014516, "politanName": "Atlanta, GA Metro ", "phone_number": "7704290666", "tags": [{"primary": false, "id": 11230, "name": "Vegetarian"}, {"primary": true, "id": 1722, "name": "Restaurants"}], "fax_number": null, "expansion": {"count": null, "uri": null}, "impression_id": "000b0000006c0c8b02bf05457c9324fab4ec46e5df", "profile": "http://www.citysearch.com/profile/655872850/kennesaw_ga/loving_hut_ii_vegetarian.html", "address": {"city": "Kennesaw", "state": "GA", "street": "2700 Town Center Dr Nw", "postal_code": "30144"}, "capProviderId": null, "distance": null, "has_offers": false, "name": "Loving Hut Ii Vegetarian", "longitude": -84.56447, "has_menu": false, "awards": null, "user_review_count": 0}, {"business_operation_status": 1, "rating": null, "neighborhood": null, "image": null, "scorecard": null, "featured": false, "sample_categories": "Grocery Stores, Restaurants, Restaurant Management", "public_id": "peterson-foods-llc-marietta", "id": 706581950, "votes": null, "tagline": null, "has_video": false, "website": null, "offers": null, "latitude": 33.952164, "politanName": "Atlanta, GA Metro ", "phone_number": "7704288333", "tags": [{"primary": false, "id": 1722, "name": "Restaurants"}, {"primary": false, "id": 11122, "name": "Restaurant Management"}, {"primary": true, "id": 1713, "name": "Grocery Stores"}], "fax_number": null, "expansion": {"count": null, "uri": null}, "impression_id": "000b00000090b93d9e9d1446598f57101dc710984e", "profile": "http://www.citysearch.com/profile/706581950/marietta_ga/peterson_foods_llc.html", "address": {"city": "Marietta", "state": "GA", "street": "3625 Dallas Hwy Sw", "postal_code": "30064"}, "capProviderId": null, "distance": null, "has_offers": false, "name": "Peterson Foods LLC", "longitude": -84.657799, "has_menu": false, "awards": null, "user_review_count": 0}, {"business_operation_status": 1, "rating": null, "neighborhood": null, "image": null, "scorecard": null, "featured": false, "sample_categories": "Delis And Delicatessens", "public_id": "kroger-deli-marietta-10", "id": 706675460, "votes": null, "tagline": null, "has_video": false, "website": null, "offers": null, "latitude": 33.954848, "politanName": "Atlanta, GA Metro ", "phone_number": "7704240040", "tags": [{"primary": true, "id": 1727, "name": "Delis And Delicatessens"}], "fax_number": null, "expansion": {"count": null, "uri": null}, "impression_id": "000b000000f1b6f73f22a84013965726363df8d4c4", "profile": "http://www.citysearch.com/profile/706675460/marietta_ga/kroger_deli.html", "address": {"city": "Marietta", "state": "GA", "street": "3600 Dallas Hwy Sw # 180", "postal_code": "30064"}, "capProviderId": null, "distance": null, "has_offers": false, "name": "Kroger Deli", "longitude": -84.655682, "has_menu": false, "awards": null, "user_review_count": 0}, {"business_operation_status": 1, "rating": null, "neighborhood": null, "image": null, "scorecard": null, "featured": false, "sample_categories": "Restaurants, Carry Out, Hamburgers", "public_id": "mc-donalds-emerson-2", "id": 728088400, "votes": null, "tagline": null, "has_video": false, "website": "http://www.citysearch.com/profile/external/728088400/emerson_ga/mc_donald_s.html", "offers": null, "latitude": 34.118857, "politanName": "Atlanta, GA Metro ", "phone_number": "7703862074", "tags": [{"primary": false, "id": 11247, "name": "Carry Out"}, {"primary": false, "id": 11270, "name": "Hamburgers"}, {"primary": true, "id": 1722, "name": "Restaurants"}], "fax_number": null, "expansion": {"count": null, "uri": null}, "impression_id": "000b000000feb654fcfa834317baff0b5448178933", "profile": "http://www.citysearch.com/profile/728088400/emerson_ga/mc_donald_s.html", "address": {"city": "Emerson", "state": "GA", "street": "150 Old Allatonna Rd Se", "postal_code": "30137"}, "capProviderId": null, "distance": null, "has_offers": false, "name": "Mc Donald's", "longitude": -84.743165, "has_menu": false, "awards": null, "user_review_count": 0}, {"business_operation_status": 0, "rating": 6.0, "neighborhood": null, "image": null, "scorecard": null, "featured": false, "sample_categories": "Restaurants, Carry Out, Steakhouse", "public_id": "ryans-grill-buffet-bakery-cartersville", "id": 2945871, "votes": null, "tagline": null, "has_video": false, "website": "http://www.citysearch.com/profile/external/2945871/cartersville_ga/ryan_s_grill_buffet_bakery.html", "offers": null, "latitude": 34.191189, "politanName": "Atlanta, GA Metro ", "phone_number": "7706061500", "tags": [{"primary": false, "id": 11247, "name": "Carry Out"}, {"primary": false, "id": 11316, "name": "Steakhouse"}, {"primary": true, "id": 1722, "name": "Restaurants"}], "fax_number": null, "expansion": {"count": null, "uri": null}, "impression_id": "000b00000004f6d772076e423ebcca405d77c579fd", "profile": "http://www.citysearch.com/profile/2945871/cartersville_ga/ryan_s_grill_buffet_bakery.html", "address": {"city": "Cartersville", "state": "GA", "street": "823 Joe Frank Harris Pkwy SE", "postal_code": "30120"}, "capProviderId": null, "distance": null, "has_offers": false, "name": "Ryan's Grill Buffet & Bakery", "longitude": -84.78985, "has_menu": true, "awards": null, "user_review_count": 0}, {"business_operation_status": 1, "rating": 9.0, "neighborhood": null, "image": null, "scorecard": null, "featured": false, "sample_categories": "Restaurants, Pizza, Carry Out, Food Delivery, American Express", "public_id": "gondolier-pizza-inc-cartersville", "id": 2947653, "votes": null, "tagline": null, "has_video": false, "website": "http://www.citysearch.com/profile/external/2947653/cartersville_ga/gondolier_pizza_inc.html", "offers": null, "latitude": 34.167271, "politanName": "Atlanta, GA Metro ", "phone_number": "7703862200", "tags": [{"primary": false, "id": 1722, "name": "Restaurants"}, {"primary": false, "id": 11247, "name": "Carry Out"}, {"primary": false, "id": 11267, "name": "Food Delivery"}, {"primary": false, "id": 11333, "name": "American Express"}, {"primary": false, "id": 11349, "name": "Discover"}, {"primary": false, "id": 11361, "name": "MasterCard"}, {"primary": false, "id": 11382, "name": "Visa"}, {"primary": true, "id": 11299, "name": "Pizza"}], "fax_number": null, "expansion": {"count": null, "uri": null}, "impression_id": "000b00000045c99c99e3804bf19e5fc135659dc8cc", "profile": "http://www.citysearch.com/profile/2947653/cartersville_ga/gondolier_pizza_inc.html", "address": {"city": "Cartersville", "state": "GA", "street": "407 E Main St", "postal_code": "30121"}, "capProviderId": null, "distance": null, "has_offers": false, "name": "Gondolier Pizza Inc", "longitude": -84.787763, "has_menu": true, "awards": null, "user_review_count": 4}, {"business_operation_status": 1, "rating": 6.0, "neighborhood": null, "image": null, "scorecard": null, "featured": false, "sample_categories": "Restaurants, Pizza", "public_id": "uncle-kennys-pizza-subs-woodstock", "id": 2965392, "votes": null, "tagline": null, "has_video": false, "website": null, "offers": null, "latitude": 34.130884, "politanName": "Atlanta, GA Metro ", "phone_number": "7705911119", "tags": [{"primary": false, "id": 1722, "name": "Restaurants"}, {"primary": true, "id": 11299, "name": "Pizza"}], "fax_number": null, "expansion": {"count": null, "uri": null}, "impression_id": "000b000000ccfd43477a2641578fe04a51512a8931", "profile": "http://www.citysearch.com/profile/2965392/woodstock_ga/uncle_kennys_pizza_subs.html", "address": {"city": "Woodstock", "state": "GA", "street": "6687 Bells Ferry Rd", "postal_code": "30189"}, "capProviderId": null, "distance": null, "has_offers": false, "name": "Uncle Kennys Pizza & Subs", "longitude": -84.586697, "has_menu": false, "awards": null, "user_review_count": 0}, {"business_operation_status": 1, "rating": null, "neighborhood": null, "image": null, "scorecard": null, "featured": false, "sample_categories": "Restaurants", "public_id": "butler-creek-powder", "id": 732131820, "votes": null, "tagline": null, "has_video": false, "website": null, "offers": null, "latitude": 33.916043, "politanName": "Atlanta, GA Metro ", "phone_number": "7709436777", "tags": [{"primary": true, "id": 1722, "name": "Restaurants"}], "fax_number": null, "expansion": {"count": null, "uri": null}, "impression_id": "000b000000da7c83599a64456e8efab4a96d449f44", "profile": "http://www.citysearch.com/profile/732131820/powder_springs_ga/butler_creek.html", "address": {"city": "Powder Springs", "state": "GA", "street": "1518 Haven Crest Dr", "postal_code": "30127"}, "capProviderId": null, "distance": null, "has_offers": false, "name": "Butler Creek", "longitude": -84.707895, "has_menu": false, "awards": null, "user_review_count": 0}, {"business_operation_status": 0, "rating": null, "neighborhood": null, "image": null, "scorecard": null, "featured": false, "sample_categories": "Restaurants", "public_id": "scooters-kennesaw", "id": 632003970, "votes": null, "tagline": null, "has_video": false, "website": null, "offers": null, "latitude": 34.004435, "politanName": "Atlanta, GA Metro ", "phone_number": "7709179909", "tags": [{"primary": true, "id": 1722, "name": "Restaurants"}], "fax_number": null, "expansion": {"count": null, "uri": null}, "impression_id": "000b000000a6b93d29714e478ea79521fa92c4ab43", "profile": "http://www.citysearch.com/profile/632003970/kennesaw_ga/scooter_s.html", "address": {"city": "Kennesaw", "state": "GA", "street": "3161 Cobb Pkwy Nw", "postal_code": "30152"}, "capProviderId": null, "distance": null, "has_offers": false, "name": "Scooter's", "longitude": -84.612627, "has_menu": false, "awards": null, "user_review_count": 0}, {"business_operation_status": 1, "rating": null, "neighborhood": null, "image": null, "scorecard": null, "featured": false, "sample_categories": "Restaurants, Ice Cream Parlors, Carry Out", "public_id": "dairy-queen-kennesaw-2", "id": 764857120, "votes": null, "tagline": null, "has_video": false, "website": null, "offers": null, "latitude": 34.023434, "politanName": "Atlanta, GA Metro ", "phone_number": "7704281468", "tags": [{"primary": false, "id": 1730, "name": "Ice Cream Parlors"}, {"primary": false, "id": 11247, "name": "Carry Out"}, {"primary": true, "id": 1722, "name": "Restaurants"}], "fax_number": null, "expansion": {"count": null, "uri": null}, "impression_id": "000b000000934e67ad05b44c99aed37a92bc0cdf5a", "profile": "http://www.citysearch.com/profile/764857120/kennesaw_ga/dairy_queen.html", "address": {"city": "Kennesaw", "state": "GA", "street": "400 E W Barr Pkwy NW # 205", "postal_code": "30144"}, "capProviderId": null, "distance": null, "has_offers": false, "name": "Dairy Queen", "longitude": -84.61549, "has_menu": false, "awards": null, "user_review_count": 0}, {"business_operation_status": 1, "rating": 7.0, "neighborhood": null, "image": null, "scorecard": null, "featured": false, "sample_categories": "Restaurants, Family-Friendly Dining", "public_id": "fowl-play-cafe-kennesaw", "id": 2957534, "votes": null, "tagline": null, "has_video": false, "website": null, "offers": null, "latitude": 34.004435, "politanName": "Atlanta, GA Metro ", "phone_number": "7709669686", "tags": [{"primary": false, "id": 11263, "name": "Family-Friendly Dining"}, {"primary": true, "id": 1722, "name": "Restaurants"}], "fax_number": null, "expansion": {"count": null, "uri": null}, "impression_id": "000b0000006f7b4f55367c40d58b278b9081109420", "profile": "http://www.citysearch.com/profile/2957534/kennesaw_ga/fowl_play_cafe.html", "address": {"city": "Kennesaw", "state": "GA", "street": "3161 Cobb Pkwy NW Ste 410", "postal_code": "30152"}, "capProviderId": null, "distance": null, "has_offers": false, "name": "Fowl Play Cafe", "longitude": -84.612627, "has_menu": false, "awards": null, "user_review_count": 0}, {"business_operation_status": 1, "rating": null, "neighborhood": null, "image": null, "scorecard": null, "featured": false, "sample_categories": "Restaurants, Pizza", "public_id": "pizza-di-luna-kennesaw", "id": 764902740, "votes": null, "tagline": null, "has_video": false, "website": null, "offers": null, "latitude": 34.033249, "politanName": "Atlanta, GA Metro ", "phone_number": "6787660449", "tags": [{"primary": false, "id": 11299, "name": "Pizza"}, {"primary": true, "id": 1722, "name": "Restaurants"}], "fax_number": null, "expansion": {"count": null, "uri": null}, "impression_id": "000b000000724ace74549d4f18b9a22e226a377dd4", "profile": "http://www.citysearch.com/profile/764902740/kennesaw_ga/pizza_di_luna.html", "address": {"city": "Kennesaw", "state": "GA", "street": "2516 George Busbee Pkwy NW", "postal_code": "30144"}, "capProviderId": null, "distance": null, "has_offers": false, "name": "Pizza Di Luna", "longitude": -84.568705, "has_menu": true, "awards": null, "user_review_count": 0}, {"business_operation_status": 1, "rating": null, "neighborhood": null, "image": null, "scorecard": null, "featured": false, "sample_categories": "Restaurants, Pizza", "public_id": "chicago-pizza-sports-grille-kennesaw", "id": 764831640, "votes": null, "tagline": null, "has_video": false, "website": null, "offers": null, "latitude": 34.034708, "politanName": "Atlanta, GA Metro ", "phone_number": "6787970006", "tags": [{"primary": false, "id": 1722, "name": "Restaurants"}, {"primary": true, "id": 11299, "name": "Pizza"}], "fax_number": null, "expansion": {"count": null, "uri": null}, "impression_id": "000b000000bb1c5c7faa0145abbfb93dd93451c9c9", "profile": "http://www.citysearch.com/profile/764831640/kennesaw_ga/chicago_pizza_sports_grille.html", "address": {"city": "Kennesaw", "state": "GA", "street": "3405 Busbee Dr NW", "postal_code": "30144"}, "capProviderId": null, "distance": null, "has_offers": false, "name": "Chicago Pizza & Sports Grille", "longitude": -84.575423, "has_menu": false, "awards": null, "user_review_count": 0}], "histograms": [], "tag_ids": [1722], "uri": "http://api.citygridmedia.com:8080/search/places/v2/search/where?has_offers=false&type=restaurant&format=json&page=22&where=30101&rpp=50&histograms=false&publisher=10000009598&region_type=circle", "did_you_mean": "", "regions": [{"latitude": 34.042584, "default_radius": 6.64, "type": "postal_code", "name": "30101", "longitude": -84.71322699999999}], "call_id": "000b00000067e66b7dea234ebba9727549a90f779c", "first_hit": 1051, "total_hits": 1249, "geo_ids": [26343], "page": 22, "last_hit": 1100}}