{"results": {"rpp": 50, "locations": [{"business_operation_status": 1, "rating": null, "neighborhood": null, "image": null, "scorecard": null, "featured": false, "sample_categories": "Restaurants", "public_id": "love-of-food-cartersville", "id": 754717300, "votes": null, "tagline": null, "has_video": false, "website": null, "offers": null, "latitude": 34.161371, "politanName": "Atlanta, GA Metro ", "phone_number": "7703870059", "tags": [{"primary": true, "id": 1722, "name": "Restaurants"}], "fax_number": null, "expansion": {"count": null, "uri": null}, "impression_id": "000b00000060cbea535f564a06bb08ffa4f861a61f", "profile": "http://www.citysearch.com/profile/754717300/cartersville_ga/love_of_food.html", "address": {"city": "Cartersville", "state": "GA", "street": "227 Fite St", "postal_code": "30120"}, "capProviderId": null, "distance": null, "has_offers": false, "name": "Love of Food", "longitude": -84.803713, "has_menu": false, "awards": null, "user_review_count": 0}, {"business_operation_status": 1, "rating": null, "neighborhood": null, "image": null, "scorecard": null, "featured": false, "sample_categories": "Restaurants, Carry Out, Shop Online, Chicken", "public_id": "kfc-kennesaw-2", "id": 764895270, "votes": null, "tagline": null, "has_video": false, "website": "http://www.citysearch.com/profile/external/764895270/kennesaw_ga/kfc.html", "offers": null, "latitude": 34.110827, "politanName": "Atlanta, GA Metro ", "phone_number": "7709745420", "tags": [{"primary": false, "id": 11247, "name": "Carry Out"}, {"primary": false, "id": 11375, "name": "Shop Online"}, {"primary": false, "id": 12839, "name": "Chicken"}, {"primary": true, "id": 1722, "name": "Restaurants"}], "fax_number": null, "expansion": {"count": null, "uri": null}, "impression_id": "000b000000aa34f362370a4bf3a7c5b024570418f7", "profile": "http://www.citysearch.com/profile/764895270/kennesaw_ga/kfc.html", "address": {"city": "Kennesaw", "state": "GA", "street": "5040 Glade Rd NW", "postal_code": "30144"}, "capProviderId": null, "distance": null, "has_offers": false, "name": "KFC", "longitude": -84.680635, "has_menu": false, "awards": null, "user_review_count": 0}, {"business_operation_status": 1, "rating": null, "neighborhood": null, "image": null, "scorecard": null, "featured": false, "sample_categories": "Restaurants, Bars & Pubs", "public_id": "tavern-downtown-cartersville", "id": 764927760, "votes": null, "tagline": null, "has_video": false, "website": null, "offers": null, "latitude": 34.16242, "politanName": "Atlanta, GA Metro ", "phone_number": "7703343661", "tags": [{"primary": false, "id": 1686, "name": "Bars & Pubs"}, {"primary": true, "id": 1722, "name": "Restaurants"}], "fax_number": null, "expansion": {"count": null, "uri": null}, "impression_id": "000b000000c3076068d0924284b48676f123461b5b", "profile": "http://www.citysearch.com/profile/764927760/cartersville_ga/tavern_downtown.html", "address": {"city": "Cartersville", "state": "GA", "street": "120 S Erwin St", "postal_code": "30120"}, "capProviderId": null, "distance": null, "has_offers": false, "name": "Tavern Downtown", "longitude": -84.795734, "has_menu": false, "awards": null, "user_review_count": 0}, {"business_operation_status": 1, "rating": null, "neighborhood": null, "image": null, "scorecard": null, "featured": false, "sample_categories": "Barbecue Restaurants, Restaurants", "public_id": "bng-bbq-llc-cartersville", "id": 701220920, "votes": null, "tagline": null, "has_video": false, "website": null, "offers": null, "latitude": 34.1467, "politanName": "Atlanta, GA Metro ", "phone_number": "7706072282", "tags": [{"primary": false, "id": 1724, "name": "Barbecue Restaurants"}, {"primary": true, "id": 1722, "name": "Restaurants"}], "fax_number": null, "expansion": {"count": null, "uri": null}, "impression_id": "000b00000067903f9f3474482e833306d3933ee660", "profile": "http://www.citysearch.com/profile/701220920/cartersville_ga/bng_bbq_llc.html", "address": {"city": "Cartersville", "state": "GA", "street": "1401 West Ave # B", "postal_code": "30120"}, "capProviderId": null, "distance": null, "has_offers": false, "name": "Bng BBQ LLC", "longitude": -84.83341, "has_menu": false, "awards": null, "user_review_count": 0}, {"business_operation_status": 1, "rating": null, "neighborhood": null, "image": null, "scorecard": null, "featured": false, "sample_categories": "Restaurants", "public_id": "las-cumbres-taqueria-cartersville", "id": 810636380, "votes": null, "tagline": null, "has_video": false, "website": null, "offers": null, "latitude": 34.176318, "politanName": "Atlanta, GA Metro ", "phone_number": "7706073147", "tags": [{"primary": true, "id": 1722, "name": "Restaurants"}], "fax_number": null, "expansion": {"count": null, "uri": null}, "impression_id": "000b000000dc901c66415f4aea845e8502c02295b7", "profile": "http://www.citysearch.com/profile/810636380/cartersville_ga/las_cumbres_taqueria.html", "address": {"city": "Cartersville", "state": "GA", "street": "520 N Tennessee St", "postal_code": "30120"}, "capProviderId": null, "distance": null, "has_offers": false, "name": "Las Cumbres Taqueria", "longitude": -84.793438, "has_menu": false, "awards": null, "user_review_count": 0}, {"business_operation_status": 1, "rating": null, "neighborhood": null, "image": null, "scorecard": null, "featured": false, "sample_categories": "Restaurants, Pizza, Carry Out", "public_id": "pizza-hut-kennesaw-3", "id": 790675460, "votes": null, "tagline": null, "has_video": false, "website": null, "offers": null, "latitude": 33.99979, "politanName": "Atlanta, GA Metro ", "phone_number": "7704248863", "tags": [{"primary": false, "id": 1722, "name": "Restaurants"}, {"primary": false, "id": 11247, "name": "Carry Out"}, {"primary": true, "id": 11299, "name": "Pizza"}], "fax_number": null, "expansion": {"count": null, "uri": null}, "impression_id": "000b00000097ef2024be2d414990cd595a51aaf553", "profile": "http://www.citysearch.com/profile/790675460/kennesaw_ga/pizza_hut.html", "address": {"city": "Kennesaw", "state": "GA", "street": "1906 Cobb Pkwy NW", "postal_code": "30152"}, "capProviderId": null, "distance": null, "has_offers": false, "name": "Pizza Hut", "longitude": -84.588641, "has_menu": false, "awards": null, "user_review_count": 0}, {"business_operation_status": 1, "rating": null, "neighborhood": null, "image": null, "scorecard": null, "featured": false, "sample_categories": "Restaurants, Delis And Delicatessens", "public_id": "jasons-deli-kennesaw", "id": 803500390, "votes": null, "tagline": null, "has_video": false, "website": "http://www.citysearch.com/profile/external/803500390/kennesaw_ga/jason_s_deli.html", "offers": null, "latitude": 34.003304, "politanName": "Atlanta, GA Metro ", "phone_number": "6783984000", "tags": [{"primary": false, "id": 1727, "name": "Delis And Delicatessens"}, {"primary": true, "id": 1722, "name": "Restaurants"}], "fax_number": null, "expansion": {"count": null, "uri": null}, "impression_id": "000b000000cf89a62fd3494f3ba55b3982e8975be7", "profile": "http://www.citysearch.com/profile/803500390/kennesaw_ga/jason_s_deli.html", "address": {"city": "Kennesaw", "state": "GA", "street": "945 Ernest W Barrett Pkwy NW", "postal_code": "30144"}, "capProviderId": null, "distance": null, "has_offers": false, "name": "Jason's Deli", "longitude": -84.578858, "has_menu": false, "awards": null, "user_review_count": 0}, {"business_operation_status": 1, "rating": null, "neighborhood": null, "image": null, "scorecard": null, "featured": false, "sample_categories": "Coffeehouses", "public_id": "insomnia-marietta", "id": 37646047, "votes": null, "tagline": null, "has_video": false, "website": null, "offers": null, "latitude": 33.948083, "politanName": "Atlanta, GA Metro ", "phone_number": "7705147442", "tags": [{"primary": true, "id": 1726, "name": "Coffeehouses"}], "fax_number": null, "expansion": {"count": null, "uri": null}, "impression_id": "000b000000bd78194aeb3545d39562cf0d0dfe731e", "profile": "http://www.citysearch.com/profile/37646047/marietta_ga/insomnia.html", "address": {"city": "Marietta", "state": "GA", "street": "245 Ridgeway Rd", "postal_code": "30064"}, "capProviderId": null, "distance": null, "has_offers": false, "name": "Insomnia", "longitude": -84.626672, "has_menu": false, "awards": null, "user_review_count": 0}, {"business_operation_status": 1, "rating": null, "neighborhood": null, "image": null, "scorecard": null, "featured": false, "sample_categories": "Restaurants, Bars & Clubs", "public_id": "oyster-pub-grill-cartersville", "id": 806246820, "votes": null, "tagline": null, "has_video": false, "website": null, "offers": null, "latitude": 34.167498, "politanName": "Atlanta, GA Metro ", "phone_number": "6787210777", "tags": [{"primary": false, "id": 164, "name": "Bars & Clubs"}, {"primary": true, "id": 1722, "name": "Restaurants"}], "fax_number": null, "expansion": {"count": null, "uri": null}, "impression_id": "000b0000003bf969da59ee42138a09463d3b1a1007", "profile": "http://www.citysearch.com/profile/806246820/cartersville_ga/oyster_pub_grill.html", "address": {"city": "Cartersville", "state": "GA", "street": "441 E Main St", "postal_code": "30121"}, "capProviderId": null, "distance": null, "has_offers": false, "name": "Oyster Pub & Grill", "longitude": -84.787171, "has_menu": false, "awards": null, "user_review_count": 0}, {"business_operation_status": 1, "rating": null, "neighborhood": null, "image": null, "scorecard": null, "featured": false, "sample_categories": "Restaurants", "public_id": "mrs-winners-chicken-bscts-kennesaw", "id": 806276160, "votes": null, "tagline": null, "has_video": false, "website": null, "offers": null, "latitude": 34.059567, "politanName": "Atlanta, GA Metro ", "phone_number": "7704274040", "tags": [{"primary": true, "id": 1722, "name": "Restaurants"}], "fax_number": null, "expansion": {"count": null, "uri": null}, "impression_id": "000b0000009a9252c5e297429fbaa5703f63df1582", "profile": "http://www.citysearch.com/profile/806276160/kennesaw_ga/mrs_winner_s_chicken_bscts.html", "address": {"city": "Kennesaw", "state": "GA", "street": "4383 Wade Green Rd NW", "postal_code": "30144"}, "capProviderId": null, "distance": null, "has_offers": false, "name": "Mrs Winner's Chicken & Bscts", "longitude": -84.593135, "has_menu": false, "awards": null, "user_review_count": 0}, {"business_operation_status": 1, "rating": null, "neighborhood": null, "image": null, "scorecard": null, "featured": false, "sample_categories": "Restaurants, Coffeehouses", "public_id": "peace-cafe-kennesaw", "id": 748262240, "votes": null, "tagline": null, "has_video": false, "website": null, "offers": null, "latitude": 34.042632, "politanName": "Atlanta, GA Metro ", "phone_number": "7707927880", "tags": [{"primary": false, "id": 1726, "name": "Coffeehouses"}, {"primary": true, "id": 1722, "name": "Restaurants"}], "fax_number": null, "expansion": {"count": null, "uri": null}, "impression_id": "000b0000002379cfd54cbd4f58bf1ce57d261539ec", "profile": "http://www.citysearch.com/profile/748262240/kennesaw_ga/peace_cafe.html", "address": {"city": "Kennesaw", "state": "GA", "street": "3805 Canton Pl NW", "postal_code": "30144"}, "capProviderId": null, "distance": null, "has_offers": false, "name": "Peace Cafe", "longitude": -84.584447, "has_menu": false, "awards": null, "user_review_count": 0}, {"business_operation_status": 1, "rating": 8.0, "neighborhood": null, "image": null, "scorecard": null, "featured": false, "sample_categories": "Restaurants, Pizza", "public_id": "uncle-vitos-new-york-pizza-marietta", "id": 37646046, "votes": null, "tagline": null, "has_video": false, "website": null, "offers": null, "latitude": 33.950252, "politanName": "Atlanta, GA Metro ", "phone_number": "6787668486", "tags": [{"primary": false, "id": 1722, "name": "Restaurants"}, {"primary": true, "id": 11299, "name": "Pizza"}], "fax_number": null, "expansion": {"count": null, "uri": null}, "impression_id": "000b0000001bba8744aee3479cafe571750664080d", "profile": "http://www.citysearch.com/profile/37646046/marietta_ga/uncle_vitos_new_york_pizza.html", "address": {"city": "Marietta", "state": "GA", "street": "2500 Dallas Hwy SW", "postal_code": "30064"}, "capProviderId": null, "distance": null, "has_offers": false, "name": "Uncle Vitos New York Pizza", "longitude": -84.638093, "has_menu": true, "awards": null, "user_review_count": 2}, {"business_operation_status": 1, "rating": null, "neighborhood": null, "image": null, "scorecard": null, "featured": false, "sample_categories": "Restaurants, Pizza, Carry Out", "public_id": "pizza-hut-cartersville-3", "id": 622339050, "votes": null, "tagline": null, "has_video": false, "website": "http://www.citysearch.com/profile/external/622339050/cartersville_ga/pizza_hut.html", "offers": null, "latitude": 34.170508, "politanName": "Atlanta, GA Metro ", "phone_number": "7703821919", "tags": [{"primary": false, "id": 1722, "name": "Restaurants"}, {"primary": false, "id": 11247, "name": "Carry Out"}, {"primary": true, "id": 11299, "name": "Pizza"}], "fax_number": null, "expansion": {"count": null, "uri": null}, "impression_id": "000b000000a84b34dcd6f34db6ae6357ef3fcdfce3", "profile": "http://www.citysearch.com/profile/622339050/cartersville_ga/pizza_hut.html", "address": {"city": "Cartersville", "state": "GA", "street": "122 N Morningside Dr", "postal_code": "30121"}, "capProviderId": null, "distance": null, "has_offers": false, "name": "Pizza Hut", "longitude": -84.786844, "has_menu": true, "awards": null, "user_review_count": 0}, {"business_operation_status": 1, "rating": null, "neighborhood": null, "image": null, "scorecard": null, "featured": false, "sample_categories": "Restaurants", "public_id": "specialty-restaurant-group-inc-kennesaw", "id": 648896300, "votes": null, "tagline": null, "has_video": false, "website": "http://www.citysearch.com/profile/external/648896300/kennesaw_ga/specialty_restaurant_group_inc.html", "offers": null, "latitude": 34.015329, "politanName": "Atlanta, GA Metro ", "phone_number": "7704997878", "tags": [{"primary": true, "id": 1722, "name": "Restaurants"}], "fax_number": null, "expansion": {"count": null, "uri": null}, "impression_id": "000b000000061fb38c48b24f33a59e63511fc46742", "profile": "http://www.citysearch.com/profile/648896300/kennesaw_ga/specialty_restaurant_group_inc.html", "address": {"city": "Kennesaw", "state": "GA", "street": "2500 Cobb Pkwy NW Ste B7", "postal_code": "30152"}, "capProviderId": null, "distance": null, "has_offers": false, "name": "Specialty Restaurant Group Inc", "longitude": -84.615064, "has_menu": false, "awards": null, "user_review_count": 0}, {"business_operation_status": 1, "rating": null, "neighborhood": null, "image": null, "scorecard": null, "featured": false, "sample_categories": "Restaurants, Southern, American Express, Discover, MasterCard", "public_id": "homestyle-cooking-inc-woodstock", "id": 627690690, "votes": null, "tagline": null, "has_video": false, "website": null, "offers": null, "latitude": 34.129127, "politanName": "Atlanta, GA Metro ", "phone_number": "7708522885", "tags": [{"primary": false, "id": 11312, "name": "Southern"}, {"primary": false, "id": 11333, "name": "American Express"}, {"primary": false, "id": 11349, "name": "Discover"}, {"primary": false, "id": 11361, "name": "MasterCard"}, {"primary": false, "id": 11382, "name": "Visa"}, {"primary": true, "id": 1722, "name": "Restaurants"}], "fax_number": null, "expansion": {"count": null, "uri": null}, "impression_id": "000b000000549d0cd45ca8456ab34267c88ab5dbfa", "profile": "http://www.citysearch.com/profile/627690690/woodstock_ga/homestyle_cooking_inc.html", "address": {"city": "Woodstock", "state": "GA", "street": "4379 Towne Lake Pkwy", "postal_code": "30189"}, "capProviderId": null, "distance": null, "has_offers": false, "name": "Homestyle Cooking Inc", "longitude": -84.575938, "has_menu": false, "awards": null, "user_review_count": 0}, {"business_operation_status": 0, "rating": null, "neighborhood": null, "image": null, "scorecard": null, "featured": false, "sample_categories": "Restaurants, Mexican", "public_id": "el-pueblito-mexican-grill-7-cartersville", "id": 655944890, "votes": null, "tagline": null, "has_video": false, "website": null, "offers": null, "latitude": 34.164175, "politanName": "Atlanta, GA Metro ", "phone_number": "6787214000", "tags": [{"primary": false, "id": 11208, "name": "Mexican"}, {"primary": true, "id": 1722, "name": "Restaurants"}], "fax_number": null, "expansion": {"count": null, "uri": null}, "impression_id": "000b0000008d63383bbd9646388b63154cd139c7f2", "profile": "http://www.citysearch.com/profile/655944890/cartersville_ga/el_pueblito_mexican_grill_7.html", "address": {"city": "Cartersville", "state": "GA", "street": "148 W Main St", "postal_code": "30120"}, "capProviderId": null, "distance": null, "has_offers": false, "name": "El Pueblito Mexican Grill 7", "longitude": -84.798585, "has_menu": false, "awards": null, "user_review_count": 0}, {"business_operation_status": 1, "rating": null, "neighborhood": null, "image": null, "scorecard": null, "featured": false, "sample_categories": "Restaurants, Chicken", "public_id": "big-chic-kennesaw", "id": 632898430, "votes": null, "tagline": null, "has_video": false, "website": null, "offers": null, "latitude": 34.031399, "politanName": "Atlanta, GA Metro ", "phone_number": "7706946234", "tags": [{"primary": false, "id": 12839, "name": "Chicken"}, {"primary": true, "id": 1722, "name": "Restaurants"}], "fax_number": null, "expansion": {"count": null, "uri": null}, "impression_id": "000b00000033dcfb14d2324f958801612a9548a2ab", "profile": "http://www.citysearch.com/profile/632898430/kennesaw_ga/big_chic.html", "address": {"city": "Kennesaw", "state": "GA", "street": "3140 Cobb Pkwy Nw", "postal_code": "30152"}, "capProviderId": null, "distance": null, "has_offers": false, "name": "Big Chic", "longitude": -84.657284, "has_menu": false, "awards": null, "user_review_count": 0}, {"business_operation_status": 1, "rating": null, "neighborhood": null, "image": null, "scorecard": null, "featured": false, "sample_categories": "Restaurants", "public_id": "seven-bar-grill-hookah-lounge-woodstock", "id": 672641240, "votes": null, "tagline": null, "has_video": false, "website": null, "offers": null, "latitude": 34.087943, "politanName": "Atlanta, GA Metro ", "phone_number": "6783241012", "tags": [{"primary": true, "id": 1722, "name": "Restaurants"}], "fax_number": null, "expansion": {"count": null, "uri": null}, "impression_id": "000b000000e2db8d59079d4f3687cfe506f650a6dc", "profile": "http://www.citysearch.com/profile/672641240/woodstock_ga/seven_bar_grill_hookah_lounge.html", "address": {"city": "Woodstock", "state": "GA", "street": "6889 Hwy. 92", "postal_code": "30189"}, "capProviderId": null, "distance": null, "has_offers": false, "name": "Seven Bar & Grill Hookah Lounge", "longitude": -84.573347, "has_menu": false, "awards": null, "user_review_count": 0}, {"business_operation_status": 1, "rating": null, "neighborhood": null, "image": null, "scorecard": null, "featured": false, "sample_categories": "Restaurants, American Express, Discover, MasterCard, Visa", "public_id": "piezonias-restaurant-marietta", "id": 601298040, "votes": null, "tagline": null, "has_video": false, "website": null, "offers": null, "latitude": 33.967672, "politanName": "Atlanta, GA Metro ", "phone_number": "7704192188", "tags": [{"primary": false, "id": 11333, "name": "American Express"}, {"primary": false, "id": 11349, "name": "Discover"}, {"primary": false, "id": 11361, "name": "MasterCard"}, {"primary": false, "id": 11382, "name": "Visa"}, {"primary": true, "id": 1722, "name": "Restaurants"}], "fax_number": null, "expansion": {"count": null, "uri": null}, "impression_id": "000b00000018637dfbea8c46adbb41ab6d9b5fd9c6", "profile": "http://www.citysearch.com/profile/601298040/marietta_ga/piezonia_s_restaurant.html", "address": {"city": "Marietta", "state": "GA", "street": "3960 Mary Eliza Trce Nw", "postal_code": "30064"}, "capProviderId": null, "distance": null, "has_offers": false, "name": "Piezonia's Restaurant", "longitude": -84.667328, "has_menu": false, "awards": null, "user_review_count": 0}, {"business_operation_status": 1, "rating": null, "neighborhood": null, "image": null, "scorecard": null, "featured": false, "sample_categories": "Restaurants", "public_id": "jmc-restaurant-distribution-kennesaw", "id": 601313826, "votes": null, "tagline": null, "has_video": false, "website": "http://www.citysearch.com/profile/external/601313826/kennesaw_ga/jmc_restaurant_distribution.html", "offers": null, "latitude": 34.011176, "politanName": "Atlanta, GA Metro ", "phone_number": "7705281170", "tags": [{"primary": true, "id": 1722, "name": "Restaurants"}], "fax_number": null, "expansion": {"count": null, "uri": null}, "impression_id": "000b00000059ccd0511a5848819d738a59bbddfd86", "profile": "http://www.citysearch.com/profile/601313826/kennesaw_ga/jmc_restaurant_distribution.html", "address": {"city": "Kennesaw", "state": "GA", "street": "980 Cobb Place Blvd Nw # 240", "postal_code": "30144"}, "capProviderId": null, "distance": null, "has_offers": false, "name": "Jmc Restaurant Distribution", "longitude": -84.581645, "has_menu": false, "awards": null, "user_review_count": 0}, {"business_operation_status": 1, "rating": null, "neighborhood": null, "image": null, "scorecard": null, "featured": false, "sample_categories": "Delis And Delicatessens", "public_id": "kroger-deli-cartersville", "id": 695429210, "votes": null, "tagline": null, "has_video": false, "website": null, "offers": null, "latitude": 34.168547, "politanName": "Atlanta, GA Metro ", "phone_number": "7703868102", "tags": [{"primary": true, "id": 1727, "name": "Delis And Delicatessens"}], "fax_number": null, "expansion": {"count": null, "uri": null}, "impression_id": "000b0000007272d22656424846af612673bab90fe0", "profile": "http://www.citysearch.com/profile/695429210/cartersville_ga/kroger_deli.html", "address": {"city": "Cartersville", "state": "GA", "street": "51 N Morningside Dr", "postal_code": "30121"}, "capProviderId": null, "distance": null, "has_offers": false, "name": "Kroger Deli", "longitude": -84.786515, "has_menu": false, "awards": null, "user_review_count": 0}, {"business_operation_status": 1, "rating": null, "neighborhood": null, "image": null, "scorecard": null, "featured": false, "sample_categories": "Restaurants, Health Food Stores", "public_id": "smoothie-king-woodstock", "id": 672622510, "votes": null, "tagline": null, "has_video": false, "website": null, "offers": null, "latitude": 34.128602, "politanName": "Atlanta, GA Metro ", "phone_number": "6789431234", "tags": [{"primary": false, "id": 1716, "name": "Health Food Stores"}, {"primary": true, "id": 1722, "name": "Restaurants"}], "fax_number": null, "expansion": {"count": null, "uri": null}, "impression_id": "000b000000f6ffd2cdc9ed4e11bd5f7a0d0ace4903", "profile": "http://www.citysearch.com/profile/672622510/woodstock_ga/smoothie_king.html", "address": {"city": "Woodstock", "state": "GA", "street": "6348 Towne Lake Parkway", "postal_code": "30189"}, "capProviderId": null, "distance": null, "has_offers": false, "name": "Smoothie King", "longitude": -84.585144, "has_menu": false, "awards": null, "user_review_count": 0}, {"business_operation_status": 1, "rating": null, "neighborhood": null, "image": null, "scorecard": null, "featured": false, "sample_categories": "Restaurants, Delis And Delicatessens, Sandwich Shops, Carry Out", "public_id": "blimpie-subs-salads-kennesaw-2", "id": 713401400, "votes": null, "tagline": null, "has_video": false, "website": "http://www.citysearch.com/profile/external/713401400/kennesaw_ga/blimpie_subs_salads.html", "offers": null, "latitude": 34.00436, "politanName": "Atlanta, GA Metro ", "phone_number": "7704245088", "tags": [{"primary": false, "id": 1727, "name": "Delis And Delicatessens"}, {"primary": false, "id": 1736, "name": "Sandwich Shops"}, {"primary": false, "id": 11247, "name": "Carry Out"}, {"primary": true, "id": 1722, "name": "Restaurants"}], "fax_number": null, "expansion": {"count": null, "uri": null}, "impression_id": "000b000000d47ea3852dd447d59b3140d1b246dd58", "profile": "http://www.citysearch.com/profile/713401400/kennesaw_ga/blimpie_subs_salads.html", "address": {"city": "Kennesaw", "state": "GA", "street": "667 Ernest W Barrett Pkwy NW", "postal_code": "30144"}, "capProviderId": null, "distance": null, "has_offers": false, "name": "Blimpie Subs & Salads", "longitude": -84.572087, "has_menu": false, "awards": null, "user_review_count": 0}, {"business_operation_status": 1, "rating": null, "neighborhood": null, "image": null, "scorecard": null, "featured": false, "sample_categories": "Restaurants, Carry Out, Hamburgers", "public_id": "mc-donalds-cartersville-3", "id": 622147290, "votes": null, "tagline": null, "has_video": false, "website": "http://www.citysearch.com/profile/external/622147290/cartersville_ga/mc_donald_s.html", "offers": null, "latitude": 34.173665, "politanName": "Atlanta, GA Metro ", "phone_number": "7703833307", "tags": [{"primary": false, "id": 11247, "name": "Carry Out"}, {"primary": false, "id": 11270, "name": "Hamburgers"}, {"primary": true, "id": 1722, "name": "Restaurants"}], "fax_number": null, "expansion": {"count": null, "uri": null}, "impression_id": "000b000000c7e35270441e49e294002fe1ff738495", "profile": "http://www.citysearch.com/profile/622147290/cartersville_ga/mc_donald_s.html", "address": {"city": "Cartersville", "state": "GA", "street": "11 Canyon Pkwy", "postal_code": "30121"}, "capProviderId": null, "distance": null, "has_offers": false, "name": "Mc Donald's", "longitude": -84.763858, "has_menu": true, "awards": null, "user_review_count": 0}, {"business_operation_status": 0, "rating": null, "neighborhood": null, "image": null, "scorecard": null, "featured": false, "sample_categories": "Restaurants", "public_id": "pit-row-cafe-cartersville", "id": 622339530, "votes": null, "tagline": null, "has_video": false, "website": null, "offers": null, "latitude": 34.175355, "politanName": null, "phone_number": "7703870081", "tags": [{"primary": true, "id": 1722, "name": "Restaurants"}], "fax_number": null, "expansion": {"count": null, "uri": null}, "impression_id": "000b000000511f2d54692045419bb4b16513753f58", "profile": "http://www.citysearch.com/profile/622339530/cartersville_ga/pit_row_cafe.html", "address": {"city": "Cartersville", "state": "GA", "street": "444 Joe Frank Harris Pkwy Se", "postal_code": "30120"}, "capProviderId": null, "distance": null, "has_offers": false, "name": "Pit Row Cafe", "longitude": -84.786287, "has_menu": false, "awards": null, "user_review_count": 0}, {"business_operation_status": 1, "rating": 6.0, "neighborhood": null, "image": null, "scorecard": null, "featured": false, "sample_categories": "Restaurants, Mexican, American Express, Discover, MasterCard", "public_id": "el-taco-azteca-mexican-grille-kennesaw", "id": 43859514, "votes": null, "tagline": null, "has_video": false, "website": "http://www.citysearch.com/profile/external/43859514/kennesaw_ga/el_taco_azteca_mexican_grille.html", "offers": null, "latitude": 34.020557, "politanName": "Atlanta, GA Metro ", "phone_number": "7709191609", "tags": [{"primary": false, "id": 11208, "name": "Mexican"}, {"primary": false, "id": 11333, "name": "American Express"}, {"primary": false, "id": 11349, "name": "Discover"}, {"primary": false, "id": 11361, "name": "MasterCard"}, {"primary": false, "id": 11382, "name": "Visa"}, {"primary": true, "id": 1722, "name": "Restaurants"}], "fax_number": null, "expansion": {"count": null, "uri": null}, "impression_id": "000b000000f7962400a1d64c1182b0c5feff63f09f", "profile": "http://www.citysearch.com/profile/43859514/kennesaw_ga/el_taco_azteca_mexican_grille.html", "address": {"city": "Kennesaw", "state": "GA", "street": "2752 S Main St NW", "postal_code": "30144"}, "capProviderId": null, "distance": null, "has_offers": false, "name": "El Taco Azteca Mexican Grille", "longitude": -84.612558, "has_menu": false, "awards": null, "user_review_count": 3}, {"business_operation_status": 1, "rating": null, "neighborhood": null, "image": null, "scorecard": null, "featured": false, "sample_categories": "Restaurants", "public_id": "geordie-boy-inc-woodstock", "id": 632991790, "votes": null, "tagline": null, "has_video": false, "website": null, "offers": null, "latitude": 34.11726, "politanName": "Atlanta, GA Metro ", "phone_number": "7705160737", "tags": [{"primary": true, "id": 1722, "name": "Restaurants"}], "fax_number": null, "expansion": {"count": null, "uri": null}, "impression_id": "000b000000551b8ff808d64d36a2e44392aeea4f86", "profile": "http://www.citysearch.com/profile/632991790/woodstock_ga/geordie_boy_inc.html", "address": {"city": "Woodstock", "state": "GA", "street": "3035 Towneside Ln", "postal_code": "30189"}, "capProviderId": null, "distance": null, "has_offers": false, "name": "Geordie Boy Inc", "longitude": -84.547703, "has_menu": false, "awards": null, "user_review_count": 0}, {"business_operation_status": 1, "rating": null, "neighborhood": null, "image": null, "scorecard": null, "featured": false, "sample_categories": "Catering, Restaurants, Pizza", "public_id": "rays-new-york-pizza-kennesaw-2", "id": 653618780, "votes": null, "tagline": null, "has_video": false, "website": "http://www.citysearch.com/profile/external/653618780/kennesaw_ga/ray_s_new_york_pizza.html", "offers": null, "latitude": 34.037182, "politanName": "Atlanta, GA Metro ", "phone_number": "7704249000", "tags": [{"primary": false, "id": 1705, "name": "Catering"}, {"primary": false, "id": 1722, "name": "Restaurants"}, {"primary": true, "id": 11299, "name": "Pizza"}], "fax_number": null, "expansion": {"count": null, "uri": null}, "impression_id": "000b000000851c2262f03740758dd7f88d2d8614a2", "profile": "http://www.citysearch.com/profile/653618780/kennesaw_ga/ray_s_new_york_pizza.html", "address": {"city": "Kennesaw", "state": "GA", "street": "600 Chastain Rd Nw", "postal_code": "30144"}, "capProviderId": null, "distance": null, "has_offers": false, "name": "Ray's New York Pizza", "longitude": -84.567518, "has_menu": false, "awards": null, "user_review_count": 0}, {"business_operation_status": 1, "rating": null, "neighborhood": null, "image": null, "scorecard": null, "featured": false, "sample_categories": "Restaurants, Barbecue Restaurants", "public_id": "scotts-walkup-barbq-cartersville", "id": 601309545, "votes": null, "tagline": null, "has_video": false, "website": null, "offers": null, "latitude": 34.146199, "politanName": "Atlanta, GA Metro ", "phone_number": "7703821600", "tags": [{"primary": false, "id": 1724, "name": "Barbecue Restaurants"}, {"primary": true, "id": 1722, "name": "Restaurants"}], "fax_number": null, "expansion": {"count": null, "uri": null}, "impression_id": "000b00000062d50c1e18e549d9aa83a1b8614b8593", "profile": "http://www.citysearch.com/profile/601309545/cartersville_ga/scott_s_walk_up_bar_b_q.html", "address": {"city": "Cartersville", "state": "GA", "street": "107 Tanglewood Dr", "postal_code": "30120"}, "capProviderId": null, "distance": null, "has_offers": false, "name": "Scott's Walk-Up Bar-B-Q", "longitude": -84.808683, "has_menu": false, "awards": null, "user_review_count": 0}, {"business_operation_status": 1, "rating": null, "neighborhood": null, "image": null, "scorecard": null, "featured": false, "sample_categories": "Restaurants, Pizza", "public_id": "atena-pizza-kennesaw", "id": 827581250, "votes": null, "tagline": null, "has_video": false, "website": null, "offers": null, "latitude": 34.020819, "politanName": "Atlanta, GA Metro ", "phone_number": "6787971888", "tags": [{"primary": false, "id": 1722, "name": "Restaurants"}, {"primary": true, "id": 11299, "name": "Pizza"}], "fax_number": null, "expansion": {"count": null, "uri": null}, "impression_id": "000b000000815e98d732bd4f7c9666deb4e7d1240b", "profile": "http://www.citysearch.com/profile/827581250/kennesaw_ga/atena_pizza.html", "address": {"city": "Kennesaw", "state": "GA", "street": "2754 S Main St NW", "postal_code": "30144"}, "capProviderId": null, "distance": null, "has_offers": false, "name": "Atena Pizza", "longitude": -84.613657, "has_menu": false, "awards": null, "user_review_count": 0}, {"business_operation_status": 1, "rating": null, "neighborhood": null, "image": null, "scorecard": null, "featured": false, "sample_categories": "Restaurants", "public_id": "darbys-run-hoa-hiram", "id": 751321720, "votes": null, "tagline": null, "has_video": false, "website": null, "offers": null, "latitude": 33.89367, "politanName": "Atlanta, GA Metro ", "phone_number": "7702228881", "tags": [{"primary": true, "id": 1722, "name": "Restaurants"}], "fax_number": null, "expansion": {"count": null, "uri": null}, "impression_id": "000b000000c95ddd3972134f4190e29a754e68ec7f", "profile": "http://www.citysearch.com/profile/751321720/hiram_ga/darbys_run_hoa.html", "address": {"city": "Hiram", "state": "GA", "street": "99 Darbys Run Dr", "postal_code": "30141"}, "capProviderId": null, "distance": null, "has_offers": false, "name": "Darbys Run HOA", "longitude": -84.78156, "has_menu": false, "awards": null, "user_review_count": 0}, {"business_operation_status": 1, "rating": null, "neighborhood": null, "image": null, "scorecard": null, "featured": false, "sample_categories": "Restaurants", "public_id": "ambra-restaurant-cartersville", "id": 777827220, "votes": null, "tagline": null, "has_video": false, "website": null, "offers": null, "latitude": 34.164175, "politanName": "Atlanta, GA Metro ", "phone_number": "7703861960", "tags": [{"primary": true, "id": 1722, "name": "Restaurants"}], "fax_number": null, "expansion": {"count": null, "uri": null}, "impression_id": "000b000000b681a1f2f1a44e2f92445257fedc8e04", "profile": "http://www.citysearch.com/profile/777827220/cartersville_ga/ambra_restaurant.html", "address": {"city": "Cartersville", "state": "GA", "street": "148 W Main St", "postal_code": "30120"}, "capProviderId": null, "distance": null, "has_offers": false, "name": "Ambra Restaurant", "longitude": -84.798585, "has_menu": false, "awards": null, "user_review_count": 1}, {"business_operation_status": 1, "rating": null, "neighborhood": null, "image": null, "scorecard": null, "featured": false, "sample_categories": "Restaurants, Pizza", "public_id": "emkay-llc-marietta", "id": 802504650, "votes": null, "tagline": null, "has_video": false, "website": null, "offers": null, "latitude": 34.032174, "politanName": "Atlanta, GA Metro ", "phone_number": "6783248066", "tags": [{"primary": false, "id": 11299, "name": "Pizza"}, {"primary": true, "id": 1722, "name": "Restaurants"}], "fax_number": null, "expansion": {"count": null, "uri": null}, "impression_id": "000b000000e42ccb6b314d4074876334a43cb36e4a", "profile": "http://www.citysearch.com/profile/802504650/marietta_ga/emkay_llc.html", "address": {"city": "Marietta", "state": "GA", "street": "3372 Canton Rd", "postal_code": "30066"}, "capProviderId": null, "distance": null, "has_offers": false, "name": "Emkay LLC", "longitude": -84.527817, "has_menu": false, "awards": null, "user_review_count": 0}, {"business_operation_status": 1, "rating": null, "neighborhood": null, "image": null, "scorecard": null, "featured": false, "sample_categories": "Ice Cream Parlors, Restaurants, Dessert Shops, Frozen Yogurt Shops, Doughnut Shops", "public_id": "baskinrobbins-kennesaw", "id": 43858643, "votes": null, "tagline": null, "has_video": false, "website": "http://www.citysearch.com/profile/external/43858643/kennesaw_ga/baskin_robbins.html", "offers": null, "latitude": 34.03594, "politanName": "Atlanta, GA Metro ", "phone_number": "6783555518", "tags": [{"primary": false, "id": 1722, "name": "Restaurants"}, {"primary": false, "id": 1728, "name": "Dessert Shops"}, {"primary": false, "id": 1729, "name": "Frozen Yogurt Shops"}, {"primary": false, "id": 1734, "name": "Doughnut Shops"}, {"primary": true, "id": 1730, "name": "Ice Cream Parlors"}], "fax_number": null, "expansion": {"count": null, "uri": null}, "impression_id": "000b000000aeff18352578447bbe3d923d3dc934ca", "profile": "http://www.citysearch.com/profile/43858643/kennesaw_ga/baskin_robbins.html", "address": {"city": "Kennesaw", "state": "GA", "street": "741 Townpark Ln NW", "postal_code": "30144"}, "capProviderId": null, "distance": null, "has_offers": false, "name": "Baskin-Robbins", "longitude": -84.572269, "has_menu": true, "awards": null, "user_review_count": 0}, {"business_operation_status": 1, "rating": null, "neighborhood": null, "image": null, "scorecard": null, "featured": false, "sample_categories": "Restaurants", "public_id": "buffalos-cafe-kennesaw", "id": 803506350, "votes": null, "tagline": null, "has_video": false, "website": null, "offers": null, "latitude": 34.032711, "politanName": "Atlanta, GA Metro ", "phone_number": "6782369464", "tags": [{"primary": true, "id": 1722, "name": "Restaurants"}], "fax_number": null, "expansion": {"count": null, "uri": null}, "impression_id": "000b000000dc64511d11f84793a222d529f22d9cb8", "profile": "http://www.citysearch.com/profile/803506350/kennesaw_ga/buffalos_cafe.html", "address": {"city": "Kennesaw", "state": "GA", "street": "3161 Cobb Pkwy NW", "postal_code": "30152"}, "capProviderId": null, "distance": null, "has_offers": false, "name": "Buffalos Cafe", "longitude": -84.673088, "has_menu": false, "awards": null, "user_review_count": 0}, {"business_operation_status": 1, "rating": null, "neighborhood": null, "image": null, "scorecard": null, "featured": false, "sample_categories": "Catering, Restaurants, Pizza", "public_id": "poppys-pizza-kennesaw", "id": 43861477, "votes": null, "tagline": null, "has_video": false, "website": null, "offers": null, "latitude": 34.022601, "politanName": "Atlanta, GA Metro ", "phone_number": "7705294377", "tags": [{"primary": false, "id": 1722, "name": "Restaurants"}, {"primary": false, "id": 11299, "name": "Pizza"}, {"primary": true, "id": 1705, "name": "Catering"}], "fax_number": null, "expansion": {"count": null, "uri": null}, "impression_id": "000b0000004312cc4f31ed4c07a97f87b03887e278", "profile": "http://www.citysearch.com/profile/43861477/kennesaw_ga/poppy_s_pizza.html", "address": {"city": "Kennesaw", "state": "GA", "street": "3140 Cobb Pkwy NW Ste 10", "postal_code": "30152"}, "capProviderId": null, "distance": null, "has_offers": false, "name": "Poppy's Pizza", "longitude": -84.626408, "has_menu": false, "awards": null, "user_review_count": 0}, {"business_operation_status": 1, "rating": null, "neighborhood": null, "image": null, "scorecard": null, "featured": false, "sample_categories": "Restaurants, MasterCard, Visa", "public_id": "green-tomato-acworth", "id": 43860769, "votes": null, "tagline": null, "has_video": false, "website": null, "offers": null, "latitude": 34.090204, "politanName": "Atlanta, GA Metro ", "phone_number": "7709282303", "tags": [{"primary": false, "id": 11361, "name": "MasterCard"}, {"primary": false, "id": 11382, "name": "Visa"}, {"primary": true, "id": 1722, "name": "Restaurants"}], "fax_number": null, "expansion": {"count": null, "uri": null}, "impression_id": "000b00000062289dc50cae47d5b26975c9f1dc9904", "profile": "http://www.citysearch.com/profile/43860769/acworth_ga/green_tomato.html", "address": {"city": "Acworth", "state": "GA", "street": "6199 Highway 92", "postal_code": "30102"}, "capProviderId": null, "distance": null, "has_offers": false, "name": "Green Tomato", "longitude": -84.585493, "has_menu": false, "awards": null, "user_review_count": 0}, {"business_operation_status": 1, "rating": null, "neighborhood": null, "image": null, "scorecard": null, "featured": false, "sample_categories": "Restaurants, Carry Out, American Express, Discover, MasterCard", "public_id": "zaxbys-kennesaw-2", "id": 43864981, "votes": null, "tagline": null, "has_video": false, "website": "http://www.citysearch.com/profile/external/43864981/kennesaw_ga/zaxby_s.html", "offers": null, "latitude": 34.036091, "politanName": "Atlanta, GA Metro ", "phone_number": "7704295778", "tags": [{"primary": false, "id": 11247, "name": "Carry Out"}, {"primary": false, "id": 11333, "name": "American Express"}, {"primary": false, "id": 11349, "name": "Discover"}, {"primary": false, "id": 11361, "name": "MasterCard"}, {"primary": false, "id": 11382, "name": "Visa"}, {"primary": false, "id": 12839, "name": "Chicken"}, {"primary": true, "id": 1722, "name": "Restaurants"}], "fax_number": null, "expansion": {"count": null, "uri": null}, "impression_id": "000b000000f884c56e0c4349a4b8d389b45c0adbcf", "profile": "http://www.citysearch.com/profile/43864981/kennesaw_ga/zaxby_s.html", "address": {"city": "Kennesaw", "state": "GA", "street": "780 Townpark Ln NW", "postal_code": "30144"}, "capProviderId": null, "distance": null, "has_offers": false, "name": "Zaxby's", "longitude": -84.574531, "has_menu": true, "awards": null, "user_review_count": 0}, {"business_operation_status": 1, "rating": null, "neighborhood": null, "image": null, "scorecard": null, "featured": false, "sample_categories": "Restaurants", "public_id": "parkside-grill-woodstock", "id": 819340440, "votes": null, "tagline": null, "has_video": false, "website": null, "offers": null, "latitude": 34.130884, "politanName": "Atlanta, GA Metro ", "phone_number": "6782130552", "tags": [{"primary": true, "id": 1722, "name": "Restaurants"}], "fax_number": null, "expansion": {"count": null, "uri": null}, "impression_id": "000b00000025e8dd4bfe5143e981af2f2714ab18cf", "profile": "http://www.citysearch.com/profile/819340440/woodstock_ga/parkside_grill.html", "address": {"city": "Woodstock", "state": "GA", "street": "6687 Bells Ferry Rd", "postal_code": "30189"}, "capProviderId": null, "distance": null, "has_offers": false, "name": "Parkside Grill", "longitude": -84.586697, "has_menu": false, "awards": null, "user_review_count": 0}, {"business_operation_status": 1, "rating": null, "neighborhood": null, "image": null, "scorecard": null, "featured": false, "sample_categories": "Ice Cream Parlors, Restaurants, Dessert Shops", "public_id": "dippin-dots-kennesaw", "id": 36642606, "votes": null, "tagline": null, "has_video": false, "website": "http://www.citysearch.com/profile/external/36642606/kennesaw_ga/dippin_dots.html", "offers": null, "latitude": 34.019128, "politanName": "Atlanta, GA Metro ", "phone_number": "7709191015", "tags": [{"primary": false, "id": 1722, "name": "Restaurants"}, {"primary": false, "id": 1728, "name": "Dessert Shops"}, {"primary": true, "id": 1730, "name": "Ice Cream Parlors"}], "fax_number": null, "expansion": {"count": null, "uri": null}, "impression_id": "000b000000b31dd016cdb5464c94ee1ac78cc78e6a", "profile": "http://www.citysearch.com/profile/36642606/kennesaw_ga/dippin_dots.html", "address": {"city": "Kennesaw", "state": "GA", "street": "400 Ernest W Barrett Pkwy NW", "postal_code": "30144"}, "capProviderId": null, "distance": null, "has_offers": false, "name": "Dippin' Dots", "longitude": -84.563608, "has_menu": true, "awards": null, "user_review_count": 0}, {"business_operation_status": 0, "rating": null, "neighborhood": null, "image": null, "scorecard": null, "featured": false, "sample_categories": "Restaurants", "public_id": "perez-ncr-acworth", "id": 36286047, "votes": null, "tagline": null, "has_video": false, "website": null, "offers": null, "latitude": 34.099835, "politanName": "Atlanta, GA Metro ", "phone_number": "7709178436", "tags": [{"primary": true, "id": 1722, "name": "Restaurants"}], "fax_number": null, "expansion": {"count": null, "uri": null}, "impression_id": "000b0000000d86950047f34080a8f7fe1bcd327fdf", "profile": "http://www.citysearch.com/profile/36286047/acworth_ga/perez_ncr.html", "address": {"city": "Acworth", "state": "GA", "street": "4755 Pine Dr NW", "postal_code": "30101"}, "capProviderId": null, "distance": null, "has_offers": false, "name": "Perez NCR", "longitude": -84.688031, "has_menu": false, "awards": null, "user_review_count": 0}, {"business_operation_status": 1, "rating": null, "neighborhood": null, "image": null, "scorecard": null, "featured": false, "sample_categories": "Restaurants", "public_id": "kennesaw-thai-kennesaw", "id": 608222434, "votes": null, "tagline": null, "has_video": false, "website": null, "offers": null, "latitude": 34.020591, "politanName": "Atlanta, GA Metro ", "phone_number": "6783311988", "tags": [{"primary": true, "id": 1722, "name": "Restaurants"}], "fax_number": null, "expansion": {"count": null, "uri": null}, "impression_id": "000b0000000eead10826294ebfaf854ae480ebba2a", "profile": "http://www.citysearch.com/profile/608222434/kennesaw_ga/kennesaw_thai.html", "address": {"city": "Kennesaw", "state": "GA", "street": "2754 S Main Street", "postal_code": "30144"}, "capProviderId": null, "distance": null, "has_offers": false, "name": "Kennesaw Thai", "longitude": -84.612586, "has_menu": true, "awards": null, "user_review_count": 1}, {"business_operation_status": 1, "rating": null, "neighborhood": null, "image": null, "scorecard": null, "featured": false, "sample_categories": "Restaurants", "public_id": "mediterranean-bistro-kennesaw", "id": 614254214, "votes": null, "tagline": null, "has_video": false, "website": null, "offers": null, "latitude": 34.049477, "politanName": "Atlanta, GA Metro ", "phone_number": "7704291999", "tags": [{"primary": true, "id": 1722, "name": "Restaurants"}], "fax_number": null, "expansion": {"count": null, "uri": null}, "impression_id": "000b000000022abb98c6cb4e14aef8e07be5e6f09e", "profile": "http://www.citysearch.com/profile/614254214/kennesaw_ga/mediterranean_bistro.html", "address": {"city": "Kennesaw", "state": "GA", "street": "3940 Cherokee St NW", "postal_code": "30144"}, "capProviderId": null, "distance": null, "has_offers": false, "name": "Mediterranean Bistro", "longitude": -84.596636, "has_menu": false, "awards": null, "user_review_count": 0}, {"business_operation_status": 1, "rating": null, "neighborhood": null, "image": null, "scorecard": null, "featured": false, "sample_categories": "Restaurants", "public_id": "primos-cocina-mexicana-cartersville", "id": 621877104, "votes": null, "tagline": null, "has_video": false, "website": null, "offers": null, "latitude": 34.163847, "politanName": "Atlanta, GA Metro ", "phone_number": "4702277326", "tags": [{"primary": true, "id": 1722, "name": "Restaurants"}], "fax_number": null, "expansion": {"count": null, "uri": null}, "impression_id": "000b0000002b48343c2ca643c5b11aabbbd3c8cff6", "profile": "http://www.citysearch.com/profile/621877104/cartersville_ga/primo_s_cocina_mexicana.html", "address": {"city": "Cartersville", "state": "GA", "street": "148 W Main St", "postal_code": "30120"}, "capProviderId": null, "distance": null, "has_offers": false, "name": "Primo's Cocina Mexicana", "longitude": -84.798279, "has_menu": false, "awards": null, "user_review_count": 0}, {"business_operation_status": 1, "rating": null, "neighborhood": null, "image": null, "scorecard": null, "featured": false, "sample_categories": "Grocery Stores, Bakeries, Delis And Delicatessens, Florists, Department Stores", "public_id": "kroger-deli-marietta", "id": 621968220, "votes": null, "tagline": null, "has_video": false, "website": "http://www.citysearch.com/profile/external/621968220/marietta_ga/kroger_deli.html", "offers": null, "latitude": 34.038928, "politanName": "Atlanta, GA Metro ", "phone_number": "7709247930", "tags": [{"primary": false, "id": 1685, "name": "Bakeries"}, {"primary": false, "id": 1727, "name": "Delis And Delicatessens"}, {"primary": false, "id": 3921, "name": "Florists"}, {"primary": false, "id": 3924, "name": "Department Stores"}, {"primary": true, "id": 1713, "name": "Grocery Stores"}], "fax_number": null, "expansion": {"count": null, "uri": null}, "impression_id": "000b000000d31e00a691c74da9830c7dde2b3e294e", "profile": "http://www.citysearch.com/profile/621968220/marietta_ga/kroger_deli.html", "address": {"city": "Marietta", "state": "GA", "street": "3595 Canton Rd # B", "postal_code": "30066"}, "capProviderId": null, "distance": null, "has_offers": false, "name": "Kroger Deli", "longitude": -84.530249, "has_menu": false, "awards": null, "user_review_count": 0}, {"business_operation_status": 1, "rating": null, "neighborhood": null, "image": null, "scorecard": null, "featured": false, "sample_categories": "Restaurants, Carry Out", "public_id": "baja-fresh-mexican-grill-dallas-3", "id": 624919634, "votes": null, "tagline": null, "has_video": false, "website": "http://www.citysearch.com/profile/external/624919634/dallas_ga/baja_fresh_mexican_grill.html", "offers": null, "latitude": 34.038292, "politanName": "Atlanta, GA Metro ", "phone_number": "7704455434", "tags": [{"primary": false, "id": 11247, "name": "Carry Out"}, {"primary": true, "id": 1722, "name": "Restaurants"}], "fax_number": null, "expansion": {"count": null, "uri": null}, "impression_id": "000b000000e7d0442007ec4e599e9605a0355b1224", "profile": "http://www.citysearch.com/profile/624919634/dallas_ga/baja_fresh_mexican_grill.html", "address": {"city": "Dallas", "state": "GA", "street": "8860 Cartersville Hwy", "postal_code": "30132"}, "capProviderId": null, "distance": null, "has_offers": false, "name": "Baja Fresh Mexican Grill", "longitude": -84.84262, "has_menu": false, "awards": null, "user_review_count": 0}, {"business_operation_status": 1, "rating": null, "neighborhood": null, "image": null, "scorecard": null, "featured": false, "sample_categories": "Restaurants, Carry Out", "public_id": "panera-bread-kennesaw-3", "id": 621013304, "votes": null, "tagline": null, "has_video": false, "website": "http://www.citysearch.com/profile/external/621013304/kennesaw_ga/panera_bread.html", "offers": null, "latitude": 34.016149, "politanName": "Atlanta, GA Metro ", "phone_number": "7704851240", "tags": [{"primary": false, "id": 11247, "name": "Carry Out"}, {"primary": true, "id": 1722, "name": "Restaurants"}], "fax_number": null, "expansion": {"count": null, "uri": null}, "impression_id": "000b0000006f19c51e45ea478a89f98bee995cd8c5", "profile": "http://www.citysearch.com/profile/621013304/kennesaw_ga/panera_bread.html", "address": {"city": "Kennesaw", "state": "GA", "street": "3629 Hollyhock Way NW", "postal_code": "30152"}, "capProviderId": null, "distance": null, "has_offers": false, "name": "Panera Bread", "longitude": -84.658211, "has_menu": false, "awards": null, "user_review_count": 0}, {"business_operation_status": 1, "rating": null, "neighborhood": null, "image": null, "scorecard": null, "featured": false, "sample_categories": "Restaurants, Delis And Delicatessens, Sandwich Shops, Carry Out, Food Delivery", "public_id": "subway-kennesaw-9", "id": 764838880, "votes": null, "tagline": null, "has_video": false, "website": "http://www.citysearch.com/profile/external/764838880/kennesaw_ga/subway.html", "offers": null, "latitude": 33.992719, "politanName": "Atlanta, GA Metro ", "phone_number": "6783248948", "tags": [{"primary": false, "id": 1727, "name": "Delis And Delicatessens"}, {"primary": false, "id": 1736, "name": "Sandwich Shops"}, {"primary": false, "id": 11247, "name": "Carry Out"}, {"primary": false, "id": 11267, "name": "Food Delivery"}, {"primary": true, "id": 1722, "name": "Restaurants"}], "fax_number": null, "expansion": {"count": null, "uri": null}, "impression_id": "000b000000f08834b82f0d484596abeb1af8b4ea9c", "profile": "http://www.citysearch.com/profile/764838880/kennesaw_ga/subway.html", "address": {"city": "Kennesaw", "state": "GA", "street": "1600 Kennesaw Due West Rd NW", "postal_code": "30152"}, "capProviderId": null, "distance": null, "has_offers": false, "name": "SUBWAY", "longitude": -84.627117, "has_menu": false, "awards": null, "user_review_count": 0}, {"business_operation_status": 1, "rating": null, "neighborhood": null, "image": null, "scorecard": null, "featured": false, "sample_categories": "Restaurants, Barbecue Restaurants", "public_id": "briar-patch-bar-b-que-dallas", "id": 773453060, "votes": null, "tagline": null, "has_video": false, "website": null, "offers": null, "latitude": 33.924129, "politanName": "Atlanta, GA Metro ", "phone_number": "7704453737", "tags": [{"primary": false, "id": 1724, "name": "Barbecue Restaurants"}, {"primary": true, "id": 1722, "name": "Restaurants"}], "fax_number": null, "expansion": {"count": null, "uri": null}, "impression_id": "000b00000095c436797bfe480d8176bf2bbb37b3e7", "profile": "http://www.citysearch.com/profile/773453060/dallas_ga/briar_patch_bar_b_que.html", "address": {"city": "Dallas", "state": "GA", "street": "588 Charles Hardy Pkwy", "postal_code": "30157"}, "capProviderId": null, "distance": null, "has_offers": false, "name": "Briar Patch Bar B Que", "longitude": -84.752659, "has_menu": false, "awards": null, "user_review_count": 0}, {"business_operation_status": 1, "rating": null, "neighborhood": null, "image": null, "scorecard": null, "featured": false, "sample_categories": "Restaurants, Pizza", "public_id": "jimmys-pizza-kennesaw", "id": 777771070, "votes": null, "tagline": null, "has_video": false, "website": null, "offers": null, "latitude": 34.031208, "politanName": "Atlanta, GA Metro ", "phone_number": "6783915812", "tags": [{"primary": false, "id": 11299, "name": "Pizza"}, {"primary": true, "id": 1722, "name": "Restaurants"}], "fax_number": null, "expansion": {"count": null, "uri": null}, "impression_id": "000b000000d17c27ca2f164dc8baa545925cb62fde", "profile": "http://www.citysearch.com/profile/777771070/kennesaw_ga/jimmy_s_pizza.html", "address": {"city": "Kennesaw", "state": "GA", "street": "3102 Loring Rd NW", "postal_code": "30152"}, "capProviderId": null, "distance": null, "has_offers": false, "name": "Jimmy's Pizza", "longitude": -84.662476, "has_menu": true, "awards": null, "user_review_count": 0}], "histograms": [], "tag_ids": [1722], "uri": "http://api.citygridmedia.com:8080/search/places/v2/search/where?has_offers=false&type=restaurant&format=json&page=18&where=30101&rpp=50&histograms=false&publisher=10000009598&region_type=circle", "did_you_mean": "", "regions": [{"latitude": 34.042584, "default_radius": 6.64, "type": "postal_code", "name": "30101", "longitude": -84.71322699999999}], "call_id": "000b000000d2f5533f83e94240afdc2695a4ac211d", "first_hit": 851, "total_hits": 1249, "geo_ids": [26343], "page": 18, "last_hit": 900}}