{"results": {"rpp": 50, "locations": [{"business_operation_status": 1, "rating": null, "neighborhood": null, "image": null, "scorecard": null, "featured": false, "sample_categories": "Restaurants", "public_id": "dos-equis-rstrnt-sportsbar-2-acworth", "id": 807672200, "votes": null, "tagline": null, "has_video": false, "website": null, "offers": null, "latitude": 34.061116, "politanName": "Atlanta, GA Metro ", "phone_number": "7705298842", "tags": [{"primary": true, "id": 1722, "name": "Restaurants"}], "fax_number": null, "expansion": {"count": null, "uri": null}, "impression_id": "000b00000007bd1a4caeb942c6b8a06b58b3dd6d1d", "profile": "http://www.citysearch.com/profile/807672200/acworth_ga/dos_equis_rstrnt_sportsbar_2.html", "address": {"city": "Acworth", "state": "GA", "street": "186 Thorncliff Lndg", "postal_code": "30101"}, "capProviderId": null, "distance": null, "has_offers": false, "name": "Dos Equis Rstrnt & Sportsbar 2", "longitude": -84.749701, "has_menu": false, "awards": null, "user_review_count": 0}, {"business_operation_status": 1, "rating": null, "neighborhood": null, "image": null, "scorecard": null, "featured": false, "sample_categories": "Luaus", "public_id": "strombolie-s-italian-rest-acworth", "id": 811113340, "votes": null, "tagline": null, "has_video": false, "website": null, "offers": null, "latitude": 34.074364, "politanName": "Atlanta, GA Metro ", "phone_number": "7709745369", "tags": [{"primary": true, "id": 11285, "name": "Luaus"}], "fax_number": null, "expansion": {"count": null, "uri": null}, "impression_id": "000b000000423a876862a84e239568657203a71b1a", "profile": "http://www.citysearch.com/profile/811113340/acworth_ga/strombolie_s_italian_rest.html", "address": {"city": "Acworth", "state": "GA", "street": "3365 Acworth Oaks Dr S", "postal_code": "30101"}, "capProviderId": null, "distance": null, "has_offers": false, "name": "Strombolie S Italian Rest", "longitude": -84.649151, "has_menu": false, "awards": null, "user_review_count": 0}, {"business_operation_status": 1, "rating": null, "neighborhood": null, "image": null, "scorecard": null, "featured": false, "sample_categories": "Restaurants", "public_id": "sunrise-biscuit-co-acworth", "id": 816529700, "votes": null, "tagline": null, "has_video": false, "website": null, "offers": null, "latitude": 34.050562, "politanName": "Atlanta, GA Metro ", "phone_number": "7705294550", "tags": [{"primary": true, "id": 1722, "name": "Restaurants"}], "fax_number": null, "expansion": {"count": null, "uri": null}, "impression_id": "000b0000008a8e92530e284c639d008e577a2a605e", "profile": "http://www.citysearch.com/profile/816529700/acworth_ga/sunrise_biscuit_co.html", "address": {"city": "Acworth", "state": "GA", "street": "3732 Cedarcrest Rd # 100", "postal_code": "30101"}, "capProviderId": null, "distance": null, "has_offers": false, "name": "Sunrise Biscuit Co", "longitude": -84.762189, "has_menu": false, "awards": null, "user_review_count": 0}, {"business_operation_status": 1, "rating": null, "neighborhood": null, "image": null, "scorecard": null, "featured": false, "sample_categories": "Restaurants, Mexican, Carry Out", "public_id": "acworth-taco-dallas", "id": 801077680, "votes": null, "tagline": null, "has_video": false, "website": "http://www.citysearch.com/profile/external/801077680/dallas_ga/acworth_taco.html", "offers": null, "latitude": 34.010309, "politanName": "Atlanta, GA Metro ", "phone_number": "6785743774", "tags": [{"primary": false, "id": 11208, "name": "Mexican"}, {"primary": false, "id": 11247, "name": "Carry Out"}, {"primary": true, "id": 1722, "name": "Restaurants"}], "fax_number": null, "expansion": {"count": null, "uri": null}, "impression_id": "000b00000014a552262f384d70977940a5ddcc6a31", "profile": "http://www.citysearch.com/profile/801077680/dallas_ga/acworth_taco.html", "address": {"city": "Dallas", "state": "GA", "street": "8876 Dallas Acworth Hwy", "postal_code": "30132"}, "capProviderId": null, "distance": null, "has_offers": false, "name": "Acworth Taco", "longitude": -84.753348, "has_menu": false, "awards": null, "user_review_count": 0}, {"business_operation_status": 1, "rating": null, "neighborhood": null, "image": null, "scorecard": null, "featured": false, "sample_categories": "Restaurants, Pizza, Carry Out", "public_id": "dominos-pizza-dallas-38", "id": 682657320, "votes": null, "tagline": null, "has_video": false, "website": "http://www.citysearch.com/profile/external/682657320/dallas_ga/domino_s_pizza.html", "offers": null, "latitude": 34.016676, "politanName": "Atlanta, GA Metro ", "phone_number": "7705053030", "tags": [{"primary": false, "id": 1722, "name": "Restaurants"}, {"primary": false, "id": 11247, "name": "Carry Out"}, {"primary": true, "id": 11299, "name": "Pizza"}], "fax_number": null, "expansion": {"count": null, "uri": null}, "impression_id": "000b000000d7302b46a6854240bb48b98c2ed67250", "profile": "http://www.citysearch.com/profile/682657320/dallas_ga/domino_s_pizza.html", "address": {"city": "Dallas", "state": "GA", "street": "423 Old Dallas Acworth Rd N", "postal_code": "30132"}, "capProviderId": null, "distance": null, "has_offers": false, "name": "Domino's Pizza", "longitude": -84.753746, "has_menu": false, "awards": null, "user_review_count": 0}, {"business_operation_status": 1, "rating": null, "neighborhood": null, "image": null, "scorecard": null, "featured": false, "sample_categories": "Restaurants", "public_id": "mineos-italian-restaurant-acworth", "id": 821749900, "votes": null, "tagline": null, "has_video": false, "website": null, "offers": null, "latitude": 33.997403, "politanName": "Atlanta, GA Metro ", "phone_number": "7704247746", "tags": [{"primary": true, "id": 1722, "name": "Restaurants"}], "fax_number": null, "expansion": {"count": null, "uri": null}, "impression_id": "000b000000854dedadb7e440cda78542d741758b85", "profile": "http://www.citysearch.com/profile/821749900/acworth_ga/mineo_s_italian_restaurant.html", "address": {"city": "Acworth", "state": "GA", "street": "1727 Mars Hill Rd NW # 6", "postal_code": "30101"}, "capProviderId": null, "distance": null, "has_offers": false, "name": "Mineo's Italian Restaurant", "longitude": -84.707837, "has_menu": false, "awards": null, "user_review_count": 1}, {"business_operation_status": 1, "rating": 10.0, "neighborhood": null, "image": null, "scorecard": null, "featured": false, "sample_categories": "Restaurants, Asian, MasterCard, Visa", "public_id": "bamboo-garden-acworth", "id": 2939263, "votes": null, "tagline": null, "has_video": false, "website": "http://www.citysearch.com/profile/external/2939263/acworth_ga/bamboo_garden.html", "offers": null, "latitude": 34.075979, "politanName": "Atlanta, GA Metro ", "phone_number": "7705299828", "tags": [{"primary": false, "id": 11235, "name": "Asian"}, {"primary": false, "id": 11361, "name": "MasterCard"}, {"primary": false, "id": 11382, "name": "Visa"}, {"primary": true, "id": 1722, "name": "Restaurants"}], "fax_number": null, "expansion": {"count": null, "uri": null}, "impression_id": "000b000000ac3c187bc3df4b32975729aa49b85551", "profile": "http://www.citysearch.com/profile/2939263/acworth_ga/bamboo_garden.html", "address": {"city": "Acworth", "state": "GA", "street": "3509 Baker Rd NW", "postal_code": "30101"}, "capProviderId": null, "distance": null, "has_offers": false, "name": "Bamboo Garden", "longitude": -84.651965, "has_menu": true, "awards": null, "user_review_count": 1}, {"business_operation_status": 1, "rating": null, "neighborhood": null, "image": null, "scorecard": null, "featured": false, "sample_categories": "Restaurants", "public_id": "county-club-cafe-acworth", "id": 808921420, "votes": null, "tagline": null, "has_video": false, "website": null, "offers": null, "latitude": 34.071465, "politanName": "Atlanta, GA Metro ", "phone_number": "7709171466", "tags": [{"primary": true, "id": 1722, "name": "Restaurants"}], "fax_number": null, "expansion": {"count": null, "uri": null}, "impression_id": "000b0000001a7b71d8559144b2b01767f73d404471", "profile": "http://www.citysearch.com/profile/808921420/acworth_ga/county_club_cafe.html", "address": {"city": "Acworth", "state": "GA", "street": "5250 Cherokee St", "postal_code": "30101"}, "capProviderId": null, "distance": null, "has_offers": false, "name": "County Club Cafe", "longitude": -84.676084, "has_menu": false, "awards": null, "user_review_count": 0}, {"business_operation_status": 1, "rating": null, "neighborhood": null, "image": null, "scorecard": null, "featured": false, "sample_categories": "Restaurants", "public_id": "volcano-steak-sushi-acworth", "id": 625431904, "votes": null, "tagline": null, "has_video": false, "website": null, "offers": null, "latitude": 33.99646, "politanName": "Atlanta, GA Metro ", "phone_number": "7704209888", "tags": [{"primary": true, "id": 1722, "name": "Restaurants"}], "fax_number": null, "expansion": {"count": null, "uri": null}, "impression_id": "000b000000abba771648f8421dbecc8b161ca5ab1f", "profile": "http://www.citysearch.com/profile/625431904/acworth_ga/volcano_steak_sushi.html", "address": {"city": "Acworth", "state": "GA", "street": "1720 Mars Hill Rd NW", "postal_code": "30101"}, "capProviderId": null, "distance": null, "has_offers": false, "name": "Volcano Steak & Sushi", "longitude": -84.70439, "has_menu": false, "awards": null, "user_review_count": 0}, {"business_operation_status": 1, "rating": null, "neighborhood": null, "image": null, "scorecard": null, "featured": false, "sample_categories": "Restaurants, Mexican", "public_id": "tortilla-el-maizal-inc-kennesaw", "id": 601313166, "votes": null, "tagline": null, "has_video": false, "website": null, "offers": null, "latitude": 34.056577, "politanName": "Atlanta, GA Metro ", "phone_number": "7704270187", "tags": [{"primary": false, "id": 11208, "name": "Mexican"}, {"primary": true, "id": 1722, "name": "Restaurants"}], "fax_number": null, "expansion": {"count": null, "uri": null}, "impression_id": "000b0000006ebbd594c46e4722998cc940a78c3078", "profile": "http://www.citysearch.com/profile/601313166/kennesaw_ga/tortilla_el_maizal_inc.html", "address": {"city": "Kennesaw", "state": "GA", "street": "1920 Shiloh Rd Nw", "postal_code": "30144"}, "capProviderId": null, "distance": null, "has_offers": false, "name": "Tortilla El Maizal Inc", "longitude": -84.606862, "has_menu": false, "awards": null, "user_review_count": 0}, {"business_operation_status": 1, "rating": null, "neighborhood": null, "image": null, "scorecard": null, "featured": false, "sample_categories": "Restaurants", "public_id": "stoner-burger-llc-acworth", "id": 620965964, "votes": null, "tagline": null, "has_video": false, "website": null, "offers": null, "latitude": 34.074364, "politanName": "Atlanta, GA Metro ", "phone_number": "7705290009", "tags": [{"primary": true, "id": 1722, "name": "Restaurants"}], "fax_number": null, "expansion": {"count": null, "uri": null}, "impression_id": "000b000000165607432bfe4441b573e809f98c98bb", "profile": "http://www.citysearch.com/profile/620965964/acworth_ga/stoner_burger_llc.html", "address": {"city": "Acworth", "state": "GA", "street": "3365 Acworth Oaks Dr NW", "postal_code": "30101"}, "capProviderId": null, "distance": null, "has_offers": false, "name": "Stoner Burger LLC", "longitude": -84.649151, "has_menu": false, "awards": null, "user_review_count": 0}, {"business_operation_status": 1, "rating": null, "neighborhood": null, "image": null, "scorecard": null, "featured": false, "sample_categories": "Restaurants, Pizza", "public_id": "pizza-wings-factory-acworth", "id": 790619080, "votes": null, "tagline": null, "has_video": false, "website": null, "offers": null, "latitude": 34.063964, "politanName": "Atlanta, GA Metro ", "phone_number": "6785747554", "tags": [{"primary": false, "id": 1722, "name": "Restaurants"}, {"primary": true, "id": 11299, "name": "Pizza"}], "fax_number": null, "expansion": {"count": null, "uri": null}, "impression_id": "000b000000dd2924ae33a64b809ede5f60d1f0fd0f", "profile": "http://www.citysearch.com/profile/790619080/acworth_ga/pizza_wings_factory.html", "address": {"city": "Acworth", "state": "GA", "street": "4628 S Main St", "postal_code": "30101"}, "capProviderId": null, "distance": null, "has_offers": false, "name": "Pizza & Wings Factory", "longitude": -84.671776, "has_menu": false, "awards": null, "user_review_count": 0}, {"business_operation_status": 1, "rating": null, "neighborhood": null, "image": null, "scorecard": null, "featured": false, "sample_categories": "Restaurants", "public_id": "ernies-steakhouse-acworth", "id": 823081000, "votes": null, "tagline": null, "has_video": false, "website": null, "offers": null, "latitude": 34.03595, "politanName": "Atlanta, GA Metro ", "phone_number": "7709746186", "tags": [{"primary": true, "id": 1722, "name": "Restaurants"}], "fax_number": null, "expansion": {"count": null, "uri": null}, "impression_id": "000b00000053a4b5a22faa4982b967b6ed053ba4e8", "profile": "http://www.citysearch.com/profile/823081000/acworth_ga/ernies_steakhouse.html", "address": {"city": "Acworth", "state": "GA", "street": "3330 Cobb Pkwy NW # 100", "postal_code": "30101"}, "capProviderId": null, "distance": null, "has_offers": false, "name": "Ernies Steakhouse", "longitude": -84.676991, "has_menu": false, "awards": null, "user_review_count": 0}, {"business_operation_status": 1, "rating": null, "neighborhood": null, "image": null, "scorecard": null, "featured": false, "sample_categories": "Restaurants, Sandwich Shops, Hot Dogs", "public_id": "roys-royal-dogs-acworth", "id": 840479240, "votes": null, "tagline": null, "has_video": false, "website": "http://www.citysearch.com/profile/external/840479240/acworth_ga/roy_s_royal_dogs.html", "offers": null, "latitude": 34.036201, "politanName": "Atlanta, GA Metro ", "phone_number": "6783836294", "tags": [{"primary": false, "id": 1736, "name": "Sandwich Shops"}, {"primary": false, "id": 11274, "name": "Hot Dogs"}, {"primary": true, "id": 1722, "name": "Restaurants"}], "fax_number": null, "expansion": {"count": null, "uri": null}, "impression_id": "000b000000723d1a2be04a47b7a98a6203aa378a39", "profile": "http://www.citysearch.com/profile/840479240/acworth_ga/roy_s_royal_dogs.html", "address": {"city": "Acworth", "state": "GA", "street": "3330 Cobb Pkwy NW 308", "postal_code": "30101"}, "capProviderId": null, "distance": null, "has_offers": false, "name": "Roy's Royal Dogs", "longitude": -84.67689, "has_menu": false, "awards": null, "user_review_count": 0}, {"business_operation_status": 1, "rating": 10.0, "neighborhood": null, "image": null, "scorecard": null, "featured": false, "sample_categories": "Restaurants, Pizza", "public_id": "casa-mia-pizza-italian-restaurant-acworth", "id": 2939267, "votes": null, "tagline": null, "has_video": false, "website": null, "offers": null, "latitude": 34.076062, "politanName": "Atlanta, GA Metro ", "phone_number": "7709178400", "tags": [{"primary": false, "id": 1722, "name": "Restaurants"}, {"primary": true, "id": 11299, "name": "Pizza"}], "fax_number": null, "expansion": {"count": null, "uri": null}, "impression_id": "000b0000004d3414c73cfb4a0eaeeff3a5ef6789f0", "profile": "http://www.citysearch.com/profile/2939267/acworth_ga/casa_mia_pizza_italian_restaurant.html", "address": {"city": "Acworth", "state": "GA", "street": "5092 Cherokee St", "postal_code": "30101"}, "capProviderId": null, "distance": null, "has_offers": false, "name": "Casa Mia Pizza Italian Restaurant", "longitude": -84.676745, "has_menu": false, "awards": null, "user_review_count": 2}, {"business_operation_status": 1, "rating": null, "neighborhood": null, "image": null, "scorecard": null, "featured": false, "sample_categories": "Restaurants", "public_id": "yupk-llc-acworth", "id": 764935540, "votes": null, "tagline": null, "has_video": false, "website": null, "offers": null, "latitude": 34.06489, "politanName": "Atlanta, GA Metro ", "phone_number": "7706936770", "tags": [{"primary": true, "id": 1722, "name": "Restaurants"}], "fax_number": null, "expansion": {"count": null, "uri": null}, "impression_id": "000b000000ce58120c2d734424b5cb2863e2270ba2", "profile": "http://www.citysearch.com/profile/764935540/acworth_ga/yupk_llc.html", "address": {"city": "Acworth", "state": "GA", "street": "2535 Hickory Grove Rd NW", "postal_code": "30101"}, "capProviderId": null, "distance": null, "has_offers": false, "name": "YUPK Llc", "longitude": -84.624038, "has_menu": false, "awards": null, "user_review_count": 0}, {"business_operation_status": 1, "rating": null, "neighborhood": null, "image": null, "scorecard": null, "featured": false, "sample_categories": "Restaurants, Carry Out, Hamburgers", "public_id": "mc-donalds-acworth-5", "id": 766781880, "votes": null, "tagline": null, "has_video": false, "website": null, "offers": null, "latitude": 34.058363, "politanName": "Atlanta, GA Metro ", "phone_number": "7709174645", "tags": [{"primary": false, "id": 11247, "name": "Carry Out"}, {"primary": false, "id": 11270, "name": "Hamburgers"}, {"primary": true, "id": 1722, "name": "Restaurants"}], "fax_number": null, "expansion": {"count": null, "uri": null}, "impression_id": "000b0000001787e9c0e0024f449ac8ffda02f5bd24", "profile": "http://www.citysearch.com/profile/766781880/acworth_ga/mc_donald_s.html", "address": {"city": "Acworth", "state": "GA", "street": "4381 Acworth Dallas Rd NW", "postal_code": "30101"}, "capProviderId": null, "distance": null, "has_offers": false, "name": "Mc Donald's", "longitude": -84.723405, "has_menu": false, "awards": null, "user_review_count": 0}, {"business_operation_status": 1, "rating": null, "neighborhood": null, "image": null, "scorecard": null, "featured": false, "sample_categories": "Barbecue Restaurants", "public_id": "stubbys-barbeque-acworth", "id": 810815150, "votes": null, "tagline": null, "has_video": false, "website": null, "offers": null, "latitude": 34.063964, "politanName": "Atlanta, GA Metro ", "phone_number": "7709748871", "tags": [{"primary": true, "id": 1724, "name": "Barbecue Restaurants"}], "fax_number": null, "expansion": {"count": null, "uri": null}, "impression_id": "000b000000c0e2963ad3bd450795b8420c93c5d7c4", "profile": "http://www.citysearch.com/profile/810815150/acworth_ga/stubbys_barbeque.html", "address": {"city": "Acworth", "state": "GA", "street": "4628 S Main St", "postal_code": "30101"}, "capProviderId": null, "distance": null, "has_offers": false, "name": "Stubbys Barbeque", "longitude": -84.671776, "has_menu": false, "awards": null, "user_review_count": 0}, {"business_operation_status": 1, "rating": null, "neighborhood": null, "image": null, "scorecard": null, "featured": false, "sample_categories": "Restaurants, Barbecue Restaurants, Carry Out", "public_id": "wingstreet-acworth", "id": 728120460, "votes": null, "tagline": null, "has_video": false, "website": "http://www.citysearch.com/profile/external/728120460/acworth_ga/wingstreet.html", "offers": null, "latitude": 34.075499, "politanName": "Atlanta, GA Metro ", "phone_number": "4049757444", "tags": [{"primary": false, "id": 1724, "name": "Barbecue Restaurants"}, {"primary": false, "id": 11247, "name": "Carry Out"}, {"primary": true, "id": 1722, "name": "Restaurants"}], "fax_number": null, "expansion": {"count": null, "uri": null}, "impression_id": "000b00000062aee38588354013844aee115956ec9e", "profile": "http://www.citysearch.com/profile/728120460/acworth_ga/wingstreet.html", "address": {"city": "Acworth", "state": "GA", "street": "5070 Cherokee St", "postal_code": "30101"}, "capProviderId": null, "distance": null, "has_offers": false, "name": "Wingstreet", "longitude": -84.676428, "has_menu": true, "awards": null, "user_review_count": 0}, {"business_operation_status": 1, "rating": null, "neighborhood": null, "image": null, "scorecard": null, "featured": false, "sample_categories": "Restaurants, Mexican", "public_id": "ricos-mex-mex-grill-acworth", "id": 713539960, "votes": null, "tagline": null, "has_video": false, "website": null, "offers": null, "latitude": 34.064414, "politanName": "Atlanta, GA Metro ", "phone_number": "7709179791", "tags": [{"primary": false, "id": 11208, "name": "Mexican"}, {"primary": true, "id": 1722, "name": "Restaurants"}], "fax_number": null, "expansion": {"count": null, "uri": null}, "impression_id": "000b000000a8239070944f4b00bc7118da93d0699f", "profile": "http://www.citysearch.com/profile/713539960/acworth_ga/ricos_mex_mex_grill.html", "address": {"city": "Acworth", "state": "GA", "street": "3770 Southside Dr", "postal_code": "30101"}, "capProviderId": null, "distance": null, "has_offers": false, "name": "Ricos Mex Mex Grill", "longitude": -84.659884, "has_menu": false, "awards": null, "user_review_count": 0}, {"business_operation_status": 1, "rating": null, "neighborhood": null, "image": null, "scorecard": null, "featured": false, "sample_categories": "Restaurants, Carry Out, Hamburgers, American Express, Discover", "public_id": "mc-donalds-acworth-3", "id": 682414490, "votes": null, "tagline": null, "has_video": false, "website": "http://www.citysearch.com/profile/external/682414490/acworth_ga/mc_donald_s.html", "offers": null, "latitude": 34.035066, "politanName": "Atlanta, GA Metro ", "phone_number": "7709179881", "tags": [{"primary": false, "id": 11247, "name": "Carry Out"}, {"primary": false, "id": 11270, "name": "Hamburgers"}, {"primary": false, "id": 11333, "name": "American Express"}, {"primary": false, "id": 11349, "name": "Discover"}, {"primary": false, "id": 11361, "name": "MasterCard"}, {"primary": false, "id": 11382, "name": "Visa"}, {"primary": true, "id": 1722, "name": "Restaurants"}], "fax_number": null, "expansion": {"count": null, "uri": null}, "impression_id": "000b0000004ca0d76ea1a847b8a54f23fc4d862fce", "profile": "http://www.citysearch.com/profile/682414490/acworth_ga/mc_donald_s.html", "address": {"city": "Acworth", "state": "GA", "street": "3316 Cobb Pkwy NW", "postal_code": "30101"}, "capProviderId": null, "distance": null, "has_offers": false, "name": "Mc Donald's", "longitude": -84.675879, "has_menu": true, "awards": null, "user_review_count": 0}, {"business_operation_status": 1, "rating": null, "neighborhood": null, "image": null, "scorecard": null, "featured": false, "sample_categories": "Restaurants", "public_id": "mojave-southwestern-grill-acworth-2", "id": 806243290, "votes": null, "tagline": null, "has_video": false, "website": null, "offers": null, "latitude": 34.05073, "politanName": "Atlanta, GA Metro ", "phone_number": "7709743033", "tags": [{"primary": true, "id": 1722, "name": "Restaurants"}], "fax_number": null, "expansion": {"count": null, "uri": null}, "impression_id": "000b000000f579f49c6925412b94a460d16e6e1bff", "profile": "http://www.citysearch.com/profile/806243290/acworth_ga/mojave_southwestern_grill.html", "address": {"city": "Acworth", "state": "GA", "street": "3979 S Main St", "postal_code": "30101"}, "capProviderId": null, "distance": null, "has_offers": false, "name": "Mojave Southwestern Grill", "longitude": -84.663654, "has_menu": false, "awards": null, "user_review_count": 0}, {"business_operation_status": 1, "rating": null, "neighborhood": null, "image": null, "scorecard": null, "featured": false, "sample_categories": "Restaurants", "public_id": "taqueria-el-tapatio-acworth-2", "id": 627844154, "votes": null, "tagline": null, "has_video": false, "website": null, "offers": null, "latitude": 34.070789, "politanName": "Atlanta, GA Metro ", "phone_number": "7705753005", "tags": [{"primary": true, "id": 1722, "name": "Restaurants"}], "fax_number": null, "expansion": {"count": null, "uri": null}, "impression_id": "000b0000007ad0fc0725504a109fc24901547d77d0", "profile": "http://www.citysearch.com/profile/627844154/acworth_ga/taqueria_el_tapatio.html", "address": {"city": "Acworth", "state": "GA", "street": "3956 Garden Cir", "postal_code": "30101"}, "capProviderId": null, "distance": null, "has_offers": false, "name": "Taqueria El Tapatio", "longitude": -84.664742, "has_menu": false, "awards": null, "user_review_count": 0}, {"business_operation_status": 1, "rating": null, "neighborhood": null, "image": null, "scorecard": null, "featured": false, "sample_categories": "Bars & Clubs, Restaurants, Pizza", "public_id": "cedarcrest-pizza-shack-dallas-2", "id": 779690830, "votes": null, "tagline": null, "has_video": false, "website": "http://www.citysearch.com/profile/external/779690830/dallas_ga/pizza_shack.html", "offers": null, "latitude": 34.029654, "politanName": "Atlanta, GA Metro ", "phone_number": "6785744124", "tags": [{"primary": false, "id": 164, "name": "Bars & Clubs"}, {"primary": false, "id": 1722, "name": "Restaurants"}, {"primary": true, "id": 11299, "name": "Pizza"}], "fax_number": null, "expansion": {"count": null, "uri": null}, "impression_id": "000b000000acc8644794174bbb899be23591dc5908", "profile": "http://www.citysearch.com/profile/779690830/dallas_ga/pizza_shack.html", "address": {"city": "Dallas", "state": "GA", "street": "80 Seven Hills Blvd 111", "postal_code": "30132"}, "capProviderId": null, "distance": null, "has_offers": false, "name": "Pizza Shack", "longitude": -84.778758, "has_menu": false, "awards": null, "user_review_count": 0}, {"business_operation_status": 1, "rating": null, "neighborhood": null, "image": null, "scorecard": null, "featured": false, "sample_categories": "Restaurants, Mexican", "public_id": "jalapeno-joes-dallas", "id": 775226210, "votes": null, "tagline": null, "has_video": false, "website": null, "offers": null, "latitude": 34.010309, "politanName": "Atlanta, GA Metro ", "phone_number": "6789092382", "tags": [{"primary": false, "id": 11208, "name": "Mexican"}, {"primary": true, "id": 1722, "name": "Restaurants"}], "fax_number": null, "expansion": {"count": null, "uri": null}, "impression_id": "000b000000346c0a5693c24762b87b207cd3cc4b25", "profile": "http://www.citysearch.com/profile/775226210/dallas_ga/jalapeno_joe_s.html", "address": {"city": "Dallas", "state": "GA", "street": "8876 Dallas Acworth Hwy", "postal_code": "30132"}, "capProviderId": null, "distance": null, "has_offers": false, "name": "Jalapeno Joe's", "longitude": -84.753348, "has_menu": false, "awards": null, "user_review_count": 0}, {"business_operation_status": 1, "rating": null, "neighborhood": null, "image": null, "scorecard": null, "featured": false, "sample_categories": "Restaurants, Delis And Delicatessens, Sandwich Shops, Carry Out", "public_id": "subway-acworth-7", "id": 632978540, "votes": null, "tagline": null, "has_video": false, "website": "http://www.citysearch.com/profile/external/632978540/acworth_ga/subway.html", "offers": null, "latitude": 33.996583, "politanName": "Atlanta, GA Metro ", "phone_number": "6783556035", "tags": [{"primary": false, "id": 1727, "name": "Delis And Delicatessens"}, {"primary": false, "id": 1736, "name": "Sandwich Shops"}, {"primary": false, "id": 11247, "name": "Carry Out"}, {"primary": true, "id": 1722, "name": "Restaurants"}], "fax_number": null, "expansion": {"count": null, "uri": null}, "impression_id": "000b000000e34c89dcf2644e62912670d19f08e246", "profile": "http://www.citysearch.com/profile/632978540/acworth_ga/subway.html", "address": {"city": "Acworth", "state": "GA", "street": "1720 Mars Hill Rd Nw # 3", "postal_code": "30101"}, "capProviderId": null, "distance": null, "has_offers": false, "name": "Subway", "longitude": -84.705934, "has_menu": true, "awards": null, "user_review_count": 0}, {"business_operation_status": 1, "rating": null, "neighborhood": null, "image": null, "scorecard": null, "featured": false, "sample_categories": "Restaurants, Traditional American, Carry Out, American Express, Discover", "public_id": "ruby-tuesday-acworth-2", "id": 682371990, "votes": null, "tagline": null, "has_video": false, "website": "http://www.citysearch.com/profile/external/682371990/acworth_ga/ruby_tuesday.html", "offers": null, "latitude": 34.035849, "politanName": "Atlanta, GA Metro ", "phone_number": "6785744550", "tags": [{"primary": false, "id": 11190, "name": "Traditional American"}, {"primary": false, "id": 11247, "name": "Carry Out"}, {"primary": false, "id": 11333, "name": "American Express"}, {"primary": false, "id": 11349, "name": "Discover"}, {"primary": false, "id": 11361, "name": "MasterCard"}, {"primary": false, "id": 11382, "name": "Visa"}, {"primary": true, "id": 1722, "name": "Restaurants"}], "fax_number": null, "expansion": {"count": null, "uri": null}, "impression_id": "000b000000c8d507806e0a499c91784b6e8afdd5d1", "profile": "http://www.citysearch.com/profile/682371990/acworth_ga/ruby_tuesday.html", "address": {"city": "Acworth", "state": "GA", "street": "3338 Cobb Pkwy NW", "postal_code": "30101"}, "capProviderId": null, "distance": null, "has_offers": false, "name": "Ruby Tuesday", "longitude": -84.679075, "has_menu": true, "awards": null, "user_review_count": 0}, {"business_operation_status": 1, "rating": null, "neighborhood": null, "image": null, "scorecard": null, "featured": false, "sample_categories": "Restaurants, Pizza, Carry Out", "public_id": "jets-pizza-kennesaw", "id": 713510300, "votes": null, "tagline": null, "has_video": false, "website": "http://www.citysearch.com/profile/external/713510300/kennesaw_ga/jet_s_pizza.html", "offers": null, "latitude": 34.047772, "politanName": "Atlanta, GA Metro ", "phone_number": "7704278788", "tags": [{"primary": false, "id": 1722, "name": "Restaurants"}, {"primary": false, "id": 11247, "name": "Carry Out"}, {"primary": true, "id": 11299, "name": "Pizza"}], "fax_number": null, "expansion": {"count": null, "uri": null}, "impression_id": "000b00000003c88554377b4a05a50fdbd41feb5518", "profile": "http://www.citysearch.com/profile/713510300/kennesaw_ga/jet_s_pizza.html", "address": {"city": "Kennesaw", "state": "GA", "street": "4100 Jiles Rd NW", "postal_code": "30144"}, "capProviderId": null, "distance": null, "has_offers": false, "name": "Jet's Pizza", "longitude": -84.610566, "has_menu": true, "awards": null, "user_review_count": 0}, {"business_operation_status": 1, "rating": null, "neighborhood": null, "image": null, "scorecard": null, "featured": false, "sample_categories": "Restaurants", "public_id": "watsons-gulf-coast-seafood-acworth", "id": 672907130, "votes": null, "tagline": null, "has_video": false, "website": null, "offers": null, "latitude": 34.065933, "politanName": "Atlanta, GA Metro ", "phone_number": null, "tags": [{"primary": true, "id": 1722, "name": "Restaurants"}], "fax_number": null, "expansion": {"count": null, "uri": null}, "impression_id": "000b000000a049ed61864c457ea562ce2c827f9e5b", "profile": "http://www.citysearch.com/profile/672907130/acworth_ga/watson_s_gulf_coast_seafood.html", "address": {"city": "Acworth", "state": "GA", "street": "4416 Senator Richard B Russell Sq", "postal_code": "30101"}, "capProviderId": null, "distance": null, "has_offers": false, "name": "Watson's Gulf Coast Seafood", "longitude": -84.67688, "has_menu": false, "awards": null, "user_review_count": 0}, {"business_operation_status": 1, "rating": null, "neighborhood": null, "image": null, "scorecard": null, "featured": false, "sample_categories": "Restaurants, Pizza, Carry Out", "public_id": "c-c-pizza-acworth", "id": 790666570, "votes": null, "tagline": null, "has_video": false, "website": null, "offers": null, "latitude": 34.065933, "politanName": "Atlanta, GA Metro ", "phone_number": "7704253661", "tags": [{"primary": false, "id": 1722, "name": "Restaurants"}, {"primary": false, "id": 11247, "name": "Carry Out"}, {"primary": true, "id": 11299, "name": "Pizza"}], "fax_number": null, "expansion": {"count": null, "uri": null}, "impression_id": "000b0000007c8d7c60dc76408291b97530d7c9f5a5", "profile": "http://www.citysearch.com/profile/790666570/acworth_ga/c_c_pizza.html", "address": {"city": "Acworth", "state": "GA", "street": "Po Box 801016", "postal_code": "30101"}, "capProviderId": null, "distance": null, "has_offers": false, "name": "C C Pizza", "longitude": -84.67688, "has_menu": false, "awards": null, "user_review_count": 0}, {"business_operation_status": 1, "rating": 9.0, "neighborhood": null, "image": null, "scorecard": null, "featured": false, "sample_categories": "Restaurants, Tea Room", "public_id": "miss-scarlets-chocolate-empr-acworth", "id": 43859717, "votes": null, "tagline": null, "has_video": false, "website": "http://www.citysearch.com/profile/external/43859717/acworth_ga/miss_scarlets_chocolate_empr.html", "offers": null, "latitude": 34.063674, "politanName": "Atlanta, GA Metro ", "phone_number": "6785746449", "tags": [{"primary": false, "id": 1722, "name": "Restaurants"}, {"primary": true, "id": 11318, "name": "Tea Room"}], "fax_number": null, "expansion": {"count": null, "uri": null}, "impression_id": "000b000000742bab7e9a8941db8963f5b34eeed85c", "profile": "http://www.citysearch.com/profile/43859717/acworth_ga/miss_scarlets_chocolate_empr.html", "address": {"city": "Acworth", "state": "GA", "street": "4480 Park St", "postal_code": "30101"}, "capProviderId": null, "distance": null, "has_offers": false, "name": "Miss Scarlets Chocolate Empr", "longitude": -84.67067, "has_menu": false, "awards": null, "user_review_count": 4}, {"business_operation_status": 1, "rating": null, "neighborhood": null, "image": null, "scorecard": null, "featured": false, "sample_categories": "Restaurants, Fast Food, Carry Out, MasterCard, Visa", "public_id": "bojangles-famous-chicken-acworth", "id": 43862669, "votes": null, "tagline": null, "has_video": false, "website": "http://www.citysearch.com/profile/external/43862669/acworth_ga/bojangles_famous_chicken.html", "offers": null, "latitude": 34.074128, "politanName": "Atlanta, GA Metro ", "phone_number": "7709748365", "tags": [{"primary": false, "id": 11199, "name": "Fast Food"}, {"primary": false, "id": 11247, "name": "Carry Out"}, {"primary": false, "id": 11361, "name": "MasterCard"}, {"primary": false, "id": 11382, "name": "Visa"}, {"primary": false, "id": 12839, "name": "Chicken"}, {"primary": true, "id": 1722, "name": "Restaurants"}], "fax_number": null, "expansion": {"count": null, "uri": null}, "impression_id": "000b000000de0bc9c3f2ff4296846a642ca309edbc", "profile": "http://www.citysearch.com/profile/43862669/acworth_ga/bojangles_famous_chicken.html", "address": {"city": "Acworth", "state": "GA", "street": "5010 Cherokee St", "postal_code": "30101"}, "capProviderId": null, "distance": null, "has_offers": false, "name": "Bojangles' Famous Chicken", "longitude": -84.676544, "has_menu": true, "awards": null, "user_review_count": 0}, {"business_operation_status": 1, "rating": null, "neighborhood": null, "image": null, "scorecard": null, "featured": false, "sample_categories": "Restaurants, Italian", "public_id": "parkside-italian-kitchen-acworth", "id": 775220390, "votes": null, "tagline": null, "has_video": false, "website": null, "offers": null, "latitude": 34.050728, "politanName": "Atlanta, GA Metro ", "phone_number": "6789218122", "tags": [{"primary": false, "id": 11279, "name": "Italian"}, {"primary": true, "id": 1722, "name": "Restaurants"}], "fax_number": null, "expansion": {"count": null, "uri": null}, "impression_id": "000b000000ce8625d74fe8414cb3bb6166f166ccc3", "profile": "http://www.citysearch.com/profile/775220390/acworth_ga/parkside_italian_kitchen.html", "address": {"city": "Acworth", "state": "GA", "street": "3979 S Main St # 250", "postal_code": "30101"}, "capProviderId": null, "distance": null, "has_offers": false, "name": "Parkside Italian Kitchen", "longitude": -84.663654, "has_menu": false, "awards": null, "user_review_count": 0}, {"business_operation_status": 1, "rating": null, "neighborhood": null, "image": null, "scorecard": null, "featured": false, "sample_categories": "Restaurants", "public_id": "brookstone-steak-grill-acworth", "id": 806728350, "votes": null, "tagline": null, "has_video": false, "website": null, "offers": null, "latitude": 33.998227, "politanName": "Atlanta, GA Metro ", "phone_number": "6783547435", "tags": [{"primary": true, "id": 1722, "name": "Restaurants"}], "fax_number": null, "expansion": {"count": null, "uri": null}, "impression_id": "000b00000061ec388ff0584906bbc6faa88976b412", "profile": "http://www.citysearch.com/profile/806728350/acworth_ga/brookstone_steak_grill.html", "address": {"city": "Acworth", "state": "GA", "street": "5330 Brookstone Dr NW", "postal_code": "30101"}, "capProviderId": null, "distance": null, "has_offers": false, "name": "Brookstone Steak & Grill", "longitude": -84.70673, "has_menu": false, "awards": null, "user_review_count": 1}, {"business_operation_status": 1, "rating": null, "neighborhood": null, "image": null, "scorecard": null, "featured": false, "sample_categories": "Restaurants, Bars & Clubs, Mexican", "public_id": "la-bamba-mexican-bar-grill-acworth-2", "id": 779677460, "votes": null, "tagline": null, "has_video": false, "website": null, "offers": null, "latitude": 34.075141, "politanName": "Atlanta, GA Metro ", "phone_number": "6783246724", "tags": [{"primary": false, "id": 164, "name": "Bars & Clubs"}, {"primary": false, "id": 11208, "name": "Mexican"}, {"primary": true, "id": 1722, "name": "Restaurants"}], "fax_number": null, "expansion": {"count": null, "uri": null}, "impression_id": "000b000000ade4956ab69b4f86a453c938cff844b5", "profile": "http://www.citysearch.com/profile/779677460/acworth_ga/la_bamba_mexican_bar_grill.html", "address": {"city": "Acworth", "state": "GA", "street": "3509 Baker Rd NW", "postal_code": "30101"}, "capProviderId": null, "distance": null, "has_offers": false, "name": "La Bamba Mexican Bar & Grill", "longitude": -84.649629, "has_menu": false, "awards": null, "user_review_count": 0}, {"business_operation_status": 1, "rating": null, "neighborhood": null, "image": null, "scorecard": null, "featured": false, "sample_categories": "Restaurants, Mexican, Caribbean", "public_id": "mangos-caribbean-and-mexican-cuisine-acworth", "id": 603937682, "votes": null, "tagline": null, "has_video": false, "website": null, "offers": null, "latitude": 34.06489, "politanName": "Atlanta, GA Metro ", "phone_number": "6789054714", "tags": [{"primary": false, "id": 1722, "name": "Restaurants"}, {"primary": false, "id": 11195, "name": "Caribbean"}, {"primary": true, "id": 11208, "name": "Mexican"}], "fax_number": null, "expansion": {"count": null, "uri": null}, "impression_id": "000b00000039b8e0e792e64d219924ddf23eff9703", "profile": "http://www.citysearch.com/profile/603937682/acworth_ga/mangos_caribbean_and_mexican_cuisine.html", "address": {"city": "Acworth", "state": "GA", "street": "2535 Hickory Grove Rd NW", "postal_code": "30101"}, "capProviderId": null, "distance": null, "has_offers": false, "name": "Mangos Caribbean and Mexican Cuisine", "longitude": -84.624038, "has_menu": false, "awards": null, "user_review_count": 0}, {"business_operation_status": 1, "rating": null, "neighborhood": null, "image": null, "scorecard": null, "featured": false, "sample_categories": "Restaurants, Barbecue Restaurants, Carry Out", "public_id": "wing-street-acworth", "id": 739084180, "votes": null, "tagline": null, "has_video": false, "website": "http://www.citysearch.com/profile/external/739084180/acworth_ga/wing_street.html", "offers": null, "latitude": 34.075499, "politanName": "Atlanta, GA Metro ", "phone_number": "4049757444", "tags": [{"primary": false, "id": 1724, "name": "Barbecue Restaurants"}, {"primary": false, "id": 11247, "name": "Carry Out"}, {"primary": true, "id": 1722, "name": "Restaurants"}], "fax_number": null, "expansion": {"count": null, "uri": null}, "impression_id": "000b0000006a26aba800874c4abcace592f9310982", "profile": "http://www.citysearch.com/profile/739084180/acworth_ga/wing_street.html", "address": {"city": "Acworth", "state": "GA", "street": "5070 Cherokee St", "postal_code": "30101"}, "capProviderId": null, "distance": null, "has_offers": false, "name": "Wing Street", "longitude": -84.676428, "has_menu": false, "awards": null, "user_review_count": 0}, {"business_operation_status": 1, "rating": 8.0, "neighborhood": null, "image": null, "scorecard": null, "featured": false, "sample_categories": "Restaurants, Catering, Seafood, Asian, Carry Out", "public_id": "hong-kong-star-acworth", "id": 39889236, "votes": null, "tagline": null, "has_video": false, "website": "http://www.citysearch.com/profile/external/39889236/acworth_ga/hong_kong_star.html", "offers": null, "latitude": 34.037995, "politanName": "Atlanta, GA Metro ", "phone_number": "7709170688", "tags": [{"primary": false, "id": 1705, "name": "Catering"}, {"primary": false, "id": 11228, "name": "Seafood"}, {"primary": false, "id": 11235, "name": "Asian"}, {"primary": false, "id": 11247, "name": "Carry Out"}, {"primary": false, "id": 11252, "name": "Chinese"}, {"primary": false, "id": 11267, "name": "Food Delivery"}, {"primary": false, "id": 11333, "name": "American Express"}, {"primary": false, "id": 11349, "name": "Discover"}, {"primary": false, "id": 11361, "name": "MasterCard"}, {"primary": false, "id": 11382, "name": "Visa"}, {"primary": true, "id": 1722, "name": "Restaurants"}], "fax_number": null, "expansion": {"count": null, "uri": null}, "impression_id": "000b0000003feb43c7cd02478a99758879fa13db8b", "profile": "http://www.citysearch.com/profile/39889236/acworth_ga/hong_kong_star.html", "address": {"city": "Acworth", "state": "GA", "street": "3451 Cobb Pkwy NW 9", "postal_code": "30101"}, "capProviderId": null, "distance": null, "has_offers": false, "name": "Hong Kong Star", "longitude": -84.691082, "has_menu": true, "awards": null, "user_review_count": 3}, {"business_operation_status": 1, "rating": 9.0, "neighborhood": null, "image": null, "scorecard": null, "featured": false, "sample_categories": "Restaurants, Japanese, American Express, Discover, MasterCard", "public_id": "tokyo-japanese-steakhouse-acworth", "id": 43864588, "votes": null, "tagline": null, "has_video": false, "website": null, "offers": null, "latitude": 34.039365, "politanName": "Atlanta, GA Metro ", "phone_number": "7709751818", "tags": [{"primary": false, "id": 11202, "name": "Japanese"}, {"primary": false, "id": 11333, "name": "American Express"}, {"primary": false, "id": 11349, "name": "Discover"}, {"primary": false, "id": 11361, "name": "MasterCard"}, {"primary": false, "id": 11382, "name": "Visa"}, {"primary": true, "id": 1722, "name": "Restaurants"}], "fax_number": null, "expansion": {"count": null, "uri": null}, "impression_id": "000b00000075c2ff169d6845aea95b3418f5f9f714", "profile": "http://www.citysearch.com/profile/43864588/acworth_ga/tokyo_japanese_steakhouse.html", "address": {"city": "Acworth", "state": "GA", "street": "3450 Cobb Pkwy NW Ste 210", "postal_code": "30101"}, "capProviderId": null, "distance": null, "has_offers": false, "name": "Tokyo Japanese Steakhouse", "longitude": -84.689961, "has_menu": false, "awards": null, "user_review_count": 3}, {"business_operation_status": 1, "rating": null, "neighborhood": null, "image": null, "scorecard": null, "featured": false, "sample_categories": "Delis And Delicatessens", "public_id": "kroger-deli-acworth-2", "id": 702138550, "votes": null, "tagline": null, "has_video": false, "website": "http://www.citysearch.com/profile/external/702138550/acworth_ga/kroger_deli.html", "offers": null, "latitude": 33.996583, "politanName": "Atlanta, GA Metro ", "phone_number": "7704195490", "tags": [{"primary": true, "id": 1727, "name": "Delis And Delicatessens"}], "fax_number": null, "expansion": {"count": null, "uri": null}, "impression_id": "000b000000b16d47685f224f53868c0d25ec9605f7", "profile": "http://www.citysearch.com/profile/702138550/acworth_ga/kroger_deli.html", "address": {"city": "Acworth", "state": "GA", "street": "1720 Mars Hill Rd NW", "postal_code": "30101"}, "capProviderId": null, "distance": null, "has_offers": false, "name": "Kroger Deli", "longitude": -84.705934, "has_menu": false, "awards": null, "user_review_count": 0}, {"business_operation_status": 1, "rating": null, "neighborhood": null, "image": null, "scorecard": null, "featured": false, "sample_categories": "Restaurants, Bars & Clubs, Bars & Pubs, Mexican", "public_id": "la-bamba-mexican-bar-grill-kennesaw", "id": 742263110, "votes": null, "tagline": null, "has_video": false, "website": null, "offers": null, "latitude": 34.047772, "politanName": "Atlanta, GA Metro ", "phone_number": "7704221106", "tags": [{"primary": false, "id": 164, "name": "Bars & Clubs"}, {"primary": false, "id": 1686, "name": "Bars & Pubs"}, {"primary": false, "id": 11208, "name": "Mexican"}, {"primary": true, "id": 1722, "name": "Restaurants"}], "fax_number": null, "expansion": {"count": null, "uri": null}, "impression_id": "000b00000009785c1d1fc442a9907a44af937db7fa", "profile": "http://www.citysearch.com/profile/742263110/kennesaw_ga/la_bamba_mexican_bar_grill.html", "address": {"city": "Kennesaw", "state": "GA", "street": "4100 Jiles Rd NW", "postal_code": "30144"}, "capProviderId": null, "distance": null, "has_offers": false, "name": "La Bamba Mexican Bar & Grill", "longitude": -84.610566, "has_menu": false, "awards": null, "user_review_count": 0}, {"business_operation_status": 1, "rating": null, "neighborhood": null, "image": null, "scorecard": null, "featured": false, "sample_categories": "Restaurants, Seafood", "public_id": "watsons-gulf-coast-seafood-acworth-2", "id": 777757070, "votes": null, "tagline": null, "has_video": false, "website": null, "offers": null, "latitude": 34.066638, "politanName": "Atlanta, GA Metro ", "phone_number": "7705299933", "tags": [{"primary": false, "id": 11228, "name": "Seafood"}, {"primary": true, "id": 1722, "name": "Restaurants"}], "fax_number": null, "expansion": {"count": null, "uri": null}, "impression_id": "000b000000b120aa1f05e54970acedb992ab8416b8", "profile": "http://www.citysearch.com/profile/777757070/acworth_ga/watson_s_gulf_coast_seafood.html", "address": {"city": "Acworth", "state": "GA", "street": "4851 N Main St", "postal_code": "30101"}, "capProviderId": null, "distance": null, "has_offers": false, "name": "Watson's Gulf Coast Seafood", "longitude": -84.678792, "has_menu": false, "awards": null, "user_review_count": 0}, {"business_operation_status": 1, "rating": null, "neighborhood": null, "image": null, "scorecard": null, "featured": false, "sample_categories": "Restaurants, Mexican", "public_id": "taqueria-el-tapatio-acworth", "id": 796111480, "votes": null, "tagline": null, "has_video": false, "website": null, "offers": null, "latitude": 34.074933, "politanName": "Atlanta, GA Metro ", "phone_number": "6785403703", "tags": [{"primary": false, "id": 11208, "name": "Mexican"}, {"primary": true, "id": 1722, "name": "Restaurants"}], "fax_number": null, "expansion": {"count": null, "uri": null}, "impression_id": "000b0000009288b67e37ae46dbbd6615ea348b480c", "profile": "http://www.citysearch.com/profile/796111480/acworth_ga/taqueria_el_tapatio.html", "address": {"city": "Acworth", "state": "GA", "street": "4974 Cowan Rd", "postal_code": "30101"}, "capProviderId": null, "distance": null, "has_offers": false, "name": "Taqueria El Tapatio", "longitude": -84.653812, "has_menu": false, "awards": null, "user_review_count": 0}, {"business_operation_status": 1, "rating": null, "neighborhood": null, "image": null, "scorecard": null, "featured": false, "sample_categories": "Restaurants, Mexican", "public_id": "buckhead-burrito-grill-dallas", "id": 777827380, "votes": null, "tagline": null, "has_video": false, "website": null, "offers": null, "latitude": 34.012752, "politanName": "Atlanta, GA Metro ", "phone_number": "6785744133", "tags": [{"primary": false, "id": 11208, "name": "Mexican"}, {"primary": true, "id": 1722, "name": "Restaurants"}], "fax_number": null, "expansion": {"count": null, "uri": null}, "impression_id": "000b00000030ee148b5bff496eac81e1e8c7d40934", "profile": "http://www.citysearch.com/profile/777827380/dallas_ga/buckhead_burrito_grill.html", "address": {"city": "Dallas", "state": "GA", "street": "8879 Dallas Acworth Hwy", "postal_code": "30132"}, "capProviderId": null, "distance": null, "has_offers": false, "name": "Buckhead Burrito Grill", "longitude": -84.754548, "has_menu": false, "awards": null, "user_review_count": 1}, {"business_operation_status": 1, "rating": null, "neighborhood": null, "image": null, "scorecard": null, "featured": false, "sample_categories": "Restaurants", "public_id": "stars-subs-acworth", "id": 739077410, "votes": null, "tagline": null, "has_video": false, "website": null, "offers": null, "latitude": 34.063955, "politanName": "Atlanta, GA Metro ", "phone_number": "6783240075", "tags": [{"primary": true, "id": 1722, "name": "Restaurants"}], "fax_number": null, "expansion": {"count": null, "uri": null}, "impression_id": "000b000000aa01ea7af84e4fd59308df9b09599e16", "profile": "http://www.citysearch.com/profile/739077410/acworth_ga/stars_subs.html", "address": {"city": "Acworth", "state": "GA", "street": "4628 S Main St", "postal_code": "30101"}, "capProviderId": null, "distance": null, "has_offers": false, "name": "Stars Subs", "longitude": -84.671771, "has_menu": false, "awards": null, "user_review_count": 0}, {"business_operation_status": 1, "rating": null, "neighborhood": null, "image": null, "scorecard": null, "featured": false, "sample_categories": "Restaurants", "public_id": "crossroads-cafe-dallas", "id": 672625580, "votes": null, "tagline": null, "has_video": false, "website": null, "offers": null, "latitude": 34.027382, "politanName": "Atlanta, GA Metro ", "phone_number": null, "tags": [{"primary": true, "id": 1722, "name": "Restaurants"}], "fax_number": null, "expansion": {"count": null, "uri": null}, "impression_id": "000b0000003cfe293106e844d3977592194f1b482e", "profile": "http://www.citysearch.com/profile/672625580/dallas_ga/crossroads_cafe.html", "address": {"city": "Dallas", "state": "GA", "street": "51Seven Hills Blvd", "postal_code": "30132"}, "capProviderId": null, "distance": null, "has_offers": false, "name": "Crossroads Cafe", "longitude": -84.776854, "has_menu": false, "awards": null, "user_review_count": 0}, {"business_operation_status": 1, "rating": null, "neighborhood": null, "image": null, "scorecard": null, "featured": false, "sample_categories": "Doughnut Shops, Coffeehouses", "public_id": "dunkin-donuts-kennesaw-5", "id": 713313650, "votes": null, "tagline": null, "has_video": false, "website": "http://www.citysearch.com/profile/external/713313650/kennesaw_ga/dunkin_donuts.html", "offers": null, "latitude": 34.047772, "politanName": "Atlanta, GA Metro ", "phone_number": "6782752187", "tags": [{"primary": false, "id": 1726, "name": "Coffeehouses"}, {"primary": true, "id": 1734, "name": "Doughnut Shops"}], "fax_number": null, "expansion": {"count": null, "uri": null}, "impression_id": "000b00000094263d3b00734b0b804ec652e6399078", "profile": "http://www.citysearch.com/profile/713313650/kennesaw_ga/dunkin_donuts.html", "address": {"city": "Kennesaw", "state": "GA", "street": "4100 Jiles Rd NW # 100", "postal_code": "30144"}, "capProviderId": null, "distance": null, "has_offers": false, "name": "Dunkin' Donuts", "longitude": -84.610566, "has_menu": false, "awards": null, "user_review_count": 0}, {"business_operation_status": 1, "rating": null, "neighborhood": null, "image": null, "scorecard": null, "featured": false, "sample_categories": "Restaurants", "public_id": "cottons-restaurant-and-dinner-theatre-acworth", "id": 672497360, "votes": null, "tagline": null, "has_video": false, "website": null, "offers": null, "latitude": 34.065933, "politanName": "Atlanta, GA Metro ", "phone_number": null, "tags": [{"primary": true, "id": 1722, "name": "Restaurants"}], "fax_number": null, "expansion": {"count": null, "uri": null}, "impression_id": "000b000000cd3e890bb9ff43639ad96e9b90d61d76", "profile": "http://www.citysearch.com/profile/672497360/acworth_ga/cotton_s_restaurant_and_dinner_theatre.html", "address": {"city": "Acworth", "state": "GA", "street": "4381 Senator Richard B Russell Sq", "postal_code": "30101"}, "capProviderId": null, "distance": null, "has_offers": false, "name": "Cotton's Restaurant and Dinner Theatre", "longitude": -84.67688, "has_menu": false, "awards": null, "user_review_count": 0}, {"business_operation_status": 1, "rating": null, "neighborhood": null, "image": null, "scorecard": null, "featured": false, "sample_categories": "Restaurants, Delis And Delicatessens, Carry Out, American Express, Debit Card", "public_id": "panera-bread-acworth", "id": 682416040, "votes": null, "tagline": null, "has_video": false, "website": "http://www.citysearch.com/profile/external/682416040/acworth_ga/panera_bread.html", "offers": null, "latitude": 34.036329, "politanName": "Atlanta, GA Metro ", "phone_number": "7709741861", "tags": [{"primary": false, "id": 1727, "name": "Delis And Delicatessens"}, {"primary": false, "id": 11247, "name": "Carry Out"}, {"primary": false, "id": 11333, "name": "American Express"}, {"primary": false, "id": 11347, "name": "Debit Card"}, {"primary": false, "id": 11349, "name": "Discover"}, {"primary": false, "id": 11361, "name": "MasterCard"}, {"primary": false, "id": 11382, "name": "Visa"}, {"primary": true, "id": 1722, "name": "Restaurants"}], "fax_number": null, "expansion": {"count": null, "uri": null}, "impression_id": "000b000000126a86b9b964462eaf38c08bd4943ba0", "profile": "http://www.citysearch.com/profile/682416040/acworth_ga/panera_bread.html", "address": {"city": "Acworth", "state": "GA", "street": "3384 Cobb Pkwy NW # 160", "postal_code": "30101"}, "capProviderId": null, "distance": null, "has_offers": false, "name": "Panera Bread", "longitude": -84.685123, "has_menu": false, "awards": null, "user_review_count": 0}, {"business_operation_status": 1, "rating": null, "neighborhood": null, "image": null, "scorecard": null, "featured": false, "sample_categories": "Restaurants, Delis And Delicatessens, Sandwich Shops, Carry Out, Shop Online", "public_id": "jimmy-johns-acworth", "id": 787102550, "votes": null, "tagline": null, "has_video": false, "website": "http://www.citysearch.com/profile/external/787102550/acworth_ga/jimmy_john_s.html", "offers": null, "latitude": 34.039365, "politanName": "Atlanta, GA Metro ", "phone_number": "6785016012", "tags": [{"primary": false, "id": 1727, "name": "Delis And Delicatessens"}, {"primary": false, "id": 1736, "name": "Sandwich Shops"}, {"primary": false, "id": 11247, "name": "Carry Out"}, {"primary": false, "id": 11375, "name": "Shop Online"}, {"primary": true, "id": 1722, "name": "Restaurants"}], "fax_number": null, "expansion": {"count": null, "uri": null}, "impression_id": "000b000000456513427810454589d19aaae4ce73dd", "profile": "http://www.citysearch.com/profile/787102550/acworth_ga/jimmy_john_s.html", "address": {"city": "Acworth", "state": "GA", "street": "3450 Cobb Pkwy NW", "postal_code": "30101"}, "capProviderId": null, "distance": null, "has_offers": false, "name": "Jimmy John's", "longitude": -84.689961, "has_menu": false, "awards": null, "user_review_count": 0}], "histograms": [], "tag_ids": [1722], "uri": "http://api.citygridmedia.com:8080/search/places/v2/search/where?has_offers=false&type=restaurant&format=json&page=3&where=30101&rpp=50&histograms=false&publisher=10000009598&region_type=circle", "did_you_mean": "", "regions": [{"latitude": 34.042584, "default_radius": 6.64, "type": "postal_code", "name": "30101", "longitude": -84.71322699999999}], "call_id": "000b0000003e9e64c2da8b4924860cd2c8d112670e", "first_hit": 101, "total_hits": 1249, "geo_ids": [26343], "page": 3, "last_hit": 150}}