{"results": {"rpp": 50, "locations": [{"business_operation_status": 1, "rating": 6.0, "neighborhood": null, "image": null, "scorecard": null, "featured": false, "sample_categories": "Unclassified, Restaurants", "public_id": "fat-cats-austell", "id": 2961984, "votes": null, "tagline": null, "has_video": false, "website": null, "offers": null, "latitude": 33.813864, "politanName": "Atlanta, GA Metro ", "phone_number": "7706459944", "tags": [{"primary": false, "id": 6019, "name": "Unclassified"}, {"primary": true, "id": 1722, "name": "Restaurants"}], "fax_number": null, "expansion": {"count": null, "uri": null}, "impression_id": "000b0000005e648df3551e47fba033820134a14feb", "profile": "http://www.citysearch.com/profile/2961984/austell_ga/fat_cat_s.html", "address": {"city": "Austell", "state": "GA", "street": "2523 Veterans Memorial Hwy", "postal_code": "30168"}, "capProviderId": null, "distance": null, "has_offers": false, "name": "Fat Cat's", "longitude": -84.626917, "has_menu": true, "awards": null, "user_review_count": 0}, {"business_operation_status": 1, "rating": null, "neighborhood": null, "image": null, "scorecard": null, "featured": false, "sample_categories": "Restaurants, Carry Out, Hamburgers", "public_id": "five-guys-burgers-fries-atlanta-6", "id": 622023500, "votes": null, "tagline": null, "has_video": false, "website": "http://www.citysearch.com/profile/external/622023500/atlanta_ga/five_guys_burgers_fries.html", "offers": null, "latitude": 33.894565, "politanName": "Atlanta, GA Metro ", "phone_number": "4046296577", "tags": [{"primary": false, "id": 11247, "name": "Carry Out"}, {"primary": false, "id": 11270, "name": "Hamburgers"}, {"primary": true, "id": 1722, "name": "Restaurants"}], "fax_number": null, "expansion": {"count": null, "uri": null}, "impression_id": "000b0000003839c056542b4b2bba25efea15c2dae6", "profile": "http://www.citysearch.com/profile/622023500/atlanta_ga/five_guys_burgers_fries.html", "address": {"city": "Atlanta", "state": "GA", "street": "2400 Herodian Way", "postal_code": "30331"}, "capProviderId": null, "distance": null, "has_offers": false, "name": "Five Guys Burgers & Fries", "longitude": -84.472334, "has_menu": false, "awards": null, "user_review_count": 0}, {"business_operation_status": 1, "rating": null, "neighborhood": null, "image": null, "scorecard": null, "featured": false, "sample_categories": "Restaurants", "public_id": "chicken-boss-llc-marietta", "id": 627930504, "votes": null, "tagline": null, "has_video": false, "website": null, "offers": null, "latitude": 33.933122, "politanName": "Atlanta, GA Metro ", "phone_number": "7705080980", "tags": [{"primary": true, "id": 1722, "name": "Restaurants"}], "fax_number": null, "expansion": {"count": null, "uri": null}, "impression_id": "000b0000002367e4a08dc041e097de6a50e55d5996", "profile": "http://www.citysearch.com/profile/627930504/marietta_ga/chicken_boss_llc.html", "address": {"city": "Marietta", "state": "GA", "street": "803 Powder Springs St", "postal_code": "30064"}, "capProviderId": null, "distance": null, "has_offers": false, "name": "Chicken Boss LLC", "longitude": -84.559881, "has_menu": false, "awards": null, "user_review_count": 0}, {"business_operation_status": 1, "rating": null, "neighborhood": null, "image": null, "scorecard": null, "featured": false, "sample_categories": "Restaurants", "public_id": "hungry-international-inc-douglasville", "id": 647344150, "votes": null, "tagline": null, "has_video": false, "website": null, "offers": null, "latitude": 33.730618, "politanName": "Atlanta, GA Metro ", "phone_number": "7709493787", "tags": [{"primary": true, "id": 1722, "name": "Restaurants"}], "fax_number": null, "expansion": {"count": null, "uri": null}, "impression_id": "000b000000e62ced2ca4274eebacce3310c96b2cd8", "profile": "http://www.citysearch.com/profile/647344150/douglasville_ga/hungry_international_inc.html", "address": {"city": "Douglasville", "state": "GA", "street": "2765 Whisper Trl", "postal_code": "30135"}, "capProviderId": null, "distance": null, "has_offers": false, "name": "Hungry International Inc", "longitude": -84.684205, "has_menu": false, "awards": null, "user_review_count": 0}, {"business_operation_status": 1, "rating": null, "neighborhood": null, "image": null, "scorecard": null, "featured": false, "sample_categories": "Restaurants, Traditional American, Carry Out, Shop Online", "public_id": "ruby-tuesday-marietta-2", "id": 775209650, "votes": null, "tagline": null, "has_video": false, "website": "http://www.citysearch.com/profile/external/775209650/marietta_ga/ruby_tuesday.html", "offers": null, "latitude": 33.853043, "politanName": "Atlanta, GA Metro ", "phone_number": "7704268061", "tags": [{"primary": false, "id": 11190, "name": "Traditional American"}, {"primary": false, "id": 11247, "name": "Carry Out"}, {"primary": false, "id": 11375, "name": "Shop Online"}, {"primary": true, "id": 1722, "name": "Restaurants"}], "fax_number": null, "expansion": {"count": null, "uri": null}, "impression_id": "000b00000047bddb1f552741f7b145769ef47a08d1", "profile": "http://www.citysearch.com/profile/775209650/marietta_ga/ruby_tuesday.html", "address": {"city": "Marietta", "state": "GA", "street": "Town Center At Cobb", "postal_code": "30060"}, "capProviderId": null, "distance": null, "has_offers": false, "name": "Ruby Tuesday", "longitude": -84.510989, "has_menu": false, "awards": null, "user_review_count": 0}, {"business_operation_status": 1, "rating": null, "neighborhood": null, "image": null, "scorecard": null, "featured": false, "sample_categories": "Restaurants", "public_id": "aprils-cafe-lithia", "id": 801079500, "votes": null, "tagline": null, "has_video": false, "website": null, "offers": null, "latitude": 33.758037, "politanName": "Atlanta, GA Metro ", "phone_number": "7708205007", "tags": [{"primary": true, "id": 1722, "name": "Restaurants"}], "fax_number": null, "expansion": {"count": null, "uri": null}, "impression_id": "000b000000f2286dcae6a34b0a825c06d841de8b20", "profile": "http://www.citysearch.com/profile/801079500/lithia_springs_ga/april_s_cafe.html", "address": {"city": "Lithia Springs", "state": "GA", "street": "1752 Lee Rd # 1754", "postal_code": "30122"}, "capProviderId": null, "distance": null, "has_offers": false, "name": "April's Cafe", "longitude": -84.651202, "has_menu": false, "awards": null, "user_review_count": 0}, {"business_operation_status": 1, "rating": null, "neighborhood": null, "image": null, "scorecard": null, "featured": false, "sample_categories": "Restaurants, Barbecue Restaurants", "public_id": "wings-xpress-marietta", "id": 803550980, "votes": null, "tagline": null, "has_video": false, "website": null, "offers": null, "latitude": 33.933132, "politanName": "Atlanta, GA Metro ", "phone_number": "6784621167", "tags": [{"primary": false, "id": 1724, "name": "Barbecue Restaurants"}, {"primary": true, "id": 1722, "name": "Restaurants"}], "fax_number": null, "expansion": {"count": null, "uri": null}, "impression_id": "000b0000003df785db718742dcb08ae28435b27de6", "profile": "http://www.citysearch.com/profile/803550980/marietta_ga/wings_xpress.html", "address": {"city": "Marietta", "state": "GA", "street": "803 Powder Springs St # 2", "postal_code": "30064"}, "capProviderId": null, "distance": null, "has_offers": false, "name": "Wings Xpress", "longitude": -84.559871, "has_menu": false, "awards": null, "user_review_count": 0}, {"business_operation_status": 0, "rating": null, "neighborhood": null, "image": null, "scorecard": null, "featured": false, "sample_categories": "Delis And Delicatessens", "public_id": "sweetwater-deli-lithia", "id": 751353730, "votes": null, "tagline": null, "has_video": false, "website": null, "offers": null, "latitude": 33.785508, "politanName": "Atlanta, GA Metro ", "phone_number": "7709480760", "tags": [{"primary": true, "id": 1727, "name": "Delis And Delicatessens"}], "fax_number": null, "expansion": {"count": null, "uri": null}, "impression_id": "000b000000fc9e2c5e703c4bbb9e49628d8cc88ea8", "profile": "http://www.citysearch.com/profile/751353730/lithia_springs_ga/sweetwater_deli.html", "address": {"city": "Lithia Springs", "state": "GA", "street": "6990 S Sweetwater Rd", "postal_code": "30122"}, "capProviderId": null, "distance": null, "has_offers": false, "name": "Sweetwater Deli", "longitude": -84.655647, "has_menu": false, "awards": null, "user_review_count": 0}, {"business_operation_status": 1, "rating": null, "neighborhood": null, "image": null, "scorecard": null, "featured": false, "sample_categories": "Restaurants", "public_id": "el-dorado-restaurant-marietta-2", "id": 821705220, "votes": null, "tagline": null, "has_video": false, "website": null, "offers": null, "latitude": 33.902517, "politanName": "Atlanta, GA Metro ", "phone_number": "7704347772", "tags": [{"primary": true, "id": 1722, "name": "Restaurants"}], "fax_number": null, "expansion": {"count": null, "uri": null}, "impression_id": "000b00000030b17d89030644a09bc7825246eeac0e", "profile": "http://www.citysearch.com/profile/821705220/marietta_ga/el_dorado_restaurant.html", "address": {"city": "Marietta", "state": "GA", "street": "371 Pat Mell Rd SE # 125", "postal_code": "30060"}, "capProviderId": null, "distance": null, "has_offers": false, "name": "El Dorado Restaurant", "longitude": -84.543334, "has_menu": false, "awards": null, "user_review_count": 0}, {"business_operation_status": 1, "rating": null, "neighborhood": null, "image": null, "scorecard": null, "featured": false, "sample_categories": "Restaurants, Barbecue Restaurants, Carry Out", "public_id": "mani-mani-hotwings-grill-mableton", "id": 768833430, "votes": null, "tagline": null, "has_video": false, "website": null, "offers": null, "latitude": 33.802019, "politanName": "Atlanta, GA Metro ", "phone_number": "7707394999", "tags": [{"primary": false, "id": 1724, "name": "Barbecue Restaurants"}, {"primary": false, "id": 11247, "name": "Carry Out"}, {"primary": true, "id": 1722, "name": "Restaurants"}], "fax_number": null, "expansion": {"count": null, "uri": null}, "impression_id": "000b000000cb99c4cfc7bf4ca5bc6ba4a68d812f1b", "profile": "http://www.citysearch.com/profile/768833430/mableton_ga/mani_mani_hotwings_grill.html", "address": {"city": "Mableton", "state": "GA", "street": "6200 Mableton Pkwy SW # 102", "postal_code": "30126"}, "capProviderId": null, "distance": null, "has_offers": false, "name": "Mani & Mani Hotwings Grill", "longitude": -84.568518, "has_menu": false, "awards": null, "user_review_count": 0}, {"business_operation_status": 1, "rating": null, "neighborhood": null, "image": null, "scorecard": null, "featured": false, "sample_categories": "Restaurants", "public_id": "williebes-sisters-southern-mableton", "id": 803550780, "votes": null, "tagline": null, "has_video": false, "website": null, "offers": null, "latitude": 33.788903, "politanName": "Atlanta, GA Metro ", "phone_number": "6784021792", "tags": [{"primary": true, "id": 1722, "name": "Restaurants"}], "fax_number": null, "expansion": {"count": null, "uri": null}, "impression_id": "000b0000000bbedd8368874911917d7a28f067a255", "profile": "http://www.citysearch.com/profile/803550780/mableton_ga/williebe_s_sisters_southern.html", "address": {"city": "Mableton", "state": "GA", "street": "705 S Gordon Rd Sw # 110", "postal_code": "30126"}, "capProviderId": null, "distance": null, "has_offers": false, "name": "Williebe's Sisters Southern", "longitude": -84.575373, "has_menu": false, "awards": null, "user_review_count": 0}], "histograms": [], "tag_ids": [1722], "uri": "http://api.citygridmedia.com:8080/search/places/v2/search/where?has_offers=false&type=restaurant&format=json&page=16&where=30106&rpp=50&histograms=false&publisher=10000009598&region_type=circle", "did_you_mean": "", "regions": [{"latitude": 33.836465, "default_radius": 3.78, "type": "postal_code", "name": "30106", "longitude": -84.627708}], "call_id": "000b000000d0957df8c7b5470bad4a7ff5d76f9d42", "first_hit": 751, "total_hits": 761, "geo_ids": [26348], "page": 16, "last_hit": 761}}