{"results": {"rpp": 50, "locations": [{"business_operation_status": 1, "rating": null, "neighborhood": null, "image": null, "scorecard": null, "featured": false, "sample_categories": "Restaurants, Pizza, Carry Out", "public_id": "sorrentnos-ristorante-pizzeria-kennesaw", "id": 790617540, "votes": null, "tagline": null, "has_video": false, "website": null, "offers": null, "latitude": 34.023434, "politanName": "Atlanta, GA Metro ", "phone_number": "7707950096", "tags": [{"primary": false, "id": 1722, "name": "Restaurants"}, {"primary": false, "id": 11247, "name": "Carry Out"}, {"primary": true, "id": 11299, "name": "Pizza"}], "fax_number": null, "expansion": {"count": null, "uri": null}, "impression_id": "000b00000020ea6ce03498498caf01f732297a23c3", "profile": "http://www.citysearch.com/profile/790617540/kennesaw_ga/sorrentnos_ristorante_pizzeria.html", "address": {"city": "Kennesaw", "state": "GA", "street": "800 Ern W Brt Pkwy NW 3", "postal_code": "30144"}, "capProviderId": null, "distance": null, "has_offers": false, "name": "Sorrentnos Ristorante Pizzeria", "longitude": -84.61549, "has_menu": false, "awards": null, "user_review_count": 0}, {"business_operation_status": 1, "rating": null, "neighborhood": null, "image": null, "scorecard": null, "featured": false, "sample_categories": "Restaurants, Bars & Clubs", "public_id": "ate-track-bar-grill-cartersville-2", "id": 790635360, "votes": null, "tagline": null, "has_video": false, "website": null, "offers": null, "latitude": 34.165489, "politanName": "Atlanta, GA Metro ", "phone_number": "4703154369", "tags": [{"primary": false, "id": 164, "name": "Bars & Clubs"}, {"primary": true, "id": 1722, "name": "Restaurants"}], "fax_number": null, "expansion": {"count": null, "uri": null}, "impression_id": "000b000000161d5fe2aec14035b77de2dacc2f5d4f", "profile": "http://www.citysearch.com/profile/790635360/cartersville_ga/ate_track_bar_grill.html", "address": {"city": "Cartersville", "state": "GA", "street": "28 N Wall St", "postal_code": "30120"}, "capProviderId": null, "distance": null, "has_offers": false, "name": "Ate Track Bar & Grill", "longitude": -84.794882, "has_menu": false, "awards": null, "user_review_count": 0}, {"business_operation_status": 1, "rating": null, "neighborhood": null, "image": null, "scorecard": null, "featured": false, "sample_categories": "Restaurants, Pizza, Carry Out", "public_id": "pizza-hut-kennesaw-4", "id": 808398210, "votes": null, "tagline": null, "has_video": false, "website": null, "offers": null, "latitude": 34.014009, "politanName": "Atlanta, GA Metro ", "phone_number": "7704210752", "tags": [{"primary": false, "id": 1722, "name": "Restaurants"}, {"primary": false, "id": 11247, "name": "Carry Out"}, {"primary": true, "id": 11299, "name": "Pizza"}], "fax_number": null, "expansion": {"count": null, "uri": null}, "impression_id": "000b000000fe7a6644c1a34d47b737fd5bce8d89cb", "profile": "http://www.citysearch.com/profile/808398210/kennesaw_ga/pizza_hut.html", "address": {"city": "Kennesaw", "state": "GA", "street": "400 Ernest W Barrett Pkwy NW", "postal_code": "30144"}, "capProviderId": null, "distance": null, "has_offers": false, "name": "Pizza Hut", "longitude": -84.561425, "has_menu": false, "awards": null, "user_review_count": 0}, {"business_operation_status": 1, "rating": null, "neighborhood": null, "image": null, "scorecard": null, "featured": false, "sample_categories": "Restaurants, Pizza", "public_id": "marcos-pizza-canton-2", "id": 682454510, "votes": null, "tagline": null, "has_video": false, "website": "http://www.citysearch.com/profile/external/682454510/canton_ga/marco_s_pizza.html", "offers": null, "latitude": 34.17855, "politanName": "Atlanta, GA Metro ", "phone_number": "7707201234", "tags": [{"primary": false, "id": 11299, "name": "Pizza"}, {"primary": true, "id": 1722, "name": "Restaurants"}], "fax_number": null, "expansion": {"count": null, "uri": null}, "impression_id": "000b000000d5130b38f1114b8c8fea0ad2c653169b", "profile": "http://www.citysearch.com/profile/682454510/canton_ga/marco_s_pizza.html", "address": {"city": "Canton", "state": "GA", "street": "3725 Sixes Rd", "postal_code": "30114"}, "capProviderId": null, "distance": null, "has_offers": false, "name": "Marco's Pizza", "longitude": -84.550377, "has_menu": true, "awards": null, "user_review_count": 0}, {"business_operation_status": 1, "rating": null, "neighborhood": null, "image": null, "scorecard": null, "featured": false, "sample_categories": "Restaurants", "public_id": "philly-connection-kennesaw-3", "id": 820862720, "votes": null, "tagline": null, "has_video": false, "website": null, "offers": null, "latitude": 34.032507, "politanName": "Atlanta, GA Metro ", "phone_number": "7704990084", "tags": [{"primary": true, "id": 1722, "name": "Restaurants"}], "fax_number": null, "expansion": {"count": null, "uri": null}, "impression_id": "000b00000014bcff179a7d48f4bd282063dd979dd7", "profile": "http://www.citysearch.com/profile/820862720/kennesaw_ga/philly_connection.html", "address": {"city": "Kennesaw", "state": "GA", "street": "2700 Town Center Dr NW", "postal_code": "30144"}, "capProviderId": null, "distance": null, "has_offers": false, "name": "Philly Connection", "longitude": -84.64853, "has_menu": true, "awards": null, "user_review_count": 0}, {"business_operation_status": 1, "rating": null, "neighborhood": null, "image": null, "scorecard": null, "featured": false, "sample_categories": "Restaurants, Food Stores, Steakhouse", "public_id": "beef-o-bradys-family-sports-cartersville", "id": 787109970, "votes": null, "tagline": null, "has_video": false, "website": null, "offers": null, "latitude": 34.137605, "politanName": "Atlanta, GA Metro ", "phone_number": "7706079494", "tags": [{"primary": false, "id": 1706, "name": "Food Stores"}, {"primary": false, "id": 11316, "name": "Steakhouse"}, {"primary": true, "id": 1722, "name": "Restaurants"}], "fax_number": null, "expansion": {"count": null, "uri": null}, "impression_id": "000b000000cfc54550681043209871d8e9d6660a9f", "profile": "http://www.citysearch.com/profile/787109970/cartersville_ga/beef_o_brady_s_family_sports.html", "address": {"city": "Cartersville", "state": "GA", "street": "700 Douthit Ferry Rd # 750", "postal_code": "30120"}, "capProviderId": null, "distance": null, "has_offers": false, "name": "Beef 'o' Brady's Family Sports", "longitude": -84.820367, "has_menu": false, "awards": null, "user_review_count": 0}, {"business_operation_status": 1, "rating": null, "neighborhood": null, "image": null, "scorecard": null, "featured": false, "sample_categories": "Restaurants", "public_id": "tecali-grille-mexican-restaurant-woodstock", "id": 826302800, "votes": null, "tagline": null, "has_video": false, "website": null, "offers": null, "latitude": 34.107712, "politanName": "Atlanta, GA Metro ", "phone_number": "7709261031", "tags": [{"primary": true, "id": 1722, "name": "Restaurants"}], "fax_number": null, "expansion": {"count": null, "uri": null}, "impression_id": "000b00000089bd5818734541c6aab1a37a7bf4d3dd", "profile": "http://www.citysearch.com/profile/826302800/woodstock_ga/tecali_grille_mexican_restaurant.html", "address": {"city": "Woodstock", "state": "GA", "street": "1105 Parkside Ln # 1330", "postal_code": "30189"}, "capProviderId": null, "distance": null, "has_offers": false, "name": "Tecali Grille Mexican Restaurant", "longitude": -84.553184, "has_menu": true, "awards": null, "user_review_count": 0}, {"business_operation_status": 1, "rating": null, "neighborhood": null, "image": null, "scorecard": null, "featured": false, "sample_categories": "Restaurants, Pizza", "public_id": "salerno-pizza-kennesaw", "id": 790725350, "votes": null, "tagline": null, "has_video": false, "website": null, "offers": null, "latitude": 34.009664, "politanName": "Atlanta, GA Metro ", "phone_number": "7704997600", "tags": [{"primary": false, "id": 1722, "name": "Restaurants"}, {"primary": true, "id": 11299, "name": "Pizza"}], "fax_number": null, "expansion": {"count": null, "uri": null}, "impression_id": "000b000000fbd8cdf727a14ed09c3b20739d2b6661", "profile": "http://www.citysearch.com/profile/790725350/kennesaw_ga/salerno_pizza.html", "address": {"city": "Kennesaw", "state": "GA", "street": "950 Cobb Place Blvd NW", "postal_code": "30144"}, "capProviderId": null, "distance": null, "has_offers": false, "name": "Salerno Pizza", "longitude": -84.582459, "has_menu": false, "awards": null, "user_review_count": 0}, {"business_operation_status": 1, "rating": null, "neighborhood": null, "image": null, "scorecard": null, "featured": false, "sample_categories": "Restaurants, Delis And Delicatessens, Sandwich Shops, Carry Out", "public_id": "subway-cartersville-9", "id": 713481690, "votes": null, "tagline": null, "has_video": false, "website": "http://www.citysearch.com/profile/external/713481690/cartersville_ga/subway.html", "offers": null, "latitude": 34.118857, "politanName": "Atlanta, GA Metro ", "phone_number": "7703824101", "tags": [{"primary": false, "id": 1727, "name": "Delis And Delicatessens"}, {"primary": false, "id": 1736, "name": "Sandwich Shops"}, {"primary": false, "id": 11247, "name": "Carry Out"}, {"primary": true, "id": 1722, "name": "Restaurants"}], "fax_number": null, "expansion": {"count": null, "uri": null}, "impression_id": "000b000000df7e9cce41cb4eeb9a2693e89235c65e", "profile": "http://www.citysearch.com/profile/713481690/cartersville_ga/subway.html", "address": {"city": "Cartersville", "state": "GA", "street": "150 Old Allatoona Rd Se", "postal_code": "30121"}, "capProviderId": null, "distance": null, "has_offers": false, "name": "SUBWAY", "longitude": -84.743165, "has_menu": false, "awards": null, "user_review_count": 0}, {"business_operation_status": 0, "rating": null, "neighborhood": null, "image": null, "scorecard": null, "featured": false, "sample_categories": "Restaurants", "public_id": "ryans-family-steak-houses-inc-cartersville", "id": 713387280, "votes": null, "tagline": null, "has_video": false, "website": null, "offers": null, "latitude": 34.191189, "politanName": "Atlanta, GA Metro ", "phone_number": "7706061500", "tags": [{"primary": true, "id": 1722, "name": "Restaurants"}], "fax_number": null, "expansion": {"count": null, "uri": null}, "impression_id": "000b000000bd16707208304682b9a0f9166b947ca9", "profile": "http://www.citysearch.com/profile/713387280/cartersville_ga/ryan_s_family_steak_houses_inc.html", "address": {"city": "Cartersville", "state": "GA", "street": "823 Joe Frank Harris Pkwy Se", "postal_code": "30120"}, "capProviderId": null, "distance": null, "has_offers": false, "name": "Ryan's Family Steak Houses INC", "longitude": -84.78985, "has_menu": false, "awards": null, "user_review_count": 0}, {"business_operation_status": 1, "rating": null, "neighborhood": null, "image": null, "scorecard": null, "featured": false, "sample_categories": "Restaurants", "public_id": "city-cellar-loft-cartersville", "id": 728003380, "votes": null, "tagline": null, "has_video": false, "website": "http://www.citysearch.com/profile/external/728003380/cartersville_ga/city_cellar_loft.html", "offers": null, "latitude": 34.169313, "politanName": "Atlanta, GA Metro ", "phone_number": "7703343170", "tags": [{"primary": true, "id": 1722, "name": "Restaurants"}], "fax_number": null, "expansion": {"count": null, "uri": null}, "impression_id": "000b000000031cfcd4d94c4c498811933d950b14f2", "profile": "http://www.citysearch.com/profile/728003380/cartersville_ga/city_cellar_loft.html", "address": {"city": "Cartersville", "state": "GA", "street": "110 S Museum Dr", "postal_code": "30120"}, "capProviderId": null, "distance": null, "has_offers": false, "name": "City Cellar & LOFT", "longitude": -84.797278, "has_menu": false, "awards": null, "user_review_count": 0}, {"business_operation_status": 1, "rating": null, "neighborhood": null, "image": null, "scorecard": null, "featured": false, "sample_categories": "Restaurants, Mexican, Carry Out", "public_id": "del-taco-kennesaw", "id": 754767850, "votes": null, "tagline": null, "has_video": false, "website": "http://www.citysearch.com/profile/external/754767850/kennesaw_ga/del_taco.html", "offers": null, "latitude": 34.035364, "politanName": "Atlanta, GA Metro ", "phone_number": "7707925980", "tags": [{"primary": false, "id": 11208, "name": "Mexican"}, {"primary": false, "id": 11247, "name": "Carry Out"}, {"primary": true, "id": 1722, "name": "Restaurants"}], "fax_number": null, "expansion": {"count": null, "uri": null}, "impression_id": "000b000000e24fd0a322a149038ff78d1e363f244d", "profile": "http://www.citysearch.com/profile/754767850/kennesaw_ga/del_taco.html", "address": {"city": "Kennesaw", "state": "GA", "street": "745 Chastain Rd NW", "postal_code": "30144"}, "capProviderId": null, "distance": null, "has_offers": false, "name": "Del Taco", "longitude": -84.570141, "has_menu": false, "awards": null, "user_review_count": 0}, {"business_operation_status": 1, "rating": null, "neighborhood": null, "image": null, "scorecard": null, "featured": false, "sample_categories": "Restaurants, Japanese", "public_id": "tokyo-japanese-steak-house-marietta", "id": 713533440, "votes": null, "tagline": null, "has_video": false, "website": null, "offers": null, "latitude": 34.045761, "politanName": "Atlanta, GA Metro ", "phone_number": "7709289386", "tags": [{"primary": false, "id": 11202, "name": "Japanese"}, {"primary": true, "id": 1722, "name": "Restaurants"}], "fax_number": null, "expansion": {"count": null, "uri": null}, "impression_id": "000b000000568412143d164e34b28f0f0979e6342f", "profile": "http://www.citysearch.com/profile/713533440/marietta_ga/tokyo_japanese_steak_house.html", "address": {"city": "Marietta", "state": "GA", "street": "3930 Canton Rd", "postal_code": "30066"}, "capProviderId": null, "distance": null, "has_offers": false, "name": "Tokyo Japanese Steak House", "longitude": -84.529506, "has_menu": true, "awards": null, "user_review_count": 0}, {"business_operation_status": 1, "rating": null, "neighborhood": null, "image": null, "scorecard": null, "featured": false, "sample_categories": "Restaurants, Traditional American, Carry Out, American Express, MasterCard", "public_id": "ruby-tuesday-kennesaw", "id": 2955306, "votes": null, "tagline": null, "has_video": false, "website": "http://www.citysearch.com/profile/external/2955306/kennesaw_ga/ruby_tuesday.html", "offers": null, "latitude": 34.019128, "politanName": "Atlanta, GA Metro ", "phone_number": "7704268061", "tags": [{"primary": false, "id": 11190, "name": "Traditional American"}, {"primary": false, "id": 11247, "name": "Carry Out"}, {"primary": false, "id": 11333, "name": "American Express"}, {"primary": false, "id": 11361, "name": "MasterCard"}, {"primary": false, "id": 11375, "name": "Shop Online"}, {"primary": false, "id": 11382, "name": "Visa"}, {"primary": true, "id": 1722, "name": "Restaurants"}], "fax_number": null, "expansion": {"count": null, "uri": null}, "impression_id": "000b000000f679a692e89f425093242a74f590f82c", "profile": "http://www.citysearch.com/profile/2955306/kennesaw_ga/ruby_tuesday.html", "address": {"city": "Kennesaw", "state": "GA", "street": "400 Ernest W Barrett Pkwy NW Ste 2612", "postal_code": "30144"}, "capProviderId": null, "distance": null, "has_offers": false, "name": "Ruby Tuesday", "longitude": -84.563608, "has_menu": true, "awards": null, "user_review_count": 0}, {"business_operation_status": 1, "rating": null, "neighborhood": null, "image": null, "scorecard": null, "featured": false, "sample_categories": "Doughnut Shops", "public_id": "rays-donut-shop-marietta", "id": 739063880, "votes": null, "tagline": null, "has_video": false, "website": null, "offers": null, "latitude": 34.068242, "politanName": "Atlanta, GA Metro ", "phone_number": "7704852448", "tags": [{"primary": true, "id": 1734, "name": "Doughnut Shops"}], "fax_number": null, "expansion": {"count": null, "uri": null}, "impression_id": "000b00000037511aed67f242beb6e439e7b2f473be", "profile": "http://www.citysearch.com/profile/739063880/marietta_ga/ray_s_donut_shop.html", "address": {"city": "Marietta", "state": "GA", "street": "4805 Canton Rd", "postal_code": "30066"}, "capProviderId": null, "distance": null, "has_offers": false, "name": "Ray's Donut Shop", "longitude": -84.522208, "has_menu": false, "awards": null, "user_review_count": 0}, {"business_operation_status": 1, "rating": null, "neighborhood": null, "image": null, "scorecard": null, "featured": false, "sample_categories": "Barbecue Restaurants", "public_id": "sams-bbq-one-marietta", "id": 787089000, "votes": null, "tagline": null, "has_video": false, "website": null, "offers": null, "latitude": 33.955116, "politanName": "Atlanta, GA Metro ", "phone_number": "6783241518", "tags": [{"primary": true, "id": 1724, "name": "Barbecue Restaurants"}], "fax_number": null, "expansion": {"count": null, "uri": null}, "impression_id": "000b000000c3bfdac2f97343d2b7147dd56fa51695", "profile": "http://www.citysearch.com/profile/787089000/marietta_ga/sam_s_bbq_one.html", "address": {"city": "Marietta", "state": "GA", "street": "3600 Dallas Hwy Sw", "postal_code": "30064"}, "capProviderId": null, "distance": null, "has_offers": false, "name": "Sam's BBQ One", "longitude": -84.656027, "has_menu": false, "awards": null, "user_review_count": 0}, {"business_operation_status": 1, "rating": null, "neighborhood": null, "image": null, "scorecard": null, "featured": false, "sample_categories": "Restaurants", "public_id": "ayahs-bistro-kennesaw", "id": 816263730, "votes": null, "tagline": null, "has_video": false, "website": null, "offers": null, "latitude": 34.057627, "politanName": "Atlanta, GA Metro ", "phone_number": "6785940084", "tags": [{"primary": true, "id": 1722, "name": "Restaurants"}], "fax_number": null, "expansion": {"count": null, "uri": null}, "impression_id": "000b000000e16591c938e54f9f86b9ada160d4d248", "profile": "http://www.citysearch.com/profile/816263730/kennesaw_ga/ayah_s_bistro.html", "address": {"city": "Kennesaw", "state": "GA", "street": "4200 Wade Green Rd NW", "postal_code": "30144"}, "capProviderId": null, "distance": null, "has_offers": false, "name": "Ayah's Bistro", "longitude": -84.590928, "has_menu": false, "awards": null, "user_review_count": 0}, {"business_operation_status": 1, "rating": null, "neighborhood": null, "image": null, "scorecard": null, "featured": false, "sample_categories": "Ice Cream Parlors", "public_id": "mocha-ventures-llc-woodstock", "id": 815235290, "votes": null, "tagline": null, "has_video": false, "website": null, "offers": null, "latitude": 34.1147, "politanName": "Atlanta, GA Metro ", "phone_number": "6784456154", "tags": [{"primary": true, "id": 1730, "name": "Ice Cream Parlors"}], "fax_number": null, "expansion": {"count": null, "uri": null}, "impression_id": "000b000000b94030ebf6e847b0874a6d2c4c81df4e", "profile": "http://www.citysearch.com/profile/815235290/woodstock_ga/mocha_ventures_llc.html", "address": {"city": "Woodstock", "state": "GA", "street": "1091 Britley Park Ln", "postal_code": "30189"}, "capProviderId": null, "distance": null, "has_offers": false, "name": "Mocha Ventures LLC", "longitude": -84.585559, "has_menu": false, "awards": null, "user_review_count": 0}, {"business_operation_status": 1, "rating": null, "neighborhood": null, "image": null, "scorecard": null, "featured": false, "sample_categories": "Restaurants, Carry Out, Hamburgers", "public_id": "wendys-kennesaw-4", "id": 775183780, "votes": null, "tagline": null, "has_video": false, "website": null, "offers": null, "latitude": 34.018974, "politanName": "Atlanta, GA Metro ", "phone_number": "7704273990", "tags": [{"primary": false, "id": 11247, "name": "Carry Out"}, {"primary": false, "id": 11270, "name": "Hamburgers"}, {"primary": true, "id": 1722, "name": "Restaurants"}], "fax_number": null, "expansion": {"count": null, "uri": null}, "impression_id": "000b0000009eee8ea4d0ac438e99249a4cdc5577ab", "profile": "http://www.citysearch.com/profile/775183780/kennesaw_ga/wendy_s.html", "address": {"city": "Kennesaw", "state": "GA", "street": "400 Ernest W Barrett Pkwy NW", "postal_code": "30144"}, "capProviderId": null, "distance": null, "has_offers": false, "name": "Wendy's", "longitude": -84.563564, "has_menu": true, "awards": null, "user_review_count": 0}, {"business_operation_status": 0, "rating": null, "neighborhood": null, "image": null, "scorecard": null, "featured": false, "sample_categories": "Restaurants", "public_id": "up-the-creek-woodstock", "id": 777709980, "votes": null, "tagline": null, "has_video": false, "website": null, "offers": null, "latitude": 34.116761, "politanName": "Atlanta, GA Metro ", "phone_number": "7705176944", "tags": [{"primary": true, "id": 1722, "name": "Restaurants"}], "fax_number": null, "expansion": {"count": null, "uri": null}, "impression_id": "000b000000ba0d876e2ab247c9965d03ba26d0a8b0", "profile": "http://www.citysearch.com/profile/777709980/woodstock_ga/up_the_creek.html", "address": {"city": "Woodstock", "state": "GA", "street": "6426 Bells Ferry Rd", "postal_code": "30189"}, "capProviderId": null, "distance": null, "has_offers": false, "name": "Up The Creek", "longitude": -84.582993, "has_menu": false, "awards": null, "user_review_count": 0}, {"business_operation_status": 1, "rating": null, "neighborhood": null, "image": null, "scorecard": null, "featured": false, "sample_categories": "Restaurants, Caribbean", "public_id": "theos-caribbean-grill-marietta", "id": 777756870, "votes": null, "tagline": null, "has_video": false, "website": null, "offers": null, "latitude": 34.020818, "politanName": "Atlanta, GA Metro ", "phone_number": "6785810107", "tags": [{"primary": false, "id": 11195, "name": "Caribbean"}, {"primary": true, "id": 1722, "name": "Restaurants"}], "fax_number": null, "expansion": {"count": null, "uri": null}, "impression_id": "000b000000f38a82363c9e48949e5a1279eec233ef", "profile": "http://www.citysearch.com/profile/777756870/marietta_ga/theo_s_caribbean_grill.html", "address": {"city": "Marietta", "state": "GA", "street": "2821 Chastain Meadows Pkwy 230", "postal_code": "30066"}, "capProviderId": null, "distance": null, "has_offers": false, "name": "Theo's Caribbean Grill", "longitude": -84.55554, "has_menu": false, "awards": null, "user_review_count": 0}, {"business_operation_status": 1, "rating": null, "neighborhood": null, "image": null, "scorecard": null, "featured": false, "sample_categories": "Ice Cream Parlors", "public_id": "marble-slab-creamery-kennesaw", "id": 829114200, "votes": null, "tagline": null, "has_video": false, "website": "http://www.citysearch.com/profile/external/829114200/kennesaw_ga/marble_slab_creamery.html", "offers": null, "latitude": 34.012738, "politanName": "Atlanta, GA Metro ", "phone_number": "6783555424", "tags": [{"primary": true, "id": 1730, "name": "Ice Cream Parlors"}], "fax_number": null, "expansion": {"count": null, "uri": null}, "impression_id": "000b000000e3f868d5b36a42e6b77f29258cc4cf64", "profile": "http://www.citysearch.com/profile/829114200/kennesaw_ga/marble_slab_creamery.html", "address": {"city": "Kennesaw", "state": "GA", "street": "440 Ernest W Barrett Pkwy NW", "postal_code": "30144"}, "capProviderId": null, "distance": null, "has_offers": false, "name": "Marble Slab Creamery", "longitude": -84.5643, "has_menu": true, "awards": null, "user_review_count": 0}, {"business_operation_status": 1, "rating": null, "neighborhood": null, "image": null, "scorecard": null, "featured": false, "sample_categories": "Restaurants, Pizza", "public_id": "pizza-n-beyond-kennesaw", "id": 798806950, "votes": null, "tagline": null, "has_video": false, "website": "http://www.citysearch.com/profile/external/798806950/kennesaw_ga/pizza_n_beyond.html", "offers": null, "latitude": 34.018008, "politanName": "Atlanta, GA Metro ", "phone_number": "7706756108", "tags": [{"primary": false, "id": 1722, "name": "Restaurants"}, {"primary": true, "id": 11299, "name": "Pizza"}], "fax_number": null, "expansion": {"count": null, "uri": null}, "impression_id": "000b0000003eaa597d29de4ca693e08ebcb6f6ff22", "profile": "http://www.citysearch.com/profile/798806950/kennesaw_ga/pizza_n_beyond.html", "address": {"city": "Kennesaw", "state": "GA", "street": "2655 Cobb Pkwy NW", "postal_code": "30152"}, "capProviderId": null, "distance": null, "has_offers": false, "name": "Pizza N Beyond", "longitude": -84.619527, "has_menu": true, "awards": null, "user_review_count": 1}, {"business_operation_status": 1, "rating": null, "neighborhood": null, "image": null, "scorecard": null, "featured": false, "sample_categories": "Restaurants, Traditional American, American Express, Debit Card, Diners Club", "public_id": "grill-depot-cartersville", "id": 627677120, "votes": null, "tagline": null, "has_video": false, "website": "http://www.citysearch.com/profile/external/627677120/cartersville_ga/grill_depot.html", "offers": null, "latitude": 34.173576, "politanName": "Atlanta, GA Metro ", "phone_number": "7703870141", "tags": [{"primary": false, "id": 11190, "name": "Traditional American"}, {"primary": false, "id": 11333, "name": "American Express"}, {"primary": false, "id": 11347, "name": "Debit Card"}, {"primary": false, "id": 11348, "name": "Diners Club"}, {"primary": false, "id": 11349, "name": "Discover"}, {"primary": false, "id": 11361, "name": "MasterCard"}, {"primary": false, "id": 11382, "name": "Visa"}, {"primary": true, "id": 1722, "name": "Restaurants"}], "fax_number": null, "expansion": {"count": null, "uri": null}, "impression_id": "000b000000d582e2fc29f1450c8feea41e57257e9e", "profile": "http://www.citysearch.com/profile/627677120/cartersville_ga/grill_depot.html", "address": {"city": "Cartersville", "state": "GA", "street": "1325 E Main St", "postal_code": "30121"}, "capProviderId": null, "distance": null, "has_offers": false, "name": "Grill Depot", "longitude": -84.764759, "has_menu": false, "awards": null, "user_review_count": 0}, {"business_operation_status": 1, "rating": null, "neighborhood": null, "image": null, "scorecard": null, "featured": false, "sample_categories": "Restaurants, Barbecue Restaurants", "public_id": "wingstop-kennesaw", "id": 762816620, "votes": null, "tagline": null, "has_video": false, "website": "http://www.citysearch.com/profile/external/762816620/kennesaw_ga/wingstop.html", "offers": null, "latitude": 34.030476, "politanName": "Atlanta, GA Metro ", "phone_number": "7704289464", "tags": [{"primary": false, "id": 1724, "name": "Barbecue Restaurants"}, {"primary": true, "id": 1722, "name": "Restaurants"}], "fax_number": null, "expansion": {"count": null, "uri": null}, "impression_id": "000b0000006c339c1104f74e4384df4a3627af1186", "profile": "http://www.citysearch.com/profile/762816620/kennesaw_ga/wingstop.html", "address": {"city": "Kennesaw", "state": "GA", "street": "1133 Chastain Rd NW # 300", "postal_code": "30144"}, "capProviderId": null, "distance": null, "has_offers": false, "name": "Wingstop", "longitude": -84.58315, "has_menu": false, "awards": null, "user_review_count": 0}, {"business_operation_status": 1, "rating": null, "neighborhood": null, "image": null, "scorecard": null, "featured": false, "sample_categories": "Restaurants, Mexican", "public_id": "la-paz-restaurant-kennesaw", "id": 775214130, "votes": null, "tagline": null, "has_video": false, "website": null, "offers": null, "latitude": 34.048726, "politanName": "Atlanta, GA Metro ", "phone_number": "7704053220", "tags": [{"primary": false, "id": 11208, "name": "Mexican"}, {"primary": true, "id": 1722, "name": "Restaurants"}], "fax_number": null, "expansion": {"count": null, "uri": null}, "impression_id": "000b0000005b5fb88b7a9d41eaa8771d0ed04397bb", "profile": "http://www.citysearch.com/profile/775214130/kennesaw_ga/la_paz_restaurant.html", "address": {"city": "Kennesaw", "state": "GA", "street": "1275 Shiloh Rd NW # 2950", "postal_code": "30144"}, "capProviderId": null, "distance": null, "has_offers": false, "name": "La Paz Restaurant", "longitude": -84.58852, "has_menu": false, "awards": null, "user_review_count": 0}, {"business_operation_status": 1, "rating": null, "neighborhood": null, "image": null, "scorecard": null, "featured": false, "sample_categories": "Restaurants, Bars & Clubs", "public_id": "highlands-grill-kennesaw-3", "id": 775224210, "votes": null, "tagline": null, "has_video": false, "website": null, "offers": null, "latitude": 34.013172, "politanName": "Atlanta, GA Metro ", "phone_number": "7704261515", "tags": [{"primary": false, "id": 164, "name": "Bars & Clubs"}, {"primary": true, "id": 1722, "name": "Restaurants"}], "fax_number": null, "expansion": {"count": null, "uri": null}, "impression_id": "000b0000009abee137f88747138cc16b06815cd680", "profile": "http://www.citysearch.com/profile/775224210/kennesaw_ga/highlands_grill.html", "address": {"city": "Kennesaw", "state": "GA", "street": "2615 George Busbee Pky NW # 28", "postal_code": "30144"}, "capProviderId": null, "distance": null, "has_offers": false, "name": "Highlands Grill", "longitude": -84.567215, "has_menu": false, "awards": null, "user_review_count": 0}, {"business_operation_status": 1, "rating": null, "neighborhood": null, "image": null, "scorecard": null, "featured": false, "sample_categories": "Juice & Smoothie Shops, Restaurants, Ice Cream Parlors, Carry Out", "public_id": "orange-julius-kennesaw", "id": 777716120, "votes": null, "tagline": null, "has_video": false, "website": "http://www.citysearch.com/profile/external/777716120/kennesaw_ga/orange_julius.html", "offers": null, "latitude": 34.014009, "politanName": "Atlanta, GA Metro ", "phone_number": "7704281468", "tags": [{"primary": false, "id": 1722, "name": "Restaurants"}, {"primary": false, "id": 1730, "name": "Ice Cream Parlors"}, {"primary": false, "id": 11247, "name": "Carry Out"}, {"primary": true, "id": 1735, "name": "Juice & Smoothie Shops"}], "fax_number": null, "expansion": {"count": null, "uri": null}, "impression_id": "000b000000ddc561e4fa3444ed9033c1f399dae87b", "profile": "http://www.citysearch.com/profile/777716120/kennesaw_ga/orange_julius.html", "address": {"city": "Kennesaw", "state": "GA", "street": "400 Ernest W Barrett Pkwy NW", "postal_code": "30144"}, "capProviderId": null, "distance": null, "has_offers": false, "name": "Orange Julius", "longitude": -84.561425, "has_menu": true, "awards": null, "user_review_count": 0}, {"business_operation_status": 0, "rating": null, "neighborhood": null, "image": null, "scorecard": null, "featured": false, "sample_categories": "Restaurants, Delis And Delicatessens, Sandwich Shops, Carry Out", "public_id": "quiznos-kennesaw", "id": 648900450, "votes": null, "tagline": null, "has_video": false, "website": null, "offers": null, "latitude": 34.030476, "politanName": "Atlanta, GA Metro ", "phone_number": "7705147844", "tags": [{"primary": false, "id": 1727, "name": "Delis And Delicatessens"}, {"primary": false, "id": 1736, "name": "Sandwich Shops"}, {"primary": false, "id": 11247, "name": "Carry Out"}, {"primary": true, "id": 1722, "name": "Restaurants"}], "fax_number": null, "expansion": {"count": null, "uri": null}, "impression_id": "000b000000acb3d92cc6d84ed5b9feb8a034f5ec16", "profile": "http://www.citysearch.com/profile/648900450/kennesaw_ga/quiznos.html", "address": {"city": "Kennesaw", "state": "GA", "street": "1133 Chastain Rd NW Ste C", "postal_code": "30144"}, "capProviderId": null, "distance": null, "has_offers": false, "name": "Quiznos", "longitude": -84.58315, "has_menu": true, "awards": null, "user_review_count": 0}, {"business_operation_status": 1, "rating": null, "neighborhood": null, "image": null, "scorecard": null, "featured": false, "sample_categories": "Restaurants, Barbecue Restaurants, Carry Out", "public_id": "wing-street-cartersville", "id": 781241580, "votes": null, "tagline": null, "has_video": false, "website": "http://www.citysearch.com/profile/external/781241580/cartersville_ga/wing_street.html", "offers": null, "latitude": 34.129315, "politanName": "Atlanta, GA Metro ", "phone_number": "7706074280", "tags": [{"primary": false, "id": 1724, "name": "Barbecue Restaurants"}, {"primary": false, "id": 11247, "name": "Carry Out"}, {"primary": true, "id": 1722, "name": "Restaurants"}], "fax_number": null, "expansion": {"count": null, "uri": null}, "impression_id": "000b00000020a8d6742d214f4ea8ff6d7920d279aa", "profile": "http://www.citysearch.com/profile/781241580/cartersville_ga/wing_street.html", "address": {"city": "Cartersville", "state": "GA", "street": "1336 Highway 113 Sw", "postal_code": "30120"}, "capProviderId": null, "distance": null, "has_offers": false, "name": "Wing Street", "longitude": -84.853294, "has_menu": false, "awards": null, "user_review_count": 0}, {"business_operation_status": 1, "rating": null, "neighborhood": null, "image": null, "scorecard": null, "featured": false, "sample_categories": "Frozen Yogurt Shops, Restaurants, Ice Cream Parlors, Discover, MasterCard", "public_id": "city-swirl-frozen-yogurt-cartersville", "id": 739034100, "votes": null, "tagline": null, "has_video": false, "website": null, "offers": null, "latitude": 34.169886, "politanName": "Atlanta, GA Metro ", "phone_number": "7703342479", "tags": [{"primary": false, "id": 1729, "name": "Frozen Yogurt Shops"}, {"primary": false, "id": 1730, "name": "Ice Cream Parlors"}, {"primary": false, "id": 11349, "name": "Discover"}, {"primary": false, "id": 11361, "name": "MasterCard"}, {"primary": false, "id": 11382, "name": "Visa"}, {"primary": false, "id": 12837, "name": "Dairy Products"}, {"primary": true, "id": 1722, "name": "Restaurants"}], "fax_number": null, "expansion": {"count": null, "uri": null}, "impression_id": "000b000000f8c9d96dccad4cc1b706b5ced051d7fe", "profile": "http://www.citysearch.com/profile/739034100/cartersville_ga/city_swirl_frozen_yogurt.html", "address": {"city": "Cartersville", "state": "GA", "street": "612 E Main St", "postal_code": "30121"}, "capProviderId": null, "distance": null, "has_offers": false, "name": "City Swirl Frozen Yogurt", "longitude": -84.784487, "has_menu": false, "awards": null, "user_review_count": 0}, {"business_operation_status": 1, "rating": null, "neighborhood": null, "image": null, "scorecard": null, "featured": false, "sample_categories": "Restaurants", "public_id": "crossroads-neighborhood-grille-dallas", "id": 790624770, "votes": null, "tagline": null, "has_video": false, "website": null, "offers": null, "latitude": 34.022077, "politanName": "Atlanta, GA Metro ", "phone_number": "7709757712", "tags": [{"primary": true, "id": 1722, "name": "Restaurants"}], "fax_number": null, "expansion": {"count": null, "uri": null}, "impression_id": "000b00000019c79204486a40eca4293edde69cf8fe", "profile": "http://www.citysearch.com/profile/790624770/dallas_ga/crossroads_neighborhood_grille.html", "address": {"city": "Dallas", "state": "GA", "street": "1305 Cedarcrest Rd", "postal_code": "30132"}, "capProviderId": null, "distance": null, "has_offers": false, "name": "Crossroads Neighborhood Grille", "longitude": -84.771962, "has_menu": false, "awards": null, "user_review_count": 0}, {"business_operation_status": 1, "rating": null, "neighborhood": null, "image": null, "scorecard": null, "featured": false, "sample_categories": "Restaurants, Jamaican", "public_id": "country-style-jamaican-rstrnt-marietta", "id": 790653840, "votes": null, "tagline": null, "has_video": false, "website": null, "offers": null, "latitude": 34.03261, "politanName": "Atlanta, GA Metro ", "phone_number": "7704258444", "tags": [{"primary": false, "id": 11193, "name": "Jamaican"}, {"primary": true, "id": 1722, "name": "Restaurants"}], "fax_number": null, "expansion": {"count": null, "uri": null}, "impression_id": "000b0000003e66e0ae329b4f42843a84866df5f162", "profile": "http://www.citysearch.com/profile/790653840/marietta_ga/country_style_jamaican_rstrnt.html", "address": {"city": "Marietta", "state": "GA", "street": "3349 Canton Rd # 201", "postal_code": "30066"}, "capProviderId": null, "distance": null, "has_offers": false, "name": "Country Style Jamaican Rstrnt", "longitude": -84.528907, "has_menu": false, "awards": null, "user_review_count": 0}, {"business_operation_status": 0, "rating": null, "neighborhood": null, "image": null, "scorecard": null, "featured": false, "sample_categories": "Restaurants", "public_id": "nosjeff-restaurant-sport-ctr-marietta", "id": 682347170, "votes": null, "tagline": null, "has_video": false, "website": null, "offers": null, "latitude": 34.046421, "politanName": "Atlanta, GA Metro ", "phone_number": "6784451836", "tags": [{"primary": true, "id": 1722, "name": "Restaurants"}], "fax_number": null, "expansion": {"count": null, "uri": null}, "impression_id": "000b000000f4d02130c0fd4ea9886eaa80fb160f88", "profile": "http://www.citysearch.com/profile/682347170/marietta_ga/nosjeff_restaurant_sport_ctr.html", "address": {"city": "Marietta", "state": "GA", "street": "3920 Canton Rd", "postal_code": "30066"}, "capProviderId": null, "distance": null, "has_offers": false, "name": "Nosjeff Restaurant Sport Ctr", "longitude": -84.52845, "has_menu": false, "awards": null, "user_review_count": 0}, {"business_operation_status": 1, "rating": null, "neighborhood": null, "image": null, "scorecard": null, "featured": false, "sample_categories": "Restaurants, Mexican", "public_id": "lu-pitas-mexican-grill-marietta", "id": 764888040, "votes": null, "tagline": null, "has_video": false, "website": null, "offers": null, "latitude": 34.068476, "politanName": "Atlanta, GA Metro ", "phone_number": "7706939257", "tags": [{"primary": false, "id": 11208, "name": "Mexican"}, {"primary": true, "id": 1722, "name": "Restaurants"}], "fax_number": null, "expansion": {"count": null, "uri": null}, "impression_id": "000b000000832200c46545451cba3ddb6561099bf0", "profile": "http://www.citysearch.com/profile/764888040/marietta_ga/lu_pita_s_mexican_grill.html", "address": {"city": "Marietta", "state": "GA", "street": "4796 Canton Rd", "postal_code": "30066"}, "capProviderId": null, "distance": null, "has_offers": false, "name": "Lu Pita's Mexican Grill", "longitude": -84.520809, "has_menu": false, "awards": null, "user_review_count": 0}, {"business_operation_status": 1, "rating": null, "neighborhood": null, "image": null, "scorecard": null, "featured": false, "sample_categories": "Restaurants, Carry Out", "public_id": "ryans-grill-buffet-bakery-marietta", "id": 764837190, "votes": null, "tagline": null, "has_video": false, "website": null, "offers": null, "latitude": 34.010977, "politanName": "Atlanta, GA Metro ", "phone_number": "7704250277", "tags": [{"primary": false, "id": 11247, "name": "Carry Out"}, {"primary": true, "id": 1722, "name": "Restaurants"}], "fax_number": null, "expansion": {"count": null, "uri": null}, "impression_id": "000b0000005e03315a8f1f4f979e3151e9de7e1978", "profile": "http://www.citysearch.com/profile/764837190/marietta_ga/ryan_s_grill_buffet_bakery.html", "address": {"city": "Marietta", "state": "GA", "street": "2418 Canton Rd", "postal_code": "30066"}, "capProviderId": null, "distance": null, "has_offers": false, "name": "Ryan's Grill Buffet & Bakery", "longitude": -84.526734, "has_menu": false, "awards": null, "user_review_count": 0}, {"business_operation_status": 1, "rating": null, "neighborhood": null, "image": null, "scorecard": null, "featured": false, "sample_categories": "Restaurants, Luaus, Mexican", "public_id": "taco-mac-kennesaw", "id": 766794950, "votes": null, "tagline": null, "has_video": false, "website": null, "offers": null, "latitude": 34.014045, "politanName": "Atlanta, GA Metro ", "phone_number": "7704261515", "tags": [{"primary": false, "id": 1722, "name": "Restaurants"}, {"primary": false, "id": 11208, "name": "Mexican"}, {"primary": true, "id": 11285, "name": "Luaus"}], "fax_number": null, "expansion": {"count": null, "uri": null}, "impression_id": "000b00000096b141303a2c427bba05ea8933b6dd59", "profile": "http://www.citysearch.com/profile/766794950/kennesaw_ga/taco_mac.html", "address": {"city": "Kennesaw", "state": "GA", "street": "2615 Busbee Pkwy NW # 28", "postal_code": "30144"}, "capProviderId": null, "distance": null, "has_offers": false, "name": "Taco Mac", "longitude": -84.56696, "has_menu": false, "awards": null, "user_review_count": 0}, {"business_operation_status": 1, "rating": null, "neighborhood": null, "image": null, "scorecard": null, "featured": false, "sample_categories": "Restaurants", "public_id": "sunrise-biscuit-co-marietta", "id": 808765260, "votes": null, "tagline": null, "has_video": false, "website": null, "offers": null, "latitude": 34.048278, "politanName": "Atlanta, GA Metro ", "phone_number": "7705169556", "tags": [{"primary": true, "id": 1722, "name": "Restaurants"}], "fax_number": null, "expansion": {"count": null, "uri": null}, "impression_id": "000b0000003b01621be73e4fc3a322f20c5137b829", "profile": "http://www.citysearch.com/profile/808765260/marietta_ga/sunrise_biscuit_co.html", "address": {"city": "Marietta", "state": "GA", "street": "4017 Canton Rd", "postal_code": "30066"}, "capProviderId": null, "distance": null, "has_offers": false, "name": "Sunrise Biscuit Co", "longitude": -84.52851, "has_menu": false, "awards": null, "user_review_count": 0}, {"business_operation_status": 1, "rating": null, "neighborhood": null, "image": null, "scorecard": null, "featured": false, "sample_categories": "Restaurants, Pizza", "public_id": "gondolier-pizza-1-kennesaw", "id": 809188170, "votes": null, "tagline": null, "has_video": false, "website": null, "offers": null, "latitude": 34.007674, "politanName": "Atlanta, GA Metro ", "phone_number": "7704199979", "tags": [{"primary": false, "id": 1722, "name": "Restaurants"}, {"primary": true, "id": 11299, "name": "Pizza"}], "fax_number": null, "expansion": {"count": null, "uri": null}, "impression_id": "000b0000008e522be928c143a69336e5d498306c38", "profile": "http://www.citysearch.com/profile/809188170/kennesaw_ga/gondolier_pizza_1.html", "address": {"city": "Kennesaw", "state": "GA", "street": "740 Ernest W Barrett Pkwy NW", "postal_code": "30144"}, "capProviderId": null, "distance": null, "has_offers": false, "name": "Gondolier Pizza 1", "longitude": -84.571702, "has_menu": false, "awards": null, "user_review_count": 0}, {"business_operation_status": 1, "rating": null, "neighborhood": null, "image": null, "scorecard": null, "featured": false, "sample_categories": "Restaurants", "public_id": "morrells-restaurant-cartersville", "id": 817499910, "votes": null, "tagline": null, "has_video": false, "website": null, "offers": null, "latitude": 34.206671, "politanName": "Atlanta, GA Metro ", "phone_number": "7703821222", "tags": [{"primary": true, "id": 1722, "name": "Restaurants"}], "fax_number": null, "expansion": {"count": null, "uri": null}, "impression_id": "000b0000009f6fb27757df4f509bd7b7d2a430efe7", "profile": "http://www.citysearch.com/profile/817499910/cartersville_ga/morrell_s_restaurant.html", "address": {"city": "Cartersville", "state": "GA", "street": "75 State Route 20 Spur SE", "postal_code": "30121"}, "capProviderId": null, "distance": null, "has_offers": false, "name": "Morrell's Restaurant", "longitude": -84.756364, "has_menu": false, "awards": null, "user_review_count": 0}, {"business_operation_status": 1, "rating": null, "neighborhood": null, "image": null, "scorecard": null, "featured": false, "sample_categories": "Restaurants, Pizza, Carry Out", "public_id": "sals-pizzeria-acworth", "id": 790746800, "votes": null, "tagline": null, "has_video": false, "website": null, "offers": null, "latitude": 34.062771, "politanName": "Atlanta, GA Metro ", "phone_number": "7704275368", "tags": [{"primary": false, "id": 1722, "name": "Restaurants"}, {"primary": false, "id": 11247, "name": "Carry Out"}, {"primary": true, "id": 11299, "name": "Pizza"}], "fax_number": null, "expansion": {"count": null, "uri": null}, "impression_id": "000b00000048f0237cca724bbf8b58ba9c3ed483fe", "profile": "http://www.citysearch.com/profile/790746800/acworth_ga/sals_pizzeria.html", "address": {"city": "Acworth", "state": "GA", "street": "1361 Hearthstone Way NW", "postal_code": "30102"}, "capProviderId": null, "distance": null, "has_offers": false, "name": "Sals Pizzeria", "longitude": -84.585107, "has_menu": false, "awards": null, "user_review_count": 0}, {"business_operation_status": 1, "rating": null, "neighborhood": null, "image": null, "scorecard": null, "featured": false, "sample_categories": "Restaurants, Pizza", "public_id": "vespuccis-pizza-pasta-marietta", "id": 732245720, "votes": null, "tagline": null, "has_video": false, "website": "http://www.citysearch.com/profile/external/732245720/marietta_ga/vespucci_s_pizza_pasta.html", "offers": null, "latitude": 34.068226, "politanName": "Atlanta, GA Metro ", "phone_number": "7709281212", "tags": [{"primary": false, "id": 1722, "name": "Restaurants"}, {"primary": true, "id": 11299, "name": "Pizza"}], "fax_number": null, "expansion": {"count": null, "uri": null}, "impression_id": "000b0000004b92bad1b5414d5ca4f8ade03b997b6c", "profile": "http://www.citysearch.com/profile/732245720/marietta_ga/vespucci_s_pizza_pasta.html", "address": {"city": "Marietta", "state": "GA", "street": "4805 Canton Rd Ste 100", "postal_code": "30066"}, "capProviderId": null, "distance": null, "has_offers": false, "name": "Vespucci's Pizza & Pasta", "longitude": -84.522176, "has_menu": true, "awards": null, "user_review_count": 0}, {"business_operation_status": 1, "rating": null, "neighborhood": null, "image": null, "scorecard": null, "featured": false, "sample_categories": "Restaurants", "public_id": "pegasus-foods-inc-powder", "id": 732186320, "votes": null, "tagline": null, "has_video": false, "website": null, "offers": null, "latitude": 33.906794, "politanName": "Atlanta, GA Metro ", "phone_number": "7704391489", "tags": [{"primary": true, "id": 1722, "name": "Restaurants"}], "fax_number": null, "expansion": {"count": null, "uri": null}, "impression_id": "000b0000005e600f37184c410d90d1ff6d8c707546", "profile": "http://www.citysearch.com/profile/732186320/powder_springs_ga/pegasus_foods_inc.html", "address": {"city": "Powder Springs", "state": "GA", "street": "3640 Velma Dr", "postal_code": "30127"}, "capProviderId": null, "distance": null, "has_offers": false, "name": "Pegasus Foods Inc", "longitude": -84.660285, "has_menu": false, "awards": null, "user_review_count": 0}, {"business_operation_status": 1, "rating": null, "neighborhood": null, "image": null, "scorecard": null, "featured": false, "sample_categories": "Restaurants", "public_id": "rio-mexico-kennesaw", "id": 809173760, "votes": null, "tagline": null, "has_video": false, "website": null, "offers": null, "latitude": 34.032507, "politanName": "Atlanta, GA Metro ", "phone_number": "7709192626", "tags": [{"primary": true, "id": 1722, "name": "Restaurants"}], "fax_number": null, "expansion": {"count": null, "uri": null}, "impression_id": "000b000000c54751c1c12a417faecb721aa606c2a1", "profile": "http://www.citysearch.com/profile/809173760/kennesaw_ga/rio_mexico.html", "address": {"city": "Kennesaw", "state": "GA", "street": "2700 Town Center Dr NW", "postal_code": "30144"}, "capProviderId": null, "distance": null, "has_offers": false, "name": "Rio Mexico", "longitude": -84.64853, "has_menu": false, "awards": null, "user_review_count": 0}, {"business_operation_status": 1, "rating": null, "neighborhood": null, "image": null, "scorecard": null, "featured": false, "sample_categories": "Frozen Yogurt Shops, Grocery Stores, Restaurants", "public_id": "oolala-marietta", "id": 732204990, "votes": null, "tagline": null, "has_video": false, "website": "http://www.citysearch.com/profile/external/732204990/marietta_ga/oolala.html", "offers": null, "latitude": 33.950252, "politanName": "Atlanta, GA Metro ", "phone_number": "6783836129", "tags": [{"primary": false, "id": 1713, "name": "Grocery Stores"}, {"primary": false, "id": 1722, "name": "Restaurants"}, {"primary": true, "id": 1729, "name": "Frozen Yogurt Shops"}], "fax_number": null, "expansion": {"count": null, "uri": null}, "impression_id": "000b00000051a5877f487a467fadf01fc3a2df43a3", "profile": "http://www.citysearch.com/profile/732204990/marietta_ga/oolala.html", "address": {"city": "Marietta", "state": "GA", "street": "2500 Dallas Hwy SW # 650", "postal_code": "30064"}, "capProviderId": null, "distance": null, "has_offers": false, "name": "Oolala", "longitude": -84.638093, "has_menu": false, "awards": null, "user_review_count": 0}, {"business_operation_status": 1, "rating": null, "neighborhood": null, "image": null, "scorecard": null, "featured": false, "sample_categories": "Restaurants, Traditional American, Carry Out", "public_id": "waffle-house-dallas-13", "id": 762818180, "votes": null, "tagline": null, "has_video": false, "website": "http://www.citysearch.com/profile/external/762818180/dallas_ga/waffle_house.html", "offers": null, "latitude": 34.008816, "politanName": "Atlanta, GA Metro ", "phone_number": "7705295696", "tags": [{"primary": false, "id": 11190, "name": "Traditional American"}, {"primary": false, "id": 11247, "name": "Carry Out"}, {"primary": true, "id": 1722, "name": "Restaurants"}], "fax_number": null, "expansion": {"count": null, "uri": null}, "impression_id": "000b0000005c091e7ac9e54424ab862316d1095a2f", "profile": "http://www.citysearch.com/profile/762818180/dallas_ga/waffle_house.html", "address": {"city": "Dallas", "state": "GA", "street": "8624 Dallas Acworth Hwy", "postal_code": "30132"}, "capProviderId": null, "distance": null, "has_offers": false, "name": "Waffle House", "longitude": -84.755752, "has_menu": false, "awards": null, "user_review_count": 0}, {"business_operation_status": 1, "rating": null, "neighborhood": null, "image": null, "scorecard": null, "featured": false, "sample_categories": "Restaurants, Pizza", "public_id": "sub-pizza-co-woodstock", "id": 764894380, "votes": null, "tagline": null, "has_video": false, "website": null, "offers": null, "latitude": 34.130884, "politanName": "Atlanta, GA Metro ", "phone_number": "7705911119", "tags": [{"primary": false, "id": 11299, "name": "Pizza"}, {"primary": true, "id": 1722, "name": "Restaurants"}], "fax_number": null, "expansion": {"count": null, "uri": null}, "impression_id": "000b000000e45438ef1fe948dd879ad8613bc42e78", "profile": "http://www.citysearch.com/profile/764894380/woodstock_ga/sub_pizza_co.html", "address": {"city": "Woodstock", "state": "GA", "street": "6687 Bells Ferry Rd", "postal_code": "30189"}, "capProviderId": null, "distance": null, "has_offers": false, "name": "Sub & Pizza Co", "longitude": -84.586697, "has_menu": false, "awards": null, "user_review_count": 0}, {"business_operation_status": 1, "rating": null, "neighborhood": null, "image": null, "scorecard": null, "featured": false, "sample_categories": "Restaurants", "public_id": "uncle-guss-flavor-town-cartersville", "id": 770785580, "votes": null, "tagline": null, "has_video": false, "website": null, "offers": null, "latitude": 34.149886, "politanName": "Atlanta, GA Metro ", "phone_number": "7706074717", "tags": [{"primary": true, "id": 1722, "name": "Restaurants"}], "fax_number": null, "expansion": {"count": null, "uri": null}, "impression_id": "000b000000b9619390e79440788c7c0efd2ac0899f", "profile": "http://www.citysearch.com/profile/770785580/cartersville_ga/uncle_gus_s_flavor_town.html", "address": {"city": "Cartersville", "state": "GA", "street": "461 Old Mill Pl", "postal_code": "30120"}, "capProviderId": null, "distance": null, "has_offers": false, "name": "Uncle Gus's Flavor Town", "longitude": -84.825842, "has_menu": false, "awards": null, "user_review_count": 0}, {"business_operation_status": 1, "rating": null, "neighborhood": null, "image": null, "scorecard": null, "featured": false, "sample_categories": "Restaurants", "public_id": "garcia-eduardo-kennesaw", "id": 775190040, "votes": null, "tagline": null, "has_video": false, "website": null, "offers": null, "latitude": 34.050651, "politanName": "Atlanta, GA Metro ", "phone_number": "6783559839", "tags": [{"primary": true, "id": 1722, "name": "Restaurants"}], "fax_number": null, "expansion": {"count": null, "uri": null}, "impression_id": "000b000000fb94013d95ed44a2acc31cd2e6267187", "profile": "http://www.citysearch.com/profile/775190040/kennesaw_ga/garcia_eduardo.html", "address": {"city": "Kennesaw", "state": "GA", "street": "3600 Cherokee St NW", "postal_code": "30144"}, "capProviderId": null, "distance": null, "has_offers": false, "name": "Garcia Eduardo", "longitude": -84.595701, "has_menu": false, "awards": null, "user_review_count": 0}, {"business_operation_status": 1, "rating": null, "neighborhood": null, "image": null, "scorecard": null, "featured": false, "sample_categories": "Restaurants", "public_id": "royal-waffle-king-marietta", "id": 775234230, "votes": null, "tagline": null, "has_video": false, "website": "http://www.citysearch.com/profile/external/775234230/marietta_ga/royal_waffle_king.html", "offers": null, "latitude": 33.987292, "politanName": "Atlanta, GA Metro ", "phone_number": "7704423800", "tags": [{"primary": true, "id": 1722, "name": "Restaurants"}], "fax_number": null, "expansion": {"count": null, "uri": null}, "impression_id": "000b000000e6a77064a0364feab0491b02bcd7249e", "profile": "http://www.citysearch.com/profile/775234230/marietta_ga/royal_waffle_king.html", "address": {"city": "Marietta", "state": "GA", "street": "1459 Field Park Cir", "postal_code": "30066"}, "capProviderId": null, "distance": null, "has_offers": false, "name": "Royal Waffle King", "longitude": -84.563324, "has_menu": true, "awards": null, "user_review_count": 0}], "histograms": [], "tag_ids": [1722], "uri": "http://api.citygridmedia.com:8080/search/places/v2/search/where?has_offers=false&type=restaurant&format=json&page=17&where=30101&rpp=50&histograms=false&publisher=10000009598&region_type=circle", "did_you_mean": "", "regions": [{"latitude": 34.042584, "default_radius": 6.64, "type": "postal_code", "name": "30101", "longitude": -84.71322699999999}], "call_id": "000b00000077a4f286c681498180ceb420f58ffbf5", "first_hit": 801, "total_hits": 1249, "geo_ids": [26343], "page": 17, "last_hit": 850}}