{"results": {"rpp": 50, "locations": [{"business_operation_status": 1, "rating": 8.0, "neighborhood": null, "image": "http://o5.aolcdn.com/dims-shared/dims3/PATCH/resize/600x450/http://hss-prod.hss.aol.com/hss/storage/patch/ab613229fd30579e06e8b276b41e9aa6", "scorecard": null, "featured": false, "sample_categories": "Restaurants, American Express, Discover, MasterCard, Visa", "public_id": "dollys-farmhouse-restaurant-austell", "id": 2941037, "votes": null, "tagline": null, "has_video": false, "website": null, "offers": null, "latitude": 33.858465, "politanName": "Atlanta, GA Metro ", "phone_number": "7709416088", "tags": [{"primary": false, "id": 11333, "name": "American Express"}, {"primary": false, "id": 11349, "name": "Discover"}, {"primary": false, "id": 11361, "name": "MasterCard"}, {"primary": false, "id": 11382, "name": "Visa"}, {"primary": true, "id": 1722, "name": "Restaurants"}], "fax_number": null, "expansion": {"count": null, "uri": null}, "impression_id": "000b000000e94eb5782ac04e7584ce6862b496bafc", "profile": "http://www.citysearch.com/profile/2941037/austell_ga/dolly_s_farmhouse_restaurant.html", "address": {"city": "Austell", "state": "GA", "street": "4985 Austell Rd", "postal_code": "30106"}, "capProviderId": null, "distance": null, "has_offers": false, "name": "Dolly's Farmhouse Restaurant", "longitude": -84.6003, "has_menu": true, "awards": null, "user_review_count": 2}, {"business_operation_status": 1, "rating": null, "neighborhood": null, "image": "http://o3.aolcdn.com/dims-shared/dims3/PATCH/resize/600x450/http://hss-prod.hss.aol.com/hss/storage/patch/c6e653ff5473c83aba700628269742cc", "scorecard": null, "featured": false, "sample_categories": "Restaurants, Delis And Delicatessens", "public_id": "philly-connection-austell", "id": 2940792, "votes": null, "tagline": null, "has_video": false, "website": "http://www.citysearch.com/profile/external/2940792/austell_ga/philly_connection.html", "offers": null, "latitude": 33.856339, "politanName": "Atlanta, GA Metro ", "phone_number": "7709449898", "tags": [{"primary": false, "id": 1727, "name": "Delis And Delicatessens"}, {"primary": true, "id": 1722, "name": "Restaurants"}], "fax_number": null, "expansion": {"count": null, "uri": null}, "impression_id": "000b00000090c57465bda44735a2f04d63d8bd5b97", "profile": "http://www.citysearch.com/profile/2940792/austell_ga/philly_connection.html", "address": {"city": "Austell", "state": "GA", "street": "3999 Austell Rd Ste 302", "postal_code": "30106"}, "capProviderId": null, "distance": null, "has_offers": false, "name": "Philly Connection", "longitude": -84.599753, "has_menu": true, "awards": null, "user_review_count": 0}, {"business_operation_status": 1, "rating": null, "neighborhood": null, "image": "http://o3.aolcdn.com/dims-shared/dims3/PATCH/resize/600x450/http://hss-prod.hss.aol.com/hss/storage/patch/e85c244492273b681867e90e2eef7dde", "scorecard": null, "featured": false, "sample_categories": "Restaurants, American Express, Discover, MasterCard, Visa", "public_id": "martins-restaurant-austell", "id": 2941032, "votes": null, "tagline": null, "has_video": false, "website": "http://www.citysearch.com/profile/external/2941032/austell_ga/martin_s_restaurant.html", "offers": null, "latitude": 33.864195, "politanName": "Atlanta, GA Metro ", "phone_number": "7704341206", "tags": [{"primary": false, "id": 11333, "name": "American Express"}, {"primary": false, "id": 11349, "name": "Discover"}, {"primary": false, "id": 11361, "name": "MasterCard"}, {"primary": false, "id": 11382, "name": "Visa"}, {"primary": true, "id": 1722, "name": "Restaurants"}], "fax_number": null, "expansion": {"count": null, "uri": null}, "impression_id": "000b000000e50beffca0384ae7ab09ca22deb768ca", "profile": "http://www.citysearch.com/profile/2941032/austell_ga/martin_s_restaurant.html", "address": {"city": "Austell", "state": "GA", "street": "3721 Floyd Rd", "postal_code": "30106"}, "capProviderId": null, "distance": null, "has_offers": false, "name": "Martin's Restaurant", "longitude": -84.594884, "has_menu": false, "awards": null, "user_review_count": 0}, {"business_operation_status": 1, "rating": null, "neighborhood": null, "image": "http://o1.aolcdn.com/dims-shared/dims3/PATCH/resize/600x450/http://hss-prod.hss.aol.com/hss/storage/patch/fde4988c53782dc3a891b5ff6aaea8a6", "scorecard": null, "featured": false, "sample_categories": "Restaurants, Barbecue Restaurants", "public_id": "t-t-wings-austell", "id": 622193790, "votes": null, "tagline": null, "has_video": false, "website": null, "offers": null, "latitude": 33.814998, "politanName": "Atlanta, GA Metro ", "phone_number": "7709482737", "tags": [{"primary": false, "id": 1724, "name": "Barbecue Restaurants"}, {"primary": true, "id": 1722, "name": "Restaurants"}], "fax_number": null, "expansion": {"count": null, "uri": null}, "impression_id": "000b00000008b71bc9cf9f4484a45054a47a228e08", "profile": "http://www.citysearch.com/profile/622193790/austell_ga/t_t_wings.html", "address": {"city": "Austell", "state": "GA", "street": "5742 Austell Powder Springs Rd", "postal_code": "30106"}, "capProviderId": null, "distance": null, "has_offers": false, "name": "T & T Wings", "longitude": -84.635173, "has_menu": false, "awards": null, "user_review_count": 0}, {"business_operation_status": 1, "rating": null, "neighborhood": null, "image": null, "scorecard": null, "featured": false, "sample_categories": "Restaurants, Mexican", "public_id": "margaritas-mexican-restaurant-austell", "id": 622275370, "votes": null, "tagline": null, "has_video": false, "website": null, "offers": null, "latitude": 33.810497, "politanName": "Atlanta, GA Metro ", "phone_number": "7704854550", "tags": [{"primary": false, "id": 11208, "name": "Mexican"}, {"primary": true, "id": 1722, "name": "Restaurants"}], "fax_number": null, "expansion": {"count": null, "uri": null}, "impression_id": "000b000000700a16fb9d1342bf8d7e4797005a30de", "profile": "http://www.citysearch.com/profile/622275370/austell_ga/margarita_s_mexican_restaurant.html", "address": {"city": "Austell", "state": "GA", "street": "2856 Veterans Memorial Hwy", "postal_code": "30168"}, "capProviderId": null, "distance": null, "has_offers": false, "name": "Margarita's Mexican Restaurant", "longitude": -84.636764, "has_menu": true, "awards": null, "user_review_count": 3}, {"business_operation_status": 1, "rating": null, "neighborhood": null, "image": null, "scorecard": null, "featured": false, "sample_categories": "Coffeehouses, Coffee & Tea Shops, Restaurants, American Express, Discover", "public_id": "starbucks-austell", "id": 43858639, "votes": null, "tagline": null, "has_video": false, "website": "http://www.citysearch.com/profile/external/43858639/austell_ga/starbucks.html", "offers": null, "latitude": 33.855384, "politanName": "Atlanta, GA Metro ", "phone_number": "6788429143", "tags": [{"primary": false, "id": 1711, "name": "Coffee & Tea Shops"}, {"primary": false, "id": 1722, "name": "Restaurants"}, {"primary": false, "id": 11333, "name": "American Express"}, {"primary": false, "id": 11349, "name": "Discover"}, {"primary": false, "id": 11361, "name": "MasterCard"}, {"primary": false, "id": 11382, "name": "Visa"}, {"primary": true, "id": 1726, "name": "Coffeehouses"}], "fax_number": null, "expansion": {"count": null, "uri": null}, "impression_id": "000b000000dbba71fbc63f41f4996d53fd2e3a9ace", "profile": "http://www.citysearch.com/profile/43858639/austell_ga/starbucks.html", "address": {"city": "Austell", "state": "GA", "street": "1025 E West Connector Ste 510", "postal_code": "30106"}, "capProviderId": null, "distance": null, "has_offers": false, "name": "Starbucks", "longitude": -84.583167, "has_menu": true, "awards": null, "user_review_count": 2}, {"business_operation_status": 1, "rating": null, "neighborhood": null, "image": null, "scorecard": null, "featured": false, "sample_categories": "Restaurants, Delis And Delicatessens, Sandwich Shops, Carry Out", "public_id": "dakota-enterprises-austell", "id": 33586641, "votes": null, "tagline": null, "has_video": false, "website": "http://www.citysearch.com/profile/external/33586641/austell_ga/dakota_enterprises.html", "offers": null, "latitude": 33.811558, "politanName": "Atlanta, GA Metro ", "phone_number": "7708198888", "tags": [{"primary": false, "id": 1727, "name": "Delis And Delicatessens"}, {"primary": false, "id": 1736, "name": "Sandwich Shops"}, {"primary": false, "id": 11247, "name": "Carry Out"}, {"primary": true, "id": 1722, "name": "Restaurants"}], "fax_number": null, "expansion": {"count": null, "uri": null}, "impression_id": "000b000000de4f0409f5a74971b2693c936ee35072", "profile": "http://www.citysearch.com/profile/33586641/austell_ga/dakota_enterprises.html", "address": {"city": "Austell", "state": "GA", "street": "5875 Gore Pl", "postal_code": "30106"}, "capProviderId": null, "distance": null, "has_offers": false, "name": "Dakota Enterprises", "longitude": -84.641027, "has_menu": false, "awards": null, "user_review_count": 0}, {"business_operation_status": 1, "rating": null, "neighborhood": null, "image": null, "scorecard": null, "featured": false, "sample_categories": "Juice & Smoothie Shops", "public_id": "juice-me-too-austell", "id": 611119264, "votes": null, "tagline": null, "has_video": false, "website": null, "offers": null, "latitude": 33.855802, "politanName": "Atlanta, GA Metro ", "phone_number": "4046688380", "tags": [{"primary": true, "id": 1735, "name": "Juice & Smoothie Shops"}], "fax_number": null, "expansion": {"count": null, "uri": null}, "impression_id": "000b0000006f955c4aba084ba0a40c138eb1d1143d", "profile": "http://www.citysearch.com/profile/611119264/austell_ga/juice_me_too.html", "address": {"city": "Austell", "state": "GA", "street": "3999 Austell Rd", "postal_code": "30106"}, "capProviderId": null, "distance": null, "has_offers": false, "name": "Juice Me Too", "longitude": -84.600338, "has_menu": false, "awards": null, "user_review_count": 0}, {"business_operation_status": 1, "rating": null, "neighborhood": null, "image": null, "scorecard": null, "featured": false, "sample_categories": "Restaurants", "public_id": "winstons-food-spirits-austell", "id": 627650230, "votes": null, "tagline": null, "has_video": false, "website": null, "offers": null, "latitude": 33.856339, "politanName": "Atlanta, GA Metro ", "phone_number": "7707391130", "tags": [{"primary": true, "id": 1722, "name": "Restaurants"}], "fax_number": null, "expansion": {"count": null, "uri": null}, "impression_id": "000b00000070fed820cc6a4d818e72f710b6c42add", "profile": "http://www.citysearch.com/profile/627650230/austell_ga/winston_s_food_spirits.html", "address": {"city": "Austell", "state": "GA", "street": "3999 Austell Rd", "postal_code": "30106"}, "capProviderId": null, "distance": null, "has_offers": false, "name": "Winston's Food & Spirits", "longitude": -84.599753, "has_menu": false, "awards": null, "user_review_count": 0}, {"business_operation_status": 1, "rating": null, "neighborhood": null, "image": null, "scorecard": null, "featured": false, "sample_categories": "Restaurants", "public_id": "i-repair-i-austell", "id": 764872320, "votes": null, "tagline": null, "has_video": false, "website": null, "offers": null, "latitude": 33.831904, "politanName": "Atlanta, GA Metro ", "phone_number": "6784021158", "tags": [{"primary": true, "id": 1722, "name": "Restaurants"}], "fax_number": null, "expansion": {"count": null, "uri": null}, "impression_id": "000b000000c271c8c719494d4ea85dd2d3dbbed6fb", "profile": "http://www.citysearch.com/profile/764872320/austell_ga/i_repair_i.html", "address": {"city": "Austell", "state": "GA", "street": "2401 Clay Rd", "postal_code": "30106"}, "capProviderId": null, "distance": null, "has_offers": false, "name": "I Repair I", "longitude": -84.622801, "has_menu": false, "awards": null, "user_review_count": 0}, {"business_operation_status": 1, "rating": null, "neighborhood": null, "image": null, "scorecard": null, "featured": false, "sample_categories": "Restaurants", "public_id": "mrs-winners-austell", "id": 822291490, "votes": null, "tagline": null, "has_video": false, "website": null, "offers": null, "latitude": 33.839909, "politanName": "Atlanta, GA Metro ", "phone_number": "7704386204", "tags": [{"primary": true, "id": 1722, "name": "Restaurants"}], "fax_number": null, "expansion": {"count": null, "uri": null}, "impression_id": "000b00000042c27f9cd5bb471191592c2d398ea589", "profile": "http://www.citysearch.com/profile/822291490/austell_ga/mrs_winners.html", "address": {"city": "Austell", "state": "GA", "street": "Austell Rd", "postal_code": "30106"}, "capProviderId": null, "distance": null, "has_offers": false, "name": "Mrs Winners", "longitude": -84.610817, "has_menu": false, "awards": null, "user_review_count": 0}, {"business_operation_status": 1, "rating": null, "neighborhood": null, "image": null, "scorecard": null, "featured": false, "sample_categories": "Restaurants, Catering, Barbecue Restaurants", "public_id": "sonnys-real-pit-barbq-austell", "id": 827597680, "votes": null, "tagline": null, "has_video": false, "website": null, "offers": null, "latitude": 33.854519, "politanName": "Atlanta, GA Metro ", "phone_number": "7707457240", "tags": [{"primary": false, "id": 1705, "name": "Catering"}, {"primary": false, "id": 1724, "name": "Barbecue Restaurants"}, {"primary": true, "id": 1722, "name": "Restaurants"}], "fax_number": null, "expansion": {"count": null, "uri": null}, "impression_id": "000b000000d0818ade14c54def8f8610de12404ab1", "profile": "http://www.citysearch.com/profile/827597680/austell_ga/sonny_s_real_pit_bar_b_q.html", "address": {"city": "Austell", "state": "GA", "street": "1804 E West Connector", "postal_code": "30106"}, "capProviderId": null, "distance": null, "has_offers": false, "name": "Sonny's Real Pit Bar-B-Q", "longitude": -84.605012, "has_menu": true, "awards": null, "user_review_count": 0}, {"business_operation_status": 1, "rating": null, "neighborhood": null, "image": null, "scorecard": null, "featured": false, "sample_categories": "Restaurants", "public_id": "valindas-cozy-kitchen-austell", "id": 807391420, "votes": null, "tagline": null, "has_video": false, "website": null, "offers": null, "latitude": 33.804925, "politanName": "Atlanta, GA Metro ", "phone_number": "7709446694", "tags": [{"primary": true, "id": 1722, "name": "Restaurants"}], "fax_number": null, "expansion": {"count": null, "uri": null}, "impression_id": "000b000000811a9855d41448a58a11622b23bdf9a6", "profile": "http://www.citysearch.com/profile/807391420/austell_ga/valindas_cozy_kitchen.html", "address": {"city": "Austell", "state": "GA", "street": "2795 Bankhead Hwy", "postal_code": "30168"}, "capProviderId": null, "distance": null, "has_offers": false, "name": "Valindas Cozy Kitchen", "longitude": -84.636781, "has_menu": false, "awards": null, "user_review_count": 0}, {"business_operation_status": 0, "rating": null, "neighborhood": null, "image": null, "scorecard": null, "featured": false, "sample_categories": "Restaurants, Bars & Pubs", "public_id": "benos-sports-bar-grill-austell", "id": 647356910, "votes": null, "tagline": null, "has_video": false, "website": null, "offers": null, "latitude": 33.833761, "politanName": "Atlanta, GA Metro ", "phone_number": "7707458810", "tags": [{"primary": false, "id": 1686, "name": "Bars & Pubs"}, {"primary": true, "id": 1722, "name": "Restaurants"}], "fax_number": null, "expansion": {"count": null, "uri": null}, "impression_id": "000b000000b617eb4e64f64ceabb55d2d68abbf39d", "profile": "http://www.citysearch.com/profile/647356910/austell_ga/beno_s_sports_bar_grill.html", "address": {"city": "Austell", "state": "GA", "street": "3156 Mosley Chase Dr", "postal_code": "30106"}, "capProviderId": null, "distance": null, "has_offers": false, "name": "Beno's Sports Bar & Grill", "longitude": -84.646818, "has_menu": false, "awards": null, "user_review_count": 0}, {"business_operation_status": 1, "rating": null, "neighborhood": null, "image": null, "scorecard": null, "featured": false, "sample_categories": "Restaurants", "public_id": "winstons-food-spirits-austell-2", "id": 699576350, "votes": null, "tagline": null, "has_video": false, "website": null, "offers": null, "latitude": 33.812606, "politanName": "Atlanta, GA Metro ", "phone_number": "7707391130", "tags": [{"primary": true, "id": 1722, "name": "Restaurants"}], "fax_number": null, "expansion": {"count": null, "uri": null}, "impression_id": "000b00000041326b05c8f74711bd070d7ff0b983a2", "profile": "http://www.citysearch.com/profile/699576350/austell_ga/winston_s_food_spirits.html", "address": {"city": "Austell", "state": "GA", "street": "Sandy Plain Rd", "postal_code": "30106"}, "capProviderId": null, "distance": null, "has_offers": false, "name": "Winston's Food & Spirits", "longitude": -84.634378, "has_menu": false, "awards": null, "user_review_count": 0}, {"business_operation_status": 1, "rating": null, "neighborhood": null, "image": null, "scorecard": null, "featured": false, "sample_categories": "Restaurants", "public_id": "crawdaddys-cajun-station-austell", "id": 828702840, "votes": null, "tagline": null, "has_video": false, "website": null, "offers": null, "latitude": 33.812606, "politanName": "Atlanta, GA Metro ", "phone_number": "6785742377", "tags": [{"primary": true, "id": 1722, "name": "Restaurants"}], "fax_number": null, "expansion": {"count": null, "uri": null}, "impression_id": "000b00000020926bf850c5478fa4f0f4e5e6ba8c34", "profile": "http://www.citysearch.com/profile/828702840/austell_ga/crawdaddy_s_cajun_station.html", "address": {"city": "Austell", "state": "GA", "street": "5000 Aus Pdr Spg Rd # 365", "postal_code": "30106"}, "capProviderId": null, "distance": null, "has_offers": false, "name": "Crawdaddy's Cajun Station", "longitude": -84.634378, "has_menu": false, "awards": null, "user_review_count": 0}, {"business_operation_status": 1, "rating": null, "neighborhood": null, "image": null, "scorecard": null, "featured": false, "sample_categories": "Restaurants", "public_id": "la-salsa-austell", "id": 608331014, "votes": null, "tagline": null, "has_video": false, "website": null, "offers": null, "latitude": 33.810497, "politanName": "Atlanta, GA Metro ", "phone_number": "7707394666", "tags": [{"primary": true, "id": 1722, "name": "Restaurants"}], "fax_number": null, "expansion": {"count": null, "uri": null}, "impression_id": "000b000000b492a07a6ccb4fb3ab1399d96b10fdbd", "profile": "http://www.citysearch.com/profile/608331014/austell_ga/la_salsa.html", "address": {"city": "Austell", "state": "GA", "street": "2856 Vetbrans Hwy", "postal_code": "30168"}, "capProviderId": null, "distance": null, "has_offers": false, "name": "La Salsa", "longitude": -84.636764, "has_menu": false, "awards": null, "user_review_count": 0}, {"business_operation_status": 1, "rating": null, "neighborhood": null, "image": null, "scorecard": null, "featured": false, "sample_categories": "Restaurants, Carry Out, Pizza", "public_id": "papa-johns-pizza-marietta-17", "id": 764880820, "votes": null, "tagline": null, "has_video": false, "website": null, "offers": null, "latitude": 33.865697, "politanName": "Atlanta, GA Metro ", "phone_number": "4043330301", "tags": [{"primary": false, "id": 11247, "name": "Carry Out"}, {"primary": false, "id": 11299, "name": "Pizza"}, {"primary": true, "id": 1722, "name": "Restaurants"}], "fax_number": null, "expansion": {"count": null, "uri": null}, "impression_id": "000b000000c49634b12ce140f4a8b3fb0ea29f75e3", "profile": "http://www.citysearch.com/profile/764880820/marietta_ga/papa_john_s_pizza.html", "address": {"city": "Marietta", "state": "GA", "street": "3565 Austell Rd SW # 1019", "postal_code": "30008"}, "capProviderId": null, "distance": null, "has_offers": false, "name": "Papa John's Pizza", "longitude": -84.592502, "has_menu": false, "awards": null, "user_review_count": 0}, {"business_operation_status": 0, "rating": null, "neighborhood": null, "image": null, "scorecard": null, "featured": false, "sample_categories": "Restaurants, Pizza", "public_id": "brooklyn-pizza-department-austell", "id": 764860920, "votes": null, "tagline": null, "has_video": false, "website": null, "offers": null, "latitude": 33.860912, "politanName": "Atlanta, GA Metro ", "phone_number": "6783840980", "tags": [{"primary": false, "id": 11299, "name": "Pizza"}, {"primary": true, "id": 1722, "name": "Restaurants"}], "fax_number": null, "expansion": {"count": null, "uri": null}, "impression_id": "000b0000006532c4918d41432fb42224ecb2a5bd83", "profile": "http://www.citysearch.com/profile/764860920/austell_ga/brooklyn_pizza_department.html", "address": {"city": "Austell", "state": "GA", "street": "2495 E West Connector", "postal_code": "30106"}, "capProviderId": null, "distance": null, "has_offers": false, "name": "Brooklyn Pizza Department", "longitude": -84.620637, "has_menu": false, "awards": null, "user_review_count": 2}, {"business_operation_status": 1, "rating": null, "neighborhood": null, "image": null, "scorecard": null, "featured": false, "sample_categories": "Restaurants, Carry Out, Hamburgers", "public_id": "mc-donalds-austell-3", "id": 742217920, "votes": null, "tagline": null, "has_video": false, "website": "http://www.citysearch.com/profile/external/742217920/austell_ga/mc_donald_s.html", "offers": null, "latitude": 33.866346, "politanName": "Atlanta, GA Metro ", "phone_number": "7702221927", "tags": [{"primary": false, "id": 11247, "name": "Carry Out"}, {"primary": false, "id": 11270, "name": "Hamburgers"}, {"primary": true, "id": 1722, "name": "Restaurants"}], "fax_number": null, "expansion": {"count": null, "uri": null}, "impression_id": "000b000000b8a137a8d5cb47c989d24dc8849cdc74", "profile": "http://www.citysearch.com/profile/742217920/austell_ga/mc_donald_s.html", "address": {"city": "Austell", "state": "GA", "street": "E West Connector & Marathon", "postal_code": "30106"}, "capProviderId": null, "distance": null, "has_offers": false, "name": "Mc Donald's", "longitude": -84.626708, "has_menu": false, "awards": null, "user_review_count": 0}, {"business_operation_status": 1, "rating": null, "neighborhood": null, "image": null, "scorecard": null, "featured": false, "sample_categories": "Restaurants", "public_id": "valindas-cozy-kitchen-austell-2", "id": 814424400, "votes": null, "tagline": null, "has_video": false, "website": null, "offers": null, "latitude": 33.834562, "politanName": "Atlanta, GA Metro ", "phone_number": "7709440410", "tags": [{"primary": true, "id": 1722, "name": "Restaurants"}], "fax_number": null, "expansion": {"count": null, "uri": null}, "impression_id": "000b000000c4ca45d030f7446bb5eb2c5a3173118d", "profile": "http://www.citysearch.com/profile/814424400/austell_ga/valinda_s_cozy_kitchen.html", "address": {"city": "Austell", "state": "GA", "street": "2075 Warren Dr", "postal_code": "30106"}, "capProviderId": null, "distance": null, "has_offers": false, "name": "Valinda's Cozy Kitchen", "longitude": -84.61502, "has_menu": false, "awards": null, "user_review_count": 0}, {"business_operation_status": 1, "rating": null, "neighborhood": null, "image": null, "scorecard": null, "featured": false, "sample_categories": "Restaurants, Pizza, Carry Out", "public_id": "little-caesars-pizza-austell", "id": 817405370, "votes": null, "tagline": null, "has_video": false, "website": null, "offers": null, "latitude": 33.836659, "politanName": "Atlanta, GA Metro ", "phone_number": "7709485001", "tags": [{"primary": false, "id": 1722, "name": "Restaurants"}, {"primary": false, "id": 11247, "name": "Carry Out"}, {"primary": true, "id": 11299, "name": "Pizza"}], "fax_number": null, "expansion": {"count": null, "uri": null}, "impression_id": "000b000000e892325da9544596b2b97cb798b24d29", "profile": "http://www.citysearch.com/profile/817405370/austell_ga/little_caesars_pizza.html", "address": {"city": "Austell", "state": "GA", "street": "3753 Austell Rd", "postal_code": "30106"}, "capProviderId": null, "distance": null, "has_offers": false, "name": "Little Caesars Pizza", "longitude": -84.611909, "has_menu": false, "awards": null, "user_review_count": 0}, {"business_operation_status": 1, "rating": null, "neighborhood": null, "image": null, "scorecard": null, "featured": false, "sample_categories": "Restaurants", "public_id": "wan-fu-chinese-austell", "id": 814396930, "votes": null, "tagline": null, "has_video": false, "website": null, "offers": null, "latitude": 33.829858, "politanName": "Atlanta, GA Metro ", "phone_number": "7709486668", "tags": [{"primary": true, "id": 1722, "name": "Restaurants"}], "fax_number": null, "expansion": {"count": null, "uri": null}, "impression_id": "000b0000000c4d3b1cc5a848be9c05fec9e8b9351d", "profile": "http://www.citysearch.com/profile/814396930/austell_ga/wan_fu_chinese.html", "address": {"city": "Austell", "state": "GA", "street": "5055 Austell Rd # 153", "postal_code": "30106"}, "capProviderId": null, "distance": null, "has_offers": false, "name": "Wan Fu Chinese", "longitude": -84.612138, "has_menu": false, "awards": null, "user_review_count": 0}, {"business_operation_status": 1, "rating": null, "neighborhood": null, "image": null, "scorecard": null, "featured": false, "sample_categories": "Delis And Delicatessens, Sandwich Shops", "public_id": "threadmill-deli-austell", "id": 695583100, "votes": null, "tagline": null, "has_video": false, "website": null, "offers": null, "latitude": 33.832536, "politanName": "Atlanta, GA Metro ", "phone_number": "7707459100", "tags": [{"primary": false, "id": 1736, "name": "Sandwich Shops"}, {"primary": true, "id": 1727, "name": "Delis And Delicatessens"}], "fax_number": null, "expansion": {"count": null, "uri": null}, "impression_id": "000b00000004f375a74c3b4912aeadf3d704848ce2", "profile": "http://www.citysearch.com/profile/695583100/austell_ga/threadmill_deli.html", "address": {"city": "Austell", "state": "GA", "street": "5000 Austell Powder Spngs#289", "postal_code": "30106"}, "capProviderId": null, "distance": null, "has_offers": false, "name": "Threadmill Deli", "longitude": -84.654686, "has_menu": false, "awards": null, "user_review_count": 0}, {"business_operation_status": 1, "rating": null, "neighborhood": null, "image": null, "scorecard": null, "featured": false, "sample_categories": "Restaurants, Pizza", "public_id": "johnnys-pizza-austell", "id": 601307782, "votes": null, "tagline": null, "has_video": false, "website": null, "offers": null, "latitude": 33.866983, "politanName": "Atlanta, GA Metro ", "phone_number": "7709439936", "tags": [{"primary": false, "id": 1722, "name": "Restaurants"}, {"primary": true, "id": 11299, "name": "Pizza"}], "fax_number": null, "expansion": {"count": null, "uri": null}, "impression_id": "000b000000b151cae82f064dbe8a795435f51cc764", "profile": "http://www.citysearch.com/profile/601307782/austell_ga/johnny_s_pizza.html", "address": {"city": "Austell", "state": "GA", "street": "2840 E West Connector # 390", "postal_code": "30106"}, "capProviderId": null, "distance": null, "has_offers": false, "name": "Johnny's Pizza", "longitude": -84.624721, "has_menu": true, "awards": null, "user_review_count": 0}, {"business_operation_status": 1, "rating": 8.0, "neighborhood": null, "image": null, "scorecard": null, "featured": false, "sample_categories": "Restaurants, Seafood", "public_id": "on-the-bay-seafood-restaurant-austell", "id": 43863836, "votes": null, "tagline": null, "has_video": false, "website": null, "offers": null, "latitude": 33.814998, "politanName": "Atlanta, GA Metro ", "phone_number": "7707391175", "tags": [{"primary": false, "id": 1722, "name": "Restaurants"}, {"primary": true, "id": 11228, "name": "Seafood"}], "fax_number": null, "expansion": {"count": null, "uri": null}, "impression_id": "000b000000a1cd40ae94e6445689900d49355a727c", "profile": "http://www.citysearch.com/profile/43863836/austell_ga/on_the_bay_seafood_restaurant.html", "address": {"city": "Austell", "state": "GA", "street": "5742 Austell Powder Springs Rd", "postal_code": "30106"}, "capProviderId": null, "distance": null, "has_offers": false, "name": "On The Bay Seafood Restaurant", "longitude": -84.635173, "has_menu": false, "awards": null, "user_review_count": 0}, {"business_operation_status": 1, "rating": null, "neighborhood": null, "image": null, "scorecard": null, "featured": false, "sample_categories": "Health Food Stores, Restaurants, Health Food Stores", "public_id": "smoothie-king-austell", "id": 601307784, "votes": null, "tagline": null, "has_video": false, "website": "http://www.citysearch.com/profile/external/601307784/austell_ga/smoothie_king.html", "offers": null, "latitude": 33.866983, "politanName": "Atlanta, GA Metro ", "phone_number": "7704395464", "tags": [{"primary": false, "id": 1722, "name": "Restaurants"}, {"primary": false, "id": 17570, "name": "Health Food Stores"}, {"primary": true, "id": 1716, "name": "Health Food Stores"}], "fax_number": null, "expansion": {"count": null, "uri": null}, "impression_id": "000b0000005ae57a4136464b6a93c445059f226586", "profile": "http://www.citysearch.com/profile/601307784/austell_ga/smoothie_king.html", "address": {"city": "Austell", "state": "GA", "street": "2840 E West Connector 340", "postal_code": "30106"}, "capProviderId": null, "distance": null, "has_offers": false, "name": "Smoothie King", "longitude": -84.624721, "has_menu": false, "awards": null, "user_review_count": 0}, {"business_operation_status": 1, "rating": null, "neighborhood": null, "image": null, "scorecard": null, "featured": false, "sample_categories": "Restaurants, Carry Out, Chicken", "public_id": "chickfila-atlanta-41", "id": 775192080, "votes": null, "tagline": null, "has_video": false, "website": "http://www.citysearch.com/profile/external/775192080/atlanta_ga/chick_fil_a.html", "offers": null, "latitude": 33.857869, "politanName": "Atlanta, GA Metro ", "phone_number": "7704281230", "tags": [{"primary": false, "id": 11247, "name": "Carry Out"}, {"primary": false, "id": 12839, "name": "Chicken"}, {"primary": true, "id": 1722, "name": "Restaurants"}], "fax_number": null, "expansion": {"count": null, "uri": null}, "impression_id": "000b000000ca9c1e470782467a9ad2bfe2a8dab606", "profile": "http://www.citysearch.com/profile/775192080/atlanta_ga/chick_fil_a.html", "address": {"city": "Atlanta", "state": "GA", "street": "3951 Austell Re SW", "postal_code": "30303"}, "capProviderId": null, "distance": null, "has_offers": false, "name": "Chick-Fil-A", "longitude": -84.59993, "has_menu": false, "awards": null, "user_review_count": 0}, {"business_operation_status": 1, "rating": null, "neighborhood": null, "image": null, "scorecard": null, "featured": false, "sample_categories": "Restaurants", "public_id": "miyako-hibachi-sushi-steak-house-austell", "id": 672372180, "votes": null, "tagline": null, "has_video": false, "website": null, "offers": null, "latitude": 33.855384, "politanName": "Atlanta, GA Metro ", "phone_number": "7708056336", "tags": [{"primary": true, "id": 1722, "name": "Restaurants"}], "fax_number": null, "expansion": {"count": null, "uri": null}, "impression_id": "000b000000bfc3470e14254449b474b8ab6c1a8193", "profile": "http://www.citysearch.com/profile/672372180/austell_ga/miyako_hibachi_sushi_steak_house.html", "address": {"city": "Austell", "state": "GA", "street": "1025 East-West Connector", "postal_code": "30106"}, "capProviderId": null, "distance": null, "has_offers": false, "name": "Miyako Hibachi, Sushi & Steak House", "longitude": -84.583167, "has_menu": false, "awards": null, "user_review_count": 0}, {"business_operation_status": 1, "rating": null, "neighborhood": null, "image": null, "scorecard": null, "featured": false, "sample_categories": "Restaurants, Delis And Delicatessens, Sandwich Shops, Carry Out", "public_id": "quiznos-austell", "id": 827661580, "votes": null, "tagline": null, "has_video": false, "website": null, "offers": null, "latitude": 33.860912, "politanName": "Atlanta, GA Metro ", "phone_number": "6783840005", "tags": [{"primary": false, "id": 1727, "name": "Delis And Delicatessens"}, {"primary": false, "id": 1736, "name": "Sandwich Shops"}, {"primary": false, "id": 11247, "name": "Carry Out"}, {"primary": true, "id": 1722, "name": "Restaurants"}], "fax_number": null, "expansion": {"count": null, "uri": null}, "impression_id": "000b000000b530650d7cd84239944d3c708e08470a", "profile": "http://www.citysearch.com/profile/827661580/austell_ga/quiznos.html", "address": {"city": "Austell", "state": "GA", "street": "2495 E West Connector # 80", "postal_code": "30106"}, "capProviderId": null, "distance": null, "has_offers": false, "name": "Quiznos", "longitude": -84.620637, "has_menu": false, "awards": null, "user_review_count": 0}, {"business_operation_status": 1, "rating": null, "neighborhood": null, "image": null, "scorecard": null, "featured": false, "sample_categories": "Restaurants, Barbecue Restaurants", "public_id": "hurricane-grill-wings-austell", "id": 777739530, "votes": null, "tagline": null, "has_video": false, "website": "http://www.citysearch.com/profile/external/777739530/austell_ga/hurricane_grill_wings.html", "offers": null, "latitude": 33.856949, "politanName": "Atlanta, GA Metro ", "phone_number": "7708011345", "tags": [{"primary": false, "id": 1724, "name": "Barbecue Restaurants"}, {"primary": true, "id": 1722, "name": "Restaurants"}], "fax_number": null, "expansion": {"count": null, "uri": null}, "impression_id": "000b00000031654562f43b47c3a79e29d4cb206362", "profile": "http://www.citysearch.com/profile/777739530/austell_ga/hurricane_grill_wings.html", "address": {"city": "Austell", "state": "GA", "street": "3961 Floyd Rd # 100", "postal_code": "30106"}, "capProviderId": null, "distance": null, "has_offers": false, "name": "Hurricane Grill & Wings", "longitude": -84.590442, "has_menu": true, "awards": null, "user_review_count": 0}, {"business_operation_status": 1, "rating": 8.0, "neighborhood": null, "image": null, "scorecard": null, "featured": false, "sample_categories": "Dessert Shops, Traditional American", "public_id": "darlenes-philadelphia-water-austell", "id": 36286186, "votes": null, "tagline": null, "has_video": false, "website": null, "offers": null, "latitude": 33.827117, "politanName": "Atlanta, GA Metro ", "phone_number": "7707397199", "tags": [{"primary": false, "id": 1728, "name": "Dessert Shops"}, {"primary": true, "id": 11190, "name": "Traditional American"}], "fax_number": null, "expansion": {"count": null, "uri": null}, "impression_id": "000b000000bb6c752296b545ff910423510bd12f21", "profile": "http://www.citysearch.com/profile/36286186/austell_ga/darlene_s_philadelphia_water.html", "address": {"city": "Austell", "state": "GA", "street": "5220 Austell RdSte C", "postal_code": "30106"}, "capProviderId": null, "distance": null, "has_offers": false, "name": "Darlene's Philadelphia Water", "longitude": -84.61505, "has_menu": false, "awards": null, "user_review_count": 0}, {"business_operation_status": 1, "rating": null, "neighborhood": null, "image": null, "scorecard": null, "featured": false, "sample_categories": "Restaurants", "public_id": "austell-country-cafe-austell", "id": 809553370, "votes": null, "tagline": null, "has_video": false, "website": null, "offers": null, "latitude": 33.826194, "politanName": "Atlanta, GA Metro ", "phone_number": "7707452959", "tags": [{"primary": true, "id": 1722, "name": "Restaurants"}], "fax_number": null, "expansion": {"count": null, "uri": null}, "impression_id": "000b0000008f38c5d312ae41eabe2beab865a4fa16", "profile": "http://www.citysearch.com/profile/809553370/austell_ga/austell_country_cafe.html", "address": {"city": "Austell", "state": "GA", "street": "5692 Austell Powder Springs Rd", "postal_code": "30106"}, "capProviderId": null, "distance": null, "has_offers": false, "name": "Austell Country Cafe", "longitude": -84.645431, "has_menu": false, "awards": null, "user_review_count": 0}, {"business_operation_status": 1, "rating": null, "neighborhood": null, "image": null, "scorecard": null, "featured": false, "sample_categories": "Restaurants, Delis And Delicatessens, Carry Out", "public_id": "firehouse-subs-austell", "id": 773458950, "votes": null, "tagline": null, "has_video": false, "website": null, "offers": null, "latitude": 33.866955, "politanName": "Atlanta, GA Metro ", "phone_number": "7704396165", "tags": [{"primary": false, "id": 1727, "name": "Delis And Delicatessens"}, {"primary": false, "id": 11247, "name": "Carry Out"}, {"primary": true, "id": 1722, "name": "Restaurants"}], "fax_number": null, "expansion": {"count": null, "uri": null}, "impression_id": "000b000000c368638fcaf14f658af6ef3ff804cbda", "profile": "http://www.citysearch.com/profile/773458950/austell_ga/firehouse_subs.html", "address": {"city": "Austell", "state": "GA", "street": "2860 E West Connector", "postal_code": "30106"}, "capProviderId": null, "distance": null, "has_offers": false, "name": "Firehouse Subs", "longitude": -84.626974, "has_menu": true, "awards": null, "user_review_count": 0}, {"business_operation_status": 1, "rating": null, "neighborhood": null, "image": null, "scorecard": null, "featured": false, "sample_categories": "Restaurants", "public_id": "zackbys-endless-chicken-llc-austell", "id": 837841690, "votes": null, "tagline": null, "has_video": false, "website": null, "offers": null, "latitude": 33.867601, "politanName": "Atlanta, GA Metro ", "phone_number": "7702221550", "tags": [{"primary": true, "id": 1722, "name": "Restaurants"}], "fax_number": null, "expansion": {"count": null, "uri": null}, "impression_id": "000b000000e77b49b2d12e4b5693064e10dc3eb901", "profile": "http://www.citysearch.com/profile/837841690/austell_ga/zackby_s_endless_chicken_llc.html", "address": {"city": "Austell", "state": "GA", "street": "2603 E West Connector", "postal_code": "30106"}, "capProviderId": null, "distance": null, "has_offers": false, "name": "Zackby's Endless Chicken LLC", "longitude": -84.631045, "has_menu": false, "awards": null, "user_review_count": 0}, {"business_operation_status": 0, "rating": null, "neighborhood": null, "image": null, "scorecard": null, "featured": false, "sample_categories": "Restaurants, Cafes", "public_id": "m-j-lmmnz-austell", "id": 627697230, "votes": null, "tagline": null, "has_video": false, "website": null, "offers": null, "latitude": 33.842327, "politanName": "Atlanta, GA Metro ", "phone_number": "7702760280", "tags": [{"primary": false, "id": 6190, "name": "Cafes"}, {"primary": true, "id": 1722, "name": "Restaurants"}], "fax_number": null, "expansion": {"count": null, "uri": null}, "impression_id": "000b000000412ead13af2049a0b6a8ba9f3a464617", "profile": "http://www.citysearch.com/profile/627697230/austell_ga/m_j_lmmnz.html", "address": {"city": "Austell", "state": "GA", "street": "4629 Rodney Pl", "postal_code": "30106"}, "capProviderId": null, "distance": null, "has_offers": false, "name": "M J Lmmnz", "longitude": -84.613105, "has_menu": false, "awards": null, "user_review_count": 0}, {"business_operation_status": 1, "rating": null, "neighborhood": null, "image": null, "scorecard": null, "featured": false, "sample_categories": "Restaurants, Pizza, Carry Out", "public_id": "papa-johns-pizza-austell-3", "id": 713391930, "votes": null, "tagline": null, "has_video": false, "website": "http://www.citysearch.com/profile/external/713391930/austell_ga/papa_john_s_pizza.html", "offers": null, "latitude": 33.851685, "politanName": "Atlanta, GA Metro ", "phone_number": "7707458809", "tags": [{"primary": false, "id": 1722, "name": "Restaurants"}, {"primary": false, "id": 11247, "name": "Carry Out"}, {"primary": true, "id": 11299, "name": "Pizza"}], "fax_number": null, "expansion": {"count": null, "uri": null}, "impression_id": "000b00000072dd61a8d7254315bc30d2dac756b7dc", "profile": "http://www.citysearch.com/profile/713391930/austell_ga/papa_john_s_pizza.html", "address": {"city": "Austell", "state": "GA", "street": "4180 Austell Rd", "postal_code": "30106"}, "capProviderId": null, "distance": null, "has_offers": false, "name": "Papa John's Pizza", "longitude": -84.606222, "has_menu": false, "awards": null, "user_review_count": 0}, {"business_operation_status": 1, "rating": null, "neighborhood": null, "image": null, "scorecard": null, "featured": false, "sample_categories": "Restaurants", "public_id": "east-meets-west-austell", "id": 764918680, "votes": null, "tagline": null, "has_video": false, "website": null, "offers": null, "latitude": 33.831253, "politanName": "Atlanta, GA Metro ", "phone_number": "7709481451", "tags": [{"primary": true, "id": 1722, "name": "Restaurants"}], "fax_number": null, "expansion": {"count": null, "uri": null}, "impression_id": "000b000000ecc368ac3a9e44ab9a30ded2653c944c", "profile": "http://www.citysearch.com/profile/764918680/austell_ga/east_meets_west.html", "address": {"city": "Austell", "state": "GA", "street": "5010 Flint Hill Rd", "postal_code": "30106"}, "capProviderId": null, "distance": null, "has_offers": false, "name": "East Meets West", "longitude": -84.624253, "has_menu": false, "awards": null, "user_review_count": 0}, {"business_operation_status": 1, "rating": null, "neighborhood": null, "image": null, "scorecard": null, "featured": false, "sample_categories": "Delis And Delicatessens", "public_id": "american-deli-austell", "id": 764886810, "votes": null, "tagline": null, "has_video": false, "website": null, "offers": null, "latitude": 33.856949, "politanName": "Atlanta, GA Metro ", "phone_number": "7708018888", "tags": [{"primary": true, "id": 1727, "name": "Delis And Delicatessens"}], "fax_number": null, "expansion": {"count": null, "uri": null}, "impression_id": "000b00000082ec9fefb39841cc9e2b6a765ac34edc", "profile": "http://www.citysearch.com/profile/764886810/austell_ga/american_deli.html", "address": {"city": "Austell", "state": "GA", "street": "3961 Floyd Rd", "postal_code": "30106"}, "capProviderId": null, "distance": null, "has_offers": false, "name": "American Deli", "longitude": -84.590442, "has_menu": false, "awards": null, "user_review_count": 0}, {"business_operation_status": 1, "rating": null, "neighborhood": null, "image": null, "scorecard": null, "featured": false, "sample_categories": "Restaurants, Barbecue Restaurants", "public_id": "a-town-wings-austell", "id": 706970640, "votes": null, "tagline": null, "has_video": false, "website": null, "offers": null, "latitude": 33.856339, "politanName": "Atlanta, GA Metro ", "phone_number": "7709419460", "tags": [{"primary": false, "id": 1724, "name": "Barbecue Restaurants"}, {"primary": true, "id": 1722, "name": "Restaurants"}], "fax_number": null, "expansion": {"count": null, "uri": null}, "impression_id": "000b00000073a642f257a34a3bad2ba6f424c8868f", "profile": "http://www.citysearch.com/profile/706970640/austell_ga/a_town_wings.html", "address": {"city": "Austell", "state": "GA", "street": "3999 Austell Rd # 1001", "postal_code": "30106"}, "capProviderId": null, "distance": null, "has_offers": false, "name": "A Town Wings", "longitude": -84.599753, "has_menu": false, "awards": null, "user_review_count": 0}, {"business_operation_status": 1, "rating": null, "neighborhood": null, "image": null, "scorecard": null, "featured": false, "sample_categories": "Restaurants", "public_id": "simply-chicken-austell", "id": 823240420, "votes": null, "tagline": null, "has_video": false, "website": null, "offers": null, "latitude": 33.850442, "politanName": "Atlanta, GA Metro ", "phone_number": "6789456144", "tags": [{"primary": true, "id": 1722, "name": "Restaurants"}], "fax_number": null, "expansion": {"count": null, "uri": null}, "impression_id": "000b000000ad9c95b889fb483f9f233182a7420b44", "profile": "http://www.citysearch.com/profile/823240420/austell_ga/simply_chicken.html", "address": {"city": "Austell", "state": "GA", "street": "4228 Floyd Rd", "postal_code": "30106"}, "capProviderId": null, "distance": null, "has_offers": false, "name": "Simply Chicken", "longitude": -84.588525, "has_menu": false, "awards": null, "user_review_count": 0}, {"business_operation_status": 1, "rating": null, "neighborhood": null, "image": null, "scorecard": null, "featured": false, "sample_categories": "Restaurants, Pizza", "public_id": "bellas-pizzeria-austell", "id": 44775455, "votes": null, "tagline": null, "has_video": false, "website": null, "offers": null, "latitude": 33.860912, "politanName": "Atlanta, GA Metro ", "phone_number": "7064399555", "tags": [{"primary": false, "id": 11299, "name": "Pizza"}, {"primary": true, "id": 1722, "name": "Restaurants"}], "fax_number": null, "expansion": {"count": null, "uri": null}, "impression_id": "000b000000fa3487882e1f4258ae3255dad318c634", "profile": "http://www.citysearch.com/profile/44775455/austell_ga/bellas_pizzeria.html", "address": {"city": "Austell", "state": "GA", "street": "2495 E West Connector", "postal_code": "30106"}, "capProviderId": null, "distance": null, "has_offers": false, "name": "Bellas Pizzeria", "longitude": -84.620637, "has_menu": true, "awards": null, "user_review_count": 0}, {"business_operation_status": 1, "rating": null, "neighborhood": null, "image": null, "scorecard": null, "featured": false, "sample_categories": "Carry Out", "public_id": "jamaican-amer-kitchen-take-austell", "id": 826577100, "votes": null, "tagline": null, "has_video": false, "website": null, "offers": null, "latitude": 33.790432, "politanName": "Atlanta, GA Metro ", "phone_number": "7708190034", "tags": [{"primary": true, "id": 11247, "name": "Carry Out"}], "fax_number": null, "expansion": {"count": null, "uri": null}, "impression_id": "000b0000009651b2327f8f4bfe9b35fc169b8f14f7", "profile": "http://www.citysearch.com/profile/826577100/austell_ga/jamaican_amer_kitchen_take.html", "address": {"city": "Austell", "state": "GA", "street": "530 Thornton Rd # A", "postal_code": "30106"}, "capProviderId": null, "distance": null, "has_offers": false, "name": "Jamaican & Amer Kitchen Take", "longitude": -84.621192, "has_menu": false, "awards": null, "user_review_count": 0}, {"business_operation_status": 1, "rating": null, "neighborhood": null, "image": null, "scorecard": null, "featured": false, "sample_categories": "Restaurants, Barbecue Restaurants", "public_id": "hubies-buffalo-wings-austell", "id": 622209390, "votes": null, "tagline": null, "has_video": false, "website": "http://www.citysearch.com/profile/external/622209390/austell_ga/hubie_s_buffalo_wings.html", "offers": null, "latitude": 33.812606, "politanName": "Atlanta, GA Metro ", "phone_number": "7704325112", "tags": [{"primary": false, "id": 1724, "name": "Barbecue Restaurants"}, {"primary": true, "id": 1722, "name": "Restaurants"}], "fax_number": null, "expansion": {"count": null, "uri": null}, "impression_id": "000b000000dd1b392deafd4c16b18e16349ca72a0e", "profile": "http://www.citysearch.com/profile/622209390/austell_ga/hubie_s_buffalo_wings.html", "address": {"city": "Austell", "state": "GA", "street": "1133 E West ConnectorSte 300", "postal_code": "30106"}, "capProviderId": null, "distance": null, "has_offers": false, "name": "Hubie's Buffalo Wings", "longitude": -84.634378, "has_menu": false, "awards": null, "user_review_count": 0}, {"business_operation_status": 1, "rating": null, "neighborhood": null, "image": null, "scorecard": null, "featured": false, "sample_categories": "Restaurants, Fast Food, Carry Out, Hamburgers, American Express", "public_id": "mc-donalds-austell-2", "id": 37648233, "votes": null, "tagline": null, "has_video": false, "website": "http://www.citysearch.com/profile/external/37648233/austell_ga/mc_donald_s.html", "offers": null, "latitude": 33.856577, "politanName": "Atlanta, GA Metro ", "phone_number": "7704344002", "tags": [{"primary": false, "id": 11199, "name": "Fast Food"}, {"primary": false, "id": 11247, "name": "Carry Out"}, {"primary": false, "id": 11270, "name": "Hamburgers"}, {"primary": false, "id": 11333, "name": "American Express"}, {"primary": false, "id": 11349, "name": "Discover"}, {"primary": false, "id": 11361, "name": "MasterCard"}, {"primary": false, "id": 11382, "name": "Visa"}, {"primary": true, "id": 1722, "name": "Restaurants"}], "fax_number": null, "expansion": {"count": null, "uri": null}, "impression_id": "000b0000002e56d83c9695461fa60d2d4f94192978", "profile": "http://www.citysearch.com/profile/37648233/austell_ga/mc_donald_s.html", "address": {"city": "Austell", "state": "GA", "street": "1133 E West Connector", "postal_code": "30106"}, "capProviderId": null, "distance": null, "has_offers": false, "name": "Mc Donald's", "longitude": -84.58945, "has_menu": true, "awards": null, "user_review_count": 0}, {"business_operation_status": 1, "rating": null, "neighborhood": null, "image": null, "scorecard": null, "featured": false, "sample_categories": "Restaurants", "public_id": "smoothies-more-austell", "id": 43863527, "votes": null, "tagline": null, "has_video": false, "website": null, "offers": null, "latitude": 33.855384, "politanName": "Atlanta, GA Metro ", "phone_number": "6783099699", "tags": [{"primary": true, "id": 1722, "name": "Restaurants"}], "fax_number": null, "expansion": {"count": null, "uri": null}, "impression_id": "000b00000031964ed4aadf4f408aa959d400889010", "profile": "http://www.citysearch.com/profile/43863527/austell_ga/smoothies_more.html", "address": {"city": "Austell", "state": "GA", "street": "1025 E West Connector", "postal_code": "30106"}, "capProviderId": null, "distance": null, "has_offers": false, "name": "Smoothies & More", "longitude": -84.583167, "has_menu": false, "awards": null, "user_review_count": 0}, {"business_operation_status": 1, "rating": null, "neighborhood": null, "image": null, "scorecard": null, "featured": false, "sample_categories": "Restaurants", "public_id": "wings-factory-austell", "id": 673030580, "votes": null, "tagline": null, "has_video": false, "website": null, "offers": null, "latitude": 33.859727, "politanName": "Atlanta, GA Metro ", "phone_number": "6782134040", "tags": [{"primary": true, "id": 1722, "name": "Restaurants"}], "fax_number": null, "expansion": {"count": null, "uri": null}, "impression_id": "000b000000cc59335abdaa4ac39e599153865bbfcc", "profile": "http://www.citysearch.com/profile/673030580/austell_ga/wings_factory.html", "address": {"city": "Austell", "state": "GA", "street": "4180 Austell Rd SW", "postal_code": "30106"}, "capProviderId": null, "distance": null, "has_offers": false, "name": "Wings Factory", "longitude": -84.59921, "has_menu": false, "awards": null, "user_review_count": 0}, {"business_operation_status": 1, "rating": null, "neighborhood": null, "image": null, "scorecard": null, "featured": false, "sample_categories": "Personal Trainers, Dancing, Yoga", "public_id": "lailahs-studio-austell", "id": 724382250, "votes": null, "tagline": null, "has_video": false, "website": null, "offers": null, "latitude": 33.833377, "politanName": "Atlanta, GA Metro ", "phone_number": "6784010866", "tags": [{"primary": false, "id": 11255, "name": "Dancing"}, {"primary": false, "id": 12606, "name": "Yoga"}, {"primary": true, "id": 3999, "name": "Personal Trainers"}], "fax_number": null, "expansion": {"count": null, "uri": null}, "impression_id": "000b000000a2d915a64def4274b5f6c9a12cb361bd", "profile": "http://www.citysearch.com/profile/724382250/austell_ga/lailah_s_studio.html", "address": {"city": "Austell", "state": "GA", "street": "4968 Austell Rd", "postal_code": "30106"}, "capProviderId": null, "distance": null, "has_offers": false, "name": "Lailah's Studio", "longitude": -84.611891, "has_menu": false, "awards": null, "user_review_count": 0}, {"business_operation_status": 0, "rating": null, "neighborhood": null, "image": null, "scorecard": null, "featured": false, "sample_categories": "Restaurants", "public_id": "acapulquito-mexican-austell", "id": 748329610, "votes": null, "tagline": null, "has_video": false, "website": null, "offers": null, "latitude": 33.817442, "politanName": "Atlanta, GA Metro ", "phone_number": "7709448300", "tags": [{"primary": true, "id": 1722, "name": "Restaurants"}], "fax_number": null, "expansion": {"count": null, "uri": null}, "impression_id": "000b00000091dd9202d0c94f938eadc2f93c28631c", "profile": "http://www.citysearch.com/profile/748329610/austell_ga/acapulquito_mexican.html", "address": {"city": "Austell", "state": "GA", "street": "1936 Veterans Memorial Hwy SW", "postal_code": "30168"}, "capProviderId": null, "distance": null, "has_offers": false, "name": "Acapulquito Mexican", "longitude": -84.611504, "has_menu": false, "awards": null, "user_review_count": 0}, {"business_operation_status": 1, "rating": null, "neighborhood": null, "image": null, "scorecard": null, "featured": false, "sample_categories": "Restaurants", "public_id": "smokeys-bar-b-que-austell", "id": 36715095, "votes": null, "tagline": null, "has_video": false, "website": null, "offers": null, "latitude": 33.833281, "politanName": "Atlanta, GA Metro ", "phone_number": "7707452040", "tags": [{"primary": true, "id": 1722, "name": "Restaurants"}], "fax_number": null, "expansion": {"count": null, "uri": null}, "impression_id": "000b000000c814bf8a56314285a17458bf7fbd1cb2", "profile": "http://www.citysearch.com/profile/36715095/austell_ga/smokey_s_bar_b_que.html", "address": {"city": "Austell", "state": "GA", "street": "4990 Austell Rd", "postal_code": "30106"}, "capProviderId": null, "distance": null, "has_offers": false, "name": "Smokey's Bar B Que", "longitude": -84.611921, "has_menu": false, "awards": null, "user_review_count": 0}], "histograms": [], "tag_ids": [1722], "uri": "http://api.citygridmedia.com:8080/search/places/v2/search/where?has_offers=false&type=restaurant&format=json&page=2&where=30106&rpp=50&histograms=false&publisher=10000009598&region_type=circle", "did_you_mean": "", "regions": [{"latitude": 33.836465, "default_radius": 3.78, "type": "postal_code", "name": "30106", "longitude": -84.627708}], "call_id": "000b000000cbc4926192af4467860ecaa578c7147e", "first_hit": 51, "total_hits": 761, "geo_ids": [26348], "page": 2, "last_hit": 100}}