{"results": {"rpp": 50, "locations": [{"business_operation_status": 1, "rating": null, "neighborhood": null, "image": null, "scorecard": null, "featured": false, "sample_categories": "Business Consultants, Real Estate Agents, Business Management Consultants, Carry Out", "public_id": "r-squared-ventures-incorporated-cartersville", "id": 36286570, "votes": null, "tagline": null, "has_video": false, "website": null, "offers": null, "latitude": 34.165025, "politanName": "Atlanta, GA Metro ", "phone_number": "7706068884", "tags": [{"primary": false, "id": 360, "name": "Business Consultants"}, {"primary": false, "id": 3766, "name": "Real Estate Agents"}, {"primary": false, "id": 11247, "name": "Carry Out"}, {"primary": true, "id": 364, "name": "Business Management Consultants"}], "fax_number": null, "expansion": {"count": null, "uri": null}, "impression_id": "000b000000f0e78239162144a8bd7d96b6eb00fe12", "profile": "http://www.citysearch.com/profile/36286570/cartersville_ga/r_squared_ventures_incorporated.html", "address": {"city": "Cartersville", "state": "GA", "street": "101 W Main St", "postal_code": "30120"}, "capProviderId": null, "distance": null, "has_offers": false, "name": "R Squared Ventures Incorporated", "longitude": -84.796927, "has_menu": false, "awards": null, "user_review_count": 0}, {"business_operation_status": 1, "rating": null, "neighborhood": null, "image": null, "scorecard": null, "featured": false, "sample_categories": "Ice Cream Parlors, Restaurants, Carry Out", "public_id": "dairy-queen-acworth", "id": 777764430, "votes": null, "tagline": null, "has_video": false, "website": "http://www.citysearch.com/profile/external/777764430/acworth_ga/dairy_queen.html", "offers": null, "latitude": 34.088969, "politanName": "Atlanta, GA Metro ", "phone_number": "7709245218", "tags": [{"primary": false, "id": 1722, "name": "Restaurants"}, {"primary": false, "id": 11247, "name": "Carry Out"}, {"primary": true, "id": 1730, "name": "Ice Cream Parlors"}], "fax_number": null, "expansion": {"count": null, "uri": null}, "impression_id": "000b00000054cf6ec93e854dea8c24c8705813fc0f", "profile": "http://www.citysearch.com/profile/777764430/acworth_ga/dairy_queen.html", "address": {"city": "Acworth", "state": "GA", "street": "5721 Bells Ferry Rd", "postal_code": "30102"}, "capProviderId": null, "distance": null, "has_offers": false, "name": "Dairy Queen", "longitude": -84.57805, "has_menu": true, "awards": null, "user_review_count": 0}, {"business_operation_status": 1, "rating": null, "neighborhood": null, "image": null, "scorecard": null, "featured": false, "sample_categories": "Restaurants", "public_id": "surak-kennesaw", "id": 37648990, "votes": null, "tagline": null, "has_video": false, "website": null, "offers": null, "latitude": 34.025304, "politanName": "Atlanta, GA Metro ", "phone_number": "6785811888", "tags": [{"primary": true, "id": 1722, "name": "Restaurants"}], "fax_number": null, "expansion": {"count": null, "uri": null}, "impression_id": "000b00000039b3ad756bfc4286aae24b097ceec533", "profile": "http://www.citysearch.com/profile/37648990/kennesaw_ga/surak.html", "address": {"city": "Kennesaw", "state": "GA", "street": "2950 George Busbee Pkwy NW", "postal_code": "30144"}, "capProviderId": null, "distance": null, "has_offers": false, "name": "Surak", "longitude": -84.5671, "has_menu": false, "awards": null, "user_review_count": 0}, {"business_operation_status": 0, "rating": null, "neighborhood": null, "image": null, "scorecard": null, "featured": false, "sample_categories": "Restaurants, Chinese", "public_id": "imperial-dynasty-woodstock", "id": 37649683, "votes": null, "tagline": null, "has_video": false, "website": null, "offers": null, "latitude": 34.085899, "politanName": "Atlanta, GA Metro ", "phone_number": "7709288158", "tags": [{"primary": false, "id": 11252, "name": "Chinese"}, {"primary": true, "id": 1722, "name": "Restaurants"}], "fax_number": null, "expansion": {"count": null, "uri": null}, "impression_id": "000b00000076d9ff2fcb67497f9f9c729e4ee8f57a", "profile": "http://www.citysearch.com/profile/37649683/woodstock_ga/imperial_dynasty.html", "address": {"city": "Woodstock", "state": "GA", "street": "8025 Hwy 92", "postal_code": "30189"}, "capProviderId": null, "distance": null, "has_offers": false, "name": "Imperial Dynasty", "longitude": -84.549803, "has_menu": false, "awards": null, "user_review_count": 0}, {"business_operation_status": 1, "rating": null, "neighborhood": null, "image": null, "scorecard": null, "featured": false, "sample_categories": "Restaurants, Pizza", "public_id": "whata-bouta-pizza-kennesaw", "id": 803557230, "votes": null, "tagline": null, "has_video": false, "website": null, "offers": null, "latitude": 34.047379, "politanName": "Atlanta, GA Metro ", "phone_number": "6784025168", "tags": [{"primary": false, "id": 1722, "name": "Restaurants"}, {"primary": true, "id": 11299, "name": "Pizza"}], "fax_number": null, "expansion": {"count": null, "uri": null}, "impression_id": "000b0000005be4f920678c4a2386199944afec5cbf", "profile": "http://www.citysearch.com/profile/803557230/kennesaw_ga/whata_bouta_pizza.html", "address": {"city": "Kennesaw", "state": "GA", "street": "4240 Jiles Rd NW", "postal_code": "30144"}, "capProviderId": null, "distance": null, "has_offers": false, "name": "Whata Bouta Pizza", "longitude": -84.601698, "has_menu": false, "awards": null, "user_review_count": 0}, {"business_operation_status": 1, "rating": null, "neighborhood": null, "image": null, "scorecard": null, "featured": false, "sample_categories": "Restaurants", "public_id": "creative-cafe-marietta", "id": 807599830, "votes": null, "tagline": null, "has_video": false, "website": null, "offers": null, "latitude": 34.032195, "politanName": "Atlanta, GA Metro ", "phone_number": "6782909995", "tags": [{"primary": true, "id": 1722, "name": "Restaurants"}], "fax_number": null, "expansion": {"count": null, "uri": null}, "impression_id": "000b0000004921ca621d9d4741a222b5f6cb982fe8", "profile": "http://www.citysearch.com/profile/807599830/marietta_ga/creative_cafe.html", "address": {"city": "Marietta", "state": "GA", "street": "3402 Canton Rd", "postal_code": "30066"}, "capProviderId": null, "distance": null, "has_offers": false, "name": "Creative Cafe", "longitude": -84.527689, "has_menu": false, "awards": null, "user_review_count": 0}, {"business_operation_status": 1, "rating": null, "neighborhood": null, "image": null, "scorecard": null, "featured": false, "sample_categories": "Restaurants", "public_id": "ricks-italian-beefsandwich-kennesaw", "id": 819024900, "votes": null, "tagline": null, "has_video": false, "website": null, "offers": null, "latitude": 34.019119, "politanName": "Atlanta, GA Metro ", "phone_number": "7704209500", "tags": [{"primary": true, "id": 1722, "name": "Restaurants"}], "fax_number": null, "expansion": {"count": null, "uri": null}, "impression_id": "000b0000000ea75ab295b74257bdedee9298d644de", "profile": "http://www.citysearch.com/profile/819024900/kennesaw_ga/ricks_italian_beef_sandwich.html", "address": {"city": "Kennesaw", "state": "GA", "street": "2689 Summers St NW", "postal_code": "30144"}, "capProviderId": null, "distance": null, "has_offers": false, "name": "Ricks Italian Beef-Sandwich", "longitude": -84.61395, "has_menu": false, "awards": null, "user_review_count": 0}, {"business_operation_status": 1, "rating": 10.0, "neighborhood": null, "image": null, "scorecard": null, "featured": false, "sample_categories": "Restaurants, Pizza", "public_id": "pappas-pizza-house-cartersville", "id": 43864856, "votes": null, "tagline": null, "has_video": false, "website": null, "offers": null, "latitude": 34.204298, "politanName": "Atlanta, GA Metro ", "phone_number": "7706061100", "tags": [{"primary": false, "id": 1722, "name": "Restaurants"}, {"primary": true, "id": 11299, "name": "Pizza"}], "fax_number": null, "expansion": {"count": null, "uri": null}, "impression_id": "000b000000c3d372bac858449486ebbf554b1e89fb", "profile": "http://www.citysearch.com/profile/43864856/cartersville_ga/pappas_pizza_house.html", "address": {"city": "Cartersville", "state": "GA", "street": "5620 Highway 20 SE", "postal_code": "30121"}, "capProviderId": null, "distance": null, "has_offers": false, "name": "Pappas Pizza House", "longitude": -84.765021, "has_menu": true, "awards": null, "user_review_count": 0}, {"business_operation_status": 0, "rating": null, "neighborhood": null, "image": null, "scorecard": null, "featured": false, "sample_categories": "Restaurants", "public_id": "the-party-q-bbq-restaurant-marietta", "id": 672617170, "votes": null, "tagline": null, "has_video": false, "website": null, "offers": null, "latitude": 34.016708, "politanName": "Atlanta, GA Metro ", "phone_number": "7704242225", "tags": [{"primary": true, "id": 1722, "name": "Restaurants"}], "fax_number": null, "expansion": {"count": null, "uri": null}, "impression_id": "000b000000e8193a377c974376bf6a9b0fb39a5673", "profile": "http://www.citysearch.com/profile/672617170/marietta_ga/the_party_q_bbq_restaurant.html", "address": {"city": "Marietta", "state": "GA", "street": "2821 Chastain Meadows Pkwy", "postal_code": "30066"}, "capProviderId": null, "distance": null, "has_offers": false, "name": "The Party Q! BBQ Restaurant", "longitude": -84.556251, "has_menu": false, "awards": null, "user_review_count": 0}, {"business_operation_status": 1, "rating": null, "neighborhood": null, "image": null, "scorecard": null, "featured": false, "sample_categories": "Restaurants, Bars & Clubs", "public_id": "cave-tapas-bar-and-lounge-kennesaw", "id": 672692320, "votes": null, "tagline": null, "has_video": false, "website": null, "offers": null, "latitude": 33.991946, "politanName": "Atlanta, GA Metro ", "phone_number": "6783917011", "tags": [{"primary": false, "id": 164, "name": "Bars & Clubs"}, {"primary": true, "id": 1722, "name": "Restaurants"}], "fax_number": null, "expansion": {"count": null, "uri": null}, "impression_id": "000b0000000fc8db51278343b1981fe0d6770a202b", "profile": "http://www.citysearch.com/profile/672692320/kennesaw_ga/cave_tapas_bar_and_lounge.html", "address": {"city": "Kennesaw", "state": "GA", "street": "1619 Collins Rd NW", "postal_code": "30152"}, "capProviderId": null, "distance": null, "has_offers": false, "name": "Cave Tapas Bar and Lounge", "longitude": -84.59912, "has_menu": false, "awards": null, "user_review_count": 0}, {"business_operation_status": 1, "rating": null, "neighborhood": null, "image": null, "scorecard": null, "featured": false, "sample_categories": "Restaurants", "public_id": "red-burrito-woodstock", "id": 672374270, "votes": null, "tagline": null, "has_video": false, "website": null, "offers": null, "latitude": 34.108838, "politanName": "Atlanta, GA Metro ", "phone_number": "7709282064", "tags": [{"primary": true, "id": 1722, "name": "Restaurants"}], "fax_number": null, "expansion": {"count": null, "uri": null}, "impression_id": "000b000000a65876b4edd64b218fa444ef77ea5a4e", "profile": "http://www.citysearch.com/profile/672374270/woodstock_ga/red_burrito.html", "address": {"city": "Woodstock", "state": "GA", "street": "2075 Towne Lake Pkwy", "postal_code": "30189"}, "capProviderId": null, "distance": null, "has_offers": false, "name": "Red Burrito", "longitude": -84.55267, "has_menu": false, "awards": null, "user_review_count": 0}, {"business_operation_status": 1, "rating": null, "neighborhood": null, "image": null, "scorecard": null, "featured": false, "sample_categories": "Restaurants, Food Service Management", "public_id": "eurest-dining-svc-kennesaw", "id": 713450320, "votes": null, "tagline": null, "has_video": false, "website": "http://www.citysearch.com/profile/external/713450320/kennesaw_ga/eurest_dining_svc.html", "offers": null, "latitude": 34.042682, "politanName": "Atlanta, GA Metro ", "phone_number": "7704204166", "tags": [{"primary": false, "id": 11120, "name": "Food Service Management"}, {"primary": true, "id": 1722, "name": "Restaurants"}], "fax_number": null, "expansion": {"count": null, "uri": null}, "impression_id": "000b000000ada5674a34d04a1398167dec4f0fd0b9", "profile": "http://www.citysearch.com/profile/713450320/kennesaw_ga/eurest_dining_svc.html", "address": {"city": "Kennesaw", "state": "GA", "street": "210 Townpark Dr NW", "postal_code": "30144"}, "capProviderId": null, "distance": null, "has_offers": false, "name": "Eurest Dining SVC", "longitude": -84.569868, "has_menu": false, "awards": null, "user_review_count": 0}, {"business_operation_status": 1, "rating": null, "neighborhood": null, "image": null, "scorecard": null, "featured": false, "sample_categories": "Catering, Restaurants, Tea Room", "public_id": "church-street-tea-garden-cartersville", "id": 618864164, "votes": null, "tagline": null, "has_video": false, "website": null, "offers": null, "latitude": 34.161466, "politanName": "Atlanta, GA Metro ", "phone_number": "6787215025", "tags": [{"primary": false, "id": 1705, "name": "Catering"}, {"primary": false, "id": 1722, "name": "Restaurants"}, {"primary": true, "id": 11318, "name": "Tea Room"}], "fax_number": null, "expansion": {"count": null, "uri": null}, "impression_id": "000b00000055573c8af1794d9c9b0403fdea503755", "profile": "http://www.citysearch.com/profile/618864164/cartersville_ga/church_street_tea_garden.html", "address": {"city": "Cartersville", "state": "GA", "street": "25 South Ave", "postal_code": "30120"}, "capProviderId": null, "distance": null, "has_offers": false, "name": "Church Street Tea Garden", "longitude": -84.796742, "has_menu": false, "awards": null, "user_review_count": 2}, {"business_operation_status": 1, "rating": null, "neighborhood": null, "image": null, "scorecard": null, "featured": false, "sample_categories": "Doughnut Shops, Coffeehouses", "public_id": "dunkin-doughnuts-kennesaw", "id": 713552210, "votes": null, "tagline": null, "has_video": false, "website": "http://www.citysearch.com/profile/external/713552210/kennesaw_ga/dunkin_doughnuts.html", "offers": null, "latitude": 34.032508, "politanName": "Atlanta, GA Metro ", "phone_number": "7709749717", "tags": [{"primary": false, "id": 1726, "name": "Coffeehouses"}, {"primary": true, "id": 1734, "name": "Doughnut Shops"}], "fax_number": null, "expansion": {"count": null, "uri": null}, "impression_id": "000b0000004a81dbf48ca240c3a619cdcdf6f95017", "profile": "http://www.citysearch.com/profile/713552210/kennesaw_ga/dunkin_doughnuts.html", "address": {"city": "Kennesaw", "state": "GA", "street": "3160 Cobb Pkwy NW", "postal_code": "30152"}, "capProviderId": null, "distance": null, "has_offers": false, "name": "Dunkin Doughnuts", "longitude": -84.673299, "has_menu": false, "awards": null, "user_review_count": 0}, {"business_operation_status": 1, "rating": null, "neighborhood": null, "image": null, "scorecard": null, "featured": false, "sample_categories": "Restaurants, Catering, Carry Out, Italian, Pizza", "public_id": "marietta-pizza-hdk-inc-marietta", "id": 739063740, "votes": null, "tagline": null, "has_video": false, "website": null, "offers": null, "latitude": 33.967002, "politanName": "Atlanta, GA Metro ", "phone_number": "6783240028", "tags": [{"primary": false, "id": 1705, "name": "Catering"}, {"primary": false, "id": 11247, "name": "Carry Out"}, {"primary": false, "id": 11279, "name": "Italian"}, {"primary": false, "id": 11299, "name": "Pizza"}, {"primary": true, "id": 1722, "name": "Restaurants"}], "fax_number": null, "expansion": {"count": null, "uri": null}, "impression_id": "000b0000007c7655c07d834b978173ded3a15cb869", "profile": "http://www.citysearch.com/profile/739063740/marietta_ga/marietta_pizza_hdk_inc.html", "address": {"city": "Marietta", "state": "GA", "street": "3901 Mary Eliza Trce NW", "postal_code": "30064"}, "capProviderId": null, "distance": null, "has_offers": false, "name": "Marietta Pizza Hdk INC", "longitude": -84.665443, "has_menu": true, "awards": null, "user_review_count": 0}, {"business_operation_status": 1, "rating": null, "neighborhood": null, "image": null, "scorecard": null, "featured": false, "sample_categories": "Restaurants", "public_id": "okinawa-restaurant-marietta", "id": 739065820, "votes": null, "tagline": null, "has_video": false, "website": null, "offers": null, "latitude": 33.953523, "politanName": "Atlanta, GA Metro ", "phone_number": "7702180982", "tags": [{"primary": true, "id": 1722, "name": "Restaurants"}], "fax_number": null, "expansion": {"count": null, "uri": null}, "impression_id": "000b0000004eb2e1710a6e49359b9e378ea981b119", "profile": "http://www.citysearch.com/profile/739065820/marietta_ga/okinawa_restaurant.html", "address": {"city": "Marietta", "state": "GA", "street": "3718 Dallas Hwy SW", "postal_code": "30064"}, "capProviderId": null, "distance": null, "has_offers": false, "name": "Okinawa Restaurant", "longitude": -84.661012, "has_menu": false, "awards": null, "user_review_count": 0}, {"business_operation_status": 1, "rating": null, "neighborhood": null, "image": null, "scorecard": null, "featured": false, "sample_categories": "Restaurants", "public_id": "global-taco-woodstock", "id": 754721890, "votes": null, "tagline": null, "has_video": false, "website": null, "offers": null, "latitude": 34.112098, "politanName": "Atlanta, GA Metro ", "phone_number": "4049639771", "tags": [{"primary": true, "id": 1722, "name": "Restaurants"}], "fax_number": null, "expansion": {"count": null, "uri": null}, "impression_id": "000b00000009660a4f590849da9e39b000d8e20b40", "profile": "http://www.citysearch.com/profile/754721890/woodstock_ga/global_taco.html", "address": {"city": "Woodstock", "state": "GA", "street": "6425 Bells Ferry Rd", "postal_code": "30189"}, "capProviderId": null, "distance": null, "has_offers": false, "name": "Global Taco", "longitude": -84.582389, "has_menu": false, "awards": null, "user_review_count": 0}, {"business_operation_status": 0, "rating": null, "neighborhood": null, "image": null, "scorecard": null, "featured": false, "sample_categories": "Restaurants", "public_id": "froots-kennesaw", "id": 672730530, "votes": null, "tagline": null, "has_video": false, "website": null, "offers": null, "latitude": 34.035364, "politanName": "Atlanta, GA Metro ", "phone_number": "7704998200", "tags": [{"primary": true, "id": 1722, "name": "Restaurants"}], "fax_number": null, "expansion": {"count": null, "uri": null}, "impression_id": "000b000000645b333d90274cb29025068b7e0c8e96", "profile": "http://www.citysearch.com/profile/672730530/kennesaw_ga/froots.html", "address": {"city": "Kennesaw", "state": "GA", "street": "745 Chastain Road NW", "postal_code": "30144"}, "capProviderId": null, "distance": null, "has_offers": false, "name": "Froots", "longitude": -84.570141, "has_menu": false, "awards": null, "user_review_count": 3}, {"business_operation_status": 1, "rating": null, "neighborhood": null, "image": null, "scorecard": null, "featured": false, "sample_categories": "Restaurants", "public_id": "fletchers-inc-dallas", "id": 773449230, "votes": null, "tagline": null, "has_video": false, "website": null, "offers": null, "latitude": 33.959616, "politanName": "Atlanta, GA Metro ", "phone_number": "7709438067", "tags": [{"primary": true, "id": 1722, "name": "Restaurants"}], "fax_number": null, "expansion": {"count": null, "uri": null}, "impression_id": "000b000000e8a2e71ff2ee40ae960ed07c1245d5b8", "profile": "http://www.citysearch.com/profile/773449230/dallas_ga/fletchers_inc.html", "address": {"city": "Dallas", "state": "GA", "street": "4986 Hiram Acworth Hwy", "postal_code": "30157"}, "capProviderId": null, "distance": null, "has_offers": false, "name": "Fletchers Inc", "longitude": -84.739425, "has_menu": false, "awards": null, "user_review_count": 0}, {"business_operation_status": 1, "rating": null, "neighborhood": null, "image": null, "scorecard": null, "featured": false, "sample_categories": "Restaurants, Pizza", "public_id": "chicago-dough-pizza-factory-kennesaw", "id": 812159770, "votes": null, "tagline": null, "has_video": false, "website": null, "offers": null, "latitude": 34.048653, "politanName": "Atlanta, GA Metro ", "phone_number": "6787971888", "tags": [{"primary": false, "id": 1722, "name": "Restaurants"}, {"primary": true, "id": 11299, "name": "Pizza"}], "fax_number": null, "expansion": {"count": null, "uri": null}, "impression_id": "000b000000eb5dc5dbb9a147d8b651976627b82424", "profile": "http://www.citysearch.com/profile/812159770/kennesaw_ga/chicago_dough_pizza_factory.html", "address": {"city": "Kennesaw", "state": "GA", "street": "3875 Cherokee St NW", "postal_code": "30144"}, "capProviderId": null, "distance": null, "has_offers": false, "name": "Chicago Dough Pizza Factory", "longitude": -84.598621, "has_menu": false, "awards": null, "user_review_count": 0}, {"business_operation_status": 1, "rating": null, "neighborhood": null, "image": null, "scorecard": null, "featured": false, "sample_categories": "Restaurants, Delis And Delicatessens, Sandwich Shops, Carry Out, Soups", "public_id": "subway-dallas-52", "id": 45113329, "votes": null, "tagline": null, "has_video": false, "website": "http://www.citysearch.com/profile/external/45113329/dallas_ga/subway.html", "offers": null, "latitude": 33.935025, "politanName": "Atlanta, GA Metro ", "phone_number": "7704452131", "tags": [{"primary": false, "id": 1727, "name": "Delis And Delicatessens"}, {"primary": false, "id": 1736, "name": "Sandwich Shops"}, {"primary": false, "id": 11247, "name": "Carry Out"}, {"primary": false, "id": 11311, "name": "Soups"}, {"primary": true, "id": 1722, "name": "Restaurants"}], "fax_number": null, "expansion": {"count": null, "uri": null}, "impression_id": "000b000000bdd13b1bfe0b4e4d86c281ec85993f0b", "profile": "http://www.citysearch.com/profile/45113329/dallas_ga/subway.html", "address": {"city": "Dallas", "state": "GA", "street": "3615 Marietta Hwy", "postal_code": "30157"}, "capProviderId": null, "distance": null, "has_offers": false, "name": "Subway", "longitude": -84.73087, "has_menu": true, "awards": null, "user_review_count": 0}, {"business_operation_status": 1, "rating": null, "neighborhood": null, "image": null, "scorecard": null, "featured": false, "sample_categories": "Restaurants", "public_id": "p-js-kennesaw", "id": 815756710, "votes": null, "tagline": null, "has_video": false, "website": null, "offers": null, "latitude": 34.035079, "politanName": "Atlanta, GA Metro ", "phone_number": "7704235939", "tags": [{"primary": true, "id": 1722, "name": "Restaurants"}], "fax_number": null, "expansion": {"count": null, "uri": null}, "impression_id": "000b000000456efd3f0e9d45d0bec3de7128dc9e4d", "profile": "http://www.citysearch.com/profile/815756710/kennesaw_ga/p_j_s.html", "address": {"city": "Kennesaw", "state": "GA", "street": "3400 Busbee Dr NW", "postal_code": "30144"}, "capProviderId": null, "distance": null, "has_offers": false, "name": "P J's", "longitude": -84.574368, "has_menu": false, "awards": null, "user_review_count": 0}, {"business_operation_status": 1, "rating": null, "neighborhood": null, "image": null, "scorecard": null, "featured": false, "sample_categories": "Restaurants, Pizza", "public_id": "rock-solid-security-solutions-kennesaw", "id": 45560530, "votes": null, "tagline": null, "has_video": false, "website": null, "offers": null, "latitude": 34.024398, "politanName": "Atlanta, GA Metro ", "phone_number": "7706932354", "tags": [{"primary": false, "id": 1722, "name": "Restaurants"}, {"primary": true, "id": 11299, "name": "Pizza"}], "fax_number": null, "expansion": {"count": null, "uri": null}, "impression_id": "000b000000560bfa9d213e43749d00d0002afc8939", "profile": "http://www.citysearch.com/profile/45560530/kennesaw_ga/rock_solid_security_solutions.html", "address": {"city": "Kennesaw", "state": "GA", "street": "2914 Cherokee St NW", "postal_code": "30144"}, "capProviderId": null, "distance": null, "has_offers": false, "name": "Rock Solid Security Solutions", "longitude": -84.611629, "has_menu": false, "awards": null, "user_review_count": 0}, {"business_operation_status": 1, "rating": 6.0, "neighborhood": null, "image": null, "scorecard": null, "featured": false, "sample_categories": "Dessert Shops, Restaurants", "public_id": "dollys-frozen-custard-kennesaw", "id": 45561007, "votes": null, "tagline": null, "has_video": false, "website": null, "offers": null, "latitude": 34.017774, "politanName": "Atlanta, GA Metro ", "phone_number": "7709198858", "tags": [{"primary": false, "id": 1722, "name": "Restaurants"}, {"primary": true, "id": 1728, "name": "Dessert Shops"}], "fax_number": null, "expansion": {"count": null, "uri": null}, "impression_id": "000b000000d2197d7ce22c4deaa80e532202f84b68", "profile": "http://www.citysearch.com/profile/45561007/kennesaw_ga/dolly_s_frozen_custard.html", "address": {"city": "Kennesaw", "state": "GA", "street": "2680 Cobb Pkwy NW Ste D", "postal_code": "30152"}, "capProviderId": null, "distance": null, "has_offers": false, "name": "Dolly's Frozen Custard", "longitude": -84.617896, "has_menu": false, "awards": null, "user_review_count": 0}, {"business_operation_status": 1, "rating": null, "neighborhood": null, "image": null, "scorecard": null, "featured": false, "sample_categories": "Restaurants", "public_id": "planet-smoothie-marietta-8", "id": 819890580, "votes": null, "tagline": null, "has_video": false, "website": null, "offers": null, "latitude": 33.947326, "politanName": "Atlanta, GA Metro ", "phone_number": "7704272700", "tags": [{"primary": true, "id": 1722, "name": "Restaurants"}], "fax_number": null, "expansion": {"count": null, "uri": null}, "impression_id": "000b0000003d1a40925fab4017a2f25fef07e1eaf8", "profile": "http://www.citysearch.com/profile/819890580/marietta_ga/planet_smoothie.html", "address": {"city": "Marietta", "state": "GA", "street": "3451 Barrett Pkwy NW # 145", "postal_code": "30064"}, "capProviderId": null, "distance": null, "has_offers": false, "name": "Planet Smoothie", "longitude": -84.622965, "has_menu": false, "awards": null, "user_review_count": 0}, {"business_operation_status": 1, "rating": null, "neighborhood": null, "image": null, "scorecard": null, "featured": false, "sample_categories": "Restaurants", "public_id": "tom-chee-kennesaw", "id": 626960404, "votes": null, "tagline": null, "has_video": false, "website": null, "offers": null, "latitude": 34.000514, "politanName": "Atlanta, GA Metro ", "phone_number": "6784988321", "tags": [{"primary": true, "id": 1722, "name": "Restaurants"}], "fax_number": null, "expansion": {"count": null, "uri": null}, "impression_id": "000b000000113b0ce6c68242d486ff873effe1e021", "profile": "http://www.citysearch.com/profile/626960404/kennesaw_ga/tom_chee.html", "address": {"city": "Kennesaw", "state": "GA", "street": "1200 Ernest W Barrett Pkwy NW 208", "postal_code": "30144"}, "capProviderId": null, "distance": null, "has_offers": false, "name": "Tom + Chee", "longitude": -84.587423, "has_menu": false, "awards": null, "user_review_count": 0}, {"business_operation_status": 1, "rating": null, "neighborhood": null, "image": null, "scorecard": null, "featured": false, "sample_categories": "Restaurants", "public_id": "cohutta-fish-co-cartersville", "id": 837531650, "votes": null, "tagline": null, "has_video": false, "website": null, "offers": null, "latitude": 34.165231, "politanName": "Atlanta, GA Metro ", "phone_number": "7706061100", "tags": [{"primary": true, "id": 1722, "name": "Restaurants"}], "fax_number": null, "expansion": {"count": null, "uri": null}, "impression_id": "000b0000003180bfdd08ca4955b133265879507d24", "profile": "http://www.citysearch.com/profile/837531650/cartersville_ga/cohutta_fish_co.html", "address": {"city": "Cartersville", "state": "GA", "street": "39 S Public Sq", "postal_code": "30120"}, "capProviderId": null, "distance": null, "has_offers": false, "name": "Cohutta Fish & Co", "longitude": -84.796295, "has_menu": false, "awards": null, "user_review_count": 0}, {"business_operation_status": 1, "rating": null, "neighborhood": null, "image": null, "scorecard": null, "featured": false, "sample_categories": "Grocery Stores, Restaurants", "public_id": "hoover-foods-kennesaw", "id": 655893410, "votes": null, "tagline": null, "has_video": false, "website": null, "offers": null, "latitude": 34.050688, "politanName": "Atlanta, GA Metro ", "phone_number": "6785810388", "tags": [{"primary": false, "id": 1722, "name": "Restaurants"}, {"primary": true, "id": 1713, "name": "Grocery Stores"}], "fax_number": null, "expansion": {"count": null, "uri": null}, "impression_id": "000b0000003909e96278e640afa0053b16e7f2c3c6", "profile": "http://www.citysearch.com/profile/655893410/kennesaw_ga/hoover_foods.html", "address": {"city": "Kennesaw", "state": "GA", "street": "4065 Cherokee St Nw", "postal_code": "30144"}, "capProviderId": null, "distance": null, "has_offers": false, "name": "Hoover Foods", "longitude": -84.596657, "has_menu": false, "awards": null, "user_review_count": 0}, {"business_operation_status": 1, "rating": null, "neighborhood": null, "image": null, "scorecard": null, "featured": false, "sample_categories": "Restaurants, American Express, Discover, MasterCard, Visa", "public_id": "place-woodstock", "id": 682420870, "votes": null, "tagline": null, "has_video": false, "website": "http://www.citysearch.com/profile/external/682420870/woodstock_ga/place.html", "offers": null, "latitude": 34.107927, "politanName": "Atlanta, GA Metro ", "phone_number": "7709288901", "tags": [{"primary": false, "id": 11333, "name": "American Express"}, {"primary": false, "id": 11349, "name": "Discover"}, {"primary": false, "id": 11361, "name": "MasterCard"}, {"primary": false, "id": 11382, "name": "Visa"}, {"primary": true, "id": 1722, "name": "Restaurants"}], "fax_number": null, "expansion": {"count": null, "uri": null}, "impression_id": "000b0000004b1f6d20a0354e2f9600e5642deee65e", "profile": "http://www.citysearch.com/profile/682420870/woodstock_ga/place.html", "address": {"city": "Woodstock", "state": "GA", "street": "1105 Parkside Ln # 1102", "postal_code": "30189"}, "capProviderId": null, "distance": null, "has_offers": false, "name": "Place", "longitude": -84.553485, "has_menu": false, "awards": null, "user_review_count": 0}, {"business_operation_status": 1, "rating": null, "neighborhood": null, "image": null, "scorecard": null, "featured": false, "sample_categories": "Restaurants", "public_id": "saporitos-kennesaw", "id": 682453180, "votes": null, "tagline": null, "has_video": false, "website": null, "offers": null, "latitude": 33.999345, "politanName": "Atlanta, GA Metro ", "phone_number": "7704251970", "tags": [{"primary": true, "id": 1722, "name": "Restaurants"}], "fax_number": null, "expansion": {"count": null, "uri": null}, "impression_id": "000b000000d2f89e9fc12f4d278a82df43ba1ce311", "profile": "http://www.citysearch.com/profile/682453180/kennesaw_ga/saporito_s.html", "address": {"city": "Kennesaw", "state": "GA", "street": "1200 Ernest W Barrett Pkwy NW", "postal_code": "30144"}, "capProviderId": null, "distance": null, "has_offers": false, "name": "Saporito's", "longitude": -84.586888, "has_menu": false, "awards": null, "user_review_count": 0}, {"business_operation_status": 1, "rating": null, "neighborhood": null, "image": null, "scorecard": null, "featured": false, "sample_categories": "Restaurants, Carry Out, Hamburgers", "public_id": "five-guys-burgers-fries-atlanta-6", "id": 622023500, "votes": null, "tagline": null, "has_video": false, "website": "http://www.citysearch.com/profile/external/622023500/atlanta_ga/five_guys_burgers_fries.html", "offers": null, "latitude": 33.894565, "politanName": "Atlanta, GA Metro ", "phone_number": "4046296577", "tags": [{"primary": false, "id": 11247, "name": "Carry Out"}, {"primary": false, "id": 11270, "name": "Hamburgers"}, {"primary": true, "id": 1722, "name": "Restaurants"}], "fax_number": null, "expansion": {"count": null, "uri": null}, "impression_id": "000b000000cf88fb33dbed42e9b909b5ac7c56e016", "profile": "http://www.citysearch.com/profile/622023500/atlanta_ga/five_guys_burgers_fries.html", "address": {"city": "Atlanta", "state": "GA", "street": "2400 Herodian Way", "postal_code": "30331"}, "capProviderId": null, "distance": null, "has_offers": false, "name": "Five Guys Burgers & Fries", "longitude": -84.472334, "has_menu": false, "awards": null, "user_review_count": 0}, {"business_operation_status": 1, "rating": null, "neighborhood": null, "image": null, "scorecard": null, "featured": false, "sample_categories": "Grocery Stores, Bakeries, Delis And Delicatessens, Pharmacies, Florists", "public_id": "kroger-deli-woodstock", "id": 627650910, "votes": null, "tagline": null, "has_video": false, "website": "http://www.citysearch.com/profile/external/627650910/woodstock_ga/kroger_deli.html", "offers": null, "latitude": 34.113403, "politanName": "Atlanta, GA Metro ", "phone_number": "7705172080", "tags": [{"primary": false, "id": 1685, "name": "Bakeries"}, {"primary": false, "id": 1727, "name": "Delis And Delicatessens"}, {"primary": false, "id": 1930, "name": "Pharmacies"}, {"primary": false, "id": 3921, "name": "Florists"}, {"primary": false, "id": 3924, "name": "Department Stores"}, {"primary": false, "id": 11333, "name": "American Express"}, {"primary": false, "id": 11349, "name": "Discover"}, {"primary": false, "id": 11361, "name": "MasterCard"}, {"primary": false, "id": 11382, "name": "Visa"}, {"primary": true, "id": 1713, "name": "Grocery Stores"}], "fax_number": null, "expansion": {"count": null, "uri": null}, "impression_id": "000b000000cf30b0fb0f4440878ff689cc5c06f09b", "profile": "http://www.citysearch.com/profile/627650910/woodstock_ga/kroger_deli.html", "address": {"city": "Woodstock", "state": "GA", "street": "2295 Towne Lake Pkwy # 132", "postal_code": "30189"}, "capProviderId": null, "distance": null, "has_offers": false, "name": "Kroger Deli", "longitude": -84.553614, "has_menu": false, "awards": null, "user_review_count": 0}, {"business_operation_status": 1, "rating": null, "neighborhood": null, "image": null, "scorecard": null, "featured": false, "sample_categories": "Bars & Pubs, Bars & Clubs, Restaurants, Grills", "public_id": "sideways-bar-grill-cartersville", "id": 713387480, "votes": null, "tagline": null, "has_video": false, "website": null, "offers": null, "latitude": 34.161761, "politanName": "Atlanta, GA Metro ", "phone_number": "7703343486", "tags": [{"primary": false, "id": 164, "name": "Bars & Clubs"}, {"primary": false, "id": 1722, "name": "Restaurants"}, {"primary": false, "id": 12399, "name": "Grills"}, {"primary": true, "id": 1686, "name": "Bars & Pubs"}], "fax_number": null, "expansion": {"count": null, "uri": null}, "impression_id": "000b0000005a0a50b612d74488ba446e25602013ef", "profile": "http://www.citysearch.com/profile/713387480/cartersville_ga/sideway_s_bar_grill.html", "address": {"city": "Cartersville", "state": "GA", "street": "4 West Ave", "postal_code": "30120"}, "capProviderId": null, "distance": null, "has_offers": false, "name": "Sideway's Bar & Grill", "longitude": -84.793976, "has_menu": false, "awards": null, "user_review_count": 0}, {"business_operation_status": 1, "rating": null, "neighborhood": null, "image": null, "scorecard": null, "featured": false, "sample_categories": "Restaurants, Cajun & Creole", "public_id": "gumbo-to-geaux-cartersville", "id": 653553140, "votes": null, "tagline": null, "has_video": false, "website": null, "offers": null, "latitude": 34.165184, "politanName": "Atlanta, GA Metro ", "phone_number": "7703342231", "tags": [{"primary": false, "id": 11245, "name": "Cajun & Creole"}, {"primary": true, "id": 1722, "name": "Restaurants"}], "fax_number": null, "expansion": {"count": null, "uri": null}, "impression_id": "000b0000006cc83143a0294355908868c81717a72c", "profile": "http://www.citysearch.com/profile/653553140/cartersville_ga/gumbo_to_geaux.html", "address": {"city": "Cartersville", "state": "GA", "street": "117 S Tennessee St", "postal_code": "30120"}, "capProviderId": null, "distance": null, "has_offers": false, "name": "Gumbo To Geaux", "longitude": -84.793614, "has_menu": false, "awards": null, "user_review_count": 0}, {"business_operation_status": 1, "rating": null, "neighborhood": null, "image": null, "scorecard": null, "featured": false, "sample_categories": "Restaurants", "public_id": "pizza-farm-dallas", "id": 672789580, "votes": null, "tagline": null, "has_video": false, "website": null, "offers": null, "latitude": 34.019575, "politanName": "Atlanta, GA Metro ", "phone_number": "7706849332", "tags": [{"primary": true, "id": 1722, "name": "Restaurants"}], "fax_number": null, "expansion": {"count": null, "uri": null}, "impression_id": "000b000000f6ae03462be3468a8ad4a7bd02e32b12", "profile": "http://www.citysearch.com/profile/672789580/dallas_ga/pizza_farm.html", "address": {"city": "Dallas", "state": "GA", "street": "734 Mountain Rd", "postal_code": "30132"}, "capProviderId": null, "distance": null, "has_offers": false, "name": "Pizza Farm", "longitude": -84.881455, "has_menu": false, "awards": null, "user_review_count": 0}, {"business_operation_status": 1, "rating": null, "neighborhood": null, "image": null, "scorecard": null, "featured": false, "sample_categories": "Restaurants, Delis And Delicatessens, American Express, Debit Card, Discover", "public_id": "great-wraps-kennesaw", "id": 682599740, "votes": null, "tagline": null, "has_video": false, "website": null, "offers": null, "latitude": 34.018145, "politanName": "Atlanta, GA Metro ", "phone_number": "7704287788", "tags": [{"primary": false, "id": 1727, "name": "Delis And Delicatessens"}, {"primary": false, "id": 11333, "name": "American Express"}, {"primary": false, "id": 11347, "name": "Debit Card"}, {"primary": false, "id": 11349, "name": "Discover"}, {"primary": false, "id": 11361, "name": "MasterCard"}, {"primary": false, "id": 11382, "name": "Visa"}, {"primary": true, "id": 1722, "name": "Restaurants"}], "fax_number": null, "expansion": {"count": null, "uri": null}, "impression_id": "000b0000008389feedb3a74e8ebaa11bdf6fa43251", "profile": "http://www.citysearch.com/profile/682599740/kennesaw_ga/great_wraps.html", "address": {"city": "Kennesaw", "state": "GA", "street": "400 Barrett Pkwy # 130", "postal_code": "30144"}, "capProviderId": null, "distance": null, "has_offers": false, "name": "Great Wraps", "longitude": -84.561896, "has_menu": false, "awards": null, "user_review_count": 2}, {"business_operation_status": 1, "rating": null, "neighborhood": null, "image": null, "scorecard": null, "featured": false, "sample_categories": "Restaurants", "public_id": "whistle-stop-express-cartersville", "id": 773459250, "votes": null, "tagline": null, "has_video": false, "website": null, "offers": null, "latitude": 34.161722, "politanName": "Atlanta, GA Metro ", "phone_number": "7703866461", "tags": [{"primary": true, "id": 1722, "name": "Restaurants"}], "fax_number": null, "expansion": {"count": null, "uri": null}, "impression_id": "000b000000e07a1c0765824533b3c8e71fc0af5807", "profile": "http://www.citysearch.com/profile/773459250/cartersville_ga/whistle_stop_express.html", "address": {"city": "Cartersville", "state": "GA", "street": "300 S Tennessee St", "postal_code": "30120"}, "capProviderId": null, "distance": null, "has_offers": false, "name": "Whistle Stop Express", "longitude": -84.793311, "has_menu": false, "awards": null, "user_review_count": 0}, {"business_operation_status": 1, "rating": 10.0, "neighborhood": null, "image": null, "scorecard": null, "featured": false, "sample_categories": "Coffee & Tea Shops, Restaurants", "public_id": "tea-garden-woodstock", "id": 33667220, "votes": null, "tagline": null, "has_video": false, "website": null, "offers": null, "latitude": 34.082442, "politanName": null, "phone_number": "7062535051", "tags": [{"primary": false, "id": 1722, "name": "Restaurants"}, {"primary": true, "id": 1711, "name": "Coffee & Tea Shops"}], "fax_number": null, "expansion": {"count": null, "uri": null}, "impression_id": "000b00000042bb586c12494b429f158280632d373c", "profile": "http://www.citysearch.com/profile/33667220/woodstock_ga/tea_garden.html", "address": {"city": "Woodstock", "state": "GA", "street": "401 Downsby Ln Ste 227", "postal_code": "30189"}, "capProviderId": null, "distance": null, "has_offers": false, "name": "Tea Garden", "longitude": -84.553996, "has_menu": true, "awards": null, "user_review_count": 1}, {"business_operation_status": 1, "rating": null, "neighborhood": null, "image": null, "scorecard": null, "featured": false, "sample_categories": "Restaurants, Italian, Pizza", "public_id": "gondolier-pizza-italian-rstrnt-kennesaw", "id": 777744770, "votes": null, "tagline": null, "has_video": false, "website": null, "offers": null, "latitude": 34.006194, "politanName": "Atlanta, GA Metro ", "phone_number": "7704191141", "tags": [{"primary": false, "id": 11279, "name": "Italian"}, {"primary": false, "id": 11299, "name": "Pizza"}, {"primary": true, "id": 1722, "name": "Restaurants"}], "fax_number": null, "expansion": {"count": null, "uri": null}, "impression_id": "000b0000008be906165b8b4715b844292dbb785010", "profile": "http://www.citysearch.com/profile/777744770/kennesaw_ga/gondolier_pizza_italian_rstrnt.html", "address": {"city": "Kennesaw", "state": "GA", "street": "725 Ernest W Barrett Pkwy NW", "postal_code": "30144"}, "capProviderId": null, "distance": null, "has_offers": false, "name": "Gondolier Pizza Italian Rstrnt", "longitude": -84.573858, "has_menu": true, "awards": null, "user_review_count": 3}, {"business_operation_status": 1, "rating": null, "neighborhood": null, "image": null, "scorecard": null, "featured": false, "sample_categories": "Coffeehouses", "public_id": "caribbeanz-coffee-inc-cartersville", "id": 777795800, "votes": null, "tagline": null, "has_video": false, "website": null, "offers": null, "latitude": 34.20004, "politanName": "Atlanta, GA Metro ", "phone_number": "7703820833", "tags": [{"primary": true, "id": 1726, "name": "Coffeehouses"}], "fax_number": null, "expansion": {"count": null, "uri": null}, "impression_id": "000b0000002634fc0fed8e46909f72c61a8fbb642b", "profile": "http://www.citysearch.com/profile/777795800/cartersville_ga/caribbeanz_coffee_inc.html", "address": {"city": "Cartersville", "state": "GA", "street": "965 Joe Frank Harris Pkwy Se", "postal_code": "30120"}, "capProviderId": null, "distance": null, "has_offers": false, "name": "Caribbeanz Coffee INC", "longitude": -84.797056, "has_menu": false, "awards": null, "user_review_count": 0}, {"business_operation_status": 1, "rating": null, "neighborhood": null, "image": null, "scorecard": null, "featured": false, "sample_categories": "Restaurants, Pizza", "public_id": "angelos-west-end-docks-cartersville", "id": 798856050, "votes": null, "tagline": null, "has_video": false, "website": null, "offers": null, "latitude": 34.153259, "politanName": "Atlanta, GA Metro ", "phone_number": "7703342355", "tags": [{"primary": false, "id": 11299, "name": "Pizza"}, {"primary": true, "id": 1722, "name": "Restaurants"}], "fax_number": null, "expansion": {"count": null, "uri": null}, "impression_id": "000b000000053281b66c1e4cd69b5d1768d7132de6", "profile": "http://www.citysearch.com/profile/798856050/cartersville_ga/angelo_s_west_end_docks.html", "address": {"city": "Cartersville", "state": "GA", "street": "650 Henderson Dr", "postal_code": "30120"}, "capProviderId": null, "distance": null, "has_offers": false, "name": "Angelo's West End Docks", "longitude": -84.816099, "has_menu": false, "awards": null, "user_review_count": 0}, {"business_operation_status": 1, "rating": null, "neighborhood": null, "image": null, "scorecard": null, "featured": false, "sample_categories": "Restaurants", "public_id": "thai-surak-thai-restaurant-kennesaw", "id": 806598640, "votes": null, "tagline": null, "has_video": false, "website": null, "offers": null, "latitude": 34.025304, "politanName": "Atlanta, GA Metro ", "phone_number": "6785811888", "tags": [{"primary": true, "id": 1722, "name": "Restaurants"}], "fax_number": null, "expansion": {"count": null, "uri": null}, "impression_id": "000b00000001b7634aa02941a794d95975f7dacb94", "profile": "http://www.citysearch.com/profile/806598640/kennesaw_ga/thai_surak_thai_restaurant.html", "address": {"city": "Kennesaw", "state": "GA", "street": "2950 George Busbee Pkwy NW", "postal_code": "30144"}, "capProviderId": null, "distance": null, "has_offers": false, "name": "Thai Surak Thai Restaurant", "longitude": -84.5671, "has_menu": false, "awards": null, "user_review_count": 0}, {"business_operation_status": 1, "rating": null, "neighborhood": null, "image": null, "scorecard": null, "featured": false, "sample_categories": "Restaurants", "public_id": "buffalos-southwest-cafe-kennesaw-2", "id": 808032200, "votes": null, "tagline": null, "has_video": false, "website": "http://www.citysearch.com/profile/external/808032200/kennesaw_ga/buffalo_s_southwest_cafe.html", "offers": null, "latitude": 33.99979, "politanName": "Atlanta, GA Metro ", "phone_number": "7704249464", "tags": [{"primary": true, "id": 1722, "name": "Restaurants"}], "fax_number": null, "expansion": {"count": null, "uri": null}, "impression_id": "000b0000001f693a0792694d5dae336b12cf66e9a7", "profile": "http://www.citysearch.com/profile/808032200/kennesaw_ga/buffalo_s_southwest_cafe.html", "address": {"city": "Kennesaw", "state": "GA", "street": "1200 Ernest W Barrett Pkwy NW", "postal_code": "30144"}, "capProviderId": null, "distance": null, "has_offers": false, "name": "Buffalo's Southwest Cafe", "longitude": -84.585399, "has_menu": false, "awards": null, "user_review_count": 0}, {"business_operation_status": 1, "rating": null, "neighborhood": null, "image": null, "scorecard": null, "featured": false, "sample_categories": "Restaurants, Pizza", "public_id": "uncle-maddios-pizza-joint-kennesaw", "id": 777683550, "votes": null, "tagline": null, "has_video": false, "website": "http://www.citysearch.com/profile/external/777683550/kennesaw_ga/uncle_maddio_s_pizza_joint.html", "offers": null, "latitude": 34.035456, "politanName": "Atlanta, GA Metro ", "phone_number": "7705731694", "tags": [{"primary": false, "id": 1722, "name": "Restaurants"}, {"primary": true, "id": 11299, "name": "Pizza"}], "fax_number": null, "expansion": {"count": null, "uri": null}, "impression_id": "000b000000f6ad399193fc405284705695d19fad60", "profile": "http://www.citysearch.com/profile/777683550/kennesaw_ga/uncle_maddio_s_pizza_joint.html", "address": {"city": "Kennesaw", "state": "GA", "street": "745 Chastain Rd NW", "postal_code": "30144"}, "capProviderId": null, "distance": null, "has_offers": false, "name": "Uncle Maddio's Pizza Joint", "longitude": -84.56996, "has_menu": true, "awards": null, "user_review_count": 1}, {"business_operation_status": 1, "rating": null, "neighborhood": null, "image": null, "scorecard": null, "featured": false, "sample_categories": "Restaurants, Food Delivery, Pizza", "public_id": "peace-love-pizzamarietta-marietta", "id": 801118720, "votes": null, "tagline": null, "has_video": false, "website": null, "offers": null, "latitude": 33.96754, "politanName": "Atlanta, GA Metro ", "phone_number": "7703215000", "tags": [{"primary": false, "id": 11267, "name": "Food Delivery"}, {"primary": false, "id": 11299, "name": "Pizza"}, {"primary": true, "id": 1722, "name": "Restaurants"}], "fax_number": null, "expansion": {"count": null, "uri": null}, "impression_id": "000b0000006be3b9c9a44747d6b76e3fdd8763ce0c", "profile": "http://www.citysearch.com/profile/801118720/marietta_ga/peace_love_and_pizza.html", "address": {"city": "Marietta", "state": "GA", "street": "3960 Mary Eliza Trce NW 1100", "postal_code": "30064"}, "capProviderId": null, "distance": null, "has_offers": false, "name": "Peace Love and Pizza", "longitude": -84.667248, "has_menu": false, "awards": null, "user_review_count": 0}, {"business_operation_status": 1, "rating": null, "neighborhood": null, "image": null, "scorecard": null, "featured": false, "sample_categories": "Restaurants", "public_id": "comida-marietta", "id": 810200100, "votes": null, "tagline": null, "has_video": false, "website": null, "offers": null, "latitude": 33.952164, "politanName": "Atlanta, GA Metro ", "phone_number": "6782130707", "tags": [{"primary": true, "id": 1722, "name": "Restaurants"}], "fax_number": null, "expansion": {"count": null, "uri": null}, "impression_id": "000b0000000d32b51c194740febfd98859db2c7e5e", "profile": "http://www.citysearch.com/profile/810200100/marietta_ga/comida.html", "address": {"city": "Marietta", "state": "GA", "street": "3625 Dallas Hwy SW", "postal_code": "30064"}, "capProviderId": null, "distance": null, "has_offers": false, "name": "Comida", "longitude": -84.657799, "has_menu": false, "awards": null, "user_review_count": 0}, {"business_operation_status": 1, "rating": null, "neighborhood": null, "image": null, "scorecard": null, "featured": false, "sample_categories": "Restaurants", "public_id": "reagans-kennesaw", "id": 817217110, "votes": null, "tagline": null, "has_video": false, "website": null, "offers": null, "latitude": 34.023434, "politanName": "Atlanta, GA Metro ", "phone_number": "7704261010", "tags": [{"primary": true, "id": 1722, "name": "Restaurants"}], "fax_number": null, "expansion": {"count": null, "uri": null}, "impression_id": "000b0000005cfa2ec0bb7d4b49b1bf5bb163758327", "profile": "http://www.citysearch.com/profile/817217110/kennesaw_ga/reagan_s.html", "address": {"city": "Kennesaw", "state": "GA", "street": "3900 Leg Pk Blvd NW # B100", "postal_code": "30144"}, "capProviderId": null, "distance": null, "has_offers": false, "name": "Reagan's", "longitude": -84.61549, "has_menu": false, "awards": null, "user_review_count": 0}, {"business_operation_status": 1, "rating": null, "neighborhood": null, "image": null, "scorecard": null, "featured": false, "sample_categories": "Catering, Restaurants, Barbecue Restaurants, Carry Out, Family Style Dining", "public_id": "as-sonnys-real-pit-barbq", "id": 793392090, "votes": null, "tagline": null, "has_video": false, "website": null, "offers": null, "latitude": null, "politanName": null, "phone_number": "7703681653", "tags": [{"primary": false, "id": 1705, "name": "Catering"}, {"primary": false, "id": 1722, "name": "Restaurants"}, {"primary": false, "id": 1724, "name": "Barbecue Restaurants"}, {"primary": false, "id": 11262, "name": "Family Style Dining"}, {"primary": true, "id": 11247, "name": "Carry Out"}], "fax_number": null, "expansion": {"count": null, "uri": null}, "impression_id": "000b000000742892452f354dda81c9fe2eb29eaad3", "profile": "http://www.citysearch.com/profile/793392090/sonny_s_real_pit_bar_b_q.html", "address": {"city": null, "state": null, "street": null, "postal_code": null}, "capProviderId": null, "distance": null, "has_offers": false, "name": "Sonny's Real Pit Bar-B-Q", "longitude": null, "has_menu": false, "awards": null, "user_review_count": 0}, {"business_operation_status": 1, "rating": null, "neighborhood": null, "image": null, "scorecard": null, "featured": false, "sample_categories": "Catering, Personal Chefs, Computer & Internet Services, Wedding Cakes, Seafood", "public_id": "as-glamacook-oad", "id": 801975680, "votes": null, "tagline": null, "has_video": false, "website": null, "offers": null, "latitude": null, "politanName": null, "phone_number": "4043451924", "tags": [{"primary": false, "id": 1705, "name": "Catering"}, {"primary": false, "id": 3534, "name": "Personal Chefs"}, {"primary": false, "id": 674, "name": "Computer & Internet Services"}, {"primary": false, "id": 11057, "name": "Wedding Cakes"}, {"primary": false, "id": 11228, "name": "Seafood"}, {"primary": true, "id": 11267, "name": "Food Delivery"}], "fax_number": null, "expansion": {"count": null, "uri": null}, "impression_id": "000b0000008d0de52d964047809de35a56defcb8c7", "profile": "http://www.citysearch.com/profile/801975680/_oad_ga/glamacook.html", "address": {"city": "(Oad)", "state": "GA", "street": null, "postal_code": "30032"}, "capProviderId": null, "distance": null, "has_offers": false, "name": "GlamaCook", "longitude": null, "has_menu": false, "awards": null, "user_review_count": 0}], "histograms": [], "tag_ids": [1722], "uri": "http://api.citygridmedia.com:8080/search/places/v2/search/where?has_offers=false&type=restaurant&format=json&page=25&where=30101&rpp=50&histograms=false&publisher=10000009598&region_type=circle", "did_you_mean": "", "regions": [{"latitude": 34.042584, "default_radius": 6.64, "type": "postal_code", "name": "30101", "longitude": -84.71322699999999}], "call_id": "000b00000045aa1cccb3ef41e3a7df5b71dc074874", "first_hit": 1201, "total_hits": 1249, "geo_ids": [26343], "page": 25, "last_hit": 1249}}