{"results": {"rpp": 50, "locations": [{"business_operation_status": 1, "rating": null, "neighborhood": null, "image": null, "scorecard": null, "featured": false, "sample_categories": "Delis And Delicatessens, Restaurants, Fast Food", "public_id": "best-wings-deli-douglasville", "id": 682618300, "votes": null, "tagline": null, "has_video": false, "website": null, "offers": null, "latitude": 33.747372, "politanName": "Atlanta, GA Metro ", "phone_number": "7709477880", "tags": [{"primary": false, "id": 1722, "name": "Restaurants"}, {"primary": false, "id": 11199, "name": "Fast Food"}, {"primary": true, "id": 1727, "name": "Delis And Delicatessens"}], "fax_number": null, "expansion": {"count": null, "uri": null}, "impression_id": "000b0000004e7127e1d0b742d49102bd7a063d660f", "profile": "http://www.citysearch.com/profile/682618300/douglasville_ga/city_s_best_wings_and_deli.html", "address": {"city": "Douglasville", "state": "GA", "street": "2134 Fairburn Rd", "postal_code": "30135"}, "capProviderId": null, "distance": null, "has_offers": false, "name": "City's Best Wings and Deli", "longitude": -84.699929, "has_menu": false, "awards": null, "user_review_count": 0}, {"business_operation_status": 1, "rating": null, "neighborhood": null, "image": null, "scorecard": null, "featured": false, "sample_categories": "Restaurants", "public_id": "el-barco-mexican-restaurant-marietta-3", "id": 822028770, "votes": null, "tagline": null, "has_video": false, "website": null, "offers": null, "latitude": 33.883313, "politanName": "Atlanta, GA Metro ", "phone_number": "6783555007", "tags": [{"primary": true, "id": 1722, "name": "Restaurants"}], "fax_number": null, "expansion": {"count": null, "uri": null}, "impression_id": "000b0000003e5ef41cea234d5cb3a5ad7d4c0b0785", "profile": "http://www.citysearch.com/profile/822028770/marietta_ga/el_barco_mexican_restaurant.html", "address": {"city": "Marietta", "state": "GA", "street": "2200 Powder Springs Rd SW #100", "postal_code": "30064"}, "capProviderId": null, "distance": null, "has_offers": false, "name": "El Barco Mexican Restaurant", "longitude": -84.620092, "has_menu": false, "awards": null, "user_review_count": 0}, {"business_operation_status": 1, "rating": null, "neighborhood": null, "image": null, "scorecard": null, "featured": false, "sample_categories": "Delis And Delicatessens", "public_id": "deli-express-lithia", "id": 742225870, "votes": null, "tagline": null, "has_video": false, "website": null, "offers": null, "latitude": 33.761023, "politanName": "Atlanta, GA Metro ", "phone_number": "4043842309", "tags": [{"primary": true, "id": 1727, "name": "Delis And Delicatessens"}], "fax_number": null, "expansion": {"count": null, "uri": null}, "impression_id": "000b000000aa8083b367994c41a73e7e3e6c509847", "profile": "http://www.citysearch.com/profile/742225870/lithia_springs_ga/deli_express.html", "address": {"city": "Lithia Springs", "state": "GA", "street": "8003 Wrightwood Way", "postal_code": "30122"}, "capProviderId": null, "distance": null, "has_offers": false, "name": "Deli Express", "longitude": -84.657278, "has_menu": false, "awards": null, "user_review_count": 0}, {"business_operation_status": 1, "rating": null, "neighborhood": null, "image": null, "scorecard": null, "featured": false, "sample_categories": "Restaurants, Bistros", "public_id": "pearls-southern-bistro-mableton", "id": 787089110, "votes": null, "tagline": null, "has_video": false, "website": null, "offers": null, "latitude": 33.817233, "politanName": "Atlanta, GA Metro ", "phone_number": "7707092666", "tags": [{"primary": false, "id": 13690, "name": "Bistros"}, {"primary": true, "id": 1722, "name": "Restaurants"}], "fax_number": null, "expansion": {"count": null, "uri": null}, "impression_id": "000b0000004c09aaa616bb442a9efa0ed3ea593801", "profile": "http://www.citysearch.com/profile/787089110/mableton_ga/pearl_s_southern_bistro.html", "address": {"city": "Mableton", "state": "GA", "street": "1174 Veterans Memorial Hwy Sw", "postal_code": "30126"}, "capProviderId": null, "distance": null, "has_offers": false, "name": "Pearl's Southern Bistro", "longitude": -84.588574, "has_menu": false, "awards": null, "user_review_count": 0}, {"business_operation_status": 1, "rating": null, "neighborhood": null, "image": null, "scorecard": null, "featured": false, "sample_categories": "Restaurants, Pizza, Carry Out", "public_id": "little-caesars-pizza-lithia", "id": 768819580, "votes": null, "tagline": null, "has_video": false, "website": "http://www.citysearch.com/profile/external/768819580/lithia_springs_ga/little_caesars_pizza.html", "offers": null, "latitude": 33.798077, "politanName": "Atlanta, GA Metro ", "phone_number": "7709480159", "tags": [{"primary": false, "id": 1722, "name": "Restaurants"}, {"primary": false, "id": 11247, "name": "Carry Out"}, {"primary": true, "id": 11299, "name": "Pizza"}], "fax_number": null, "expansion": {"count": null, "uri": null}, "impression_id": "000b00000091cc13fc20e6478ab1dd930883833473", "profile": "http://www.citysearch.com/profile/768819580/lithia_springs_ga/little_caesars_pizza.html", "address": {"city": "Lithia Springs", "state": "GA", "street": "3046 Veterans Memorial Hwy", "postal_code": "30122"}, "capProviderId": null, "distance": null, "has_offers": false, "name": "Little Caesars Pizza", "longitude": -84.642184, "has_menu": false, "awards": null, "user_review_count": 0}, {"business_operation_status": 1, "rating": null, "neighborhood": null, "image": null, "scorecard": null, "featured": false, "sample_categories": "Restaurants", "public_id": "cotton-gin-restaurant-hiram", "id": 812310620, "votes": null, "tagline": null, "has_video": false, "website": null, "offers": null, "latitude": 33.91311, "politanName": "Atlanta, GA Metro ", "phone_number": "7704392141", "tags": [{"primary": true, "id": 1722, "name": "Restaurants"}], "fax_number": null, "expansion": {"count": null, "uri": null}, "impression_id": "000b000000c0bf903553024555815af915d847b21f", "profile": "http://www.citysearch.com/profile/812310620/hiram_ga/cotton_gin_restaurant.html", "address": {"city": "Hiram", "state": "GA", "street": "4971 Hiram Acworth Hwy", "postal_code": "30141"}, "capProviderId": null, "distance": null, "has_offers": false, "name": "Cotton Gin Restaurant", "longitude": -84.746498, "has_menu": false, "awards": null, "user_review_count": 0}, {"business_operation_status": 1, "rating": null, "neighborhood": null, "image": null, "scorecard": null, "featured": false, "sample_categories": "Restaurants", "public_id": "stars-strikes-dallas", "id": 704869870, "votes": null, "tagline": null, "has_video": false, "website": null, "offers": null, "latitude": 33.925416, "politanName": "Atlanta, GA Metro ", "phone_number": "6789655705", "tags": [{"primary": true, "id": 1722, "name": "Restaurants"}], "fax_number": null, "expansion": {"count": null, "uri": null}, "impression_id": "000b000000fd4858caba3a4d84a5a402a592336c9d", "profile": "http://www.citysearch.com/profile/704869870/dallas_ga/stars_strikes.html", "address": {"city": "Dallas", "state": "GA", "street": "2400 Hiram Acworth Hwy", "postal_code": "30157"}, "capProviderId": null, "distance": null, "has_offers": false, "name": "Stars & Strikes", "longitude": -84.74616, "has_menu": false, "awards": null, "user_review_count": 0}, {"business_operation_status": 1, "rating": null, "neighborhood": null, "image": null, "scorecard": null, "featured": false, "sample_categories": "Restaurants", "public_id": "austell-country-cafe-austell", "id": 809553370, "votes": null, "tagline": null, "has_video": false, "website": null, "offers": null, "latitude": 33.826194, "politanName": "Atlanta, GA Metro ", "phone_number": "7707452959", "tags": [{"primary": true, "id": 1722, "name": "Restaurants"}], "fax_number": null, "expansion": {"count": null, "uri": null}, "impression_id": "000b00000054717082676444f58acaab5650c11ee5", "profile": "http://www.citysearch.com/profile/809553370/austell_ga/austell_country_cafe.html", "address": {"city": "Austell", "state": "GA", "street": "5692 Austell Powder Springs Rd", "postal_code": "30106"}, "capProviderId": null, "distance": null, "has_offers": false, "name": "Austell Country Cafe", "longitude": -84.645431, "has_menu": false, "awards": null, "user_review_count": 0}, {"business_operation_status": 1, "rating": null, "neighborhood": null, "image": null, "scorecard": null, "featured": false, "sample_categories": "Restaurants, Delis And Delicatessens, Carry Out", "public_id": "firehouse-subs-austell", "id": 773458950, "votes": null, "tagline": null, "has_video": false, "website": null, "offers": null, "latitude": 33.866955, "politanName": "Atlanta, GA Metro ", "phone_number": "7704396165", "tags": [{"primary": false, "id": 1727, "name": "Delis And Delicatessens"}, {"primary": false, "id": 11247, "name": "Carry Out"}, {"primary": true, "id": 1722, "name": "Restaurants"}], "fax_number": null, "expansion": {"count": null, "uri": null}, "impression_id": "000b0000001de9853376b0445a920be883fda6fdb9", "profile": "http://www.citysearch.com/profile/773458950/austell_ga/firehouse_subs.html", "address": {"city": "Austell", "state": "GA", "street": "2860 E West Connector", "postal_code": "30106"}, "capProviderId": null, "distance": null, "has_offers": false, "name": "Firehouse Subs", "longitude": -84.626974, "has_menu": true, "awards": null, "user_review_count": 0}, {"business_operation_status": 1, "rating": null, "neighborhood": null, "image": null, "scorecard": null, "featured": false, "sample_categories": "Restaurants", "public_id": "china-star-austell", "id": 830973950, "votes": null, "tagline": null, "has_video": false, "website": null, "offers": null, "latitude": 33.78523, "politanName": "Atlanta, GA Metro ", "phone_number": "7707390222", "tags": [{"primary": true, "id": 1722, "name": "Restaurants"}], "fax_number": null, "expansion": {"count": null, "uri": null}, "impression_id": "000b000000a8d05dc0ac994235a021b0a164cc13f2", "profile": "http://www.citysearch.com/profile/830973950/austell_ga/china_star.html", "address": {"city": "Austell", "state": "GA", "street": "600 Maxham Rd", "postal_code": "30168"}, "capProviderId": null, "distance": null, "has_offers": false, "name": "China Star", "longitude": -84.62273, "has_menu": true, "awards": null, "user_review_count": 0}, {"business_operation_status": 1, "rating": null, "neighborhood": null, "image": null, "scorecard": null, "featured": false, "sample_categories": "Restaurants, Barbecue Restaurants", "public_id": "ruchda-wings-powder-spg", "id": 682329700, "votes": null, "tagline": null, "has_video": false, "website": null, "offers": null, "latitude": 33.867624, "politanName": "Atlanta, GA Metro ", "phone_number": "7709439399", "tags": [{"primary": false, "id": 1724, "name": "Barbecue Restaurants"}, {"primary": true, "id": 1722, "name": "Restaurants"}], "fax_number": null, "expansion": {"count": null, "uri": null}, "impression_id": "000b0000007513d9942a544580afdf90c2b9ff8f6c", "profile": "http://www.citysearch.com/profile/682329700/powder_springs_ga/ruchda_wings.html", "address": {"city": "Powder Springs", "state": "GA", "street": "2860 East W Connector Sw", "postal_code": "30127"}, "capProviderId": null, "distance": null, "has_offers": false, "name": "Ruchda Wings", "longitude": -84.631069, "has_menu": false, "awards": null, "user_review_count": 0}, {"business_operation_status": 1, "rating": null, "neighborhood": null, "image": null, "scorecard": null, "featured": false, "sample_categories": "Restaurants", "public_id": "mrs-winners-dallas", "id": 728067290, "votes": null, "tagline": null, "has_video": false, "website": null, "offers": null, "latitude": 33.910855, "politanName": "Atlanta, GA Metro ", "phone_number": "7705057708", "tags": [{"primary": true, "id": 1722, "name": "Restaurants"}], "fax_number": null, "expansion": {"count": null, "uri": null}, "impression_id": "000b00000037df4ec269f1464dbe1577c3cd34166f", "profile": "http://www.citysearch.com/profile/728067290/dallas_ga/mrs_winners.html", "address": {"city": "Dallas", "state": "GA", "street": "1195 Merchants Dr", "postal_code": "30132"}, "capProviderId": null, "distance": null, "has_offers": false, "name": "Mrs Winners", "longitude": -84.801564, "has_menu": false, "awards": null, "user_review_count": 0}, {"business_operation_status": 1, "rating": null, "neighborhood": null, "image": null, "scorecard": null, "featured": false, "sample_categories": "Seafood Markets, Restaurants, Seafood", "public_id": "dallas-seafood-co-dallas", "id": 772188920, "votes": null, "tagline": null, "has_video": false, "website": null, "offers": null, "latitude": 33.911206, "politanName": "Atlanta, GA Metro ", "phone_number": "7705057313", "tags": [{"primary": false, "id": 1722, "name": "Restaurants"}, {"primary": false, "id": 11228, "name": "Seafood"}, {"primary": true, "id": 1719, "name": "Seafood Markets"}], "fax_number": null, "expansion": {"count": null, "uri": null}, "impression_id": "000b0000001d290bee6bdc45a8adbc82698694b895", "profile": "http://www.citysearch.com/profile/772188920/dallas_ga/dallas_seafood_co.html", "address": {"city": "Dallas", "state": "GA", "street": "1195 Merchants Dr", "postal_code": "30132"}, "capProviderId": null, "distance": null, "has_offers": false, "name": "Dallas Seafood Co", "longitude": -84.801304, "has_menu": false, "awards": null, "user_review_count": 0}, {"business_operation_status": 1, "rating": null, "neighborhood": null, "image": null, "scorecard": null, "featured": false, "sample_categories": "Restaurants", "public_id": "kathys-restaurant-douglasville", "id": 814804910, "votes": null, "tagline": null, "has_video": false, "website": null, "offers": null, "latitude": 33.76261, "politanName": "Atlanta, GA Metro ", "phone_number": "7709497982", "tags": [{"primary": true, "id": 1722, "name": "Restaurants"}], "fax_number": null, "expansion": {"count": null, "uri": null}, "impression_id": "000b00000033941dcedd444cb199bd8799aefc1f5b", "profile": "http://www.citysearch.com/profile/814804910/douglasville_ga/kathy_s_restaurant.html", "address": {"city": "Douglasville", "state": "GA", "street": "5848 Bankhead Hwy # 1", "postal_code": "30134"}, "capProviderId": null, "distance": null, "has_offers": false, "name": "Kathy's Restaurant", "longitude": -84.725312, "has_menu": false, "awards": null, "user_review_count": 0}, {"business_operation_status": 1, "rating": null, "neighborhood": null, "image": null, "scorecard": null, "featured": false, "sample_categories": "Restaurants", "public_id": "zackbys-endless-chicken-llc-austell", "id": 837841690, "votes": null, "tagline": null, "has_video": false, "website": null, "offers": null, "latitude": 33.867601, "politanName": "Atlanta, GA Metro ", "phone_number": "7702221550", "tags": [{"primary": true, "id": 1722, "name": "Restaurants"}], "fax_number": null, "expansion": {"count": null, "uri": null}, "impression_id": "000b000000f6b61bab6ca54ea9a1b5c4b36676c0f9", "profile": "http://www.citysearch.com/profile/837841690/austell_ga/zackby_s_endless_chicken_llc.html", "address": {"city": "Austell", "state": "GA", "street": "2603 E West Connector", "postal_code": "30106"}, "capProviderId": null, "distance": null, "has_offers": false, "name": "Zackby's Endless Chicken LLC", "longitude": -84.631045, "has_menu": false, "awards": null, "user_review_count": 0}, {"business_operation_status": 1, "rating": null, "neighborhood": null, "image": null, "scorecard": null, "featured": false, "sample_categories": "Restaurants, Delis And Delicatessens, Sandwich Shops, Carry Out, Shop Online", "public_id": "quiznos-subs-douglasville", "id": 764906660, "votes": null, "tagline": null, "has_video": false, "website": "http://www.citysearch.com/profile/external/764906660/douglasville_ga/quiznos_subs.html", "offers": null, "latitude": 33.705415, "politanName": "Atlanta, GA Metro ", "phone_number": "7704287850", "tags": [{"primary": false, "id": 1727, "name": "Delis And Delicatessens"}, {"primary": false, "id": 1736, "name": "Sandwich Shops"}, {"primary": false, "id": 11247, "name": "Carry Out"}, {"primary": false, "id": 11375, "name": "Shop Online"}, {"primary": true, "id": 1722, "name": "Restaurants"}], "fax_number": null, "expansion": {"count": null, "uri": null}, "impression_id": "000b000000a57bbbef4fd649fca1a6693e0fcb523f", "profile": "http://www.citysearch.com/profile/764906660/douglasville_ga/quiznos_subs.html", "address": {"city": "Douglasville", "state": "GA", "street": "3848 Welham Green Ct", "postal_code": "30135"}, "capProviderId": null, "distance": null, "has_offers": false, "name": "Quiznos Subs", "longitude": -84.70646, "has_menu": false, "awards": null, "user_review_count": 0}, {"business_operation_status": 1, "rating": null, "neighborhood": null, "image": null, "scorecard": null, "featured": false, "sample_categories": "Restaurants, Barbecue Restaurants", "public_id": "taco-wings-lithia", "id": 770793090, "votes": null, "tagline": null, "has_video": false, "website": null, "offers": null, "latitude": 33.785807, "politanName": "Atlanta, GA Metro ", "phone_number": "7709481777", "tags": [{"primary": false, "id": 1724, "name": "Barbecue Restaurants"}, {"primary": true, "id": 1722, "name": "Restaurants"}], "fax_number": null, "expansion": {"count": null, "uri": null}, "impression_id": "000b0000004911cfe098054e3886530da1d2b023fb", "profile": "http://www.citysearch.com/profile/770793090/lithia_springs_ga/taco_wings.html", "address": {"city": "Lithia Springs", "state": "GA", "street": "6945 S Sweetwater Rd", "postal_code": "30122"}, "capProviderId": null, "distance": null, "has_offers": false, "name": "Taco Wings", "longitude": -84.656793, "has_menu": false, "awards": null, "user_review_count": 0}, {"business_operation_status": 1, "rating": null, "neighborhood": null, "image": null, "scorecard": null, "featured": false, "sample_categories": "Restaurants", "public_id": "chilitos-mexican-burritos-lithia", "id": 814877120, "votes": null, "tagline": null, "has_video": false, "website": null, "offers": null, "latitude": 33.7871, "politanName": "Atlanta, GA Metro ", "phone_number": "7708190550", "tags": [{"primary": true, "id": 1722, "name": "Restaurants"}], "fax_number": null, "expansion": {"count": null, "uri": null}, "impression_id": "000b000000f7b6d56c1d7d4e2dad7178f7b0d8cf32", "profile": "http://www.citysearch.com/profile/814877120/lithia_springs_ga/chilitos_mexican_burritos.html", "address": {"city": "Lithia Springs", "state": "GA", "street": "639 Thornton Rd # 101", "postal_code": "30122"}, "capProviderId": null, "distance": null, "has_offers": false, "name": "Chilitos Mexican Burritos", "longitude": -84.619744, "has_menu": true, "awards": null, "user_review_count": 2}, {"business_operation_status": 1, "rating": null, "neighborhood": null, "image": null, "scorecard": null, "featured": false, "sample_categories": "Doughnut Shops, Coffeehouses", "public_id": "dunkin-donuts-lithia-2", "id": 617894094, "votes": null, "tagline": null, "has_video": false, "website": "http://www.citysearch.com/profile/external/617894094/lithia_springs_ga/dunkin_donuts.html", "offers": null, "latitude": 33.786694, "politanName": "Atlanta, GA Metro ", "phone_number": "6789457919", "tags": [{"primary": false, "id": 1726, "name": "Coffeehouses"}, {"primary": true, "id": 1734, "name": "Doughnut Shops"}], "fax_number": null, "expansion": {"count": null, "uri": null}, "impression_id": "000b0000000641e82fe466439ea16026d09b9bec68", "profile": "http://www.citysearch.com/profile/617894094/lithia_springs_ga/dunkin_donuts.html", "address": {"city": "Lithia Springs", "state": "GA", "street": "1300 W Corporate CT", "postal_code": "30122"}, "capProviderId": null, "distance": null, "has_offers": false, "name": "Dunkin' Donuts", "longitude": -84.618557, "has_menu": false, "awards": null, "user_review_count": 0}, {"business_operation_status": 1, "rating": null, "neighborhood": null, "image": null, "scorecard": null, "featured": false, "sample_categories": "Restaurants", "public_id": "butler-creek-powder", "id": 732131820, "votes": null, "tagline": null, "has_video": false, "website": null, "offers": null, "latitude": 33.916043, "politanName": "Atlanta, GA Metro ", "phone_number": "7709436777", "tags": [{"primary": true, "id": 1722, "name": "Restaurants"}], "fax_number": null, "expansion": {"count": null, "uri": null}, "impression_id": "000b000000613922c60fc34d6999934f597e32c193", "profile": "http://www.citysearch.com/profile/732131820/powder_springs_ga/butler_creek.html", "address": {"city": "Powder Springs", "state": "GA", "street": "1518 Haven Crest Dr", "postal_code": "30127"}, "capProviderId": null, "distance": null, "has_offers": false, "name": "Butler Creek", "longitude": -84.707895, "has_menu": false, "awards": null, "user_review_count": 0}, {"business_operation_status": 1, "rating": null, "neighborhood": null, "image": null, "scorecard": null, "featured": false, "sample_categories": "Restaurants, Pizza, Carry Out", "public_id": "papa-johns-pizza-austell-3", "id": 713391930, "votes": null, "tagline": null, "has_video": false, "website": "http://www.citysearch.com/profile/external/713391930/austell_ga/papa_john_s_pizza.html", "offers": null, "latitude": 33.851685, "politanName": "Atlanta, GA Metro ", "phone_number": "7707458809", "tags": [{"primary": false, "id": 1722, "name": "Restaurants"}, {"primary": false, "id": 11247, "name": "Carry Out"}, {"primary": true, "id": 11299, "name": "Pizza"}], "fax_number": null, "expansion": {"count": null, "uri": null}, "impression_id": "000b00000045ec82e039a7467ca572a01cbca172d0", "profile": "http://www.citysearch.com/profile/713391930/austell_ga/papa_john_s_pizza.html", "address": {"city": "Austell", "state": "GA", "street": "4180 Austell Rd", "postal_code": "30106"}, "capProviderId": null, "distance": null, "has_offers": false, "name": "Papa John's Pizza", "longitude": -84.606222, "has_menu": false, "awards": null, "user_review_count": 0}, {"business_operation_status": 1, "rating": null, "neighborhood": null, "image": null, "scorecard": null, "featured": false, "sample_categories": "Restaurants, Chinese, American Express, Discover, MasterCard", "public_id": "panda-garden-lithia-spgs", "id": 622203910, "votes": null, "tagline": null, "has_video": false, "website": "http://www.citysearch.com/profile/external/622203910/lithia_springs_ga/panda_garden.html", "offers": null, "latitude": 33.814068, "politanName": "Atlanta, GA Metro ", "phone_number": "7707454818", "tags": [{"primary": false, "id": 11252, "name": "Chinese"}, {"primary": false, "id": 11333, "name": "American Express"}, {"primary": false, "id": 11349, "name": "Discover"}, {"primary": false, "id": 11361, "name": "MasterCard"}, {"primary": false, "id": 11382, "name": "Visa"}, {"primary": true, "id": 1722, "name": "Restaurants"}], "fax_number": null, "expansion": {"count": null, "uri": null}, "impression_id": "000b00000090e18032d712499b8ba064adeefbdd6e", "profile": "http://www.citysearch.com/profile/622203910/lithia_springs_ga/panda_garden.html", "address": {"city": "Lithia Springs", "state": "GA", "street": "3823 Austell Rd Sw", "postal_code": "30106"}, "capProviderId": null, "distance": null, "has_offers": false, "name": "Panda Garden", "longitude": -84.672019, "has_menu": true, "awards": null, "user_review_count": 0}, {"business_operation_status": 1, "rating": null, "neighborhood": null, "image": null, "scorecard": null, "featured": false, "sample_categories": "Restaurants", "public_id": "east-meets-west-austell", "id": 764918680, "votes": null, "tagline": null, "has_video": false, "website": null, "offers": null, "latitude": 33.831253, "politanName": "Atlanta, GA Metro ", "phone_number": "7709481451", "tags": [{"primary": true, "id": 1722, "name": "Restaurants"}], "fax_number": null, "expansion": {"count": null, "uri": null}, "impression_id": "000b0000009a81419d0b0d4087a49a4233971e974e", "profile": "http://www.citysearch.com/profile/764918680/austell_ga/east_meets_west.html", "address": {"city": "Austell", "state": "GA", "street": "5010 Flint Hill Rd", "postal_code": "30106"}, "capProviderId": null, "distance": null, "has_offers": false, "name": "East Meets West", "longitude": -84.624253, "has_menu": false, "awards": null, "user_review_count": 0}, {"business_operation_status": 1, "rating": null, "neighborhood": null, "image": null, "scorecard": null, "featured": false, "sample_categories": "Restaurants, Barbecue Restaurants", "public_id": "a-town-wings-austell", "id": 706970640, "votes": null, "tagline": null, "has_video": false, "website": null, "offers": null, "latitude": 33.856339, "politanName": "Atlanta, GA Metro ", "phone_number": "7709419460", "tags": [{"primary": false, "id": 1724, "name": "Barbecue Restaurants"}, {"primary": true, "id": 1722, "name": "Restaurants"}], "fax_number": null, "expansion": {"count": null, "uri": null}, "impression_id": "000b0000008a98d1dcdcee4b298d59dbaf1d8204e2", "profile": "http://www.citysearch.com/profile/706970640/austell_ga/a_town_wings.html", "address": {"city": "Austell", "state": "GA", "street": "3999 Austell Rd # 1001", "postal_code": "30106"}, "capProviderId": null, "distance": null, "has_offers": false, "name": "A Town Wings", "longitude": -84.599753, "has_menu": false, "awards": null, "user_review_count": 0}, {"business_operation_status": 1, "rating": null, "neighborhood": null, "image": null, "scorecard": null, "featured": false, "sample_categories": "Restaurants, Traditional American, Carry Out, American Express, Discover", "public_id": "arbys-austell", "id": 682522910, "votes": null, "tagline": null, "has_video": false, "website": "http://www.citysearch.com/profile/external/682522910/austell_ga/arby_s.html", "offers": null, "latitude": 33.802759, "politanName": "Atlanta, GA Metro ", "phone_number": "7707390339", "tags": [{"primary": false, "id": 11190, "name": "Traditional American"}, {"primary": false, "id": 11247, "name": "Carry Out"}, {"primary": false, "id": 11333, "name": "American Express"}, {"primary": false, "id": 11349, "name": "Discover"}, {"primary": false, "id": 11361, "name": "MasterCard"}, {"primary": false, "id": 11382, "name": "Visa"}, {"primary": true, "id": 1722, "name": "Restaurants"}], "fax_number": null, "expansion": {"count": null, "uri": null}, "impression_id": "000b00000026a359b0446f42f9966364b266040e83", "profile": "http://www.citysearch.com/profile/682522910/austell_ga/arby_s.html", "address": {"city": "Austell", "state": "GA", "street": "3060 Bankhead Hwy", "postal_code": "30168"}, "capProviderId": null, "distance": null, "has_offers": false, "name": "Arby's", "longitude": -84.638393, "has_menu": true, "awards": null, "user_review_count": 0}, {"business_operation_status": 1, "rating": null, "neighborhood": null, "image": null, "scorecard": null, "featured": false, "sample_categories": "Restaurants", "public_id": "valindas-cozy-kitchen-austell-3", "id": 816818490, "votes": null, "tagline": null, "has_video": false, "website": null, "offers": null, "latitude": 33.812486, "politanName": "Atlanta, GA Metro ", "phone_number": "7709446694", "tags": [{"primary": true, "id": 1722, "name": "Restaurants"}], "fax_number": null, "expansion": {"count": null, "uri": null}, "impression_id": "000b000000aa9049e51ff14f358a9ecb204e95913b", "profile": "http://www.citysearch.com/profile/816818490/austell_ga/valinda_s_cozy_kitchen.html", "address": {"city": "Austell", "state": "GA", "street": "2795 Veterans Memorial Hwy SW", "postal_code": "30168"}, "capProviderId": null, "distance": null, "has_offers": false, "name": "Valinda's Cozy Kitchen", "longitude": -84.635578, "has_menu": false, "awards": null, "user_review_count": 0}, {"business_operation_status": 1, "rating": null, "neighborhood": null, "image": null, "scorecard": null, "featured": false, "sample_categories": "Ice Cream Parlors, Restaurants", "public_id": "milk-shake-douglasville", "id": 764870590, "votes": null, "tagline": null, "has_video": false, "website": null, "offers": null, "latitude": 33.771079, "politanName": "Atlanta, GA Metro ", "phone_number": "6787154327", "tags": [{"primary": false, "id": 1722, "name": "Restaurants"}, {"primary": true, "id": 1730, "name": "Ice Cream Parlors"}], "fax_number": null, "expansion": {"count": null, "uri": null}, "impression_id": "000b0000003421fe4460244895999a1bde65e6e32a", "profile": "http://www.citysearch.com/profile/764870590/douglasville_ga/milk_shake.html", "address": {"city": "Douglasville", "state": "GA", "street": "3849 Glenlake Dr", "postal_code": "30134"}, "capProviderId": null, "distance": null, "has_offers": false, "name": "Milk Shake", "longitude": -84.697252, "has_menu": false, "awards": null, "user_review_count": 0}, {"business_operation_status": 1, "rating": null, "neighborhood": null, "image": null, "scorecard": null, "featured": false, "sample_categories": "Restaurants, Soul", "public_id": "trinas-soul-kitchen-mableton", "id": 762760900, "votes": null, "tagline": null, "has_video": false, "website": null, "offers": null, "latitude": 33.845849, "politanName": "Atlanta, GA Metro ", "phone_number": "7704853300", "tags": [{"primary": false, "id": 15140, "name": "Soul"}, {"primary": true, "id": 1722, "name": "Restaurants"}], "fax_number": null, "expansion": {"count": null, "uri": null}, "impression_id": "000b0000009bce1aaca29d4c64b6b8b5283197d741", "profile": "http://www.citysearch.com/profile/762760900/mableton_ga/trina_s_soul_kitchen.html", "address": {"city": "Mableton", "state": "GA", "street": "4426 Floyd Rd SW # 100", "postal_code": "30126"}, "capProviderId": null, "distance": null, "has_offers": false, "name": "Trina's Soul Kitchen", "longitude": -84.583979, "has_menu": false, "awards": null, "user_review_count": 0}, {"business_operation_status": 1, "rating": null, "neighborhood": null, "image": null, "scorecard": null, "featured": false, "sample_categories": "Restaurants, Barbecue Restaurants", "public_id": "atlanta-wings-lithia", "id": 779667310, "votes": null, "tagline": null, "has_video": false, "website": null, "offers": null, "latitude": 33.789071, "politanName": "Atlanta, GA Metro ", "phone_number": "7707328954", "tags": [{"primary": false, "id": 1724, "name": "Barbecue Restaurants"}, {"primary": true, "id": 1722, "name": "Restaurants"}], "fax_number": null, "expansion": {"count": null, "uri": null}, "impression_id": "000b000000983950d9f3e2489190e574400ade4c3c", "profile": "http://www.citysearch.com/profile/779667310/lithia_springs_ga/atlanta_wings.html", "address": {"city": "Lithia Springs", "state": "GA", "street": "612 Thornton Rd", "postal_code": "30122"}, "capProviderId": null, "distance": null, "has_offers": false, "name": "Atlanta Wings", "longitude": -84.622313, "has_menu": false, "awards": null, "user_review_count": 0}, {"business_operation_status": 1, "rating": null, "neighborhood": null, "image": null, "scorecard": null, "featured": false, "sample_categories": "Restaurants", "public_id": "blue-agave-douglasville", "id": 655818810, "votes": null, "tagline": null, "has_video": false, "website": null, "offers": null, "latitude": 33.723323, "politanName": "Atlanta, GA Metro ", "phone_number": "7709422844", "tags": [{"primary": true, "id": 1722, "name": "Restaurants"}], "fax_number": null, "expansion": {"count": null, "uri": null}, "impression_id": "000b0000000813ff36aef740d38705eb890e9d1608", "profile": "http://www.citysearch.com/profile/655818810/douglasville_ga/blue_agave.html", "address": {"city": "Douglasville", "state": "GA", "street": "3000 Chapel Hill Rd # 105", "postal_code": "30135"}, "capProviderId": null, "distance": null, "has_offers": false, "name": "Blue Agave", "longitude": -84.732263, "has_menu": false, "awards": null, "user_review_count": 0}, {"business_operation_status": 0, "rating": null, "neighborhood": null, "image": null, "scorecard": null, "featured": false, "sample_categories": "Restaurants, Seafood", "public_id": "love-seafood-restaurant-powder", "id": 622042860, "votes": null, "tagline": null, "has_video": false, "website": null, "offers": null, "latitude": 33.800362, "politanName": "Atlanta, GA Metro ", "phone_number": "7706930672", "tags": [{"primary": false, "id": 11228, "name": "Seafood"}, {"primary": true, "id": 1722, "name": "Restaurants"}], "fax_number": null, "expansion": {"count": null, "uri": null}, "impression_id": "000b0000002bb0ae72fbd54b8bb1ef2ddf224d001b", "profile": "http://www.citysearch.com/profile/622042860/powder_springs_ga/love_seafood_restaurant.html", "address": {"city": "Powder Springs", "state": "GA", "street": "105 Brownsville Rd", "postal_code": "30127"}, "capProviderId": null, "distance": null, "has_offers": false, "name": "Love Seafood Restaurant", "longitude": -84.755514, "has_menu": false, "awards": null, "user_review_count": 0}, {"business_operation_status": 1, "rating": null, "neighborhood": null, "image": null, "scorecard": null, "featured": false, "sample_categories": "Restaurants, Pizza", "public_id": "bellas-pizzeria-austell", "id": 44775455, "votes": null, "tagline": null, "has_video": false, "website": null, "offers": null, "latitude": 33.860912, "politanName": "Atlanta, GA Metro ", "phone_number": "7064399555", "tags": [{"primary": false, "id": 11299, "name": "Pizza"}, {"primary": true, "id": 1722, "name": "Restaurants"}], "fax_number": null, "expansion": {"count": null, "uri": null}, "impression_id": "000b000000016996f9a6e04b9ebae33aa56ec76744", "profile": "http://www.citysearch.com/profile/44775455/austell_ga/bellas_pizzeria.html", "address": {"city": "Austell", "state": "GA", "street": "2495 E West Connector", "postal_code": "30106"}, "capProviderId": null, "distance": null, "has_offers": false, "name": "Bellas Pizzeria", "longitude": -84.620637, "has_menu": true, "awards": null, "user_review_count": 0}, {"business_operation_status": 1, "rating": null, "neighborhood": null, "image": null, "scorecard": null, "featured": false, "sample_categories": "Carry Out", "public_id": "jamaican-amer-kitchen-take-austell", "id": 826577100, "votes": null, "tagline": null, "has_video": false, "website": null, "offers": null, "latitude": 33.790432, "politanName": "Atlanta, GA Metro ", "phone_number": "7708190034", "tags": [{"primary": true, "id": 11247, "name": "Carry Out"}], "fax_number": null, "expansion": {"count": null, "uri": null}, "impression_id": "000b000000fc5edce589904e64a3357fab5af8269e", "profile": "http://www.citysearch.com/profile/826577100/austell_ga/jamaican_amer_kitchen_take.html", "address": {"city": "Austell", "state": "GA", "street": "530 Thornton Rd # A", "postal_code": "30106"}, "capProviderId": null, "distance": null, "has_offers": false, "name": "Jamaican & Amer Kitchen Take", "longitude": -84.621192, "has_menu": false, "awards": null, "user_review_count": 0}, {"business_operation_status": 1, "rating": null, "neighborhood": null, "image": null, "scorecard": null, "featured": false, "sample_categories": "Restaurants, Barbecue Restaurants", "public_id": "hubies-buffalo-wings-austell", "id": 622209390, "votes": null, "tagline": null, "has_video": false, "website": "http://www.citysearch.com/profile/external/622209390/austell_ga/hubie_s_buffalo_wings.html", "offers": null, "latitude": 33.812606, "politanName": "Atlanta, GA Metro ", "phone_number": "7704325112", "tags": [{"primary": false, "id": 1724, "name": "Barbecue Restaurants"}, {"primary": true, "id": 1722, "name": "Restaurants"}], "fax_number": null, "expansion": {"count": null, "uri": null}, "impression_id": "000b00000008951395106847e78235eeca061ea52b", "profile": "http://www.citysearch.com/profile/622209390/austell_ga/hubie_s_buffalo_wings.html", "address": {"city": "Austell", "state": "GA", "street": "1133 E West ConnectorSte 300", "postal_code": "30106"}, "capProviderId": null, "distance": null, "has_offers": false, "name": "Hubie's Buffalo Wings", "longitude": -84.634378, "has_menu": false, "awards": null, "user_review_count": 0}, {"business_operation_status": 1, "rating": null, "neighborhood": null, "image": null, "scorecard": null, "featured": false, "sample_categories": "Restaurants", "public_id": "wing-it-cafe-marietta", "id": 610478634, "votes": null, "tagline": null, "has_video": false, "website": null, "offers": null, "latitude": 33.883197, "politanName": "Atlanta, GA Metro ", "phone_number": "7702189100", "tags": [{"primary": true, "id": 1722, "name": "Restaurants"}], "fax_number": null, "expansion": {"count": null, "uri": null}, "impression_id": "000b000000b49b3f85dacc4000854fd31566552d9c", "profile": "http://www.citysearch.com/profile/610478634/marietta_ga/wing_it_cafe.html", "address": {"city": "Marietta", "state": "GA", "street": "2200 Powder Springs Rd SW", "postal_code": "30064"}, "capProviderId": null, "distance": null, "has_offers": false, "name": "Wing It Cafe", "longitude": -84.61985, "has_menu": false, "awards": null, "user_review_count": 0}, {"business_operation_status": 1, "rating": null, "neighborhood": null, "image": null, "scorecard": null, "featured": false, "sample_categories": "Restaurants", "public_id": "el-pollo-dorado-llc-lithia", "id": 607566664, "votes": null, "tagline": null, "has_video": false, "website": null, "offers": null, "latitude": 33.78703, "politanName": "Atlanta, GA Metro ", "phone_number": "6783248398", "tags": [{"primary": true, "id": 1722, "name": "Restaurants"}], "fax_number": null, "expansion": {"count": null, "uri": null}, "impression_id": "000b000000e865080176d14720a5a6276118d1f30e", "profile": "http://www.citysearch.com/profile/607566664/lithia_springs_ga/el_pollo_dorado_llc.html", "address": {"city": "Lithia Springs", "state": "GA", "street": "639 Thornton Rd", "postal_code": "30122"}, "capProviderId": null, "distance": null, "has_offers": false, "name": "El Pollo Dorado LLC", "longitude": -84.619446, "has_menu": false, "awards": null, "user_review_count": 0}, {"business_operation_status": 1, "rating": null, "neighborhood": null, "image": null, "scorecard": null, "featured": false, "sample_categories": "Personal Trainers, Dancing, Yoga", "public_id": "lailahs-studio-austell", "id": 724382250, "votes": null, "tagline": null, "has_video": false, "website": null, "offers": null, "latitude": 33.833377, "politanName": "Atlanta, GA Metro ", "phone_number": "6784010866", "tags": [{"primary": false, "id": 11255, "name": "Dancing"}, {"primary": false, "id": 12606, "name": "Yoga"}, {"primary": true, "id": 3999, "name": "Personal Trainers"}], "fax_number": null, "expansion": {"count": null, "uri": null}, "impression_id": "000b0000006e9f68ca6e4c4a23af1fa3a6ca875b0b", "profile": "http://www.citysearch.com/profile/724382250/austell_ga/lailah_s_studio.html", "address": {"city": "Austell", "state": "GA", "street": "4968 Austell Rd", "postal_code": "30106"}, "capProviderId": null, "distance": null, "has_offers": false, "name": "Lailah's Studio", "longitude": -84.611891, "has_menu": false, "awards": null, "user_review_count": 0}, {"business_operation_status": 1, "rating": null, "neighborhood": null, "image": null, "scorecard": null, "featured": false, "sample_categories": "Restaurants, Southwestern", "public_id": "tico-joes-southwest-gril-lithia", "id": 764846790, "votes": null, "tagline": null, "has_video": false, "website": null, "offers": null, "latitude": 33.78703, "politanName": "Atlanta, GA Metro ", "phone_number": "7706939699", "tags": [{"primary": false, "id": 11313, "name": "Southwestern"}, {"primary": true, "id": 1722, "name": "Restaurants"}], "fax_number": null, "expansion": {"count": null, "uri": null}, "impression_id": "000b0000005962bb8a0d6b49f0ad01fe20d01f0062", "profile": "http://www.citysearch.com/profile/764846790/lithia_springs_ga/tico_joe_s_southwest_gril.html", "address": {"city": "Lithia Springs", "state": "GA", "street": "639 Thornton Rd # 101", "postal_code": "30122"}, "capProviderId": null, "distance": null, "has_offers": false, "name": "Tico Joe's Southwest Gril", "longitude": -84.619446, "has_menu": false, "awards": null, "user_review_count": 0}, {"business_operation_status": 1, "rating": null, "neighborhood": null, "image": null, "scorecard": null, "featured": false, "sample_categories": "Restaurants, Carry Out", "public_id": "burger-king-powder", "id": 764855980, "votes": null, "tagline": null, "has_video": false, "website": null, "offers": null, "latitude": 33.906794, "politanName": "Atlanta, GA Metro ", "phone_number": "7704391489", "tags": [{"primary": false, "id": 11247, "name": "Carry Out"}, {"primary": true, "id": 1722, "name": "Restaurants"}], "fax_number": null, "expansion": {"count": null, "uri": null}, "impression_id": "000b0000000aafe0b01efc4f16878efc65f0f17729", "profile": "http://www.citysearch.com/profile/764855980/powder_springs_ga/burger_king.html", "address": {"city": "Powder Springs", "state": "GA", "street": "3640 Velma Dr", "postal_code": "30127"}, "capProviderId": null, "distance": null, "has_offers": false, "name": "Burger King", "longitude": -84.660285, "has_menu": false, "awards": null, "user_review_count": 0}, {"business_operation_status": 1, "rating": null, "neighborhood": null, "image": null, "scorecard": null, "featured": false, "sample_categories": "Restaurants", "public_id": "b-bs-steak-seafood-lithia-spgs", "id": 36286812, "votes": null, "tagline": null, "has_video": false, "website": null, "offers": null, "latitude": 33.790812, "politanName": "Atlanta, GA Metro ", "phone_number": "7707393084", "tags": [{"primary": true, "id": 1722, "name": "Restaurants"}], "fax_number": null, "expansion": {"count": null, "uri": null}, "impression_id": "000b000000dde4285f9fb14afa8d6780555578126f", "profile": "http://www.citysearch.com/profile/36286812/lithia_springs_ga/b_b_s_steak_seafood.html", "address": {"city": "Lithia Springs", "state": "GA", "street": "470 Westfork Blvd", "postal_code": "30122"}, "capProviderId": null, "distance": null, "has_offers": false, "name": "B B's Steak & Seafood", "longitude": -84.62506, "has_menu": false, "awards": null, "user_review_count": 0}, {"business_operation_status": 1, "rating": null, "neighborhood": null, "image": null, "scorecard": null, "featured": false, "sample_categories": "Restaurants", "public_id": "sips-cookin-austell", "id": 775236240, "votes": null, "tagline": null, "has_video": false, "website": null, "offers": null, "latitude": 33.826174, "politanName": "Atlanta, GA Metro ", "phone_number": "7708196833", "tags": [{"primary": true, "id": 1722, "name": "Restaurants"}], "fax_number": null, "expansion": {"count": null, "uri": null}, "impression_id": "000b00000042f3cf9d9013474489155b49cc3ab863", "profile": "http://www.citysearch.com/profile/775236240/austell_ga/sip_s_cookin.html", "address": {"city": "Austell", "state": "GA", "street": "5742 Austell Powder Springs Rd", "postal_code": "30106"}, "capProviderId": null, "distance": null, "has_offers": false, "name": "Sip's Cookin", "longitude": -84.645454, "has_menu": false, "awards": null, "user_review_count": 0}, {"business_operation_status": 1, "rating": null, "neighborhood": null, "image": null, "scorecard": null, "featured": false, "sample_categories": "Restaurants, Bars & Clubs", "public_id": "apollo-bar-grill-austell", "id": 825446100, "votes": null, "tagline": null, "has_video": false, "website": null, "offers": null, "latitude": 33.828601, "politanName": "Atlanta, GA Metro ", "phone_number": "7707326391", "tags": [{"primary": false, "id": 164, "name": "Bars & Clubs"}, {"primary": true, "id": 1722, "name": "Restaurants"}], "fax_number": null, "expansion": {"count": null, "uri": null}, "impression_id": "000b0000001828d670d181409daec2f4224cc6a52e", "profile": "http://www.citysearch.com/profile/825446100/austell_ga/apollo_bar_grill.html", "address": {"city": "Austell", "state": "GA", "street": "5141 Austell Rd", "postal_code": "30106"}, "capProviderId": null, "distance": null, "has_offers": false, "name": "Apollo Bar & Grill", "longitude": -84.613561, "has_menu": false, "awards": null, "user_review_count": 0}, {"business_operation_status": 1, "rating": null, "neighborhood": null, "image": null, "scorecard": null, "featured": false, "sample_categories": "Restaurants, Carry Out", "public_id": "planet-smoothie-lithia", "id": 830250820, "votes": null, "tagline": null, "has_video": false, "website": "http://www.citysearch.com/profile/external/830250820/lithia_springs_ga/planet_smoothie.html", "offers": null, "latitude": 33.7871, "politanName": "Atlanta, GA Metro ", "phone_number": "7707459193", "tags": [{"primary": false, "id": 11247, "name": "Carry Out"}, {"primary": true, "id": 1722, "name": "Restaurants"}], "fax_number": null, "expansion": {"count": null, "uri": null}, "impression_id": "000b0000007fde682b3bdc4e989959774de1b753d7", "profile": "http://www.citysearch.com/profile/830250820/lithia_springs_ga/planet_smoothie.html", "address": {"city": "Lithia Springs", "state": "GA", "street": "639 Thornton Rd # 110", "postal_code": "30122"}, "capProviderId": null, "distance": null, "has_offers": false, "name": "Planet Smoothie", "longitude": -84.619744, "has_menu": true, "awards": null, "user_review_count": 0}, {"business_operation_status": 1, "rating": null, "neighborhood": null, "image": null, "scorecard": null, "featured": false, "sample_categories": "Restaurants, Traditional American, Carry Out", "public_id": "arbys-lithia", "id": 787121310, "votes": null, "tagline": null, "has_video": false, "website": "http://www.citysearch.com/profile/external/787121310/lithia_springs_ga/arby_s.html", "offers": null, "latitude": 33.797946, "politanName": "Atlanta, GA Metro ", "phone_number": "7707390339", "tags": [{"primary": false, "id": 11190, "name": "Traditional American"}, {"primary": false, "id": 11247, "name": "Carry Out"}, {"primary": true, "id": 1722, "name": "Restaurants"}], "fax_number": null, "expansion": {"count": null, "uri": null}, "impression_id": "000b0000009e5cd6a2e0ec4e0b90728440c9b867a7", "profile": "http://www.citysearch.com/profile/787121310/lithia_springs_ga/arby_s.html", "address": {"city": "Lithia Springs", "state": "GA", "street": "3060 Veterans Memorial Hwy", "postal_code": "30122"}, "capProviderId": null, "distance": null, "has_offers": false, "name": "Arby's", "longitude": -84.642239, "has_menu": true, "awards": null, "user_review_count": 0}, {"business_operation_status": 1, "rating": null, "neighborhood": null, "image": null, "scorecard": null, "featured": false, "sample_categories": "Restaurants, Pizza", "public_id": "brooklyn-pizza-dept-austell", "id": 790776590, "votes": null, "tagline": null, "has_video": false, "website": null, "offers": null, "latitude": 33.866729, "politanName": "Atlanta, GA Metro ", "phone_number": "7709488778", "tags": [{"primary": false, "id": 1722, "name": "Restaurants"}, {"primary": true, "id": 11299, "name": "Pizza"}], "fax_number": null, "expansion": {"count": null, "uri": null}, "impression_id": "000b000000aebeb5f97747461e9e3792d51f180139", "profile": "http://www.citysearch.com/profile/790776590/austell_ga/brooklyn_pizza_dept.html", "address": {"city": "Austell", "state": "GA", "street": "2429 E West Connector", "postal_code": "30106"}, "capProviderId": null, "distance": null, "has_offers": false, "name": "Brooklyn Pizza Dept", "longitude": -84.628044, "has_menu": false, "awards": null, "user_review_count": 0}, {"business_operation_status": 1, "rating": null, "neighborhood": null, "image": null, "scorecard": null, "featured": false, "sample_categories": "Restaurants, Delis And Delicatessens, Sandwich Shops, Carry Out, Soups", "public_id": "subway-dallas-52", "id": 45113329, "votes": null, "tagline": null, "has_video": false, "website": "http://www.citysearch.com/profile/external/45113329/dallas_ga/subway.html", "offers": null, "latitude": 33.935025, "politanName": "Atlanta, GA Metro ", "phone_number": "7704452131", "tags": [{"primary": false, "id": 1727, "name": "Delis And Delicatessens"}, {"primary": false, "id": 1736, "name": "Sandwich Shops"}, {"primary": false, "id": 11247, "name": "Carry Out"}, {"primary": false, "id": 11311, "name": "Soups"}, {"primary": true, "id": 1722, "name": "Restaurants"}], "fax_number": null, "expansion": {"count": null, "uri": null}, "impression_id": "000b000000bac624cf11b44e9dae3a4a7e6be2cbec", "profile": "http://www.citysearch.com/profile/45113329/dallas_ga/subway.html", "address": {"city": "Dallas", "state": "GA", "street": "3615 Marietta Hwy", "postal_code": "30157"}, "capProviderId": null, "distance": null, "has_offers": false, "name": "Subway", "longitude": -84.73087, "has_menu": true, "awards": null, "user_review_count": 0}, {"business_operation_status": 1, "rating": null, "neighborhood": null, "image": null, "scorecard": null, "featured": false, "sample_categories": "Restaurants, Carry Out, Hamburgers", "public_id": "five-guys-burgers-fries-atlanta-6", "id": 622023500, "votes": null, "tagline": null, "has_video": false, "website": "http://www.citysearch.com/profile/external/622023500/atlanta_ga/five_guys_burgers_fries.html", "offers": null, "latitude": 33.894565, "politanName": "Atlanta, GA Metro ", "phone_number": "4046296577", "tags": [{"primary": false, "id": 11247, "name": "Carry Out"}, {"primary": false, "id": 11270, "name": "Hamburgers"}, {"primary": true, "id": 1722, "name": "Restaurants"}], "fax_number": null, "expansion": {"count": null, "uri": null}, "impression_id": "000b000000a2a574d989034bf2bf5360a0d4b5bc82", "profile": "http://www.citysearch.com/profile/622023500/atlanta_ga/five_guys_burgers_fries.html", "address": {"city": "Atlanta", "state": "GA", "street": "2400 Herodian Way", "postal_code": "30331"}, "capProviderId": null, "distance": null, "has_offers": false, "name": "Five Guys Burgers & Fries", "longitude": -84.472334, "has_menu": false, "awards": null, "user_review_count": 0}, {"business_operation_status": 1, "rating": null, "neighborhood": null, "image": null, "scorecard": null, "featured": false, "sample_categories": "Restaurants", "public_id": "hungry-international-inc-douglasville", "id": 647344150, "votes": null, "tagline": null, "has_video": false, "website": null, "offers": null, "latitude": 33.730618, "politanName": "Atlanta, GA Metro ", "phone_number": "7709493787", "tags": [{"primary": true, "id": 1722, "name": "Restaurants"}], "fax_number": null, "expansion": {"count": null, "uri": null}, "impression_id": "000b0000002eda5af806f04d9fb0549f98824627ec", "profile": "http://www.citysearch.com/profile/647344150/douglasville_ga/hungry_international_inc.html", "address": {"city": "Douglasville", "state": "GA", "street": "2765 Whisper Trl", "postal_code": "30135"}, "capProviderId": null, "distance": null, "has_offers": false, "name": "Hungry International Inc", "longitude": -84.684205, "has_menu": false, "awards": null, "user_review_count": 0}, {"business_operation_status": 1, "rating": null, "neighborhood": null, "image": null, "scorecard": null, "featured": false, "sample_categories": "Restaurants, Traditional American", "public_id": "huddle-house-austell", "id": 777678800, "votes": null, "tagline": null, "has_video": false, "website": "http://www.citysearch.com/profile/external/777678800/austell_ga/huddle_house.html", "offers": null, "latitude": 33.828577, "politanName": "Atlanta, GA Metro ", "phone_number": "7709488283", "tags": [{"primary": false, "id": 11190, "name": "Traditional American"}, {"primary": true, "id": 1722, "name": "Restaurants"}], "fax_number": null, "expansion": {"count": null, "uri": null}, "impression_id": "000b000000a44992c65db6406290d90fc314cf6fe9", "profile": "http://www.citysearch.com/profile/777678800/austell_ga/huddle_house.html", "address": {"city": "Austell", "state": "GA", "street": "5150 Austell Rd", "postal_code": "30106"}, "capProviderId": null, "distance": null, "has_offers": false, "name": "Huddle House", "longitude": -84.614608, "has_menu": true, "awards": null, "user_review_count": 0}, {"business_operation_status": 1, "rating": null, "neighborhood": null, "image": null, "scorecard": null, "featured": false, "sample_categories": "Restaurants, Carry Out, Hamburgers", "public_id": "krystal-austell-2", "id": 777799400, "votes": null, "tagline": null, "has_video": false, "website": null, "offers": null, "latitude": 33.854675, "politanName": "Atlanta, GA Metro ", "phone_number": "7709449191", "tags": [{"primary": false, "id": 11247, "name": "Carry Out"}, {"primary": false, "id": 11270, "name": "Hamburgers"}, {"primary": true, "id": 1722, "name": "Restaurants"}], "fax_number": null, "expansion": {"count": null, "uri": null}, "impression_id": "000b000000debdccaa3cc545e9b9a0fed3c7040c5e", "profile": "http://www.citysearch.com/profile/777799400/austell_ga/krystal.html", "address": {"city": "Austell", "state": "GA", "street": "4075 Austell Rd", "postal_code": "30106"}, "capProviderId": null, "distance": null, "has_offers": false, "name": "Krystal", "longitude": -84.602438, "has_menu": true, "awards": null, "user_review_count": 0}], "histograms": [], "tag_ids": [1722], "uri": "http://api.citygridmedia.com:8080/search/places/v2/search/where?has_offers=false&type=restaurant&format=json&page=3&where=30111&rpp=50&histograms=false&publisher=10000009598&region_type=circle", "did_you_mean": "", "regions": [{"latitude": 33.827400000000004, "default_radius": 0.25, "type": "postal_code", "name": "30111", "longitude": -84.6568}], "call_id": "000b00000028419fbc69c946cc8544a50b90122b30", "first_hit": 101, "total_hits": 152, "geo_ids": [137038], "page": 3, "last_hit": 150}}