{"results": {"rpp": 50, "locations": [{"business_operation_status": 1, "rating": null, "neighborhood": null, "image": null, "scorecard": null, "featured": false, "sample_categories": "Restaurants, Pizza, Carry Out", "public_id": "little-caesars-pizza-hiram", "id": 620883254, "votes": null, "tagline": null, "has_video": false, "website": "http://www.citysearch.com/profile/external/620883254/hiram_ga/little_caesars_pizza.html", "offers": null, "latitude": 33.885269, "politanName": "Atlanta, GA Metro ", "phone_number": "7706274428", "tags": [{"primary": false, "id": 1722, "name": "Restaurants"}, {"primary": false, "id": 11247, "name": "Carry Out"}, {"primary": true, "id": 11299, "name": "Pizza"}], "fax_number": null, "expansion": {"count": null, "uri": null}, "impression_id": "000b000000cacc13fec21a4311bd39ce36c429eb35", "profile": "http://www.citysearch.com/profile/620883254/hiram_ga/little_caesars_pizza.html", "address": {"city": "Hiram", "state": "GA", "street": "5739 Wendy Bagwell Pkwy", "postal_code": "30141"}, "capProviderId": null, "distance": null, "has_offers": false, "name": "Little Caesars Pizza", "longitude": -84.733505, "has_menu": false, "awards": null, "user_review_count": 0}, {"business_operation_status": 1, "rating": null, "neighborhood": null, "image": null, "scorecard": null, "featured": false, "sample_categories": "Restaurants, Carry Out, Chicken", "public_id": "churchs-chicken-lithia", "id": 757951440, "votes": null, "tagline": null, "has_video": false, "website": "http://www.citysearch.com/profile/external/757951440/lithia_springs_ga/church_s_chicken.html", "offers": null, "latitude": 33.790275, "politanName": "Atlanta, GA Metro ", "phone_number": "7709416077", "tags": [{"primary": false, "id": 11247, "name": "Carry Out"}, {"primary": false, "id": 12839, "name": "Chicken"}, {"primary": true, "id": 1722, "name": "Restaurants"}], "fax_number": null, "expansion": {"count": null, "uri": null}, "impression_id": "000b0000007141f89a167f4acaad19b5cac73000c4", "profile": "http://www.citysearch.com/profile/757951440/lithia_springs_ga/church_s_chicken.html", "address": {"city": "Lithia Springs", "state": "GA", "street": "570 Thornton Rd", "postal_code": "30122"}, "capProviderId": null, "distance": null, "has_offers": false, "name": "Church's Chicken", "longitude": -84.623974, "has_menu": false, "awards": null, "user_review_count": 0}, {"business_operation_status": 1, "rating": null, "neighborhood": null, "image": null, "scorecard": null, "featured": false, "sample_categories": "Restaurants", "public_id": "totopos-dallas", "id": 764911840, "votes": null, "tagline": null, "has_video": false, "website": null, "offers": null, "latitude": 33.957866, "politanName": "Atlanta, GA Metro ", "phone_number": "7704433070", "tags": [{"primary": true, "id": 1722, "name": "Restaurants"}], "fax_number": null, "expansion": {"count": null, "uri": null}, "impression_id": "000b000000d27282bc49d643b3ab5bdbaa193b3681", "profile": "http://www.citysearch.com/profile/764911840/dallas_ga/totopos.html", "address": {"city": "Dallas", "state": "GA", "street": "55 E Paulding Dr", "postal_code": "30157"}, "capProviderId": null, "distance": null, "has_offers": false, "name": "Totopos", "longitude": -84.787071, "has_menu": false, "awards": null, "user_review_count": 0}, {"business_operation_status": 1, "rating": null, "neighborhood": null, "image": null, "scorecard": null, "featured": false, "sample_categories": "Restaurants", "public_id": "atlwest-mariett-marietta", "id": 787106980, "votes": null, "tagline": null, "has_video": false, "website": null, "offers": null, "latitude": 33.944719, "politanName": "Atlanta, GA Metro ", "phone_number": "7707927933", "tags": [{"primary": true, "id": 1722, "name": "Restaurants"}], "fax_number": null, "expansion": {"count": null, "uri": null}, "impression_id": "000b000000a275e7fb93b44bbf996f99e413b1a4c0", "profile": "http://www.citysearch.com/profile/787106980/marietta_ga/atl_west_mariett.html", "address": {"city": "Marietta", "state": "GA", "street": "2535 Dallas Hwy Sw", "postal_code": "30064"}, "capProviderId": null, "distance": null, "has_offers": false, "name": "Atl-West Mariett", "longitude": -84.625194, "has_menu": false, "awards": null, "user_review_count": 0}, {"business_operation_status": 1, "rating": null, "neighborhood": null, "image": null, "scorecard": null, "featured": false, "sample_categories": "Restaurants, Delis And Delicatessens, Sandwich Shops, Carry Out", "public_id": "subway-douglasville-12", "id": 793293380, "votes": null, "tagline": null, "has_video": false, "website": "http://www.citysearch.com/profile/external/793293380/douglasville_ga/subway.html", "offers": null, "latitude": 33.730907, "politanName": "Atlanta, GA Metro ", "phone_number": "7709493136", "tags": [{"primary": false, "id": 1727, "name": "Delis And Delicatessens"}, {"primary": false, "id": 1736, "name": "Sandwich Shops"}, {"primary": false, "id": 11247, "name": "Carry Out"}, {"primary": true, "id": 1722, "name": "Restaurants"}], "fax_number": null, "expansion": {"count": null, "uri": null}, "impression_id": "000b0000004bf704952c5b4b829b3f46b5a32d39a9", "profile": "http://www.citysearch.com/profile/793293380/douglasville_ga/subway.html", "address": {"city": "Douglasville", "state": "GA", "street": "2750 Chapel Hill Rd", "postal_code": "30135"}, "capProviderId": null, "distance": null, "has_offers": false, "name": "SUBWAY", "longitude": -84.736347, "has_menu": false, "awards": null, "user_review_count": 0}, {"business_operation_status": 1, "rating": null, "neighborhood": null, "image": null, "scorecard": null, "featured": false, "sample_categories": "Restaurants, Chinese, American Express, Discover, MasterCard", "public_id": "china-sun-restaurant-marietta", "id": 2906495, "votes": null, "tagline": null, "has_video": false, "website": null, "offers": null, "latitude": 33.926201, "politanName": "Atlanta, GA Metro ", "phone_number": "7704268780", "tags": [{"primary": false, "id": 11252, "name": "Chinese"}, {"primary": false, "id": 11333, "name": "American Express"}, {"primary": false, "id": 11349, "name": "Discover"}, {"primary": false, "id": 11361, "name": "MasterCard"}, {"primary": false, "id": 11382, "name": "Visa"}, {"primary": true, "id": 1722, "name": "Restaurants"}], "fax_number": null, "expansion": {"count": null, "uri": null}, "impression_id": "000b0000000028500d391446608b81a68892041604", "profile": "http://www.citysearch.com/profile/2906495/marietta_ga/china_sun_restaurant.html", "address": {"city": "Marietta", "state": "GA", "street": "1150 Powder Springs St Ste 20", "postal_code": "30064"}, "capProviderId": null, "distance": null, "has_offers": false, "name": "China Sun Restaurant", "longitude": -84.574094, "has_menu": false, "awards": null, "user_review_count": 1}, {"business_operation_status": 1, "rating": null, "neighborhood": null, "image": null, "scorecard": null, "featured": false, "sample_categories": "Restaurants", "public_id": "i-repair-i-austell", "id": 764872320, "votes": null, "tagline": null, "has_video": false, "website": null, "offers": null, "latitude": 33.831904, "politanName": "Atlanta, GA Metro ", "phone_number": "6784021158", "tags": [{"primary": true, "id": 1722, "name": "Restaurants"}], "fax_number": null, "expansion": {"count": null, "uri": null}, "impression_id": "000b000000c96a78a68b114912a4bf6d2238d800e6", "profile": "http://www.citysearch.com/profile/764872320/austell_ga/i_repair_i.html", "address": {"city": "Austell", "state": "GA", "street": "2401 Clay Rd", "postal_code": "30106"}, "capProviderId": null, "distance": null, "has_offers": false, "name": "I Repair I", "longitude": -84.622801, "has_menu": false, "awards": null, "user_review_count": 0}, {"business_operation_status": 1, "rating": null, "neighborhood": null, "image": null, "scorecard": null, "featured": false, "sample_categories": "Restaurants, Italian", "public_id": "martinos-italian-restaurant-dallas", "id": 766757000, "votes": null, "tagline": null, "has_video": false, "website": null, "offers": null, "latitude": 33.98438, "politanName": "Atlanta, GA Metro ", "phone_number": "6787385561", "tags": [{"primary": false, "id": 11279, "name": "Italian"}, {"primary": true, "id": 1722, "name": "Restaurants"}], "fax_number": null, "expansion": {"count": null, "uri": null}, "impression_id": "000b000000c90fd87179884fd4a3603182262b9048", "profile": "http://www.citysearch.com/profile/766757000/dallas_ga/martino_s_italian_restaurant.html", "address": {"city": "Dallas", "state": "GA", "street": "8877 Acwoth Dallas Hwy", "postal_code": "30132"}, "capProviderId": null, "distance": null, "has_offers": false, "name": "Martino's Italian Restaurant", "longitude": -84.772457, "has_menu": false, "awards": null, "user_review_count": 0}, {"business_operation_status": 1, "rating": null, "neighborhood": null, "image": null, "scorecard": null, "featured": false, "sample_categories": "Restaurants", "public_id": "e-green-douglasville", "id": 768785140, "votes": null, "tagline": null, "has_video": false, "website": null, "offers": null, "latitude": 33.675566, "politanName": "Atlanta, GA Metro ", "phone_number": "6787159797", "tags": [{"primary": true, "id": 1722, "name": "Restaurants"}], "fax_number": null, "expansion": {"count": null, "uri": null}, "impression_id": "000b000000c2708be59d894c54b9e76319bd4c6daa", "profile": "http://www.citysearch.com/profile/768785140/douglasville_ga/e_green.html", "address": {"city": "Douglasville", "state": "GA", "street": "6430 Queensdale Dr", "postal_code": "30135"}, "capProviderId": null, "distance": null, "has_offers": false, "name": "E Green", "longitude": -84.781917, "has_menu": false, "awards": null, "user_review_count": 0}, {"business_operation_status": 1, "rating": null, "neighborhood": null, "image": null, "scorecard": null, "featured": false, "sample_categories": "Restaurants", "public_id": "la-tagliatellakennesaw-kennesaw", "id": 768794230, "votes": null, "tagline": null, "has_video": false, "website": null, "offers": null, "latitude": 34.002327, "politanName": "Atlanta, GA Metro ", "phone_number": "6789053611", "tags": [{"primary": true, "id": 1722, "name": "Restaurants"}], "fax_number": null, "expansion": {"count": null, "uri": null}, "impression_id": "000b00000038cebb0d65d149cb965e65445c5d1730", "profile": "http://www.citysearch.com/profile/768794230/kennesaw_ga/la_tagliatella_kennesaw.html", "address": {"city": "Kennesaw", "state": "GA", "street": "2045 Attic Pkwy NW", "postal_code": "30152"}, "capProviderId": null, "distance": null, "has_offers": false, "name": "La Tagliatella-Kennesaw", "longitude": -84.604376, "has_menu": false, "awards": null, "user_review_count": 0}, {"business_operation_status": 1, "rating": null, "neighborhood": null, "image": null, "scorecard": null, "featured": false, "sample_categories": "Restaurants, Barbecue Restaurants", "public_id": "wings-street-douglasville", "id": 787134420, "votes": null, "tagline": null, "has_video": false, "website": null, "offers": null, "latitude": 33.81864, "politanName": "Atlanta, GA Metro ", "phone_number": "7704897855", "tags": [{"primary": false, "id": 1724, "name": "Barbecue Restaurants"}, {"primary": true, "id": 1722, "name": "Restaurants"}], "fax_number": null, "expansion": {"count": null, "uri": null}, "impression_id": "000b000000ad4b540940f44f6989a5aa12826659ff", "profile": "http://www.citysearch.com/profile/787134420/douglasville_ga/wings_street.html", "address": {"city": "Douglasville", "state": "GA", "street": "4813 Ridge Rd # 117", "postal_code": "30134"}, "capProviderId": null, "distance": null, "has_offers": false, "name": "Wings Street", "longitude": -84.813859, "has_menu": false, "awards": null, "user_review_count": 0}, {"business_operation_status": 1, "rating": null, "neighborhood": null, "image": null, "scorecard": null, "featured": false, "sample_categories": "Restaurants, Carry Out, Chicken", "public_id": "popeyes-chicken-biscuits-lithia", "id": 773419390, "votes": null, "tagline": null, "has_video": false, "website": "http://www.citysearch.com/profile/external/773419390/lithia_springs_ga/popeye_s_chicken_biscuits.html", "offers": null, "latitude": 33.789316, "politanName": "Atlanta, GA Metro ", "phone_number": "7709440898", "tags": [{"primary": false, "id": 11247, "name": "Carry Out"}, {"primary": false, "id": 12839, "name": "Chicken"}, {"primary": true, "id": 1722, "name": "Restaurants"}], "fax_number": null, "expansion": {"count": null, "uri": null}, "impression_id": "000b00000011b0b028257448e4897352c5f2ec2767", "profile": "http://www.citysearch.com/profile/773419390/lithia_springs_ga/popeye_s_chicken_biscuits.html", "address": {"city": "Lithia Springs", "state": "GA", "street": "608 Thornton Rd", "postal_code": "30122"}, "capProviderId": null, "distance": null, "has_offers": false, "name": "Popeye's Chicken & Biscuits", "longitude": -84.621752, "has_menu": false, "awards": null, "user_review_count": 0}, {"business_operation_status": 1, "rating": null, "neighborhood": null, "image": null, "scorecard": null, "featured": false, "sample_categories": "Restaurants", "public_id": "shanks-que-douglasville", "id": 793364300, "votes": null, "tagline": null, "has_video": false, "website": null, "offers": null, "latitude": 33.729312, "politanName": "Atlanta, GA Metro ", "phone_number": "6785405152", "tags": [{"primary": true, "id": 1722, "name": "Restaurants"}], "fax_number": null, "expansion": {"count": null, "uri": null}, "impression_id": "000b00000070888e80e6b94ad9bf44d20b0dbe0942", "profile": "http://www.citysearch.com/profile/793364300/douglasville_ga/shanks_que.html", "address": {"city": "Douglasville", "state": "GA", "street": "9361 Opal Dr", "postal_code": "30135"}, "capProviderId": null, "distance": null, "has_offers": false, "name": "Shanks Que", "longitude": -84.704717, "has_menu": false, "awards": null, "user_review_count": 0}, {"business_operation_status": 1, "rating": null, "neighborhood": null, "image": null, "scorecard": null, "featured": false, "sample_categories": "Restaurants, Mexican, Carry Out", "public_id": "el-pollo-loco-hiram", "id": 777769620, "votes": null, "tagline": null, "has_video": false, "website": "http://www.citysearch.com/profile/external/777769620/hiram_ga/el_pollo_loco.html", "offers": null, "latitude": 33.890712, "politanName": "Atlanta, GA Metro ", "phone_number": "7702227742", "tags": [{"primary": false, "id": 11208, "name": "Mexican"}, {"primary": false, "id": 11247, "name": "Carry Out"}, {"primary": true, "id": 1722, "name": "Restaurants"}], "fax_number": null, "expansion": {"count": null, "uri": null}, "impression_id": "000b00000004d3bfb9859b4231a07c8f8b822b9808", "profile": "http://www.citysearch.com/profile/777769620/hiram_ga/el_pollo_loco.html", "address": {"city": "Hiram", "state": "GA", "street": "2017 Lake Rd", "postal_code": "30141"}, "capProviderId": null, "distance": null, "has_offers": false, "name": "El Pollo Loco", "longitude": -84.750538, "has_menu": true, "awards": null, "user_review_count": 0}, {"business_operation_status": 1, "rating": null, "neighborhood": null, "image": null, "scorecard": null, "featured": false, "sample_categories": "Restaurants", "public_id": "el-caporal-2-bar-grill-marietta", "id": 801060990, "votes": null, "tagline": null, "has_video": false, "website": null, "offers": null, "latitude": 33.955116, "politanName": "Atlanta, GA Metro ", "phone_number": "7704261422", "tags": [{"primary": true, "id": 1722, "name": "Restaurants"}], "fax_number": null, "expansion": {"count": null, "uri": null}, "impression_id": "000b000000337ce6de70ad4fdb9be00d7982590bde", "profile": "http://www.citysearch.com/profile/801060990/marietta_ga/el_caporal_2_bar_grill.html", "address": {"city": "Marietta", "state": "GA", "street": "3600 Dallas Hwy Sw", "postal_code": "30064"}, "capProviderId": null, "distance": null, "has_offers": false, "name": "El Caporal 2 Bar & Grill", "longitude": -84.656027, "has_menu": false, "awards": null, "user_review_count": 0}, {"business_operation_status": 1, "rating": null, "neighborhood": null, "image": null, "scorecard": null, "featured": false, "sample_categories": "Restaurants", "public_id": "chili-llc-douglasville", "id": 809001270, "votes": null, "tagline": null, "has_video": false, "website": null, "offers": null, "latitude": 33.695226, "politanName": "Atlanta, GA Metro ", "phone_number": "6787153443", "tags": [{"primary": true, "id": 1722, "name": "Restaurants"}], "fax_number": null, "expansion": {"count": null, "uri": null}, "impression_id": "000b000000b9d64c7a393f4b3eacbdd20e1eba2d50", "profile": "http://www.citysearch.com/profile/809001270/douglasville_ga/chili_llc.html", "address": {"city": "Douglasville", "state": "GA", "street": "3811 Highway 166", "postal_code": "30135"}, "capProviderId": null, "distance": null, "has_offers": false, "name": "Chili LLC", "longitude": -84.665579, "has_menu": false, "awards": null, "user_review_count": 0}, {"business_operation_status": 1, "rating": null, "neighborhood": null, "image": null, "scorecard": null, "featured": false, "sample_categories": "Restaurants, Pizza", "public_id": "bella-bocca-marietta", "id": 822361720, "votes": null, "tagline": null, "has_video": false, "website": null, "offers": null, "latitude": 33.951001, "politanName": "Atlanta, GA Metro ", "phone_number": "7707958984", "tags": [{"primary": false, "id": 1722, "name": "Restaurants"}, {"primary": true, "id": 11299, "name": "Pizza"}], "fax_number": null, "expansion": {"count": null, "uri": null}, "impression_id": "000b0000004a6289db1e134eafa807803ff9bb2240", "profile": "http://www.citysearch.com/profile/822361720/marietta_ga/bella_bocca.html", "address": {"city": "Marietta", "state": "GA", "street": "999 Whitlock Ave SW", "postal_code": "30064"}, "capProviderId": null, "distance": null, "has_offers": false, "name": "Bella Bocca", "longitude": -84.57917, "has_menu": false, "awards": null, "user_review_count": 1}, {"business_operation_status": 1, "rating": null, "neighborhood": null, "image": null, "scorecard": null, "featured": false, "sample_categories": "Restaurants", "public_id": "hong-kong-city-buffet-douglasville", "id": 815115460, "votes": null, "tagline": null, "has_video": false, "website": null, "offers": null, "latitude": 33.751118, "politanName": "Atlanta, GA Metro ", "phone_number": "7705777760", "tags": [{"primary": true, "id": 1722, "name": "Restaurants"}], "fax_number": null, "expansion": {"count": null, "uri": null}, "impression_id": "000b000000a2fed55ef82e4b029af9c8d349827b2e", "profile": "http://www.citysearch.com/profile/815115460/douglasville_ga/hong_kong_city_buffet.html", "address": {"city": "Douglasville", "state": "GA", "street": "5864 Fairburn Rd", "postal_code": "30134"}, "capProviderId": null, "distance": null, "has_offers": false, "name": "Hong Kong City Buffet", "longitude": -84.72622, "has_menu": false, "awards": null, "user_review_count": 0}, {"business_operation_status": 1, "rating": null, "neighborhood": null, "image": null, "scorecard": null, "featured": false, "sample_categories": "Restaurants, Carry Out", "public_id": "waffle-house-lithia", "id": 832999140, "votes": null, "tagline": null, "has_video": false, "website": "http://www.citysearch.com/profile/external/832999140/lithia_springs_ga/waffle_house.html", "offers": null, "latitude": 33.766845, "politanName": "Atlanta, GA Metro ", "phone_number": "7709446713", "tags": [{"primary": false, "id": 11247, "name": "Carry Out"}, {"primary": true, "id": 1722, "name": "Restaurants"}], "fax_number": null, "expansion": {"count": null, "uri": null}, "impression_id": "000b000000b6ac1df8a170463da63a4aa38680fc95", "profile": "http://www.citysearch.com/profile/832999140/lithia_springs_ga/waffle_house.html", "address": {"city": "Lithia Springs", "state": "GA", "street": "1371 Lee Rd", "postal_code": "30122"}, "capProviderId": null, "distance": null, "has_offers": false, "name": "Waffle House", "longitude": -84.651868, "has_menu": true, "awards": null, "user_review_count": 0}, {"business_operation_status": 0, "rating": null, "neighborhood": null, "image": null, "scorecard": null, "featured": false, "sample_categories": "Restaurants, Carry Out", "public_id": "atlanta-bread-co-marietta-3", "id": 818761800, "votes": null, "tagline": null, "has_video": false, "website": null, "offers": null, "latitude": 33.947326, "politanName": "Atlanta, GA Metro ", "phone_number": "7704250442", "tags": [{"primary": false, "id": 11247, "name": "Carry Out"}, {"primary": true, "id": 1722, "name": "Restaurants"}], "fax_number": null, "expansion": {"count": null, "uri": null}, "impression_id": "000b0000009ebdd34897a84c86899ee59a5fda582b", "profile": "http://www.citysearch.com/profile/818761800/marietta_ga/atlanta_bread_co.html", "address": {"city": "Marietta", "state": "GA", "street": "3451 Ernest W Barrett NW # 200", "postal_code": "30064"}, "capProviderId": null, "distance": null, "has_offers": false, "name": "Atlanta Bread Co", "longitude": -84.622965, "has_menu": false, "awards": null, "user_review_count": 0}, {"business_operation_status": 1, "rating": null, "neighborhood": null, "image": null, "scorecard": null, "featured": false, "sample_categories": "Restaurants", "public_id": "asia-buffet-douglasville", "id": 809663630, "votes": null, "tagline": null, "has_video": false, "website": null, "offers": null, "latitude": 33.727997, "politanName": "Atlanta, GA Metro ", "phone_number": "6788381987", "tags": [{"primary": true, "id": 1722, "name": "Restaurants"}], "fax_number": null, "expansion": {"count": null, "uri": null}, "impression_id": "000b000000a98e08b0514243a6a76fec69fc7def1e", "profile": "http://www.citysearch.com/profile/809663630/douglasville_ga/asia_buffet.html", "address": {"city": "Douglasville", "state": "GA", "street": "9375 The Landing Dr # G320", "postal_code": "30135"}, "capProviderId": null, "distance": null, "has_offers": false, "name": "Asia Buffet", "longitude": -84.738221, "has_menu": true, "awards": null, "user_review_count": 1}, {"business_operation_status": 1, "rating": null, "neighborhood": null, "image": null, "scorecard": null, "featured": false, "sample_categories": "Barbecue Restaurants, Restaurants", "public_id": "landmark-bbq-douglasville", "id": 713439510, "votes": null, "tagline": null, "has_video": false, "website": null, "offers": null, "latitude": 33.669601, "politanName": "Atlanta, GA Metro ", "phone_number": "7709471400", "tags": [{"primary": false, "id": 1722, "name": "Restaurants"}, {"primary": true, "id": 1724, "name": "Barbecue Restaurants"}], "fax_number": null, "expansion": {"count": null, "uri": null}, "impression_id": "000b000000c9dbe3999f204fae8b25f28837c65c64", "profile": "http://www.citysearch.com/profile/713439510/douglasville_ga/landmark_bbq.html", "address": {"city": "Douglasville", "state": "GA", "street": "5009 Highway 5", "postal_code": "30135"}, "capProviderId": null, "distance": null, "has_offers": false, "name": "Landmark BBQ", "longitude": -84.806095, "has_menu": false, "awards": null, "user_review_count": 0}, {"business_operation_status": 1, "rating": null, "neighborhood": null, "image": null, "scorecard": null, "featured": false, "sample_categories": "Restaurants", "public_id": "mrs-winners-austell", "id": 822291490, "votes": null, "tagline": null, "has_video": false, "website": null, "offers": null, "latitude": 33.839909, "politanName": "Atlanta, GA Metro ", "phone_number": "7704386204", "tags": [{"primary": true, "id": 1722, "name": "Restaurants"}], "fax_number": null, "expansion": {"count": null, "uri": null}, "impression_id": "000b000000936e8aa012794248adfc2cc09b6b5106", "profile": "http://www.citysearch.com/profile/822291490/austell_ga/mrs_winners.html", "address": {"city": "Austell", "state": "GA", "street": "Austell Rd", "postal_code": "30106"}, "capProviderId": null, "distance": null, "has_offers": false, "name": "Mrs Winners", "longitude": -84.610817, "has_menu": false, "awards": null, "user_review_count": 0}, {"business_operation_status": 1, "rating": null, "neighborhood": null, "image": null, "scorecard": null, "featured": false, "sample_categories": "Restaurants", "public_id": "huey-lueys-hiram", "id": 728043720, "votes": null, "tagline": null, "has_video": false, "website": null, "offers": null, "latitude": 33.885484, "politanName": "Atlanta, GA Metro ", "phone_number": "6785670080", "tags": [{"primary": true, "id": 1722, "name": "Restaurants"}], "fax_number": null, "expansion": {"count": null, "uri": null}, "impression_id": "000b000000b2166e7589564a7eb460cc06a1d99348", "profile": "http://www.citysearch.com/profile/728043720/hiram_ga/huey_luey_s.html", "address": {"city": "Hiram", "state": "GA", "street": "5460 Wendy Bagwell Pkwy", "postal_code": "30141"}, "capProviderId": null, "distance": null, "has_offers": false, "name": "Huey Luey's", "longitude": -84.738421, "has_menu": true, "awards": null, "user_review_count": 0}, {"business_operation_status": 1, "rating": null, "neighborhood": null, "image": null, "scorecard": null, "featured": false, "sample_categories": "Restaurants", "public_id": "el-caribe-restaurant-mableton", "id": 790752020, "votes": null, "tagline": null, "has_video": false, "website": null, "offers": null, "latitude": 33.818318, "politanName": "Atlanta, GA Metro ", "phone_number": "7709447982", "tags": [{"primary": true, "id": 1722, "name": "Restaurants"}], "fax_number": null, "expansion": {"count": null, "uri": null}, "impression_id": "000b0000001c47773386804365b250bdba3ea154f7", "profile": "http://www.citysearch.com/profile/790752020/mableton_ga/el_caribe_restaurant.html", "address": {"city": "Mableton", "state": "GA", "street": "679 Veterans Memorial Hwy Sw", "postal_code": "30126"}, "capProviderId": null, "distance": null, "has_offers": false, "name": "El Caribe Restaurant", "longitude": -84.574544, "has_menu": false, "awards": null, "user_review_count": 0}, {"business_operation_status": 1, "rating": null, "neighborhood": null, "image": null, "scorecard": null, "featured": false, "sample_categories": "Restaurants", "public_id": "pink-camel-douglasville", "id": 798852890, "votes": null, "tagline": null, "has_video": false, "website": null, "offers": null, "latitude": 33.689438, "politanName": "Atlanta, GA Metro ", "phone_number": "7709499222", "tags": [{"primary": true, "id": 1722, "name": "Restaurants"}], "fax_number": null, "expansion": {"count": null, "uri": null}, "impression_id": "000b0000009763d3f7724a4584b47a58936eb07d97", "profile": "http://www.citysearch.com/profile/798852890/douglasville_ga/pink_camel.html", "address": {"city": "Douglasville", "state": "GA", "street": "3756 Chisel Ct", "postal_code": "30135"}, "capProviderId": null, "distance": null, "has_offers": false, "name": "Pink Camel", "longitude": -84.697858, "has_menu": false, "awards": null, "user_review_count": 0}, {"business_operation_status": 1, "rating": null, "neighborhood": null, "image": null, "scorecard": null, "featured": false, "sample_categories": "Restaurants", "public_id": "dos-equis-rstrnt-sportsbar-2-acworth", "id": 807672200, "votes": null, "tagline": null, "has_video": false, "website": null, "offers": null, "latitude": 34.061116, "politanName": "Atlanta, GA Metro ", "phone_number": "7705298842", "tags": [{"primary": true, "id": 1722, "name": "Restaurants"}], "fax_number": null, "expansion": {"count": null, "uri": null}, "impression_id": "000b0000007b9c1993657b4273addf5d1252fedd1d", "profile": "http://www.citysearch.com/profile/807672200/acworth_ga/dos_equis_rstrnt_sportsbar_2.html", "address": {"city": "Acworth", "state": "GA", "street": "186 Thorncliff Lndg", "postal_code": "30101"}, "capProviderId": null, "distance": null, "has_offers": false, "name": "Dos Equis Rstrnt & Sportsbar 2", "longitude": -84.749701, "has_menu": false, "awards": null, "user_review_count": 0}, {"business_operation_status": 1, "rating": null, "neighborhood": null, "image": null, "scorecard": null, "featured": false, "sample_categories": "Restaurants", "public_id": "billy-bobs-barbq-villa-rica", "id": 809544190, "votes": null, "tagline": null, "has_video": false, "website": null, "offers": null, "latitude": 33.729257, "politanName": "Atlanta, GA Metro ", "phone_number": "7704569002", "tags": [{"primary": true, "id": 1722, "name": "Restaurants"}], "fax_number": null, "expansion": {"count": null, "uri": null}, "impression_id": "000b000000284b56cf68a94b5183c3e61f088f6607", "profile": "http://www.citysearch.com/profile/809544190/villa_rica_ga/billy_bob_s_bar_b_q.html", "address": {"city": "Villa Rica", "state": "GA", "street": "9366 E Highway 78", "postal_code": "30180"}, "capProviderId": null, "distance": null, "has_offers": false, "name": "Billy Bob's Bar-B-Q", "longitude": -84.882078, "has_menu": false, "awards": null, "user_review_count": 0}, {"business_operation_status": 1, "rating": null, "neighborhood": null, "image": null, "scorecard": null, "featured": false, "sample_categories": "Restaurants", "public_id": "hirams-oyster-bar-hiram", "id": 815650940, "votes": null, "tagline": null, "has_video": false, "website": null, "offers": null, "latitude": 33.87178, "politanName": "Atlanta, GA Metro ", "phone_number": "7709435270", "tags": [{"primary": true, "id": 1722, "name": "Restaurants"}], "fax_number": null, "expansion": {"count": null, "uri": null}, "impression_id": "000b000000404f31a27e6441ca906f313db600290d", "profile": "http://www.citysearch.com/profile/815650940/hiram_ga/hiram_s_oyster_bar.html", "address": {"city": "Hiram", "state": "GA", "street": "1375 Hiram Douglasville Hwy", "postal_code": "30141"}, "capProviderId": null, "distance": null, "has_offers": false, "name": "Hiram's Oyster Bar", "longitude": -84.764231, "has_menu": false, "awards": null, "user_review_count": 0}, {"business_operation_status": 1, "rating": null, "neighborhood": null, "image": null, "scorecard": null, "featured": false, "sample_categories": "Restaurants", "public_id": "sunrise-biscuit-co-acworth", "id": 816529700, "votes": null, "tagline": null, "has_video": false, "website": null, "offers": null, "latitude": 34.050562, "politanName": "Atlanta, GA Metro ", "phone_number": "7705294550", "tags": [{"primary": true, "id": 1722, "name": "Restaurants"}], "fax_number": null, "expansion": {"count": null, "uri": null}, "impression_id": "000b000000a1d57d73c4a1437e88e7539425492fd5", "profile": "http://www.citysearch.com/profile/816529700/acworth_ga/sunrise_biscuit_co.html", "address": {"city": "Acworth", "state": "GA", "street": "3732 Cedarcrest Rd # 100", "postal_code": "30101"}, "capProviderId": null, "distance": null, "has_offers": false, "name": "Sunrise Biscuit Co", "longitude": -84.762189, "has_menu": false, "awards": null, "user_review_count": 0}, {"business_operation_status": 1, "rating": null, "neighborhood": null, "image": null, "scorecard": null, "featured": false, "sample_categories": "Restaurants, Catering, Barbecue Restaurants", "public_id": "sonnys-real-pit-barbq-austell", "id": 827597680, "votes": null, "tagline": null, "has_video": false, "website": null, "offers": null, "latitude": 33.854519, "politanName": "Atlanta, GA Metro ", "phone_number": "7707457240", "tags": [{"primary": false, "id": 1705, "name": "Catering"}, {"primary": false, "id": 1724, "name": "Barbecue Restaurants"}, {"primary": true, "id": 1722, "name": "Restaurants"}], "fax_number": null, "expansion": {"count": null, "uri": null}, "impression_id": "000b00000089a93f022d2c4664a4d181cbffc54d3f", "profile": "http://www.citysearch.com/profile/827597680/austell_ga/sonny_s_real_pit_bar_b_q.html", "address": {"city": "Austell", "state": "GA", "street": "1804 E West Connector", "postal_code": "30106"}, "capProviderId": null, "distance": null, "has_offers": false, "name": "Sonny's Real Pit Bar-B-Q", "longitude": -84.605012, "has_menu": true, "awards": null, "user_review_count": 0}, {"business_operation_status": 1, "rating": null, "neighborhood": null, "image": null, "scorecard": null, "featured": false, "sample_categories": "Restaurants, Mexican, Carry Out", "public_id": "acworth-taco-dallas", "id": 801077680, "votes": null, "tagline": null, "has_video": false, "website": "http://www.citysearch.com/profile/external/801077680/dallas_ga/acworth_taco.html", "offers": null, "latitude": 34.010309, "politanName": "Atlanta, GA Metro ", "phone_number": "6785743774", "tags": [{"primary": false, "id": 11208, "name": "Mexican"}, {"primary": false, "id": 11247, "name": "Carry Out"}, {"primary": true, "id": 1722, "name": "Restaurants"}], "fax_number": null, "expansion": {"count": null, "uri": null}, "impression_id": "000b0000009fac80507cc54dfb94fc738643bd3838", "profile": "http://www.citysearch.com/profile/801077680/dallas_ga/acworth_taco.html", "address": {"city": "Dallas", "state": "GA", "street": "8876 Dallas Acworth Hwy", "postal_code": "30132"}, "capProviderId": null, "distance": null, "has_offers": false, "name": "Acworth Taco", "longitude": -84.753348, "has_menu": false, "awards": null, "user_review_count": 0}, {"business_operation_status": 1, "rating": null, "neighborhood": null, "image": null, "scorecard": null, "featured": false, "sample_categories": "Restaurants", "public_id": "tip-top-tea-shoppe-llc-dallas", "id": 632994140, "votes": null, "tagline": null, "has_video": false, "website": "http://www.citysearch.com/profile/external/632994140/dallas_ga/tip_top_tea_shoppe_llc.html", "offers": null, "latitude": 33.991564, "politanName": "Atlanta, GA Metro ", "phone_number": "7704850240", "tags": [{"primary": true, "id": 1722, "name": "Restaurants"}], "fax_number": null, "expansion": {"count": null, "uri": null}, "impression_id": "000b000000f35342feb333481083e8f7d17013626a", "profile": "http://www.citysearch.com/profile/632994140/dallas_ga/tip_top_tea_shoppe_llc.html", "address": {"city": "Dallas", "state": "GA", "street": "92 Richaven Pl", "postal_code": "30132"}, "capProviderId": null, "distance": null, "has_offers": false, "name": "Tip Top Tea Shoppe Llc", "longitude": -84.780151, "has_menu": false, "awards": null, "user_review_count": 0}, {"business_operation_status": 1, "rating": null, "neighborhood": null, "image": null, "scorecard": null, "featured": false, "sample_categories": "Restaurants, Cajun & Creole", "public_id": "carlas-cajun-kitchen-lithia-spgs", "id": 648925220, "votes": null, "tagline": null, "has_video": false, "website": null, "offers": null, "latitude": 33.774233, "politanName": "Atlanta, GA Metro ", "phone_number": "6783989159", "tags": [{"primary": false, "id": 11245, "name": "Cajun & Creole"}, {"primary": true, "id": 1722, "name": "Restaurants"}], "fax_number": null, "expansion": {"count": null, "uri": null}, "impression_id": "000b000000b291908c326f4707917cc17efe99a210", "profile": "http://www.citysearch.com/profile/648925220/lithia_springs_ga/carla_s_cajun_kitchen.html", "address": {"city": "Lithia Springs", "state": "GA", "street": "7413 Lee Rd", "postal_code": "30122"}, "capProviderId": null, "distance": null, "has_offers": false, "name": "Carla's Cajun Kitchen", "longitude": -84.654048, "has_menu": false, "awards": null, "user_review_count": 1}, {"business_operation_status": 1, "rating": 10.0, "neighborhood": null, "image": null, "scorecard": null, "featured": false, "sample_categories": "Restaurants", "public_id": "stilesboro-biscuits-kennesaw", "id": 45561009, "votes": null, "tagline": null, "has_video": false, "website": null, "offers": null, "latitude": 33.997874, "politanName": "Atlanta, GA Metro ", "phone_number": "7704295552", "tags": [{"primary": true, "id": 1722, "name": "Restaurants"}], "fax_number": null, "expansion": {"count": null, "uri": null}, "impression_id": "000b000000814a03c7c2184450bf1ea9f3a43b97e0", "profile": "http://www.citysearch.com/profile/45561009/kennesaw_ga/stilesboro_biscuits.html", "address": {"city": "Kennesaw", "state": "GA", "street": "3545 Stilesboro Rd NW", "postal_code": "30152"}, "capProviderId": null, "distance": null, "has_offers": false, "name": "Stilesboro Biscuits", "longitude": -84.655238, "has_menu": false, "awards": null, "user_review_count": 3}, {"business_operation_status": 1, "rating": null, "neighborhood": null, "image": null, "scorecard": null, "featured": false, "sample_categories": "Restaurants, Seafood, Carry Out, MasterCard, Visa", "public_id": "captain-ds-seafood-mableton-2", "id": 682515390, "votes": null, "tagline": null, "has_video": false, "website": "http://www.citysearch.com/profile/external/682515390/mableton_ga/captain_d_s_seafood.html", "offers": null, "latitude": 33.819503, "politanName": "Atlanta, GA Metro ", "phone_number": "7709486116", "tags": [{"primary": false, "id": 11228, "name": "Seafood"}, {"primary": false, "id": 11247, "name": "Carry Out"}, {"primary": false, "id": 11361, "name": "MasterCard"}, {"primary": false, "id": 11382, "name": "Visa"}, {"primary": true, "id": 1722, "name": "Restaurants"}], "fax_number": null, "expansion": {"count": null, "uri": null}, "impression_id": "000b0000009ee3725b0d454ebdae36a85b8e91c209", "profile": "http://www.citysearch.com/profile/682515390/mableton_ga/captain_d_s_seafood.html", "address": {"city": "Mableton", "state": "GA", "street": "5545 Floyd Rd Sw", "postal_code": "30126"}, "capProviderId": null, "distance": null, "has_offers": false, "name": "Captain D's Seafood", "longitude": -84.576206, "has_menu": true, "awards": null, "user_review_count": 0}, {"business_operation_status": 1, "rating": null, "neighborhood": null, "image": null, "scorecard": null, "featured": false, "sample_categories": "Restaurants, Pizza, Carry Out", "public_id": "dominos-pizza-dallas-38", "id": 682657320, "votes": null, "tagline": null, "has_video": false, "website": "http://www.citysearch.com/profile/external/682657320/dallas_ga/domino_s_pizza.html", "offers": null, "latitude": 34.016676, "politanName": "Atlanta, GA Metro ", "phone_number": "7705053030", "tags": [{"primary": false, "id": 1722, "name": "Restaurants"}, {"primary": false, "id": 11247, "name": "Carry Out"}, {"primary": true, "id": 11299, "name": "Pizza"}], "fax_number": null, "expansion": {"count": null, "uri": null}, "impression_id": "000b0000002d06337e1d5641fb8f27d2a1ae66d515", "profile": "http://www.citysearch.com/profile/682657320/dallas_ga/domino_s_pizza.html", "address": {"city": "Dallas", "state": "GA", "street": "423 Old Dallas Acworth Rd N", "postal_code": "30132"}, "capProviderId": null, "distance": null, "has_offers": false, "name": "Domino's Pizza", "longitude": -84.753746, "has_menu": false, "awards": null, "user_review_count": 0}, {"business_operation_status": 1, "rating": null, "neighborhood": null, "image": null, "scorecard": null, "featured": false, "sample_categories": "Restaurants", "public_id": "mineos-italian-restaurant-acworth", "id": 821749900, "votes": null, "tagline": null, "has_video": false, "website": null, "offers": null, "latitude": 33.997403, "politanName": "Atlanta, GA Metro ", "phone_number": "7704247746", "tags": [{"primary": true, "id": 1722, "name": "Restaurants"}], "fax_number": null, "expansion": {"count": null, "uri": null}, "impression_id": "000b00000038913b04c05f4e1584db64e8bb52cb5a", "profile": "http://www.citysearch.com/profile/821749900/acworth_ga/mineo_s_italian_restaurant.html", "address": {"city": "Acworth", "state": "GA", "street": "1727 Mars Hill Rd NW # 6", "postal_code": "30101"}, "capProviderId": null, "distance": null, "has_offers": false, "name": "Mineo's Italian Restaurant", "longitude": -84.707837, "has_menu": false, "awards": null, "user_review_count": 1}, {"business_operation_status": 0, "rating": null, "neighborhood": null, "image": null, "scorecard": null, "featured": false, "sample_categories": "Restaurants", "public_id": "williams-poboys-snowballs-douglasville", "id": 768839770, "votes": null, "tagline": null, "has_video": false, "website": null, "offers": null, "latitude": 33.680221, "politanName": "Atlanta, GA Metro ", "phone_number": "7707453644", "tags": [{"primary": true, "id": 1722, "name": "Restaurants"}], "fax_number": null, "expansion": {"count": null, "uri": null}, "impression_id": "000b000000c9a078a200d145479b9d018c2cd4e119", "profile": "http://www.citysearch.com/profile/768839770/douglasville_ga/william_s_poboys_snowballs.html", "address": {"city": "Douglasville", "state": "GA", "street": "3153 Lower Creek Dr", "postal_code": "30135"}, "capProviderId": null, "distance": null, "has_offers": false, "name": "William's Poboys & Snowballs", "longitude": -84.690636, "has_menu": false, "awards": null, "user_review_count": 0}, {"business_operation_status": 1, "rating": null, "neighborhood": null, "image": null, "scorecard": null, "featured": false, "sample_categories": "Restaurants, Chinese", "public_id": "king-chinese-buffet-douglasville", "id": 772197660, "votes": null, "tagline": null, "has_video": false, "website": null, "offers": null, "latitude": 33.728461, "politanName": "Atlanta, GA Metro ", "phone_number": "7704890909", "tags": [{"primary": false, "id": 11252, "name": "Chinese"}, {"primary": true, "id": 1722, "name": "Restaurants"}], "fax_number": null, "expansion": {"count": null, "uri": null}, "impression_id": "000b000000da7e3af77c44419c87b4bde92295fc36", "profile": "http://www.citysearch.com/profile/772197660/douglasville_ga/king_chinese_buffet.html", "address": {"city": "Douglasville", "state": "GA", "street": "6842 Douglas Blvd", "postal_code": "30135"}, "capProviderId": null, "distance": null, "has_offers": false, "name": "King Chinese Buffet", "longitude": -84.752972, "has_menu": false, "awards": null, "user_review_count": 0}, {"business_operation_status": 1, "rating": null, "neighborhood": null, "image": null, "scorecard": null, "featured": false, "sample_categories": "Bars & Pubs, Bars & Clubs, Restaurants", "public_id": "bbs-sports-bar-grill-douglasville", "id": 728041860, "votes": null, "tagline": null, "has_video": false, "website": null, "offers": null, "latitude": 33.81864, "politanName": "Atlanta, GA Metro ", "phone_number": "7705779595", "tags": [{"primary": false, "id": 164, "name": "Bars & Clubs"}, {"primary": false, "id": 1722, "name": "Restaurants"}, {"primary": true, "id": 1686, "name": "Bars & Pubs"}], "fax_number": null, "expansion": {"count": null, "uri": null}, "impression_id": "000b000000f68ea187f95e4873bf04e703d2ea9c58", "profile": "http://www.citysearch.com/profile/728041860/douglasville_ga/bbs_sports_bar_grill.html", "address": {"city": "Douglasville", "state": "GA", "street": "4813 Ridge Rd # 117", "postal_code": "30134"}, "capProviderId": null, "distance": null, "has_offers": false, "name": "Bbs Sports Bar & Grill", "longitude": -84.813859, "has_menu": false, "awards": null, "user_review_count": 0}, {"business_operation_status": 1, "rating": null, "neighborhood": null, "image": null, "scorecard": null, "featured": false, "sample_categories": "Restaurants", "public_id": "planet-smoothie-douglasville", "id": 809306630, "votes": null, "tagline": null, "has_video": false, "website": null, "offers": null, "latitude": 33.668148, "politanName": "Atlanta, GA Metro ", "phone_number": "6785670069", "tags": [{"primary": true, "id": 1722, "name": "Restaurants"}], "fax_number": null, "expansion": {"count": null, "uri": null}, "impression_id": "000b0000000dd03efc91504d01ac0eb3fc09ccf5ab", "profile": "http://www.citysearch.com/profile/809306630/douglasville_ga/planet_smoothie.html", "address": {"city": "Douglasville", "state": "GA", "street": "5125 Eastbrook Rd", "postal_code": "30135"}, "capProviderId": null, "distance": null, "has_offers": false, "name": "Planet Smoothie", "longitude": -84.716657, "has_menu": false, "awards": null, "user_review_count": 0}, {"business_operation_status": 1, "rating": null, "neighborhood": null, "image": null, "scorecard": null, "featured": false, "sample_categories": "Restaurants, Carry Out", "public_id": "burger-king-douglasville-5", "id": 764840540, "votes": null, "tagline": null, "has_video": false, "website": "http://www.citysearch.com/profile/external/764840540/douglasville_ga/burger_king.html", "offers": null, "latitude": 33.750858, "politanName": "Atlanta, GA Metro ", "phone_number": "7709497746", "tags": [{"primary": false, "id": 11247, "name": "Carry Out"}, {"primary": true, "id": 1722, "name": "Restaurants"}], "fax_number": null, "expansion": {"count": null, "uri": null}, "impression_id": "000b0000009177c55e57e8414382717b1bee2aae2f", "profile": "http://www.citysearch.com/profile/764840540/douglasville_ga/burger_king.html", "address": {"city": "Douglasville", "state": "GA", "street": "5614 Fairburn Rd", "postal_code": "30134"}, "capProviderId": null, "distance": null, "has_offers": false, "name": "Burger King", "longitude": -84.71908, "has_menu": true, "awards": null, "user_review_count": 0}, {"business_operation_status": 1, "rating": null, "neighborhood": null, "image": null, "scorecard": null, "featured": false, "sample_categories": "Restaurants, Chicken", "public_id": "chicken-world-hiram", "id": 768817890, "votes": null, "tagline": null, "has_video": false, "website": null, "offers": null, "latitude": 33.891751, "politanName": "Atlanta, GA Metro ", "phone_number": "7709434045", "tags": [{"primary": false, "id": 12839, "name": "Chicken"}, {"primary": true, "id": 1722, "name": "Restaurants"}], "fax_number": null, "expansion": {"count": null, "uri": null}, "impression_id": "000b00000029836c06450f4a58941f759f62e35b9c", "profile": "http://www.citysearch.com/profile/768817890/hiram_ga/chicken_world.html", "address": {"city": "Hiram", "state": "GA", "street": "4109 Jimmy Lee Smith Pkwy", "postal_code": "30141"}, "capProviderId": null, "distance": null, "has_offers": false, "name": "Chicken World", "longitude": -84.755388, "has_menu": false, "awards": null, "user_review_count": 0}, {"business_operation_status": 1, "rating": 8.0, "neighborhood": null, "image": null, "scorecard": null, "featured": false, "sample_categories": "Restaurants, Mexican", "public_id": "la-cabana-marietta", "id": 2906494, "votes": null, "tagline": null, "has_video": false, "website": "http://www.citysearch.com/profile/external/2906494/marietta_ga/la_cabana.html", "offers": null, "latitude": 33.907683, "politanName": "Atlanta, GA Metro ", "phone_number": "7704257756", "tags": [{"primary": false, "id": 11208, "name": "Mexican"}, {"primary": true, "id": 1722, "name": "Restaurants"}], "fax_number": null, "expansion": {"count": null, "uri": null}, "impression_id": "000b0000007ff596e64aac422b8dae8ff2e1469476", "profile": "http://www.citysearch.com/profile/2906494/marietta_ga/la_cabana.html", "address": {"city": "Marietta", "state": "GA", "street": "1651 Powder Springs Rd SW Ste 1", "postal_code": "30064"}, "capProviderId": null, "distance": null, "has_offers": false, "name": "La Cabana", "longitude": -84.601655, "has_menu": true, "awards": null, "user_review_count": 2}, {"business_operation_status": 1, "rating": null, "neighborhood": null, "image": null, "scorecard": null, "featured": false, "sample_categories": "Restaurants", "public_id": "tme-enterprises-i-ltd-mableton", "id": 2949244, "votes": null, "tagline": null, "has_video": false, "website": null, "offers": null, "latitude": 33.818546, "politanName": "Atlanta, GA Metro ", "phone_number": "7709443911", "tags": [{"primary": true, "id": 1722, "name": "Restaurants"}], "fax_number": null, "expansion": {"count": null, "uri": null}, "impression_id": "000b0000009f17cf3cfb78410da77a3ccefe78cec2", "profile": "http://www.citysearch.com/profile/2949244/mableton_ga/tme_enterprises_i_ltd.html", "address": {"city": "Mableton", "state": "GA", "street": "737 Veterans Memorial Hwy SW", "postal_code": "30126"}, "capProviderId": null, "distance": null, "has_offers": false, "name": "Tme Enterprises I Ltd", "longitude": -84.575739, "has_menu": false, "awards": null, "user_review_count": 0}, {"business_operation_status": 1, "rating": null, "neighborhood": null, "image": null, "scorecard": null, "featured": false, "sample_categories": "Restaurants, Pizza, Carry Out", "public_id": "dominos-pizza-marietta-17", "id": 608562794, "votes": null, "tagline": null, "has_video": false, "website": "http://www.citysearch.com/profile/external/608562794/marietta_ga/domino_s_pizza.html", "offers": null, "latitude": 33.876575, "politanName": "Atlanta, GA Metro ", "phone_number": "7709555585", "tags": [{"primary": false, "id": 1722, "name": "Restaurants"}, {"primary": false, "id": 11247, "name": "Carry Out"}, {"primary": true, "id": 11299, "name": "Pizza"}], "fax_number": null, "expansion": {"count": null, "uri": null}, "impression_id": "000b00000003502fb83b214466be4697043a7f8f62", "profile": "http://www.citysearch.com/profile/608562794/marietta_ga/domino_s_pizza.html", "address": {"city": "Marietta", "state": "GA", "street": "1230 Pair Rd SW", "postal_code": "30067"}, "capProviderId": null, "distance": null, "has_offers": false, "name": "Domino's Pizza", "longitude": -84.589289, "has_menu": false, "awards": null, "user_review_count": 0}, {"business_operation_status": 1, "rating": null, "neighborhood": null, "image": null, "scorecard": null, "featured": false, "sample_categories": "Restaurants", "public_id": "valindas-cozy-kitchen-austell", "id": 807391420, "votes": null, "tagline": null, "has_video": false, "website": null, "offers": null, "latitude": 33.804925, "politanName": "Atlanta, GA Metro ", "phone_number": "7709446694", "tags": [{"primary": true, "id": 1722, "name": "Restaurants"}], "fax_number": null, "expansion": {"count": null, "uri": null}, "impression_id": "000b0000000dd7745e98b540cd995fab7d95fce558", "profile": "http://www.citysearch.com/profile/807391420/austell_ga/valindas_cozy_kitchen.html", "address": {"city": "Austell", "state": "GA", "street": "2795 Bankhead Hwy", "postal_code": "30168"}, "capProviderId": null, "distance": null, "has_offers": false, "name": "Valindas Cozy Kitchen", "longitude": -84.636781, "has_menu": false, "awards": null, "user_review_count": 0}, {"business_operation_status": 1, "rating": null, "neighborhood": null, "image": null, "scorecard": null, "featured": false, "sample_categories": "Restaurants, Delis And Delicatessens, Sandwich Shops, Carry Out, Soups", "public_id": "subway-dallas-125", "id": 43861470, "votes": null, "tagline": null, "has_video": false, "website": "http://www.citysearch.com/profile/external/43861470/dallas_ga/subway.html", "offers": null, "latitude": 33.985034, "politanName": "Atlanta, GA Metro ", "phone_number": "6785747185", "tags": [{"primary": false, "id": 1727, "name": "Delis And Delicatessens"}, {"primary": false, "id": 1736, "name": "Sandwich Shops"}, {"primary": false, "id": 11247, "name": "Carry Out"}, {"primary": false, "id": 11311, "name": "Soups"}, {"primary": false, "id": 11361, "name": "MasterCard"}, {"primary": false, "id": 11382, "name": "Visa"}, {"primary": true, "id": 1722, "name": "Restaurants"}], "fax_number": null, "expansion": {"count": null, "uri": null}, "impression_id": "000b000000408fbbc03a724e1e8c26b6d8fe694e58", "profile": "http://www.citysearch.com/profile/43861470/dallas_ga/subway.html", "address": {"city": "Dallas", "state": "GA", "street": "8876 Dallas Acworth HwySte 134", "postal_code": "30132"}, "capProviderId": null, "distance": null, "has_offers": false, "name": "Subway", "longitude": -84.771736, "has_menu": true, "awards": null, "user_review_count": 0}, {"business_operation_status": 0, "rating": null, "neighborhood": null, "image": null, "scorecard": null, "featured": false, "sample_categories": "Restaurants, Bars & Pubs", "public_id": "benos-sports-bar-grill-austell", "id": 647356910, "votes": null, "tagline": null, "has_video": false, "website": null, "offers": null, "latitude": 33.833761, "politanName": "Atlanta, GA Metro ", "phone_number": "7707458810", "tags": [{"primary": false, "id": 1686, "name": "Bars & Pubs"}, {"primary": true, "id": 1722, "name": "Restaurants"}], "fax_number": null, "expansion": {"count": null, "uri": null}, "impression_id": "000b00000048ceb66d3ce0486abbf692f7c2de756d", "profile": "http://www.citysearch.com/profile/647356910/austell_ga/beno_s_sports_bar_grill.html", "address": {"city": "Austell", "state": "GA", "street": "3156 Mosley Chase Dr", "postal_code": "30106"}, "capProviderId": null, "distance": null, "has_offers": false, "name": "Beno's Sports Bar & Grill", "longitude": -84.646818, "has_menu": false, "awards": null, "user_review_count": 0}], "histograms": [], "tag_ids": [1722], "uri": "http://api.citygridmedia.com:8080/search/places/v2/search/where?has_offers=false&type=restaurant&format=json&page=13&where=30127&rpp=50&histograms=false&publisher=10000009598&region_type=circle", "did_you_mean": "", "regions": [{"latitude": 33.880952, "default_radius": 7.3, "type": "postal_code", "name": "30127", "longitude": -84.695289}], "call_id": "000b0000007f90096a6e6c4d999c3bd451a2f8d37b", "first_hit": 601, "total_hits": 1066, "geo_ids": [26302], "page": 13, "last_hit": 650}}