{"results": {"rpp": 50, "locations": [{"business_operation_status": 1, "rating": null, "neighborhood": null, "image": null, "scorecard": null, "featured": false, "sample_categories": "Delis And Delicatessens", "public_id": "kroger-deli-lithia-spg", "id": 696292440, "votes": null, "tagline": null, "has_video": false, "website": null, "offers": null, "latitude": 33.796626, "politanName": "Atlanta, GA Metro ", "phone_number": "7707326999", "tags": [{"primary": true, "id": 1727, "name": "Delis And Delicatessens"}], "fax_number": null, "expansion": {"count": null, "uri": null}, "impression_id": "000b000000f6d56ba92ace418597367b0cb3203396", "profile": "http://www.citysearch.com/profile/696292440/lithia_springs_ga/kroger_deli.html", "address": {"city": "Lithia Springs", "state": "GA", "street": "630 Thornton Rd", "postal_code": "30122"}, "capProviderId": null, "distance": null, "has_offers": false, "name": "Kroger Deli", "longitude": -84.641616, "has_menu": false, "awards": null, "user_review_count": 0}, {"business_operation_status": 1, "rating": null, "neighborhood": null, "image": null, "scorecard": null, "featured": false, "sample_categories": "Restaurants, Delis And Delicatessens, Carry Out", "public_id": "firehouse-subs-lithia", "id": 798825170, "votes": null, "tagline": null, "has_video": false, "website": null, "offers": null, "latitude": 33.7867, "politanName": "Atlanta, GA Metro ", "phone_number": "7704854552", "tags": [{"primary": false, "id": 1727, "name": "Delis And Delicatessens"}, {"primary": false, "id": 11247, "name": "Carry Out"}, {"primary": true, "id": 1722, "name": "Restaurants"}], "fax_number": null, "expansion": {"count": null, "uri": null}, "impression_id": "000b000000a743f32e71034eaaa49f55eb4645aee6", "profile": "http://www.citysearch.com/profile/798825170/lithia_springs_ga/firehouse_subs.html", "address": {"city": "Lithia Springs", "state": "GA", "street": "1300 W Corporate Ct", "postal_code": "30122"}, "capProviderId": null, "distance": null, "has_offers": false, "name": "Firehouse Subs", "longitude": -84.618514, "has_menu": true, "awards": null, "user_review_count": 0}, {"business_operation_status": 1, "rating": null, "neighborhood": null, "image": null, "scorecard": null, "featured": false, "sample_categories": "Restaurants, Bistros", "public_id": "bentleys-bistro-bar-douglasville", "id": 748249550, "votes": null, "tagline": null, "has_video": false, "website": null, "offers": null, "latitude": 33.684914, "politanName": "Atlanta, GA Metro ", "phone_number": "6784012607", "tags": [{"primary": false, "id": 13690, "name": "Bistros"}, {"primary": true, "id": 1722, "name": "Restaurants"}], "fax_number": null, "expansion": {"count": null, "uri": null}, "impression_id": "000b00000008d018829fe24d08a067911078fc4a11", "profile": "http://www.citysearch.com/profile/748249550/douglasville_ga/bentley_s_bistro_bar.html", "address": {"city": "Douglasville", "state": "GA", "street": "4830 Smokestone Dr", "postal_code": "30135"}, "capProviderId": null, "distance": null, "has_offers": false, "name": "Bentley's Bistro & Bar", "longitude": -84.734088, "has_menu": false, "awards": null, "user_review_count": 0}, {"business_operation_status": 1, "rating": null, "neighborhood": null, "image": null, "scorecard": null, "featured": false, "sample_categories": "Restaurants, Mexican", "public_id": "el-texano-mexican-restaurant-douglasville", "id": 748266920, "votes": null, "tagline": null, "has_video": false, "website": null, "offers": null, "latitude": 33.751479, "politanName": "Atlanta, GA Metro ", "phone_number": "6782752283", "tags": [{"primary": false, "id": 11208, "name": "Mexican"}, {"primary": true, "id": 1722, "name": "Restaurants"}], "fax_number": null, "expansion": {"count": null, "uri": null}, "impression_id": "000b0000006cc17d3226914ef89f288ea7a3ccc584", "profile": "http://www.citysearch.com/profile/748266920/douglasville_ga/el_texano_mexican_restaurant.html", "address": {"city": "Douglasville", "state": "GA", "street": "6599 Church St", "postal_code": "30134"}, "capProviderId": null, "distance": null, "has_offers": false, "name": "El Texano Mexican Restaurant", "longitude": -84.745942, "has_menu": false, "awards": null, "user_review_count": 0}, {"business_operation_status": 1, "rating": null, "neighborhood": null, "image": null, "scorecard": null, "featured": false, "sample_categories": "Restaurants", "public_id": "creative-cafe-marietta-2", "id": 820012610, "votes": null, "tagline": null, "has_video": false, "website": null, "offers": null, "latitude": 33.895694, "politanName": "Atlanta, GA Metro ", "phone_number": "6787702879", "tags": [{"primary": true, "id": 1722, "name": "Restaurants"}], "fax_number": null, "expansion": {"count": null, "uri": null}, "impression_id": "000b00000001df98bb625749cb939ab808a51bfb9a", "profile": "http://www.citysearch.com/profile/820012610/marietta_ga/creative_cafe.html", "address": {"city": "Marietta", "state": "GA", "street": "1430 Glynn Oaks Cir SW", "postal_code": "30008"}, "capProviderId": null, "distance": null, "has_offers": false, "name": "Creative Cafe", "longitude": -84.599593, "has_menu": false, "awards": null, "user_review_count": 0}, {"business_operation_status": 1, "rating": null, "neighborhood": null, "image": null, "scorecard": null, "featured": false, "sample_categories": "Restaurants, Delis And Delicatessens, Sandwich Shops, Carry Out", "public_id": "quiznos-austell", "id": 827661580, "votes": null, "tagline": null, "has_video": false, "website": null, "offers": null, "latitude": 33.860912, "politanName": "Atlanta, GA Metro ", "phone_number": "6783840005", "tags": [{"primary": false, "id": 1727, "name": "Delis And Delicatessens"}, {"primary": false, "id": 1736, "name": "Sandwich Shops"}, {"primary": false, "id": 11247, "name": "Carry Out"}, {"primary": true, "id": 1722, "name": "Restaurants"}], "fax_number": null, "expansion": {"count": null, "uri": null}, "impression_id": "000b000000433de0ca06c14edc956d43f5387774e2", "profile": "http://www.citysearch.com/profile/827661580/austell_ga/quiznos.html", "address": {"city": "Austell", "state": "GA", "street": "2495 E West Connector # 80", "postal_code": "30106"}, "capProviderId": null, "distance": null, "has_offers": false, "name": "Quiznos", "longitude": -84.620637, "has_menu": false, "awards": null, "user_review_count": 0}, {"business_operation_status": 1, "rating": null, "neighborhood": null, "image": null, "scorecard": null, "featured": false, "sample_categories": "Restaurants", "public_id": "westside-diner-lithia", "id": 823709610, "votes": null, "tagline": null, "has_video": false, "website": null, "offers": null, "latitude": 33.785807, "politanName": "Atlanta, GA Metro ", "phone_number": "6789450070", "tags": [{"primary": true, "id": 1722, "name": "Restaurants"}], "fax_number": null, "expansion": {"count": null, "uri": null}, "impression_id": "000b00000045a02bec56a34a04b1570f852de52b23", "profile": "http://www.citysearch.com/profile/823709610/lithia_springs_ga/westside_diner.html", "address": {"city": "Lithia Springs", "state": "GA", "street": "6945 S Sweetwater Rd", "postal_code": "30122"}, "capProviderId": null, "distance": null, "has_offers": false, "name": "Westside Diner", "longitude": -84.656793, "has_menu": false, "awards": null, "user_review_count": 0}, {"business_operation_status": 1, "rating": null, "neighborhood": null, "image": null, "scorecard": null, "featured": false, "sample_categories": "Restaurants", "public_id": "grazie-a-bistro-marietta", "id": 823574700, "votes": null, "tagline": null, "has_video": false, "website": null, "offers": null, "latitude": 33.953111, "politanName": "Atlanta, GA Metro ", "phone_number": "7704998585", "tags": [{"primary": true, "id": 1722, "name": "Restaurants"}], "fax_number": null, "expansion": {"count": null, "uri": null}, "impression_id": "000b0000003358791128a94a15a635d8ca343c91d5", "profile": "http://www.citysearch.com/profile/823574700/marietta_ga/grazie_a_bistro.html", "address": {"city": "Marietta", "state": "GA", "street": "1000 Whitlock Ave NW # 410", "postal_code": "30064"}, "capProviderId": null, "distance": null, "has_offers": false, "name": "Grazie A Bistro", "longitude": -84.581272, "has_menu": false, "awards": null, "user_review_count": 0}, {"business_operation_status": 1, "rating": null, "neighborhood": null, "image": null, "scorecard": null, "featured": false, "sample_categories": "Restaurants", "public_id": "j-r-cricket-mableton", "id": 832544960, "votes": null, "tagline": null, "has_video": false, "website": null, "offers": null, "latitude": 33.823999, "politanName": "Atlanta, GA Metro ", "phone_number": "7707455475", "tags": [{"primary": true, "id": 1722, "name": "Restaurants"}], "fax_number": null, "expansion": {"count": null, "uri": null}, "impression_id": "000b0000001a1526e0cc38425cbe62a8144f82f6a1", "profile": "http://www.citysearch.com/profile/832544960/mableton_ga/j_r_cricket.html", "address": {"city": "Mableton", "state": "GA", "street": "5345 Floyd Rd SW # J", "postal_code": "30126"}, "capProviderId": null, "distance": null, "has_offers": false, "name": "J R Cricket", "longitude": -84.574687, "has_menu": true, "awards": null, "user_review_count": 0}, {"business_operation_status": 1, "rating": null, "neighborhood": null, "image": null, "scorecard": null, "featured": false, "sample_categories": "Restaurants, Barbecue Restaurants", "public_id": "hurricane-grill-wings-austell", "id": 777739530, "votes": null, "tagline": null, "has_video": false, "website": "http://www.citysearch.com/profile/external/777739530/austell_ga/hurricane_grill_wings.html", "offers": null, "latitude": 33.856949, "politanName": "Atlanta, GA Metro ", "phone_number": "7708011345", "tags": [{"primary": false, "id": 1724, "name": "Barbecue Restaurants"}, {"primary": true, "id": 1722, "name": "Restaurants"}], "fax_number": null, "expansion": {"count": null, "uri": null}, "impression_id": "000b0000002a4f5611b514462b811fa7e65a049f9b", "profile": "http://www.citysearch.com/profile/777739530/austell_ga/hurricane_grill_wings.html", "address": {"city": "Austell", "state": "GA", "street": "3961 Floyd Rd # 100", "postal_code": "30106"}, "capProviderId": null, "distance": null, "has_offers": false, "name": "Hurricane Grill & Wings", "longitude": -84.590442, "has_menu": true, "awards": null, "user_review_count": 0}, {"business_operation_status": 1, "rating": 8.0, "neighborhood": null, "image": null, "scorecard": null, "featured": false, "sample_categories": "Dessert Shops, Traditional American", "public_id": "darlenes-philadelphia-water-austell", "id": 36286186, "votes": null, "tagline": null, "has_video": false, "website": null, "offers": null, "latitude": 33.827117, "politanName": "Atlanta, GA Metro ", "phone_number": "7707397199", "tags": [{"primary": false, "id": 1728, "name": "Dessert Shops"}, {"primary": true, "id": 11190, "name": "Traditional American"}], "fax_number": null, "expansion": {"count": null, "uri": null}, "impression_id": "000b000000bd521872cc9b4893b60bb746856dc9ee", "profile": "http://www.citysearch.com/profile/36286186/austell_ga/darlene_s_philadelphia_water.html", "address": {"city": "Austell", "state": "GA", "street": "5220 Austell RdSte C", "postal_code": "30106"}, "capProviderId": null, "distance": null, "has_offers": false, "name": "Darlene's Philadelphia Water", "longitude": -84.61505, "has_menu": false, "awards": null, "user_review_count": 0}, {"business_operation_status": 1, "rating": null, "neighborhood": null, "image": null, "scorecard": null, "featured": false, "sample_categories": "Restaurants, Carry Out", "public_id": "firehouse-subs-marietta-4", "id": 621046074, "votes": null, "tagline": null, "has_video": false, "website": null, "offers": null, "latitude": 33.948258, "politanName": "Atlanta, GA Metro ", "phone_number": null, "tags": [{"primary": false, "id": 11247, "name": "Carry Out"}, {"primary": true, "id": 1722, "name": "Restaurants"}], "fax_number": null, "expansion": {"count": null, "uri": null}, "impression_id": "000b0000004ddb6701c3df4a30a44dd0ca95bfe290", "profile": "http://www.citysearch.com/profile/621046074/marietta_ga/firehouse_subs.html", "address": {"city": "Marietta", "state": "GA", "street": "2500 Dallas Hwy SW 650", "postal_code": "30064"}, "capProviderId": null, "distance": null, "has_offers": false, "name": "Firehouse Subs", "longitude": -84.62566, "has_menu": false, "awards": null, "user_review_count": 0}, {"business_operation_status": 1, "rating": null, "neighborhood": null, "image": null, "scorecard": null, "featured": false, "sample_categories": "Ice Cream Parlors", "public_id": "ritas-water-ice-marietta-2", "id": 621872750, "votes": null, "tagline": null, "has_video": false, "website": "http://www.citysearch.com/profile/external/621872750/marietta_ga/rita_s_water_ice.html", "offers": null, "latitude": 33.952594, "politanName": "Atlanta, GA Metro ", "phone_number": "6784026240", "tags": [{"primary": true, "id": 1730, "name": "Ice Cream Parlors"}], "fax_number": null, "expansion": {"count": null, "uri": null}, "impression_id": "000b00000056bb5aafe9e04c27b611bf071c1b6ee7", "profile": "http://www.citysearch.com/profile/621872750/marietta_ga/rita_s_water_ice.html", "address": {"city": "Marietta", "state": "GA", "street": "800 Whitlock Ave Nw", "postal_code": "30064"}, "capProviderId": null, "distance": null, "has_offers": false, "name": "Rita's Water Ice", "longitude": -84.575881, "has_menu": false, "awards": null, "user_review_count": 1}, {"business_operation_status": 1, "rating": null, "neighborhood": null, "image": null, "scorecard": null, "featured": false, "sample_categories": "Restaurants, Carry Out", "public_id": "waffle-house-dallas-16", "id": 627795954, "votes": null, "tagline": null, "has_video": false, "website": "http://www.citysearch.com/profile/external/627795954/dallas_ga/waffle_house.html", "offers": null, "latitude": 33.809976, "politanName": "Atlanta, GA Metro ", "phone_number": "6783636070", "tags": [{"primary": false, "id": 11247, "name": "Carry Out"}, {"primary": true, "id": 1722, "name": "Restaurants"}], "fax_number": null, "expansion": {"count": null, "uri": null}, "impression_id": "000b0000003db1cddec1f54549a6b9f8fe3f937ecb", "profile": "http://www.citysearch.com/profile/627795954/dallas_ga/waffle_house.html", "address": {"city": "Dallas", "state": "GA", "street": "7949 Villa Rica Hwy", "postal_code": "30157"}, "capProviderId": null, "distance": null, "has_offers": false, "name": "Waffle House", "longitude": -84.888638, "has_menu": false, "awards": null, "user_review_count": 0}, {"business_operation_status": 1, "rating": null, "neighborhood": null, "image": null, "scorecard": null, "featured": false, "sample_categories": "Restaurants", "public_id": "crossroads-cafe-dallas", "id": 672625580, "votes": null, "tagline": null, "has_video": false, "website": null, "offers": null, "latitude": 34.027382, "politanName": "Atlanta, GA Metro ", "phone_number": null, "tags": [{"primary": true, "id": 1722, "name": "Restaurants"}], "fax_number": null, "expansion": {"count": null, "uri": null}, "impression_id": "000b0000001292a9e86b7c4c28897e1164cf1e58ac", "profile": "http://www.citysearch.com/profile/672625580/dallas_ga/crossroads_cafe.html", "address": {"city": "Dallas", "state": "GA", "street": "51Seven Hills Blvd", "postal_code": "30132"}, "capProviderId": null, "distance": null, "has_offers": false, "name": "Crossroads Cafe", "longitude": -84.776854, "has_menu": false, "awards": null, "user_review_count": 0}, {"business_operation_status": 1, "rating": null, "neighborhood": null, "image": null, "scorecard": null, "featured": false, "sample_categories": "Restaurants", "public_id": "garveys-west-indian-marietta", "id": 672435580, "votes": null, "tagline": null, "has_video": false, "website": null, "offers": null, "latitude": 33.869778, "politanName": "Atlanta, GA Metro ", "phone_number": "6783840766", "tags": [{"primary": true, "id": 1722, "name": "Restaurants"}], "fax_number": null, "expansion": {"count": null, "uri": null}, "impression_id": "000b000000a4b461ed9bb44019a6128617ca385df1", "profile": "http://www.citysearch.com/profile/672435580/marietta_ga/garvey_s_west_indian.html", "address": {"city": "Marietta", "state": "GA", "street": "2575 Whitehaven dr", "postal_code": "30064"}, "capProviderId": null, "distance": null, "has_offers": false, "name": "Garvey's West Indian", "longitude": -84.629052, "has_menu": false, "awards": null, "user_review_count": 0}, {"business_operation_status": 1, "rating": null, "neighborhood": null, "image": null, "scorecard": null, "featured": false, "sample_categories": "Restaurants", "public_id": "sweet-beignet-cafe-douglasville", "id": 613853244, "votes": null, "tagline": null, "has_video": false, "website": null, "offers": null, "latitude": 33.751492, "politanName": "Atlanta, GA Metro ", "phone_number": "6784988412", "tags": [{"primary": true, "id": 1722, "name": "Restaurants"}], "fax_number": null, "expansion": {"count": null, "uri": null}, "impression_id": "000b000000c568c8202c494da7ae211ebc8d5a70c5", "profile": "http://www.citysearch.com/profile/613853244/douglasville_ga/sweet_beignet_cafe.html", "address": {"city": "Douglasville", "state": "GA", "street": "6599 Church St", "postal_code": "30134"}, "capProviderId": null, "distance": null, "has_offers": false, "name": "Sweet Beignet Cafe", "longitude": -84.74595, "has_menu": false, "awards": null, "user_review_count": 0}, {"business_operation_status": 1, "rating": null, "neighborhood": null, "image": null, "scorecard": null, "featured": false, "sample_categories": "Grocery Stores, Coffeehouses, Shopping, Drinking Water", "public_id": "a-m-coffee-svc-kennesaw", "id": 36462489, "votes": null, "tagline": null, "has_video": false, "website": null, "offers": null, "latitude": 33.989239, "politanName": "Atlanta, GA Metro ", "phone_number": "7704241902", "tags": [{"primary": false, "id": 1713, "name": "Grocery Stores"}, {"primary": false, "id": 1726, "name": "Coffeehouses"}, {"primary": false, "id": 3849, "name": "Shopping"}, {"primary": true, "id": 11168, "name": "Drinking Water"}], "fax_number": null, "expansion": {"count": null, "uri": null}, "impression_id": "000b000000c4a10d0533de46b2b7bb7b03f0785c37", "profile": "http://www.citysearch.com/profile/36462489/kennesaw_ga/a_m_coffee_svc.html", "address": {"city": "Kennesaw", "state": "GA", "street": "4928 Pembridge Ln NW", "postal_code": "30152"}, "capProviderId": null, "distance": null, "has_offers": false, "name": "A M Coffee Svc", "longitude": -84.692308, "has_menu": false, "awards": null, "user_review_count": 0}, {"business_operation_status": 1, "rating": null, "neighborhood": null, "image": null, "scorecard": null, "featured": false, "sample_categories": "Restaurants, Mexican", "public_id": "el-barco-mexican-restaurant-marietta", "id": 638790530, "votes": null, "tagline": null, "has_video": false, "website": null, "offers": null, "latitude": 33.890372, "politanName": "Atlanta, GA Metro ", "phone_number": "6782906778", "tags": [{"primary": false, "id": 11208, "name": "Mexican"}, {"primary": true, "id": 1722, "name": "Restaurants"}], "fax_number": null, "expansion": {"count": null, "uri": null}, "impression_id": "000b000000496f31c7bf32448fb31464e4e9438616", "profile": "http://www.citysearch.com/profile/638790530/marietta_ga/el_barco_mexican_restaurant.html", "address": {"city": "Marietta", "state": "GA", "street": "2586 Thorns Hill Pl Sw", "postal_code": "30064"}, "capProviderId": null, "distance": null, "has_offers": false, "name": "El Barco Mexican Restaurant", "longitude": -84.630827, "has_menu": false, "awards": null, "user_review_count": 0}, {"business_operation_status": 1, "rating": null, "neighborhood": null, "image": null, "scorecard": null, "featured": false, "sample_categories": "Restaurants", "public_id": "mcdonalds-restaurants-douglasville", "id": 612085004, "votes": null, "tagline": null, "has_video": false, "website": null, "offers": null, "latitude": 33.732547, "politanName": "Atlanta, GA Metro ", "phone_number": "7705778098", "tags": [{"primary": true, "id": 1722, "name": "Restaurants"}], "fax_number": null, "expansion": {"count": null, "uri": null}, "impression_id": "000b000000c7e3b8db09414c9b93f4e36fc6b64074", "profile": "http://www.citysearch.com/profile/612085004/douglasville_ga/mcdonald_s_restaurants.html", "address": {"city": "Douglasville", "state": "GA", "street": "7001 Concourse Pkwy", "postal_code": "30134"}, "capProviderId": null, "distance": null, "has_offers": false, "name": "Mcdonald's Restaurants", "longitude": -84.757034, "has_menu": false, "awards": null, "user_review_count": 0}, {"business_operation_status": 1, "rating": null, "neighborhood": null, "image": null, "scorecard": null, "featured": false, "sample_categories": "Restaurants, Delis And Delicatessens, Sandwich Shops, Carry Out", "public_id": "blimpie-subs-salads-hiram-2", "id": 612105434, "votes": null, "tagline": null, "has_video": false, "website": "http://www.citysearch.com/profile/external/612105434/hiram_ga/blimpie_subs_salads.html", "offers": null, "latitude": 33.888187, "politanName": "Atlanta, GA Metro ", "phone_number": "7709438870", "tags": [{"primary": false, "id": 1727, "name": "Delis And Delicatessens"}, {"primary": false, "id": 1736, "name": "Sandwich Shops"}, {"primary": false, "id": 11247, "name": "Carry Out"}, {"primary": true, "id": 1722, "name": "Restaurants"}], "fax_number": null, "expansion": {"count": null, "uri": null}, "impression_id": "000b00000083444fc07ce14ea2b92634f76b169025", "profile": "http://www.citysearch.com/profile/612105434/hiram_ga/blimpie_subs_salads.html", "address": {"city": "Hiram", "state": "GA", "street": "4910 Jimmy Lee Smith Pkwy # 105", "postal_code": "30141"}, "capProviderId": null, "distance": null, "has_offers": false, "name": "Blimpie Subs & Salads", "longitude": -84.746561, "has_menu": false, "awards": null, "user_review_count": 0}, {"business_operation_status": 1, "rating": null, "neighborhood": null, "image": null, "scorecard": null, "featured": false, "sample_categories": "Restaurants, Carry Out", "public_id": "aw-allamerican-food-douglasville", "id": 827923890, "votes": null, "tagline": null, "has_video": false, "website": null, "offers": null, "latitude": 33.751497, "politanName": "Atlanta, GA Metro ", "phone_number": "7704894696", "tags": [{"primary": false, "id": 11247, "name": "Carry Out"}, {"primary": true, "id": 1722, "name": "Restaurants"}], "fax_number": null, "expansion": {"count": null, "uri": null}, "impression_id": "000b000000b933c865d7104848b9e180017c333aa6", "profile": "http://www.citysearch.com/profile/827923890/douglasville_ga/a_w_all_american_food.html", "address": {"city": "Douglasville", "state": "GA", "street": "6700 Douglas Blvd # Fc-2", "postal_code": "30135"}, "capProviderId": null, "distance": null, "has_offers": false, "name": "A&W All-American Food", "longitude": -84.747714, "has_menu": false, "awards": null, "user_review_count": 0}, {"business_operation_status": 1, "rating": null, "neighborhood": null, "image": null, "scorecard": null, "featured": false, "sample_categories": "Restaurants", "public_id": "great-wall-of-china-inc-austell", "id": 613940844, "votes": null, "tagline": null, "has_video": false, "website": null, "offers": null, "latitude": 33.798694, "politanName": "Atlanta, GA Metro ", "phone_number": "7709487181", "tags": [{"primary": true, "id": 1722, "name": "Restaurants"}], "fax_number": null, "expansion": {"count": null, "uri": null}, "impression_id": "000b00000020b082ce11a042c997fdc6296fd945e0", "profile": "http://www.citysearch.com/profile/613940844/austell_ga/great_wall_of_china_inc.html", "address": {"city": "Austell", "state": "GA", "street": "3018 Bankhead Hwy", "postal_code": "30168"}, "capProviderId": null, "distance": null, "has_offers": false, "name": "Great Wall Of China Inc", "longitude": -84.641691, "has_menu": false, "awards": null, "user_review_count": 0}, {"business_operation_status": 1, "rating": null, "neighborhood": null, "image": null, "scorecard": null, "featured": false, "sample_categories": "Restaurants", "public_id": "mario-kitchen-douglasville", "id": 839285050, "votes": null, "tagline": null, "has_video": false, "website": null, "offers": null, "latitude": 33.774922, "politanName": "Atlanta, GA Metro ", "phone_number": "7709474050", "tags": [{"primary": true, "id": 1722, "name": "Restaurants"}], "fax_number": null, "expansion": {"count": null, "uri": null}, "impression_id": "000b000000d8115c1085d24855bc7c2cf85c22d04d", "profile": "http://www.citysearch.com/profile/839285050/douglasville_ga/mario_kitchen.html", "address": {"city": "Douglasville", "state": "GA", "street": "6390 Holborne Ln", "postal_code": "30134"}, "capProviderId": null, "distance": null, "has_offers": false, "name": "Mario Kitchen", "longitude": -84.739722, "has_menu": false, "awards": null, "user_review_count": 0}, {"business_operation_status": 1, "rating": null, "neighborhood": null, "image": null, "scorecard": null, "featured": false, "sample_categories": "Restaurants", "public_id": "great-wall-chinese-restaurant-austell", "id": 839408800, "votes": null, "tagline": null, "has_video": false, "website": null, "offers": null, "latitude": 33.805931, "politanName": "Atlanta, GA Metro ", "phone_number": "7709487181", "tags": [{"primary": true, "id": 1722, "name": "Restaurants"}], "fax_number": null, "expansion": {"count": null, "uri": null}, "impression_id": "000b0000008a8211f0933841fda14762dd69fcbee7", "profile": "http://www.citysearch.com/profile/839408800/austell_ga/great_wall_chinese_restaurant.html", "address": {"city": "Austell", "state": "GA", "street": "3018 Veterans Memorial Hwy SW", "postal_code": "30168"}, "capProviderId": null, "distance": null, "has_offers": false, "name": "Great Wall Chinese Restaurant", "longitude": -84.636554, "has_menu": false, "awards": null, "user_review_count": 0}, {"business_operation_status": 1, "rating": null, "neighborhood": null, "image": null, "scorecard": null, "featured": false, "sample_categories": "Restaurants", "public_id": "el-don-tequilas-douglasville", "id": 621498734, "votes": null, "tagline": null, "has_video": false, "website": null, "offers": null, "latitude": 33.751125, "politanName": "Atlanta, GA Metro ", "phone_number": "6787153330", "tags": [{"primary": true, "id": 1722, "name": "Restaurants"}], "fax_number": null, "expansion": {"count": null, "uri": null}, "impression_id": "000b0000005dc069c2a7124bf99e70b3678258a82e", "profile": "http://www.citysearch.com/profile/621498734/douglasville_ga/el_don_tequilas.html", "address": {"city": "Douglasville", "state": "GA", "street": "6077 Fairburn Rd", "postal_code": "30134"}, "capProviderId": null, "distance": null, "has_offers": false, "name": "El Don Tequilas", "longitude": -84.731338, "has_menu": false, "awards": null, "user_review_count": 0}, {"business_operation_status": 1, "rating": 2.0, "neighborhood": null, "image": null, "scorecard": null, "featured": false, "sample_categories": "Restaurants, Chinese", "public_id": "china-garden-buffet-hiram", "id": 36287559, "votes": null, "tagline": null, "has_video": false, "website": "http://www.citysearch.com/profile/external/36287559/hiram_ga/china_garden_buffet.html", "offers": null, "latitude": 33.889681, "politanName": "Atlanta, GA Metro ", "phone_number": "7709438898", "tags": [{"primary": false, "id": 11252, "name": "Chinese"}, {"primary": true, "id": 1722, "name": "Restaurants"}], "fax_number": null, "expansion": {"count": null, "uri": null}, "impression_id": "000b000000939bad1ef9794ef4b1799ecfdd92c3f7", "profile": "http://www.citysearch.com/profile/36287559/hiram_ga/china_garden_buffet.html", "address": {"city": "Hiram", "state": "GA", "street": "4484 Jimmy Lee Smith Pkwy", "postal_code": "30141"}, "capProviderId": null, "distance": null, "has_offers": false, "name": "China Garden Buffet", "longitude": -84.753672, "has_menu": true, "awards": null, "user_review_count": 4}, {"business_operation_status": 1, "rating": null, "neighborhood": null, "image": null, "scorecard": null, "featured": false, "sample_categories": "Restaurants, Traditional American, Carry Out", "public_id": "ihop-restaurant-marietta-3", "id": 682450140, "votes": null, "tagline": null, "has_video": false, "website": "http://www.citysearch.com/profile/external/682450140/marietta_ga/ihop.html", "offers": null, "latitude": 33.94651, "politanName": "Atlanta, GA Metro ", "phone_number": "7704851267", "tags": [{"primary": false, "id": 11190, "name": "Traditional American"}, {"primary": false, "id": 11247, "name": "Carry Out"}, {"primary": true, "id": 1722, "name": "Restaurants"}], "fax_number": null, "expansion": {"count": null, "uri": null}, "impression_id": "000b0000005e5058bf35734f56bede3e916abb43a9", "profile": "http://www.citysearch.com/profile/682450140/marietta_ga/ihop.html", "address": {"city": "Marietta", "state": "GA", "street": "2390 Dallas Hwy SW", "postal_code": "30064"}, "capProviderId": null, "distance": null, "has_offers": false, "name": "IHOP", "longitude": -84.62155, "has_menu": false, "awards": null, "user_review_count": 0}, {"business_operation_status": 1, "rating": null, "neighborhood": null, "image": null, "scorecard": null, "featured": false, "sample_categories": "Restaurants, Pizza", "public_id": "south-paulding-miroots-inc-dallas", "id": 838350290, "votes": null, "tagline": null, "has_video": false, "website": null, "offers": null, "latitude": 33.809938, "politanName": "Atlanta, GA Metro ", "phone_number": "6784988332", "tags": [{"primary": false, "id": 11299, "name": "Pizza"}, {"primary": true, "id": 1722, "name": "Restaurants"}], "fax_number": null, "expansion": {"count": null, "uri": null}, "impression_id": "000b000000215d69c0f7de491d868b9b6cd763c752", "profile": "http://www.citysearch.com/profile/838350290/dallas_ga/south_paulding_miroots_inc.html", "address": {"city": "Dallas", "state": "GA", "street": "7951 Villa Rica Hwy", "postal_code": "30157"}, "capProviderId": null, "distance": null, "has_offers": false, "name": "South Paulding Miroots Inc", "longitude": -84.888669, "has_menu": false, "awards": null, "user_review_count": 0}, {"business_operation_status": 1, "rating": null, "neighborhood": null, "image": null, "scorecard": null, "featured": false, "sample_categories": "Restaurants, Pizza", "public_id": "pizza-capri-douglasville", "id": 36287459, "votes": null, "tagline": null, "has_video": false, "website": null, "offers": null, "latitude": 33.656848, "politanName": "Atlanta, GA Metro ", "phone_number": "7709283054", "tags": [{"primary": false, "id": 1722, "name": "Restaurants"}, {"primary": true, "id": 11299, "name": "Pizza"}], "fax_number": null, "expansion": {"count": null, "uri": null}, "impression_id": "000b000000a1b95826efd244d6afdcde16f5f1689b", "profile": "http://www.citysearch.com/profile/36287459/douglasville_ga/pizza_capri.html", "address": {"city": "Douglasville", "state": "GA", "street": "5439 Holly Springs Dr", "postal_code": "30135"}, "capProviderId": null, "distance": null, "has_offers": false, "name": "Pizza Capri", "longitude": -84.727006, "has_menu": false, "awards": null, "user_review_count": 0}, {"business_operation_status": 1, "rating": null, "neighborhood": null, "image": null, "scorecard": null, "featured": false, "sample_categories": "Coffeehouses", "public_id": "lester-office-coffee-hiram", "id": 36287594, "votes": null, "tagline": null, "has_video": false, "website": null, "offers": null, "latitude": 33.87328, "politanName": "Atlanta, GA Metro ", "phone_number": "7709435296", "tags": [{"primary": true, "id": 1726, "name": "Coffeehouses"}], "fax_number": null, "expansion": {"count": null, "uri": null}, "impression_id": "000b00000042c337fc468d459dbcdffadc8012f3df", "profile": "http://www.citysearch.com/profile/36287594/hiram_ga/lester_office_coffee.html", "address": {"city": "Hiram", "state": "GA", "street": "789 Cleburne Pkwy", "postal_code": "30141"}, "capProviderId": null, "distance": null, "has_offers": false, "name": "Lester Office Coffee", "longitude": -84.730644, "has_menu": false, "awards": null, "user_review_count": 0}, {"business_operation_status": 1, "rating": null, "neighborhood": null, "image": null, "scorecard": null, "featured": false, "sample_categories": "Restaurants, Pizza", "public_id": "sicilian-pizza-buffet-douglasville", "id": 796110890, "votes": null, "tagline": null, "has_video": false, "website": null, "offers": null, "latitude": 33.72572, "politanName": "Atlanta, GA Metro ", "phone_number": "6783911999", "tags": [{"primary": false, "id": 11299, "name": "Pizza"}, {"primary": true, "id": 1722, "name": "Restaurants"}], "fax_number": null, "expansion": {"count": null, "uri": null}, "impression_id": "000b0000008a2b610b4c4744f69a09dce3db32ff4b", "profile": "http://www.citysearch.com/profile/796110890/douglasville_ga/sicilian_pizza_buffet.html", "address": {"city": "Douglasville", "state": "GA", "street": "6920 Douglas Blvd", "postal_code": "30135"}, "capProviderId": null, "distance": null, "has_offers": false, "name": "Sicilian Pizza Buffet", "longitude": -84.756697, "has_menu": false, "awards": null, "user_review_count": 0}, {"business_operation_status": 0, "rating": null, "neighborhood": null, "image": null, "scorecard": null, "featured": false, "sample_categories": "Restaurants", "public_id": "feeder-of-flocks-rib-chips-marietta", "id": 801084460, "votes": null, "tagline": null, "has_video": false, "website": null, "offers": null, "latitude": 33.880532, "politanName": "Atlanta, GA Metro ", "phone_number": "4046689810", "tags": [{"primary": true, "id": 1722, "name": "Restaurants"}], "fax_number": null, "expansion": {"count": null, "uri": null}, "impression_id": "000b000000d8ad49a2965747009db944d429b2ee30", "profile": "http://www.citysearch.com/profile/801084460/marietta_ga/feeder_of_flocks_rib_chips.html", "address": {"city": "Marietta", "state": "GA", "street": "901 Milford Church Rd Sw # G", "postal_code": "30060"}, "capProviderId": null, "distance": null, "has_offers": false, "name": "Feeder of Flocks Rib & Chips", "longitude": -84.580368, "has_menu": false, "awards": null, "user_review_count": 0}, {"business_operation_status": 1, "rating": null, "neighborhood": null, "image": null, "scorecard": null, "featured": false, "sample_categories": "Restaurants, Fast Food, Carry Out, Hamburgers, American Express", "public_id": "mc-donalds-lithia-spgs", "id": 39888447, "votes": null, "tagline": null, "has_video": false, "website": "http://www.citysearch.com/profile/external/39888447/lithia_springs_ga/mc_donald_s.html", "offers": null, "latitude": 33.773654, "politanName": "Atlanta, GA Metro ", "phone_number": "7707399572", "tags": [{"primary": false, "id": 11199, "name": "Fast Food"}, {"primary": false, "id": 11247, "name": "Carry Out"}, {"primary": false, "id": 11270, "name": "Hamburgers"}, {"primary": false, "id": 11333, "name": "American Express"}, {"primary": false, "id": 11349, "name": "Discover"}, {"primary": false, "id": 11361, "name": "MasterCard"}, {"primary": false, "id": 11382, "name": "Visa"}, {"primary": true, "id": 1722, "name": "Restaurants"}], "fax_number": null, "expansion": {"count": null, "uri": null}, "impression_id": "000b00000072072b29ccf34893b3c4795b28bfafca", "profile": "http://www.citysearch.com/profile/39888447/lithia_springs_ga/mc_donald_s.html", "address": {"city": "Lithia Springs", "state": "GA", "street": "1100 Thornton Rd", "postal_code": "30122"}, "capProviderId": null, "distance": null, "has_offers": false, "name": "Mc Donald's", "longitude": -84.602752, "has_menu": true, "awards": null, "user_review_count": 0}, {"business_operation_status": 1, "rating": null, "neighborhood": null, "image": null, "scorecard": null, "featured": false, "sample_categories": "Delis And Delicatessens, Restaurants, Fast Food", "public_id": "best-wings-deli-douglasville", "id": 682618300, "votes": null, "tagline": null, "has_video": false, "website": null, "offers": null, "latitude": 33.747372, "politanName": "Atlanta, GA Metro ", "phone_number": "7709477880", "tags": [{"primary": false, "id": 1722, "name": "Restaurants"}, {"primary": false, "id": 11199, "name": "Fast Food"}, {"primary": true, "id": 1727, "name": "Delis And Delicatessens"}], "fax_number": null, "expansion": {"count": null, "uri": null}, "impression_id": "000b0000003c36013b1e734b26bbe40f8f8cf1b5e6", "profile": "http://www.citysearch.com/profile/682618300/douglasville_ga/city_s_best_wings_and_deli.html", "address": {"city": "Douglasville", "state": "GA", "street": "2134 Fairburn Rd", "postal_code": "30135"}, "capProviderId": null, "distance": null, "has_offers": false, "name": "City's Best Wings and Deli", "longitude": -84.699929, "has_menu": false, "awards": null, "user_review_count": 0}, {"business_operation_status": 1, "rating": null, "neighborhood": null, "image": null, "scorecard": null, "featured": false, "sample_categories": "Restaurants, Traditional American, Carry Out, American Express, Discover", "public_id": "golden-corral-buffet-grill-marietta", "id": 682491030, "votes": null, "tagline": null, "has_video": false, "website": "http://www.citysearch.com/profile/external/682491030/marietta_ga/golden_corral_buffet_grill.html", "offers": null, "latitude": 33.858906, "politanName": "Atlanta, GA Metro ", "phone_number": "7707328014", "tags": [{"primary": false, "id": 11190, "name": "Traditional American"}, {"primary": false, "id": 11247, "name": "Carry Out"}, {"primary": false, "id": 11333, "name": "American Express"}, {"primary": false, "id": 11349, "name": "Discover"}, {"primary": false, "id": 11361, "name": "MasterCard"}, {"primary": false, "id": 11382, "name": "Visa"}, {"primary": true, "id": 1722, "name": "Restaurants"}], "fax_number": null, "expansion": {"count": null, "uri": null}, "impression_id": "000b0000002371c5d687914fcb91e0a75e060c12d0", "profile": "http://www.citysearch.com/profile/682491030/marietta_ga/golden_corral_buffet_grill.html", "address": {"city": "Marietta", "state": "GA", "street": "3845 Austell Rd Sw", "postal_code": "30008"}, "capProviderId": null, "distance": null, "has_offers": false, "name": "Golden Corral Buffet & Grill", "longitude": -84.598385, "has_menu": false, "awards": null, "user_review_count": 0}, {"business_operation_status": 1, "rating": null, "neighborhood": null, "image": null, "scorecard": null, "featured": false, "sample_categories": "Restaurants, Mexican, Carry Out, American Express, Discover", "public_id": "taco-bell-marietta-7", "id": 682721700, "votes": null, "tagline": null, "has_video": false, "website": "http://www.citysearch.com/profile/external/682721700/marietta_ga/taco_bell.html", "offers": null, "latitude": 33.944909, "politanName": "Atlanta, GA Metro ", "phone_number": "7704218815", "tags": [{"primary": false, "id": 11208, "name": "Mexican"}, {"primary": false, "id": 11247, "name": "Carry Out"}, {"primary": false, "id": 11333, "name": "American Express"}, {"primary": false, "id": 11349, "name": "Discover"}, {"primary": false, "id": 11361, "name": "MasterCard"}, {"primary": false, "id": 11382, "name": "Visa"}, {"primary": true, "id": 1722, "name": "Restaurants"}], "fax_number": null, "expansion": {"count": null, "uri": null}, "impression_id": "000b000000befadd7a3dc1427aa6a76446bbf4ef89", "profile": "http://www.citysearch.com/profile/682721700/marietta_ga/taco_bell.html", "address": {"city": "Marietta", "state": "GA", "street": "3480 Ernest W Barrett Pkwy Sw", "postal_code": "30064"}, "capProviderId": null, "distance": null, "has_offers": false, "name": "Taco Bell", "longitude": -84.624717, "has_menu": true, "awards": null, "user_review_count": 0}, {"business_operation_status": 1, "rating": null, "neighborhood": null, "image": null, "scorecard": null, "featured": false, "sample_categories": "Restaurants", "public_id": "little-gumbas-acworth", "id": 817697620, "votes": null, "tagline": null, "has_video": false, "website": null, "offers": null, "latitude": 34.030244, "politanName": "Atlanta, GA Metro ", "phone_number": "6785748956", "tags": [{"primary": true, "id": 1722, "name": "Restaurants"}], "fax_number": null, "expansion": {"count": null, "uri": null}, "impression_id": "000b000000d55fdcbaa5284dc3b459c36b119af1bf", "profile": "http://www.citysearch.com/profile/817697620/acworth_ga/little_gumbas.html", "address": {"city": "Acworth", "state": "GA", "street": "22 Old Stilesboro Rd", "postal_code": "30101"}, "capProviderId": null, "distance": null, "has_offers": false, "name": "Little Gumbas", "longitude": -84.741165, "has_menu": false, "awards": null, "user_review_count": 0}, {"business_operation_status": 1, "rating": null, "neighborhood": null, "image": null, "scorecard": null, "featured": false, "sample_categories": "Bars & Clubs, Restaurants", "public_id": "two-monkeys-llc-marietta", "id": 823894470, "votes": null, "tagline": null, "has_video": false, "website": null, "offers": null, "latitude": 33.951907, "politanName": "Atlanta, GA Metro ", "phone_number": "7704220108", "tags": [{"primary": false, "id": 1722, "name": "Restaurants"}, {"primary": true, "id": 164, "name": "Bars & Clubs"}], "fax_number": null, "expansion": {"count": null, "uri": null}, "impression_id": "000b0000009947937f0ec64e6a946f184bad64a382", "profile": "http://www.citysearch.com/profile/823894470/marietta_ga/two_monkeys_llc.html", "address": {"city": "Marietta", "state": "GA", "street": "688 Whitlock Ave NW # G", "postal_code": "30064"}, "capProviderId": null, "distance": null, "has_offers": false, "name": "Two Monkeys LLC", "longitude": -84.572199, "has_menu": false, "awards": null, "user_review_count": 0}, {"business_operation_status": 1, "rating": null, "neighborhood": null, "image": null, "scorecard": null, "featured": false, "sample_categories": "Restaurants", "public_id": "el-barco-mexican-restaurant-marietta-3", "id": 822028770, "votes": null, "tagline": null, "has_video": false, "website": null, "offers": null, "latitude": 33.883313, "politanName": "Atlanta, GA Metro ", "phone_number": "6783555007", "tags": [{"primary": true, "id": 1722, "name": "Restaurants"}], "fax_number": null, "expansion": {"count": null, "uri": null}, "impression_id": "000b0000006a1cb3aa55934b139d26352065ed09c5", "profile": "http://www.citysearch.com/profile/822028770/marietta_ga/el_barco_mexican_restaurant.html", "address": {"city": "Marietta", "state": "GA", "street": "2200 Powder Springs Rd SW #100", "postal_code": "30064"}, "capProviderId": null, "distance": null, "has_offers": false, "name": "El Barco Mexican Restaurant", "longitude": -84.620092, "has_menu": false, "awards": null, "user_review_count": 0}, {"business_operation_status": 1, "rating": null, "neighborhood": null, "image": null, "scorecard": null, "featured": false, "sample_categories": "Restaurants, Convenience Stores", "public_id": "quickys-food-store-dallas", "id": 830199670, "votes": null, "tagline": null, "has_video": false, "website": null, "offers": null, "latitude": 33.821267, "politanName": "Atlanta, GA Metro ", "phone_number": "7704455614", "tags": [{"primary": false, "id": 1714, "name": "Convenience Stores"}, {"primary": true, "id": 1722, "name": "Restaurants"}], "fax_number": null, "expansion": {"count": null, "uri": null}, "impression_id": "000b0000002fab45f3824a42fca4fd1283b2d6df31", "profile": "http://www.citysearch.com/profile/830199670/dallas_ga/quicky_s_food_store.html", "address": {"city": "Dallas", "state": "GA", "street": "7034 Villa Rica Hwy", "postal_code": "30157"}, "capProviderId": null, "distance": null, "has_offers": false, "name": "Quicky's Food Store", "longitude": -84.880209, "has_menu": false, "awards": null, "user_review_count": 0}, {"business_operation_status": 1, "rating": null, "neighborhood": null, "image": null, "scorecard": null, "featured": false, "sample_categories": "Delis And Delicatessens", "public_id": "deli-express-lithia", "id": 742225870, "votes": null, "tagline": null, "has_video": false, "website": null, "offers": null, "latitude": 33.761023, "politanName": "Atlanta, GA Metro ", "phone_number": "4043842309", "tags": [{"primary": true, "id": 1727, "name": "Delis And Delicatessens"}], "fax_number": null, "expansion": {"count": null, "uri": null}, "impression_id": "000b0000000496def9140c40f6b0a7e761741f2a80", "profile": "http://www.citysearch.com/profile/742225870/lithia_springs_ga/deli_express.html", "address": {"city": "Lithia Springs", "state": "GA", "street": "8003 Wrightwood Way", "postal_code": "30122"}, "capProviderId": null, "distance": null, "has_offers": false, "name": "Deli Express", "longitude": -84.657278, "has_menu": false, "awards": null, "user_review_count": 0}, {"business_operation_status": 1, "rating": null, "neighborhood": null, "image": null, "scorecard": null, "featured": false, "sample_categories": "Coffeehouses, Coffee & Tea Shops, Restaurants", "public_id": "starbucks-coffee-marietta", "id": 839436920, "votes": null, "tagline": null, "has_video": false, "website": "http://www.citysearch.com/profile/external/839436920/marietta_ga/starbucks_coffee.html", "offers": null, "latitude": 33.905379, "politanName": "Atlanta, GA Metro ", "phone_number": "7704991251", "tags": [{"primary": false, "id": 1711, "name": "Coffee & Tea Shops"}, {"primary": false, "id": 1722, "name": "Restaurants"}, {"primary": true, "id": 1726, "name": "Coffeehouses"}], "fax_number": null, "expansion": {"count": null, "uri": null}, "impression_id": "000b000000b371471e98bf47a0a30564ada67b446e", "profile": "http://www.citysearch.com/profile/839436920/marietta_ga/starbucks_coffee.html", "address": {"city": "Marietta", "state": "GA", "street": "1733 Powder Springs Rd SW", "postal_code": "30064"}, "capProviderId": null, "distance": null, "has_offers": false, "name": "Starbucks Coffee", "longitude": -84.603225, "has_menu": true, "awards": null, "user_review_count": 0}, {"business_operation_status": 1, "rating": null, "neighborhood": null, "image": null, "scorecard": null, "featured": false, "sample_categories": "Restaurants, Bistros", "public_id": "pearls-southern-bistro-mableton", "id": 787089110, "votes": null, "tagline": null, "has_video": false, "website": null, "offers": null, "latitude": 33.817233, "politanName": "Atlanta, GA Metro ", "phone_number": "7707092666", "tags": [{"primary": false, "id": 13690, "name": "Bistros"}, {"primary": true, "id": 1722, "name": "Restaurants"}], "fax_number": null, "expansion": {"count": null, "uri": null}, "impression_id": "000b000000bfeba9072eb04112a5a70128615cc64e", "profile": "http://www.citysearch.com/profile/787089110/mableton_ga/pearl_s_southern_bistro.html", "address": {"city": "Mableton", "state": "GA", "street": "1174 Veterans Memorial Hwy Sw", "postal_code": "30126"}, "capProviderId": null, "distance": null, "has_offers": false, "name": "Pearl's Southern Bistro", "longitude": -84.588574, "has_menu": false, "awards": null, "user_review_count": 0}, {"business_operation_status": 1, "rating": null, "neighborhood": null, "image": null, "scorecard": null, "featured": false, "sample_categories": "Restaurants, Asian", "public_id": "atami-grill-sushi-marietta", "id": 793235190, "votes": null, "tagline": null, "has_video": false, "website": null, "offers": null, "latitude": 33.955116, "politanName": "Atlanta, GA Metro ", "phone_number": "7706938260", "tags": [{"primary": false, "id": 11235, "name": "Asian"}, {"primary": true, "id": 1722, "name": "Restaurants"}], "fax_number": null, "expansion": {"count": null, "uri": null}, "impression_id": "000b0000002503c11b5bd94f9aa9bc0b213e73e8fd", "profile": "http://www.citysearch.com/profile/793235190/marietta_ga/atami_grill_sushi.html", "address": {"city": "Marietta", "state": "GA", "street": "3600 Dallas Hwy Sw", "postal_code": "30064"}, "capProviderId": null, "distance": null, "has_offers": false, "name": "Atami Grill & Sushi", "longitude": -84.656027, "has_menu": false, "awards": null, "user_review_count": 0}, {"business_operation_status": 1, "rating": null, "neighborhood": null, "image": null, "scorecard": null, "featured": false, "sample_categories": "Barbecue Restaurants, Catering, Food Stores, Restaurants", "public_id": "wallace-foods-catering-dallas", "id": 2951275, "votes": null, "tagline": null, "has_video": false, "website": null, "offers": null, "latitude": 33.91823, "politanName": "Atlanta, GA Metro ", "phone_number": "7704458151", "tags": [{"primary": false, "id": 1724, "name": "Barbecue Restaurants"}, {"primary": false, "id": 1705, "name": "Catering"}, {"primary": false, "id": 1706, "name": "Food Stores"}, {"primary": true, "id": 1722, "name": "Restaurants"}], "fax_number": null, "expansion": {"count": null, "uri": null}, "impression_id": "000b000000c2b746e610f549a09bb9045d9d6a161e", "profile": "http://www.citysearch.com/profile/2951275/dallas_ga/wallace_foods_catering.html", "address": {"city": "Dallas", "state": "GA", "street": "86 Owens Rd", "postal_code": "30157"}, "capProviderId": null, "distance": null, "has_offers": false, "name": "Wallace Foods & Catering", "longitude": -84.777135, "has_menu": false, "awards": null, "user_review_count": 0}, {"business_operation_status": 1, "rating": null, "neighborhood": null, "image": null, "scorecard": null, "featured": false, "sample_categories": "Restaurants, Cajun & Creole", "public_id": "katos-cajun-douglasville", "id": 642130290, "votes": null, "tagline": null, "has_video": false, "website": null, "offers": null, "latitude": 33.728341, "politanName": "Atlanta, GA Metro ", "phone_number": "7709424141", "tags": [{"primary": false, "id": 11245, "name": "Cajun & Creole"}, {"primary": true, "id": 1722, "name": "Restaurants"}], "fax_number": null, "expansion": {"count": null, "uri": null}, "impression_id": "000b00000047f42b5b5b564ff791a3265eae27dedf", "profile": "http://www.citysearch.com/profile/642130290/douglasville_ga/kato_s_cajun.html", "address": {"city": "Douglasville", "state": "GA", "street": "6700 Douglas Blvd", "postal_code": "30135"}, "capProviderId": null, "distance": null, "has_offers": false, "name": "Kato's Cajun", "longitude": -84.74498, "has_menu": false, "awards": null, "user_review_count": 0}, {"business_operation_status": 1, "rating": null, "neighborhood": null, "image": null, "scorecard": null, "featured": false, "sample_categories": "Restaurants", "public_id": "city-cafe-dallas-2", "id": 777759730, "votes": null, "tagline": null, "has_video": false, "website": null, "offers": null, "latitude": 34.02964, "politanName": "Atlanta, GA Metro ", "phone_number": "7704432610", "tags": [{"primary": true, "id": 1722, "name": "Restaurants"}], "fax_number": null, "expansion": {"count": null, "uri": null}, "impression_id": "000b000000dff90058cab64be9b06f6c9819452acd", "profile": "http://www.citysearch.com/profile/777759730/dallas_ga/city_cafe.html", "address": {"city": "Dallas", "state": "GA", "street": "8164 Cartersville Hwy", "postal_code": "30132"}, "capProviderId": null, "distance": null, "has_offers": false, "name": "City Cafe", "longitude": -84.848102, "has_menu": false, "awards": null, "user_review_count": 0}, {"business_operation_status": 1, "rating": null, "neighborhood": null, "image": null, "scorecard": null, "featured": false, "sample_categories": "Restaurants, Barbecue Restaurants", "public_id": "wings-chinese-douglasville", "id": 728130330, "votes": null, "tagline": null, "has_video": false, "website": null, "offers": null, "latitude": 33.688571, "politanName": "Atlanta, GA Metro ", "phone_number": "7709496666", "tags": [{"primary": false, "id": 1724, "name": "Barbecue Restaurants"}, {"primary": true, "id": 1722, "name": "Restaurants"}], "fax_number": null, "expansion": {"count": null, "uri": null}, "impression_id": "000b0000007b7dddc7a652446fa6852cd85b4b02c7", "profile": "http://www.citysearch.com/profile/728130330/douglasville_ga/wings_chinese.html", "address": {"city": "Douglasville", "state": "GA", "street": "4300 Chapel Hill Rd # 300", "postal_code": "30135"}, "capProviderId": null, "distance": null, "has_offers": false, "name": "Wings & Chinese", "longitude": -84.714641, "has_menu": false, "awards": null, "user_review_count": 0}, {"business_operation_status": 1, "rating": null, "neighborhood": null, "image": null, "scorecard": null, "featured": false, "sample_categories": "Restaurants", "public_id": "el-rey-loco-douglasville", "id": 822950500, "votes": null, "tagline": null, "has_video": false, "website": null, "offers": null, "latitude": 33.74703, "politanName": "Atlanta, GA Metro ", "phone_number": "7705778257", "tags": [{"primary": true, "id": 1722, "name": "Restaurants"}], "fax_number": null, "expansion": {"count": null, "uri": null}, "impression_id": "000b000000974aa920f31f4758a8840e78058f70c0", "profile": "http://www.citysearch.com/profile/822950500/douglasville_ga/el_rey_loco.html", "address": {"city": "Douglasville", "state": "GA", "street": "2135 Fairburn Rd", "postal_code": "30135"}, "capProviderId": null, "distance": null, "has_offers": false, "name": "El Rey Loco", "longitude": -84.69897, "has_menu": false, "awards": null, "user_review_count": 0}], "histograms": [], "tag_ids": [1722], "uri": "http://api.citygridmedia.com:8080/search/places/v2/search/where?has_offers=false&type=restaurant&format=json&page=17&where=30127&rpp=50&histograms=false&publisher=10000009598&region_type=circle", "did_you_mean": "", "regions": [{"latitude": 33.880952, "default_radius": 7.3, "type": "postal_code", "name": "30127", "longitude": -84.695289}], "call_id": "000b000000274c94b92bb04da8b6e2abf29f1089a6", "first_hit": 801, "total_hits": 1066, "geo_ids": [26302], "page": 17, "last_hit": 850}}