{"results": {"rpp": 50, "locations": [{"business_operation_status": 1, "rating": null, "neighborhood": null, "image": null, "scorecard": null, "featured": false, "sample_categories": "Restaurants, Pizza", "public_id": "six-hundred-degrees-pizza-austell", "id": 816503090, "votes": null, "tagline": null, "has_video": false, "website": null, "offers": null, "latitude": 33.778263, "politanName": "Atlanta, GA Metro ", "phone_number": "6789033229", "tags": [{"primary": false, "id": 11299, "name": "Pizza"}, {"primary": true, "id": 1722, "name": "Restaurants"}], "fax_number": null, "expansion": {"count": null, "uri": null}, "impression_id": "000b00000054a731f3844645b6a46782552ce3f21b", "profile": "http://www.citysearch.com/profile/816503090/austell_ga/six_hundred_degrees_pizza.html", "address": {"city": "Austell", "state": "GA", "street": "366 Six Flags Dr", "postal_code": "30168"}, "capProviderId": null, "distance": null, "has_offers": false, "name": "Six Hundred Degrees Pizza", "longitude": -84.566531, "has_menu": false, "awards": null, "user_review_count": 0}, {"business_operation_status": 1, "rating": null, "neighborhood": "Southwest, Southwest", "image": null, "scorecard": null, "featured": false, "sample_categories": "Coffee & Tea Shops, Restaurants", "public_id": "best-blends-latte-cafe-atlanta", "id": 748265870, "votes": null, "tagline": null, "has_video": false, "website": null, "offers": null, "latitude": 33.702636, "politanName": "Atlanta, GA Metro ", "phone_number": "4043464600", "tags": [{"primary": false, "id": 1711, "name": "Coffee & Tea Shops"}, {"primary": true, "id": 1722, "name": "Restaurants"}], "fax_number": null, "expansion": {"count": null, "uri": null}, "impression_id": "000b0000004e5bff8a5a244ef6be0cb9342c1604e3", "profile": "http://www.citysearch.com/profile/748265870/atlanta_ga/best_blends_latte_cafe.html", "address": {"city": "Atlanta", "state": "GA", "street": "1901 Niskey Lake Rd SW", "postal_code": "30331"}, "capProviderId": null, "distance": null, "has_offers": false, "name": "Best Blends Latte Cafe", "longitude": -84.529661, "has_menu": false, "awards": null, "user_review_count": 0}, {"business_operation_status": 1, "rating": null, "neighborhood": null, "image": null, "scorecard": null, "featured": false, "sample_categories": "Coffeehouses", "public_id": "hamilton-coffee-co-inc-smyrna", "id": 821080290, "votes": null, "tagline": null, "has_video": false, "website": null, "offers": null, "latitude": 33.869377, "politanName": "Atlanta, GA Metro ", "phone_number": "7704327385", "tags": [{"primary": true, "id": 1726, "name": "Coffeehouses"}], "fax_number": null, "expansion": {"count": null, "uri": null}, "impression_id": "000b00000039c44b104ca64fbfb1235110188f13b9", "profile": "http://www.citysearch.com/profile/821080290/smyrna_ga/hamilton_coffee_co_inc.html", "address": {"city": "Smyrna", "state": "GA", "street": "1105 Oakdale Dr SE", "postal_code": "30080"}, "capProviderId": null, "distance": null, "has_offers": false, "name": "Hamilton Coffee Co Inc", "longitude": -84.521363, "has_menu": false, "awards": null, "user_review_count": 0}, {"business_operation_status": 1, "rating": null, "neighborhood": null, "image": null, "scorecard": null, "featured": false, "sample_categories": "Restaurants", "public_id": "ejs-soul-food-restaurant-atlanta", "id": 824429360, "votes": null, "tagline": null, "has_video": false, "website": null, "offers": null, "latitude": 33.769618, "politanName": "Atlanta, GA Metro ", "phone_number": "4046966444", "tags": [{"primary": true, "id": 1722, "name": "Restaurants"}], "fax_number": null, "expansion": {"count": null, "uri": null}, "impression_id": "000b00000033c1d6b8eca24010abdb49c106b36cfa", "profile": "http://www.citysearch.com/profile/824429360/atlanta_ga/ejs_soul_food_restaurant.html", "address": {"city": "Atlanta", "state": "GA", "street": "4105 Fulton Industrial Blvd SW", "postal_code": "30336"}, "capProviderId": null, "distance": null, "has_offers": false, "name": "Ejs Soul Food Restaurant", "longitude": -84.521682, "has_menu": false, "awards": null, "user_review_count": 0}, {"business_operation_status": 1, "rating": null, "neighborhood": "Northside, Northside", "image": null, "scorecard": null, "featured": false, "sample_categories": "Restaurants", "public_id": "take-away-cafe-atlanta", "id": 766802530, "votes": null, "tagline": null, "has_video": false, "website": "http://www.citysearch.com/profile/external/766802530/atlanta_ga/take_away_cafe.html", "offers": null, "latitude": 33.790876, "politanName": "Atlanta, GA Metro ", "phone_number": "4043517101", "tags": [{"primary": true, "id": 1722, "name": "Restaurants"}], "fax_number": null, "expansion": {"count": null, "uri": null}, "impression_id": "000b000000a73dc5aa13844be0bfa9a83b1d6c689e", "profile": "http://www.citysearch.com/profile/766802530/atlanta_ga/take_away_cafe.html", "address": {"city": "Atlanta", "state": "GA", "street": "1331 Marietta Blvd", "postal_code": "30318"}, "capProviderId": null, "distance": null, "has_offers": false, "name": "Take Away Cafe", "longitude": -84.429554, "has_menu": false, "awards": null, "user_review_count": 0}, {"business_operation_status": 1, "rating": null, "neighborhood": null, "image": null, "scorecard": null, "featured": false, "sample_categories": "Restaurants", "public_id": "mrs-winners-chicken-bscts-marietta", "id": 824819280, "votes": null, "tagline": null, "has_video": false, "website": null, "offers": null, "latitude": 33.863233, "politanName": "Atlanta, GA Metro ", "phone_number": "7704386204", "tags": [{"primary": true, "id": 1722, "name": "Restaurants"}], "fax_number": null, "expansion": {"count": null, "uri": null}, "impression_id": "000b0000004bceb2dae25a4683b03daf1bf0cd9026", "profile": "http://www.citysearch.com/profile/824819280/marietta_ga/mrs_winner_s_chicken_bscts.html", "address": {"city": "Marietta", "state": "GA", "street": "3710 Austell Rd SW", "postal_code": "30008"}, "capProviderId": null, "distance": null, "has_offers": false, "name": "Mrs Winner's Chicken & Bscts", "longitude": -84.596738, "has_menu": false, "awards": null, "user_review_count": 0}, {"business_operation_status": 1, "rating": null, "neighborhood": null, "image": null, "scorecard": null, "featured": false, "sample_categories": "Doughnut Shops", "public_id": "devs-donuts-marietta", "id": 826828870, "votes": null, "tagline": null, "has_video": false, "website": null, "offers": null, "latitude": 33.901077, "politanName": "Atlanta, GA Metro ", "phone_number": "7607025007", "tags": [{"primary": true, "id": 1734, "name": "Doughnut Shops"}], "fax_number": null, "expansion": {"count": null, "uri": null}, "impression_id": "000b0000002f0b53bc34e34f9ab35ec08580543a61", "profile": "http://www.citysearch.com/profile/826828870/marietta_ga/dev_s_donuts.html", "address": {"city": "Marietta", "state": "GA", "street": "1812 Pdr Spgs Rd SW # 2115", "postal_code": "30064"}, "capProviderId": null, "distance": null, "has_offers": false, "name": "Dev's Donuts", "longitude": -84.606768, "has_menu": false, "awards": null, "user_review_count": 0}, {"business_operation_status": 1, "rating": null, "neighborhood": null, "image": null, "scorecard": null, "featured": false, "sample_categories": "Restaurants", "public_id": "sushinobo-smyrna-2", "id": 787110950, "votes": null, "tagline": null, "has_video": false, "website": null, "offers": null, "latitude": 33.842707, "politanName": "Atlanta, GA Metro ", "phone_number": "6784017322", "tags": [{"primary": true, "id": 1722, "name": "Restaurants"}], "fax_number": null, "expansion": {"count": null, "uri": null}, "impression_id": "000b0000003f62a23dd9474006aecadbc345e487c9", "profile": "http://www.citysearch.com/profile/787110950/smyrna_ga/sushinobo.html", "address": {"city": "Smyrna", "state": "GA", "street": "4500 West Village Pl Se # 1005", "postal_code": "30080"}, "capProviderId": null, "distance": null, "has_offers": false, "name": "Sushinobo", "longitude": -84.490488, "has_menu": false, "awards": null, "user_review_count": 0}, {"business_operation_status": 1, "rating": null, "neighborhood": "Southwest, Southwest", "image": null, "scorecard": null, "featured": false, "sample_categories": "Restaurants, Traditional American, Family-Friendly Dining, Lunch Spot, Casual Date Spot", "public_id": "tgi-fridays-douglasville-2", "id": 603045222, "votes": null, "tagline": null, "has_video": false, "website": null, "offers": null, "latitude": 33.698565, "politanName": "Atlanta, GA Metro ", "phone_number": "4043444180", "tags": [{"primary": false, "id": 11190, "name": "Traditional American"}, {"primary": false, "id": 11263, "name": "Family-Friendly Dining"}, {"primary": false, "id": 11286, "name": "Lunch Spot"}, {"primary": false, "id": 12821, "name": "Casual Date Spot"}, {"primary": true, "id": 1722, "name": "Restaurants"}], "fax_number": null, "expansion": {"count": null, "uri": null}, "impression_id": "000b000000684566562c004606b7a029f7c33610aa", "profile": "http://www.citysearch.com/profile/603045222/douglasville_ga/t_g_i_friday_s.html", "address": {"city": "Douglasville", "state": "GA", "street": "Spine Pointe Way", "postal_code": "30331"}, "capProviderId": null, "distance": null, "has_offers": false, "name": "T.G.I. Friday's", "longitude": -84.543187, "has_menu": false, "awards": null, "user_review_count": 0}, {"business_operation_status": 1, "rating": null, "neighborhood": null, "image": null, "scorecard": null, "featured": false, "sample_categories": "Restaurants", "public_id": "fade-fine-dining-marietta", "id": 610801124, "votes": null, "tagline": null, "has_video": false, "website": null, "offers": null, "latitude": 33.868607, "politanName": "Atlanta, GA Metro ", "phone_number": "7704310505", "tags": [{"primary": true, "id": 1722, "name": "Restaurants"}], "fax_number": null, "expansion": {"count": null, "uri": null}, "impression_id": "000b000000bae577c3c965405db756e39527da8720", "profile": "http://www.citysearch.com/profile/610801124/marietta_ga/fade_fine_dining.html", "address": {"city": "Marietta", "state": "GA", "street": "3505 Austell Rd SW", "postal_code": "30008"}, "capProviderId": null, "distance": null, "has_offers": false, "name": "Fade Fine Dining", "longitude": -84.591958, "has_menu": false, "awards": null, "user_review_count": 0}, {"business_operation_status": 1, "rating": null, "neighborhood": null, "image": null, "scorecard": null, "featured": false, "sample_categories": "Restaurants, Coffeehouses", "public_id": "rev-coffee-house-smyrna", "id": 766767230, "votes": null, "tagline": null, "has_video": false, "website": null, "offers": null, "latitude": 33.882118, "politanName": "Atlanta, GA Metro ", "phone_number": "7705734434", "tags": [{"primary": false, "id": 1726, "name": "Coffeehouses"}, {"primary": true, "id": 1722, "name": "Restaurants"}], "fax_number": null, "expansion": {"count": null, "uri": null}, "impression_id": "000b0000009ccea7cc835e4ed682302a35ea4849cc", "profile": "http://www.citysearch.com/profile/766767230/smyrna_ga/rev_coffee_house.html", "address": {"city": "Smyrna", "state": "GA", "street": "1680 Spring Rd SE", "postal_code": "30080"}, "capProviderId": null, "distance": null, "has_offers": false, "name": "Rev Coffee House", "longitude": -84.504533, "has_menu": false, "awards": null, "user_review_count": 0}, {"business_operation_status": 1, "rating": null, "neighborhood": null, "image": null, "scorecard": null, "featured": false, "sample_categories": "Restaurants, Pizza, Carry Out", "public_id": "little-caesars-pizza-lithia", "id": 768819580, "votes": null, "tagline": null, "has_video": false, "website": "http://www.citysearch.com/profile/external/768819580/lithia_springs_ga/little_caesars_pizza.html", "offers": null, "latitude": 33.798077, "politanName": "Atlanta, GA Metro ", "phone_number": "7709480159", "tags": [{"primary": false, "id": 1722, "name": "Restaurants"}, {"primary": false, "id": 11247, "name": "Carry Out"}, {"primary": true, "id": 11299, "name": "Pizza"}], "fax_number": null, "expansion": {"count": null, "uri": null}, "impression_id": "000b000000cb236dc1262a4a3cae642677af46542b", "profile": "http://www.citysearch.com/profile/768819580/lithia_springs_ga/little_caesars_pizza.html", "address": {"city": "Lithia Springs", "state": "GA", "street": "3046 Veterans Memorial Hwy", "postal_code": "30122"}, "capProviderId": null, "distance": null, "has_offers": false, "name": "Little Caesars Pizza", "longitude": -84.642184, "has_menu": false, "awards": null, "user_review_count": 0}, {"business_operation_status": 1, "rating": null, "neighborhood": null, "image": null, "scorecard": null, "featured": false, "sample_categories": "Restaurants", "public_id": "cotton-gin-restaurant-hiram", "id": 812310620, "votes": null, "tagline": null, "has_video": false, "website": null, "offers": null, "latitude": 33.91311, "politanName": "Atlanta, GA Metro ", "phone_number": "7704392141", "tags": [{"primary": true, "id": 1722, "name": "Restaurants"}], "fax_number": null, "expansion": {"count": null, "uri": null}, "impression_id": "000b0000004524f7b87cf3496d8dbe0fd5762f96b2", "profile": "http://www.citysearch.com/profile/812310620/hiram_ga/cotton_gin_restaurant.html", "address": {"city": "Hiram", "state": "GA", "street": "4971 Hiram Acworth Hwy", "postal_code": "30141"}, "capProviderId": null, "distance": null, "has_offers": false, "name": "Cotton Gin Restaurant", "longitude": -84.746498, "has_menu": false, "awards": null, "user_review_count": 0}, {"business_operation_status": 1, "rating": null, "neighborhood": null, "image": null, "scorecard": null, "featured": false, "sample_categories": "Restaurants", "public_id": "austell-country-cafe-austell", "id": 809553370, "votes": null, "tagline": null, "has_video": false, "website": null, "offers": null, "latitude": 33.826194, "politanName": "Atlanta, GA Metro ", "phone_number": "7707452959", "tags": [{"primary": true, "id": 1722, "name": "Restaurants"}], "fax_number": null, "expansion": {"count": null, "uri": null}, "impression_id": "000b000000d2e1b5c01e1943a88eb0366f182106d3", "profile": "http://www.citysearch.com/profile/809553370/austell_ga/austell_country_cafe.html", "address": {"city": "Austell", "state": "GA", "street": "5692 Austell Powder Springs Rd", "postal_code": "30106"}, "capProviderId": null, "distance": null, "has_offers": false, "name": "Austell Country Cafe", "longitude": -84.645431, "has_menu": false, "awards": null, "user_review_count": 0}, {"business_operation_status": 1, "rating": null, "neighborhood": null, "image": null, "scorecard": null, "featured": false, "sample_categories": "Restaurants, Pizza, Carry Out", "public_id": "pizza-pizza-atlanta", "id": 713372260, "votes": null, "tagline": null, "has_video": false, "website": "http://www.citysearch.com/profile/external/713372260/atlanta_ga/pizza_pizza.html", "offers": null, "latitude": 33.764633, "politanName": "Atlanta, GA Metro ", "phone_number": "4046992353", "tags": [{"primary": false, "id": 1722, "name": "Restaurants"}, {"primary": false, "id": 11247, "name": "Carry Out"}, {"primary": true, "id": 11299, "name": "Pizza"}], "fax_number": null, "expansion": {"count": null, "uri": null}, "impression_id": "000b000000b7c04305a0774e1bb1130323b33497bc", "profile": "http://www.citysearch.com/profile/713372260/atlanta_ga/pizza_pizza.html", "address": {"city": "Atlanta", "state": "GA", "street": "4245 Shirley Dr Sw", "postal_code": "30336"}, "capProviderId": null, "distance": null, "has_offers": false, "name": "Pizza Pizza", "longitude": -84.529218, "has_menu": true, "awards": null, "user_review_count": 0}, {"business_operation_status": 1, "rating": null, "neighborhood": null, "image": null, "scorecard": null, "featured": false, "sample_categories": "Restaurants", "public_id": "imani-african-arabian-rstrnt-smyrna", "id": 713541910, "votes": null, "tagline": null, "has_video": false, "website": null, "offers": null, "latitude": 33.891129, "politanName": "Atlanta, GA Metro ", "phone_number": "6782936841", "tags": [{"primary": true, "id": 1722, "name": "Restaurants"}], "fax_number": null, "expansion": {"count": null, "uri": null}, "impression_id": "000b000000ed86ff3c7073404085748898dc7a0fcc", "profile": "http://www.citysearch.com/profile/713541910/smyrna_ga/imani_african_arabian_rstrnt.html", "address": {"city": "Smyrna", "state": "GA", "street": "1651 Roswell St Se", "postal_code": "30080"}, "capProviderId": null, "distance": null, "has_offers": false, "name": "Imani African & Arabian Rstrnt", "longitude": -84.504659, "has_menu": false, "awards": null, "user_review_count": 0}, {"business_operation_status": 1, "rating": null, "neighborhood": null, "image": null, "scorecard": null, "featured": false, "sample_categories": "Restaurants", "public_id": "wings-101-smyrna", "id": 621748804, "votes": null, "tagline": null, "has_video": false, "website": null, "offers": null, "latitude": 33.894038, "politanName": "Atlanta, GA Metro ", "phone_number": "7709891520", "tags": [{"primary": true, "id": 1722, "name": "Restaurants"}], "fax_number": null, "expansion": {"count": null, "uri": null}, "impression_id": "000b000000f149a82c024a42c285ac4ef86869c27e", "profile": "http://www.citysearch.com/profile/621748804/smyrna_ga/wings_101.html", "address": {"city": "Smyrna", "state": "GA", "street": "998 Windy Hill Rd SE", "postal_code": "30080"}, "capProviderId": null, "distance": null, "has_offers": false, "name": "Wings 101", "longitude": -84.524382, "has_menu": false, "awards": null, "user_review_count": 0}, {"business_operation_status": 1, "rating": null, "neighborhood": null, "image": null, "scorecard": null, "featured": false, "sample_categories": "Restaurants, Catering", "public_id": "tastethe-south-cafe-ctrng-atlanta", "id": 742238900, "votes": null, "tagline": null, "has_video": false, "website": null, "offers": null, "latitude": 33.764656, "politanName": "Atlanta, GA Metro ", "phone_number": "4046992999", "tags": [{"primary": false, "id": 1705, "name": "Catering"}, {"primary": true, "id": 1722, "name": "Restaurants"}], "fax_number": null, "expansion": {"count": null, "uri": null}, "impression_id": "000b000000d6e11e36b68645f1aa5f52227ec1202c", "profile": "http://www.citysearch.com/profile/742238900/atlanta_ga/taste_the_south_cafe_ctrng.html", "address": {"city": "Atlanta", "state": "GA", "street": "304 Fulton Industrial Cir SW", "postal_code": "30336"}, "capProviderId": null, "distance": null, "has_offers": false, "name": "Taste-The South Cafe & Ctrng", "longitude": -84.53182, "has_menu": false, "awards": null, "user_review_count": 0}, {"business_operation_status": 1, "rating": null, "neighborhood": null, "image": null, "scorecard": null, "featured": false, "sample_categories": "Restaurants", "public_id": "village-cafe-smyrna", "id": 745629910, "votes": null, "tagline": null, "has_video": false, "website": null, "offers": null, "latitude": 33.883751, "politanName": "Atlanta, GA Metro ", "phone_number": "6782935977", "tags": [{"primary": true, "id": 1722, "name": "Restaurants"}], "fax_number": null, "expansion": {"count": null, "uri": null}, "impression_id": "000b000000bfce3dd105054105913611c33ba0eebc", "profile": "http://www.citysearch.com/profile/745629910/smyrna_ga/village_cafe.html", "address": {"city": "Smyrna", "state": "GA", "street": "865 Pinehill Dr SE", "postal_code": "30080"}, "capProviderId": null, "distance": null, "has_offers": false, "name": "Village Cafe", "longitude": -84.528342, "has_menu": false, "awards": null, "user_review_count": 0}, {"business_operation_status": 1, "rating": null, "neighborhood": null, "image": null, "scorecard": null, "featured": false, "sample_categories": "Restaurants, Delis And Delicatessens, Carry Out", "public_id": "firehouse-subs-austell", "id": 773458950, "votes": null, "tagline": null, "has_video": false, "website": null, "offers": null, "latitude": 33.866955, "politanName": "Atlanta, GA Metro ", "phone_number": "7704396165", "tags": [{"primary": false, "id": 1727, "name": "Delis And Delicatessens"}, {"primary": false, "id": 11247, "name": "Carry Out"}, {"primary": true, "id": 1722, "name": "Restaurants"}], "fax_number": null, "expansion": {"count": null, "uri": null}, "impression_id": "000b000000afe54fefc3b94a738b85fd26672983c1", "profile": "http://www.citysearch.com/profile/773458950/austell_ga/firehouse_subs.html", "address": {"city": "Austell", "state": "GA", "street": "2860 E West Connector", "postal_code": "30106"}, "capProviderId": null, "distance": null, "has_offers": false, "name": "Firehouse Subs", "longitude": -84.626974, "has_menu": true, "awards": null, "user_review_count": 0}, {"business_operation_status": 1, "rating": null, "neighborhood": null, "image": null, "scorecard": null, "featured": false, "sample_categories": "Restaurants, Barbecue Restaurants", "public_id": "bar-be-que-heavern-marietta", "id": 787133740, "votes": null, "tagline": null, "has_video": false, "website": null, "offers": null, "latitude": 33.894508, "politanName": "Atlanta, GA Metro ", "phone_number": "7706530935", "tags": [{"primary": false, "id": 1724, "name": "Barbecue Restaurants"}, {"primary": true, "id": 1722, "name": "Restaurants"}], "fax_number": null, "expansion": {"count": null, "uri": null}, "impression_id": "000b000000aa058458597c44c68caf9fe50eb254f0", "profile": "http://www.citysearch.com/profile/787133740/marietta_ga/bar_be_que_heavern.html", "address": {"city": "Marietta", "state": "GA", "street": "186 Windy Hill Rd Sw", "postal_code": "30060"}, "capProviderId": null, "distance": null, "has_offers": false, "name": "Bar Be Que Heavern", "longitude": -84.555734, "has_menu": false, "awards": null, "user_review_count": 0}, {"business_operation_status": 1, "rating": null, "neighborhood": "Southwest, Southwest", "image": null, "scorecard": null, "featured": false, "sample_categories": "Restaurants, Chinese", "public_id": "china-one-atlanta-2", "id": 713506080, "votes": null, "tagline": null, "has_video": false, "website": null, "offers": null, "latitude": 33.723109, "politanName": "Atlanta, GA Metro ", "phone_number": "4046996099", "tags": [{"primary": false, "id": 11252, "name": "Chinese"}, {"primary": true, "id": 1722, "name": "Restaurants"}], "fax_number": null, "expansion": {"count": null, "uri": null}, "impression_id": "000b0000000f278aae2bde4703a9294c734be4bf04", "profile": "http://www.citysearch.com/profile/713506080/atlanta_ga/china_one.html", "address": {"city": "Atlanta", "state": "GA", "street": "3425 Cascade Rd Sw", "postal_code": "30311"}, "capProviderId": null, "distance": null, "has_offers": false, "name": "China One", "longitude": -84.500835, "has_menu": false, "awards": null, "user_review_count": 0}, {"business_operation_status": 1, "rating": null, "neighborhood": null, "image": null, "scorecard": null, "featured": false, "sample_categories": "Doughnut Shops, Coffeehouses", "public_id": "krispy-kreme-doughnuts-smyrna-2", "id": 816048270, "votes": null, "tagline": null, "has_video": false, "website": "http://www.citysearch.com/profile/external/816048270/smyrna_ga/krispy_kreme_doughnuts.html", "offers": null, "latitude": 33.842457, "politanName": "Atlanta, GA Metro ", "phone_number": "7704322320", "tags": [{"primary": false, "id": 1726, "name": "Coffeehouses"}, {"primary": true, "id": 1734, "name": "Doughnut Shops"}], "fax_number": null, "expansion": {"count": null, "uri": null}, "impression_id": "000b0000001eddda92179a4d268bc60b3faafb6339", "profile": "http://www.citysearch.com/profile/816048270/smyrna_ga/krispy_kreme_doughnuts.html", "address": {"city": "Smyrna", "state": "GA", "street": "4560 S Cobb Dr SE", "postal_code": "30080"}, "capProviderId": null, "distance": null, "has_offers": false, "name": "Krispy Kreme Doughnuts", "longitude": -84.501331, "has_menu": false, "awards": null, "user_review_count": 0}, {"business_operation_status": 1, "rating": null, "neighborhood": null, "image": null, "scorecard": null, "featured": false, "sample_categories": "Restaurants, Barbecue Restaurants", "public_id": "new-york-buffalo-wings-austell", "id": 728062320, "votes": null, "tagline": null, "has_video": false, "website": null, "offers": null, "latitude": 33.77728, "politanName": "Atlanta, GA Metro ", "phone_number": "7707392442", "tags": [{"primary": false, "id": 1724, "name": "Barbecue Restaurants"}, {"primary": true, "id": 1722, "name": "Restaurants"}], "fax_number": null, "expansion": {"count": null, "uri": null}, "impression_id": "000b0000009511484b52da43a090de62f3941d54f8", "profile": "http://www.citysearch.com/profile/728062320/austell_ga/new_york_buffalo_wings.html", "address": {"city": "Austell", "state": "GA", "street": "340 Six Flags Dr", "postal_code": "30168"}, "capProviderId": null, "distance": null, "has_offers": false, "name": "New York Buffalo Wings", "longitude": -84.559025, "has_menu": false, "awards": null, "user_review_count": 0}, {"business_operation_status": 1, "rating": null, "neighborhood": null, "image": null, "scorecard": null, "featured": false, "sample_categories": "Restaurants", "public_id": "china-star-austell", "id": 830973950, "votes": null, "tagline": null, "has_video": false, "website": null, "offers": null, "latitude": 33.78523, "politanName": "Atlanta, GA Metro ", "phone_number": "7707390222", "tags": [{"primary": true, "id": 1722, "name": "Restaurants"}], "fax_number": null, "expansion": {"count": null, "uri": null}, "impression_id": "000b00000080a215a1d6d9430990cdfc6b8069ed32", "profile": "http://www.citysearch.com/profile/830973950/austell_ga/china_star.html", "address": {"city": "Austell", "state": "GA", "street": "600 Maxham Rd", "postal_code": "30168"}, "capProviderId": null, "distance": null, "has_offers": false, "name": "China Star", "longitude": -84.62273, "has_menu": true, "awards": null, "user_review_count": 0}, {"business_operation_status": 1, "rating": null, "neighborhood": null, "image": null, "scorecard": null, "featured": false, "sample_categories": "Restaurants", "public_id": "healthy-smoothies-marietta", "id": 839059750, "votes": null, "tagline": null, "has_video": false, "website": null, "offers": null, "latitude": 33.901077, "politanName": "Atlanta, GA Metro ", "phone_number": "4046044604", "tags": [{"primary": true, "id": 1722, "name": "Restaurants"}], "fax_number": null, "expansion": {"count": null, "uri": null}, "impression_id": "000b000000252580097c3a4c318abcd422d0ba9b90", "profile": "http://www.citysearch.com/profile/839059750/marietta_ga/healthy_smoothies.html", "address": {"city": "Marietta", "state": "GA", "street": "1812 Powder Springs Rd SW", "postal_code": "30064"}, "capProviderId": null, "distance": null, "has_offers": false, "name": "Healthy Smoothies", "longitude": -84.606768, "has_menu": false, "awards": null, "user_review_count": 0}, {"business_operation_status": 1, "rating": null, "neighborhood": null, "image": null, "scorecard": null, "featured": false, "sample_categories": "Restaurants, Barbecue Restaurants", "public_id": "ruchda-wings-powder-spg", "id": 682329700, "votes": null, "tagline": null, "has_video": false, "website": null, "offers": null, "latitude": 33.867624, "politanName": "Atlanta, GA Metro ", "phone_number": "7709439399", "tags": [{"primary": false, "id": 1724, "name": "Barbecue Restaurants"}, {"primary": true, "id": 1722, "name": "Restaurants"}], "fax_number": null, "expansion": {"count": null, "uri": null}, "impression_id": "000b0000001065b5ae72804f2e9424496838cc2a78", "profile": "http://www.citysearch.com/profile/682329700/powder_springs_ga/ruchda_wings.html", "address": {"city": "Powder Springs", "state": "GA", "street": "2860 East W Connector Sw", "postal_code": "30127"}, "capProviderId": null, "distance": null, "has_offers": false, "name": "Ruchda Wings", "longitude": -84.631069, "has_menu": false, "awards": null, "user_review_count": 0}, {"business_operation_status": 1, "rating": 9.0, "neighborhood": null, "image": null, "scorecard": null, "featured": false, "sample_categories": "Catering, Restaurants", "public_id": "jones-house-restaurant-catering-lithia-spgs", "id": 2948169, "votes": null, "tagline": null, "has_video": false, "website": null, "offers": null, "latitude": 33.789264, "politanName": "Atlanta, GA Metro ", "phone_number": "7709483287", "tags": [{"primary": false, "id": 1722, "name": "Restaurants"}, {"primary": true, "id": 1705, "name": "Catering"}], "fax_number": null, "expansion": {"count": null, "uri": null}, "impression_id": "000b000000c557435f279f4e39a5db5ea6deae7b49", "profile": "http://www.citysearch.com/profile/2948169/lithia_springs_ga/jones_house_restaurant_catering.html", "address": {"city": "Lithia Springs", "state": "GA", "street": "561 Thornton Rd", "postal_code": "30122"}, "capProviderId": null, "distance": null, "has_offers": false, "name": "Jones House Restaurant & Catering", "longitude": -84.62553, "has_menu": false, "awards": null, "user_review_count": 2}, {"business_operation_status": 1, "rating": null, "neighborhood": null, "image": null, "scorecard": null, "featured": false, "sample_categories": "Restaurants, Pizza, American Express, Discover, MasterCard", "public_id": "st-angelos-pizza-vinings-vlg-smyrna", "id": 682274700, "votes": null, "tagline": null, "has_video": false, "website": "http://www.citysearch.com/profile/external/682274700/smyrna_ga/st_angelo_s_pizza_vinings_vlg.html", "offers": null, "latitude": 33.838436, "politanName": "Atlanta, GA Metro ", "phone_number": "4047949254", "tags": [{"primary": false, "id": 1722, "name": "Restaurants"}, {"primary": false, "id": 11333, "name": "American Express"}, {"primary": false, "id": 11349, "name": "Discover"}, {"primary": false, "id": 11361, "name": "MasterCard"}, {"primary": false, "id": 11382, "name": "Visa"}, {"primary": true, "id": 11299, "name": "Pizza"}], "fax_number": null, "expansion": {"count": null, "uri": null}, "impression_id": "000b000000808542b7351347c48d3fd0eb0ff29f6b", "profile": "http://www.citysearch.com/profile/682274700/smyrna_ga/st_angelo_s_pizza_vinings_vlg.html", "address": {"city": "Smyrna", "state": "GA", "street": "4686 S Atlanta Rd Se", "postal_code": "30080"}, "capProviderId": null, "distance": null, "has_offers": false, "name": "St Angelo's Pizza Vinings Vlg", "longitude": -84.482318, "has_menu": true, "awards": null, "user_review_count": 5}, {"business_operation_status": 1, "rating": null, "neighborhood": null, "image": null, "scorecard": null, "featured": false, "sample_categories": "Restaurants, Pizza, Carry Out, MasterCard, Visa", "public_id": "mellow-mushroom-atlanta-3", "id": 605575450, "votes": null, "tagline": null, "has_video": false, "website": "http://www.citysearch.com/profile/external/605575450/atlanta_ga/mellow_mushroom.html", "offers": null, "latitude": 33.74759, "politanName": "Atlanta, GA Metro ", "phone_number": "4045246133", "tags": [{"primary": false, "id": 1722, "name": "Restaurants"}, {"primary": false, "id": 11247, "name": "Carry Out"}, {"primary": false, "id": 11361, "name": "MasterCard"}, {"primary": false, "id": 11382, "name": "Visa"}, {"primary": true, "id": 11299, "name": "Pizza"}], "fax_number": null, "expansion": {"count": null, "uri": null}, "impression_id": "000b000000553336c17bf847c2885aa61a0e76c3ba", "profile": "http://www.citysearch.com/profile/605575450/atlanta_ga/mellow_mushroom.html", "address": {"city": "Atlanta", "state": "GA", "street": "150 Great Southwest Pkwy Sw", "postal_code": "30336"}, "capProviderId": null, "distance": null, "has_offers": false, "name": "Mellow Mushroom", "longitude": -84.560883, "has_menu": false, "awards": null, "user_review_count": 0}, {"business_operation_status": 1, "rating": null, "neighborhood": null, "image": null, "scorecard": null, "featured": false, "sample_categories": "Ice Cream Parlors", "public_id": "tropicanna-billiards-grill-smyrna", "id": 614553874, "votes": null, "tagline": null, "has_video": false, "website": null, "offers": null, "latitude": 33.890202, "politanName": "Atlanta, GA Metro ", "phone_number": "7704320051", "tags": [{"primary": true, "id": 1730, "name": "Ice Cream Parlors"}], "fax_number": null, "expansion": {"count": null, "uri": null}, "impression_id": "000b000000218454fd7bd64c0c89d2dedf3a14607a", "profile": "http://www.citysearch.com/profile/614553874/smyrna_ga/tropicanna_billiards_grill.html", "address": {"city": "Smyrna", "state": "GA", "street": "2570 Atlanta Rd SE", "postal_code": "30080"}, "capProviderId": null, "distance": null, "has_offers": false, "name": "Tropicanna Billiards & Grill", "longitude": -84.517036, "has_menu": false, "awards": null, "user_review_count": 0}, {"business_operation_status": 1, "rating": null, "neighborhood": null, "image": null, "scorecard": null, "featured": false, "sample_categories": "Restaurants, Delis And Delicatessens, Sandwich Shops, Carry Out", "public_id": "subway-atlanta-64", "id": 655847540, "votes": null, "tagline": null, "has_video": false, "website": "http://www.citysearch.com/profile/external/655847540/atlanta_ga/subway.html", "offers": null, "latitude": 33.699525, "politanName": "Atlanta, GA Metro ", "phone_number": "6789732674", "tags": [{"primary": false, "id": 1727, "name": "Delis And Delicatessens"}, {"primary": false, "id": 1736, "name": "Sandwich Shops"}, {"primary": false, "id": 11247, "name": "Carry Out"}, {"primary": true, "id": 1722, "name": "Restaurants"}], "fax_number": null, "expansion": {"count": null, "uri": null}, "impression_id": "000b00000032c691278bb54d5095019e8fb78812ee", "profile": "http://www.citysearch.com/profile/655847540/atlanta_ga/subway.html", "address": {"city": "Atlanta", "state": "GA", "street": "5819 Campbellton Rd Sw", "postal_code": "30331"}, "capProviderId": null, "distance": null, "has_offers": false, "name": "Subway", "longitude": -84.576106, "has_menu": false, "awards": null, "user_review_count": 0}, {"business_operation_status": 1, "rating": null, "neighborhood": null, "image": null, "scorecard": null, "featured": false, "sample_categories": "Restaurants, Barbecue Restaurants", "public_id": "wings-express-smyrna", "id": 655890370, "votes": null, "tagline": null, "has_video": false, "website": null, "offers": null, "latitude": 33.887226, "politanName": "Atlanta, GA Metro ", "phone_number": "6783059522", "tags": [{"primary": false, "id": 1724, "name": "Barbecue Restaurants"}, {"primary": true, "id": 1722, "name": "Restaurants"}], "fax_number": null, "expansion": {"count": null, "uri": null}, "impression_id": "000b00000036d995133e824d62a9da9feded1b4ceb", "profile": "http://www.citysearch.com/profile/655890370/smyrna_ga/wings_express.html", "address": {"city": "Smyrna", "state": "GA", "street": "2711 S Cobb Dr Se", "postal_code": "30080"}, "capProviderId": null, "distance": null, "has_offers": false, "name": "Wings Express", "longitude": -84.535161, "has_menu": false, "awards": null, "user_review_count": 0}, {"business_operation_status": 0, "rating": null, "neighborhood": null, "image": null, "scorecard": null, "featured": false, "sample_categories": "Restaurants, Carry Out", "public_id": "mc-donalds-smyrna-11", "id": 682428720, "votes": null, "tagline": null, "has_video": false, "website": "http://www.citysearch.com/profile/external/682428720/smyrna_ga/mc_donald_s.html", "offers": null, "latitude": 33.855476, "politanName": "Atlanta, GA Metro ", "phone_number": "7708019353", "tags": [{"primary": false, "id": 11247, "name": "Carry Out"}, {"primary": true, "id": 1722, "name": "Restaurants"}], "fax_number": null, "expansion": {"count": null, "uri": null}, "impression_id": "000b000000dc93dc777c2e4f5f91ca153ff453337b", "profile": "http://www.citysearch.com/profile/682428720/smyrna_ga/mc_donald_s.html", "address": {"city": "Smyrna", "state": "GA", "street": "4301 Ridgehurst Dr Se", "postal_code": "30080"}, "capProviderId": null, "distance": null, "has_offers": false, "name": "Mc Donald's", "longitude": -84.505022, "has_menu": false, "awards": null, "user_review_count": 0}, {"business_operation_status": 1, "rating": null, "neighborhood": null, "image": null, "scorecard": null, "featured": false, "sample_categories": "Catering, Restaurants", "public_id": "freckled-and-blue-kitchen-catering-smyrna", "id": 606527734, "votes": null, "tagline": null, "has_video": false, "website": null, "offers": null, "latitude": 33.842593, "politanName": "Atlanta, GA Metro ", "phone_number": "4049895571", "tags": [{"primary": false, "id": 1722, "name": "Restaurants"}, {"primary": true, "id": 1705, "name": "Catering"}], "fax_number": null, "expansion": {"count": null, "uri": null}, "impression_id": "000b000000b4c83dc5c12b4b909b5cd6f4826b648e", "profile": "http://www.citysearch.com/profile/606527734/smyrna_ga/freckled_and_blue_kitchen_catering.html", "address": {"city": "Smyrna", "state": "GA", "street": "4585 S Cobb Dr SE 100", "postal_code": "30080"}, "capProviderId": null, "distance": null, "has_offers": false, "name": "Freckled and Blue Kitchen & Catering", "longitude": -84.498107, "has_menu": false, "awards": null, "user_review_count": 0}, {"business_operation_status": 1, "rating": null, "neighborhood": null, "image": null, "scorecard": null, "featured": false, "sample_categories": "Restaurants, Mexican", "public_id": "carniceria-y-taqueria-austell", "id": 33586679, "votes": null, "tagline": null, "has_video": false, "website": null, "offers": null, "latitude": 33.77728, "politanName": "Atlanta, GA Metro ", "phone_number": "7709411103", "tags": [{"primary": false, "id": 11208, "name": "Mexican"}, {"primary": true, "id": 1722, "name": "Restaurants"}], "fax_number": null, "expansion": {"count": null, "uri": null}, "impression_id": "000b000000566049130fef4dd982d37a8343aadad3", "profile": "http://www.citysearch.com/profile/33586679/austell_ga/carniceria_y_taqueria.html", "address": {"city": "Austell", "state": "GA", "street": "366 Six Flags Dr", "postal_code": "30168"}, "capProviderId": null, "distance": null, "has_offers": false, "name": "Carniceria Y Taqueria", "longitude": -84.559025, "has_menu": false, "awards": null, "user_review_count": 0}, {"business_operation_status": 1, "rating": null, "neighborhood": "Southwest, Southwest", "image": null, "scorecard": null, "featured": false, "sample_categories": "Delis And Delicatessens", "public_id": "kroger-deli-atlanta-21", "id": 706584160, "votes": null, "tagline": null, "has_video": false, "website": null, "offers": null, "latitude": 33.723109, "politanName": "Atlanta, GA Metro ", "phone_number": "4045058855", "tags": [{"primary": true, "id": 1727, "name": "Delis And Delicatessens"}], "fax_number": null, "expansion": {"count": null, "uri": null}, "impression_id": "000b0000001314f11a56e84c01b6fddee7482171c2", "profile": "http://www.citysearch.com/profile/706584160/atlanta_ga/kroger_deli.html", "address": {"city": "Atlanta", "state": "GA", "street": "3425 Cascade Rd Sw # 104", "postal_code": "30311"}, "capProviderId": null, "distance": null, "has_offers": false, "name": "Kroger Deli", "longitude": -84.500835, "has_menu": false, "awards": null, "user_review_count": 0}, {"business_operation_status": 1, "rating": null, "neighborhood": null, "image": null, "scorecard": null, "featured": false, "sample_categories": "Restaurants, Carry Out", "public_id": "atlanta-bread-co-smyrna-3", "id": 822894330, "votes": null, "tagline": null, "has_video": false, "website": null, "offers": null, "latitude": 33.844924, "politanName": "Atlanta, GA Metro ", "phone_number": "6785030710", "tags": [{"primary": false, "id": 11247, "name": "Carry Out"}, {"primary": true, "id": 1722, "name": "Restaurants"}], "fax_number": null, "expansion": {"count": null, "uri": null}, "impression_id": "000b0000004b81af715fbf4973a8438c8afbbe9901", "profile": "http://www.citysearch.com/profile/822894330/smyrna_ga/atlanta_bread_co.html", "address": {"city": "Smyrna", "state": "GA", "street": "1270 Winchester Pkwy SE # 219", "postal_code": "30080"}, "capProviderId": null, "distance": null, "has_offers": false, "name": "Atlanta Bread Co", "longitude": -84.489021, "has_menu": false, "awards": null, "user_review_count": 0}, {"business_operation_status": 1, "rating": null, "neighborhood": "Highlands Park", "image": null, "scorecard": null, "featured": false, "sample_categories": "Restaurants, Carry Out", "public_id": "rallys-hamburgers-smyrna", "id": 808255240, "votes": null, "tagline": null, "has_video": false, "website": null, "offers": null, "latitude": 33.828925, "politanName": "Atlanta, GA Metro ", "phone_number": "7708018145", "tags": [{"primary": false, "id": 11247, "name": "Carry Out"}, {"primary": true, "id": 1722, "name": "Restaurants"}], "fax_number": null, "expansion": {"count": null, "uri": null}, "impression_id": "000b000000793ed675a2294ccdacf8fd6e19df3ffb", "profile": "http://www.citysearch.com/profile/808255240/smyrna_ga/rally_s_hamburgers.html", "address": {"city": "Smyrna", "state": "GA", "street": "5100 S Cobb Dr SE", "postal_code": "30080"}, "capProviderId": null, "distance": null, "has_offers": false, "name": "Rally's Hamburgers", "longitude": -84.492961, "has_menu": false, "awards": null, "user_review_count": 0}, {"business_operation_status": 1, "rating": null, "neighborhood": null, "image": null, "scorecard": null, "featured": false, "sample_categories": "Restaurants, Delis And Delicatessens, Sandwich Shops, Carry Out", "public_id": "blimpie-subs-salads-atlanta-45", "id": 815072890, "votes": null, "tagline": null, "has_video": false, "website": null, "offers": null, "latitude": 33.762943, "politanName": "Atlanta, GA Metro ", "phone_number": "4046913663", "tags": [{"primary": false, "id": 1727, "name": "Delis And Delicatessens"}, {"primary": false, "id": 1736, "name": "Sandwich Shops"}, {"primary": false, "id": 11247, "name": "Carry Out"}, {"primary": true, "id": 1722, "name": "Restaurants"}], "fax_number": null, "expansion": {"count": null, "uri": null}, "impression_id": "000b000000b0101174da364b15afce185d213f54a7", "profile": "http://www.citysearch.com/profile/815072890/atlanta_ga/blimpie_subs_salads.html", "address": {"city": "Atlanta", "state": "GA", "street": "4485 Fult Ind Blvd SW # J", "postal_code": "30336"}, "capProviderId": null, "distance": null, "has_offers": false, "name": "Blimpie Subs & Salads", "longitude": -84.534733, "has_menu": false, "awards": null, "user_review_count": 0}, {"business_operation_status": 1, "rating": null, "neighborhood": null, "image": null, "scorecard": null, "featured": false, "sample_categories": "Restaurants", "public_id": "jeffs-country-buffet-austell-2", "id": 613958364, "votes": null, "tagline": null, "has_video": false, "website": null, "offers": null, "latitude": 33.763681, "politanName": "Atlanta, GA Metro ", "phone_number": "7709483455", "tags": [{"primary": true, "id": 1722, "name": "Restaurants"}], "fax_number": null, "expansion": {"count": null, "uri": null}, "impression_id": "000b0000008ef42a9e994347e4966e7c2b45796854", "profile": "http://www.citysearch.com/profile/613958364/austell_ga/jeff_s_country_buffet.html", "address": {"city": "Austell", "state": "GA", "street": "7894 White Rd", "postal_code": "30168"}, "capProviderId": null, "distance": null, "has_offers": false, "name": "Jeff's Country Buffet", "longitude": -84.580746, "has_menu": false, "awards": null, "user_review_count": 0}, {"business_operation_status": 1, "rating": null, "neighborhood": null, "image": null, "scorecard": null, "featured": false, "sample_categories": "Restaurants", "public_id": "come-home-eatery-atlanta", "id": 762744120, "votes": null, "tagline": null, "has_video": false, "website": null, "offers": null, "latitude": 33.730411, "politanName": "Atlanta, GA Metro ", "phone_number": "4047345795", "tags": [{"primary": true, "id": 1722, "name": "Restaurants"}], "fax_number": null, "expansion": {"count": null, "uri": null}, "impression_id": "000b0000007558411ea3664fefaa978ac5772aaa56", "profile": "http://www.citysearch.com/profile/762744120/atlanta_ga/come_home_eatery.html", "address": {"city": "Atlanta", "state": "GA", "street": "3580 Cascade Rd SW", "postal_code": "30331"}, "capProviderId": null, "distance": null, "has_offers": false, "name": "Come Home Eatery", "longitude": -84.566581, "has_menu": false, "awards": null, "user_review_count": 0}, {"business_operation_status": 1, "rating": null, "neighborhood": null, "image": null, "scorecard": null, "featured": false, "sample_categories": "Restaurants, Barbecue Restaurants", "public_id": "wing-zone-smyrna", "id": 764933090, "votes": null, "tagline": null, "has_video": false, "website": "http://www.citysearch.com/profile/external/764933090/smyrna_ga/wing_zone.html", "offers": null, "latitude": 33.844439, "politanName": "Atlanta, GA Metro ", "phone_number": "6783090002", "tags": [{"primary": false, "id": 1724, "name": "Barbecue Restaurants"}, {"primary": true, "id": 1722, "name": "Restaurants"}], "fax_number": null, "expansion": {"count": null, "uri": null}, "impression_id": "000b000000252ae0ced74c40d89f3fb0267df13326", "profile": "http://www.citysearch.com/profile/764933090/smyrna_ga/wing_zone.html", "address": {"city": "Smyrna", "state": "GA", "street": "4490 S Cobb Dr SE", "postal_code": "30080"}, "capProviderId": null, "distance": null, "has_offers": false, "name": "Wing Zone", "longitude": -84.501907, "has_menu": true, "awards": null, "user_review_count": 0}, {"business_operation_status": 1, "rating": null, "neighborhood": null, "image": null, "scorecard": null, "featured": false, "sample_categories": "Barbecue Restaurants, Restaurants", "public_id": "hamdeezee-bbq-atlanta", "id": 793271790, "votes": null, "tagline": null, "has_video": false, "website": null, "offers": null, "latitude": 33.76963, "politanName": "Atlanta, GA Metro ", "phone_number": "4045499780", "tags": [{"primary": false, "id": 1722, "name": "Restaurants"}, {"primary": true, "id": 1724, "name": "Barbecue Restaurants"}], "fax_number": null, "expansion": {"count": null, "uri": null}, "impression_id": "000b000000bdbd41451a0c4bfc8721dfd933e0fc59", "profile": "http://www.citysearch.com/profile/793271790/atlanta_ga/hamdeezee_bbq.html", "address": {"city": "Atlanta", "state": "GA", "street": "2478 Ml King Jr Dr Sw", "postal_code": "30311"}, "capProviderId": null, "distance": null, "has_offers": false, "name": "Hamdeezee BBQ", "longitude": -84.518939, "has_menu": false, "awards": null, "user_review_count": 0}, {"business_operation_status": 1, "rating": null, "neighborhood": "Northside, Northside", "image": null, "scorecard": null, "featured": false, "sample_categories": "Restaurants, Gourmet Foods", "public_id": "eclectic-gourmet-atlanta", "id": 829112750, "votes": null, "tagline": null, "has_video": false, "website": null, "offers": null, "latitude": 33.793667, "politanName": "Atlanta, GA Metro ", "phone_number": "4043522888", "tags": [{"primary": false, "id": 11169, "name": "Gourmet Foods"}, {"primary": true, "id": 1722, "name": "Restaurants"}], "fax_number": null, "expansion": {"count": null, "uri": null}, "impression_id": "000b000000212e81b1815f4138a8841279486e633a", "profile": "http://www.citysearch.com/profile/829112750/atlanta_ga/eclectic_gourmet.html", "address": {"city": "Atlanta", "state": "GA", "street": "1425 Elswrth Blvd NW", "postal_code": "30318"}, "capProviderId": null, "distance": null, "has_offers": false, "name": "Eclectic Gourmet", "longitude": -84.426109, "has_menu": false, "awards": null, "user_review_count": 0}, {"business_operation_status": 1, "rating": null, "neighborhood": null, "image": null, "scorecard": null, "featured": false, "sample_categories": "Restaurants", "public_id": "zackbys-endless-chicken-llc-austell", "id": 837841690, "votes": null, "tagline": null, "has_video": false, "website": null, "offers": null, "latitude": 33.867601, "politanName": "Atlanta, GA Metro ", "phone_number": "7702221550", "tags": [{"primary": true, "id": 1722, "name": "Restaurants"}], "fax_number": null, "expansion": {"count": null, "uri": null}, "impression_id": "000b0000003a5111d545c945479eaf9c18f3f21a1e", "profile": "http://www.citysearch.com/profile/837841690/austell_ga/zackby_s_endless_chicken_llc.html", "address": {"city": "Austell", "state": "GA", "street": "2603 E West Connector", "postal_code": "30106"}, "capProviderId": null, "distance": null, "has_offers": false, "name": "Zackby's Endless Chicken LLC", "longitude": -84.631045, "has_menu": false, "awards": null, "user_review_count": 0}, {"business_operation_status": 1, "rating": null, "neighborhood": "Northside, Northside", "image": null, "scorecard": null, "featured": false, "sample_categories": "Restaurants, Seafood Markets, Seafood", "public_id": "taste-for-seafood-atlanta", "id": 762806070, "votes": null, "tagline": null, "has_video": false, "website": null, "offers": null, "latitude": 33.788168, "politanName": "Atlanta, GA Metro ", "phone_number": "4043520829", "tags": [{"primary": false, "id": 1719, "name": "Seafood Markets"}, {"primary": false, "id": 11228, "name": "Seafood"}, {"primary": true, "id": 1722, "name": "Restaurants"}], "fax_number": null, "expansion": {"count": null, "uri": null}, "impression_id": "000b0000003c81abb435f74f5fb78a1dd500b581e8", "profile": "http://www.citysearch.com/profile/762806070/atlanta_ga/taste_for_seafood.html", "address": {"city": "Atlanta", "state": "GA", "street": "1222 Menlo Dr NW", "postal_code": "30318"}, "capProviderId": null, "distance": null, "has_offers": false, "name": "Taste For Seafood", "longitude": -84.424383, "has_menu": false, "awards": null, "user_review_count": 0}, {"business_operation_status": 1, "rating": null, "neighborhood": null, "image": null, "scorecard": null, "featured": false, "sample_categories": "Restaurants, Delis And Delicatessens", "public_id": "zero-sub-smyrna", "id": 764935550, "votes": null, "tagline": null, "has_video": false, "website": "http://www.citysearch.com/profile/external/764935550/smyrna_ga/zero_sub.html", "offers": null, "latitude": 33.843682, "politanName": "Atlanta, GA Metro ", "phone_number": "6783093600", "tags": [{"primary": false, "id": 1727, "name": "Delis And Delicatessens"}, {"primary": true, "id": 1722, "name": "Restaurants"}], "fax_number": null, "expansion": {"count": null, "uri": null}, "impression_id": "000b000000bfe37dcd37754df9beb68ae1be9d8a38", "profile": "http://www.citysearch.com/profile/764935550/smyrna_ga/zero_sub.html", "address": {"city": "Smyrna", "state": "GA", "street": "4480 S Cobb Dr SE", "postal_code": "30080"}, "capProviderId": null, "distance": null, "has_offers": false, "name": "Zero Sub", "longitude": -84.503845, "has_menu": false, "awards": null, "user_review_count": 0}, {"business_operation_status": 1, "rating": null, "neighborhood": "Northside, Northside", "image": null, "scorecard": null, "featured": false, "sample_categories": "Restaurants, Carry Out", "public_id": "churchs-chicken-atlanta-28", "id": 764836370, "votes": null, "tagline": null, "has_video": false, "website": null, "offers": null, "latitude": 33.794633, "politanName": "Atlanta, GA Metro ", "phone_number": "4047940183", "tags": [{"primary": false, "id": 11247, "name": "Carry Out"}, {"primary": true, "id": 1722, "name": "Restaurants"}], "fax_number": null, "expansion": {"count": null, "uri": null}, "impression_id": "000b0000007737f21c5733425fa552baefc65a945a", "profile": "http://www.citysearch.com/profile/764836370/atlanta_ga/church_s_chicken.html", "address": {"city": "Atlanta", "state": "GA", "street": "3160 Hllwell Pkwy NW", "postal_code": "30318"}, "capProviderId": null, "distance": null, "has_offers": false, "name": "Church's Chicken", "longitude": -84.448772, "has_menu": false, "awards": null, "user_review_count": 0}, {"business_operation_status": 1, "rating": null, "neighborhood": null, "image": null, "scorecard": null, "featured": false, "sample_categories": "Restaurants", "public_id": "hacienda-los-mariachis-smyrna", "id": 806154260, "votes": null, "tagline": null, "has_video": false, "website": null, "offers": null, "latitude": 33.87498, "politanName": "Atlanta, GA Metro ", "phone_number": "7704324730", "tags": [{"primary": true, "id": 1722, "name": "Restaurants"}], "fax_number": null, "expansion": {"count": null, "uri": null}, "impression_id": "000b000000e99be55f7a004de58a9bf77a8d7f565b", "profile": "http://www.citysearch.com/profile/806154260/smyrna_ga/hacienda_los_mariachis.html", "address": {"city": "Smyrna", "state": "GA", "street": "821 Concord Rd SE", "postal_code": "30080"}, "capProviderId": null, "distance": null, "has_offers": false, "name": "Hacienda Los Mariachis", "longitude": -84.529694, "has_menu": false, "awards": null, "user_review_count": 0}], "histograms": [], "tag_ids": [1722], "uri": "http://api.citygridmedia.com:8080/search/places/v2/search/where?has_offers=false&type=restaurant&format=json&page=15&where=30126&rpp=50&histograms=false&publisher=10000009598&region_type=circle", "did_you_mean": "", "regions": [{"latitude": 33.816576999999995, "default_radius": 4.42, "type": "postal_code", "name": "30126", "longitude": -84.550635}], "call_id": "000b000000b9a72460b80b4741a36e2c77fe76a843", "first_hit": 701, "total_hits": 893, "geo_ids": [26301], "page": 15, "last_hit": 750}}