{"results": {"rpp": 50, "locations": [{"business_operation_status": 1, "rating": null, "neighborhood": null, "image": null, "scorecard": null, "featured": false, "sample_categories": "Restaurants, Fast Food, Carry Out, Hamburgers, American Express", "public_id": "mc-donalds-mableton-2", "id": 601310556, "votes": null, "tagline": null, "has_video": false, "website": "http://www.citysearch.com/profile/external/601310556/mableton_ga/mcdonald_s.html", "offers": null, "latitude": 33.835672, "politanName": "Atlanta, GA Metro ", "phone_number": "7709444853", "tags": [{"primary": false, "id": 11199, "name": "Fast Food"}, {"primary": false, "id": 11247, "name": "Carry Out"}, {"primary": false, "id": 11270, "name": "Hamburgers"}, {"primary": false, "id": 11333, "name": "American Express"}, {"primary": false, "id": 11349, "name": "Discover"}, {"primary": false, "id": 11361, "name": "MasterCard"}, {"primary": false, "id": 11382, "name": "Visa"}, {"primary": true, "id": 1722, "name": "Restaurants"}], "fax_number": null, "expansion": {"count": null, "uri": null}, "impression_id": "000b0000003cdbbe7551e9491f8f901353b9f60e5c", "profile": "http://www.citysearch.com/profile/601310556/mableton_ga/mcdonald_s.html", "address": {"city": "Mableton", "state": "GA", "street": "4860 Floyd Rd Sw", "postal_code": "30126"}, "capProviderId": null, "distance": null, "has_offers": false, "name": "McDonald's", "longitude": -84.576914, "has_menu": false, "awards": null, "user_review_count": 0}, {"business_operation_status": 0, "rating": null, "neighborhood": null, "image": null, "scorecard": null, "featured": false, "sample_categories": "Restaurants, Delis And Delicatessens, Sandwich Shops, Carry Out", "public_id": "blimpie-subs-salads-mableton", "id": 764922590, "votes": null, "tagline": null, "has_video": false, "website": "http://www.citysearch.com/profile/external/764922590/mableton_ga/blimpie_subs_salads.html", "offers": null, "latitude": 33.816948, "politanName": "Atlanta, GA Metro ", "phone_number": "7709443663", "tags": [{"primary": false, "id": 1727, "name": "Delis And Delicatessens"}, {"primary": false, "id": 1736, "name": "Sandwich Shops"}, {"primary": false, "id": 11247, "name": "Carry Out"}, {"primary": true, "id": 1722, "name": "Restaurants"}], "fax_number": null, "expansion": {"count": null, "uri": null}, "impression_id": "000b000000fa499de29b274b78a5ef7aa901502791", "profile": "http://www.citysearch.com/profile/764922590/mableton_ga/blimpie_subs_salads.html", "address": {"city": "Mableton", "state": "GA", "street": "5624 Mableton Pkwy SW", "postal_code": "30126"}, "capProviderId": null, "distance": null, "has_offers": false, "name": "Blimpie Subs & Salads", "longitude": -84.575419, "has_menu": true, "awards": null, "user_review_count": 0}, {"business_operation_status": 1, "rating": null, "neighborhood": null, "image": null, "scorecard": null, "featured": false, "sample_categories": "Restaurants", "public_id": "a-t-l-best-wings-mableton", "id": 802512510, "votes": null, "tagline": null, "has_video": false, "website": null, "offers": null, "latitude": 33.833318, "politanName": "Atlanta, GA Metro ", "phone_number": "7709418700", "tags": [{"primary": true, "id": 1722, "name": "Restaurants"}], "fax_number": null, "expansion": {"count": null, "uri": null}, "impression_id": "000b00000020336dad504d4c26b9b2e29065a7fab2", "profile": "http://www.citysearch.com/profile/802512510/mableton_ga/a_t_l_best_wings.html", "address": {"city": "Mableton", "state": "GA", "street": "5005 Floyd Rd Sw", "postal_code": "30126"}, "capProviderId": null, "distance": null, "has_offers": false, "name": "A T L Best Wings", "longitude": -84.575479, "has_menu": false, "awards": null, "user_review_count": 0}, {"business_operation_status": 1, "rating": null, "neighborhood": null, "image": null, "scorecard": null, "featured": false, "sample_categories": "Restaurants", "public_id": "scotts-eats-sweets-mableton", "id": 608948894, "votes": null, "tagline": null, "has_video": false, "website": null, "offers": null, "latitude": 33.817787, "politanName": "Atlanta, GA Metro ", "phone_number": "4045145322", "tags": [{"primary": true, "id": 1722, "name": "Restaurants"}], "fax_number": null, "expansion": {"count": null, "uri": null}, "impression_id": "000b000000feea0c2c1abd47f8848bbe75e309b341", "profile": "http://www.citysearch.com/profile/608948894/mableton_ga/scott_s_eats_sweets.html", "address": {"city": "Mableton", "state": "GA", "street": "1150 Veterans Memorial Hwy SW", "postal_code": "30126"}, "capProviderId": null, "distance": null, "has_offers": false, "name": "Scott's Eats & Sweets", "longitude": -84.587972, "has_menu": false, "awards": null, "user_review_count": 0}, {"business_operation_status": 1, "rating": null, "neighborhood": null, "image": null, "scorecard": null, "featured": false, "sample_categories": "Restaurants", "public_id": "rancho-el-molcajete-mableton", "id": 728113990, "votes": null, "tagline": null, "has_video": false, "website": null, "offers": null, "latitude": 33.816965, "politanName": "Atlanta, GA Metro ", "phone_number": "7708966031", "tags": [{"primary": true, "id": 1722, "name": "Restaurants"}], "fax_number": null, "expansion": {"count": null, "uri": null}, "impression_id": "000b0000004f5286ebe1eb4dd6a2db98213075889f", "profile": "http://www.citysearch.com/profile/728113990/mableton_ga/rancho_el_molcajete.html", "address": {"city": "Mableton", "state": "GA", "street": "499 Veterans Memorial Hwy Sw", "postal_code": "30126"}, "capProviderId": null, "distance": null, "has_offers": false, "name": "Rancho El Molcajete", "longitude": -84.568558, "has_menu": false, "awards": null, "user_review_count": 0}, {"business_operation_status": 1, "rating": null, "neighborhood": null, "image": null, "scorecard": null, "featured": false, "sample_categories": "Restaurants", "public_id": "tropical-eats-mableton", "id": 787139770, "votes": null, "tagline": null, "has_video": false, "website": null, "offers": null, "latitude": 33.815312, "politanName": "Atlanta, GA Metro ", "phone_number": "7709480044", "tags": [{"primary": true, "id": 1722, "name": "Restaurants"}], "fax_number": null, "expansion": {"count": null, "uri": null}, "impression_id": "000b000000522d4d5c0b394208a253e8598100ee0b", "profile": "http://www.citysearch.com/profile/787139770/mableton_ga/tropical_eats.html", "address": {"city": "Mableton", "state": "GA", "street": "302 Veterans Memorial Hwy Sw", "postal_code": "30126"}, "capProviderId": null, "distance": null, "has_offers": false, "name": "Tropical Eats", "longitude": -84.561339, "has_menu": false, "awards": null, "user_review_count": 0}, {"business_operation_status": 1, "rating": 10.0, "neighborhood": null, "image": null, "scorecard": null, "featured": false, "sample_categories": "Restaurants, Food Delivery, Traditional American, Carry Out", "public_id": "jolly-joes-cafe-mableton", "id": 2949724, "votes": null, "tagline": null, "has_video": false, "website": null, "offers": null, "latitude": 33.81733, "politanName": "Atlanta, GA Metro ", "phone_number": "7709410484", "tags": [{"primary": false, "id": 1722, "name": "Restaurants"}, {"primary": false, "id": 11190, "name": "Traditional American"}, {"primary": false, "id": 11247, "name": "Carry Out"}, {"primary": true, "id": 11267, "name": "Food Delivery"}], "fax_number": null, "expansion": {"count": null, "uri": null}, "impression_id": "000b0000005b105f512fc3439291148fc6099f84d3", "profile": "http://www.citysearch.com/profile/2949724/mableton_ga/jolly_joes_cafe.html", "address": {"city": "Mableton", "state": "GA", "street": "1153 Veterans Memorial Hwy SW", "postal_code": "30126"}, "capProviderId": null, "distance": null, "has_offers": false, "name": "Jolly Joes Cafe", "longitude": -84.588134, "has_menu": false, "awards": null, "user_review_count": 2}, {"business_operation_status": 1, "rating": null, "neighborhood": null, "image": null, "scorecard": null, "featured": false, "sample_categories": "Barbecue Restaurants", "public_id": "24-bbq-breakfast-llc-mableton", "id": 728055840, "votes": null, "tagline": null, "has_video": false, "website": null, "offers": null, "latitude": 33.783418, "politanName": "Atlanta, GA Metro ", "phone_number": "7704856433", "tags": [{"primary": true, "id": 1724, "name": "Barbecue Restaurants"}], "fax_number": null, "expansion": {"count": null, "uri": null}, "impression_id": "000b0000000a2e9f13be404eebab40450a95928151", "profile": "http://www.citysearch.com/profile/728055840/mableton_ga/24_bbq_breakfast_llc.html", "address": {"city": "Mableton", "state": "GA", "street": "6960 Mableton Pkwy Se", "postal_code": "30126"}, "capProviderId": null, "distance": null, "has_offers": false, "name": "24 BBQ & Breakfast LLC", "longitude": -84.541117, "has_menu": false, "awards": null, "user_review_count": 0}, {"business_operation_status": 1, "rating": null, "neighborhood": null, "image": null, "scorecard": null, "featured": false, "sample_categories": "Restaurants", "public_id": "el-tapatio-mableton", "id": 832623600, "votes": null, "tagline": null, "has_video": false, "website": null, "offers": null, "latitude": 33.823999, "politanName": "Atlanta, GA Metro ", "phone_number": "7707458920", "tags": [{"primary": true, "id": 1722, "name": "Restaurants"}], "fax_number": null, "expansion": {"count": null, "uri": null}, "impression_id": "000b000000bb75831dd68249a2995d401d494199fd", "profile": "http://www.citysearch.com/profile/832623600/mableton_ga/el_tapatio.html", "address": {"city": "Mableton", "state": "GA", "street": "5345 Floyd Rd Sw", "postal_code": "30126"}, "capProviderId": null, "distance": null, "has_offers": false, "name": "El Tapatio", "longitude": -84.574687, "has_menu": true, "awards": null, "user_review_count": 0}, {"business_operation_status": 1, "rating": null, "neighborhood": null, "image": null, "scorecard": null, "featured": false, "sample_categories": "Restaurants", "public_id": "underwood-enterprises-inc-mableton", "id": 732242390, "votes": null, "tagline": null, "has_video": false, "website": null, "offers": null, "latitude": 33.835202, "politanName": "Atlanta, GA Metro ", "phone_number": "7708238349", "tags": [{"primary": true, "id": 1722, "name": "Restaurants"}], "fax_number": null, "expansion": {"count": null, "uri": null}, "impression_id": "000b000000a7b7119c3e6046018b663a3474404743", "profile": "http://www.citysearch.com/profile/732242390/mableton_ga/underwood_enterprises_inc.html", "address": {"city": "Mableton", "state": "GA", "street": "4870 Floyd Rd SW # 30", "postal_code": "30126"}, "capProviderId": null, "distance": null, "has_offers": false, "name": "Underwood Enterprises Inc", "longitude": -84.576887, "has_menu": false, "awards": null, "user_review_count": 0}, {"business_operation_status": 1, "rating": null, "neighborhood": null, "image": null, "scorecard": null, "featured": false, "sample_categories": "Restaurants", "public_id": "johnnys-jerk-barbeque-mableton", "id": 808729280, "votes": null, "tagline": null, "has_video": false, "website": null, "offers": null, "latitude": 33.835173, "politanName": "Atlanta, GA Metro ", "phone_number": "6788386770", "tags": [{"primary": true, "id": 1722, "name": "Restaurants"}], "fax_number": null, "expansion": {"count": null, "uri": null}, "impression_id": "000b000000fb71fb255c214a4984110ebe4f0db3af", "profile": "http://www.citysearch.com/profile/808729280/mableton_ga/johnny_s_jerk_barbeque.html", "address": {"city": "Mableton", "state": "GA", "street": "4875 Floyd Rd SW", "postal_code": "30126"}, "capProviderId": null, "distance": null, "has_offers": false, "name": "Johnny's Jerk & Barbeque", "longitude": -84.574622, "has_menu": false, "awards": null, "user_review_count": 0}, {"business_operation_status": 1, "rating": null, "neighborhood": null, "image": null, "scorecard": null, "featured": false, "sample_categories": "Restaurants, Restaurant Management", "public_id": "jimlar-corp-mableton", "id": 37648465, "votes": null, "tagline": null, "has_video": false, "website": null, "offers": null, "latitude": 33.829896, "politanName": "Atlanta, GA Metro ", "phone_number": "7709486558", "tags": [{"primary": false, "id": 1722, "name": "Restaurants"}, {"primary": false, "id": 11122, "name": "Restaurant Management"}], "fax_number": null, "expansion": {"count": null, "uri": null}, "impression_id": "000b0000000ace2148627b473fb315eac1e52f928b", "profile": "http://www.citysearch.com/profile/37648465/mableton_ga/jim_lar_corp.html", "address": {"city": "Mableton", "state": "GA", "street": "665 Vinings Estates Dr SE", "postal_code": "30126"}, "capProviderId": null, "distance": null, "has_offers": false, "name": "Jim-Lar Corp", "longitude": -84.534087, "has_menu": false, "awards": null, "user_review_count": 0}, {"business_operation_status": 1, "rating": null, "neighborhood": null, "image": null, "scorecard": null, "featured": false, "sample_categories": "Restaurants", "public_id": "sonnys-home-cooking-mableton", "id": 832454830, "votes": null, "tagline": null, "has_video": false, "website": null, "offers": null, "latitude": 33.791518, "politanName": "Atlanta, GA Metro ", "phone_number": "7707396474", "tags": [{"primary": true, "id": 1722, "name": "Restaurants"}], "fax_number": null, "expansion": {"count": null, "uri": null}, "impression_id": "000b000000df71a8b73c9a4e56aba981c815780232", "profile": "http://www.citysearch.com/profile/832454830/mableton_ga/sonnys_home_cooking.html", "address": {"city": "Mableton", "state": "GA", "street": "6200 Mableton Pkwy SE", "postal_code": "30126"}, "capProviderId": null, "distance": null, "has_offers": false, "name": "Sonnys Home Cooking", "longitude": -84.555588, "has_menu": false, "awards": null, "user_review_count": 1}, {"business_operation_status": 0, "rating": null, "neighborhood": null, "image": null, "scorecard": null, "featured": false, "sample_categories": "Restaurants, Carry Out, Pizza", "public_id": "jets-pizza-mableton", "id": 764891790, "votes": null, "tagline": null, "has_video": false, "website": null, "offers": null, "latitude": 33.79697, "politanName": "Atlanta, GA Metro ", "phone_number": "4046966091", "tags": [{"primary": false, "id": 11247, "name": "Carry Out"}, {"primary": false, "id": 11299, "name": "Pizza"}, {"primary": true, "id": 1722, "name": "Restaurants"}], "fax_number": null, "expansion": {"count": null, "uri": null}, "impression_id": "000b0000001ae2e03853bb413cbb776376746da6b3", "profile": "http://www.citysearch.com/profile/764891790/mableton_ga/jet_s_pizza.html", "address": {"city": "Mableton", "state": "GA", "street": "6375 Discovery Blvd", "postal_code": "30126"}, "capProviderId": null, "distance": null, "has_offers": false, "name": "Jet's Pizza", "longitude": -84.515016, "has_menu": true, "awards": null, "user_review_count": 0}, {"business_operation_status": 1, "rating": null, "neighborhood": null, "image": null, "scorecard": null, "featured": false, "sample_categories": "Restaurants", "public_id": "pearls-country-kitchen-mableton", "id": 777716180, "votes": null, "tagline": null, "has_video": false, "website": null, "offers": null, "latitude": 33.817665, "politanName": "Atlanta, GA Metro ", "phone_number": "7707398739", "tags": [{"primary": true, "id": 1722, "name": "Restaurants"}], "fax_number": null, "expansion": {"count": null, "uri": null}, "impression_id": "000b00000062a56bc74ea346438c48f0435630514d", "profile": "http://www.citysearch.com/profile/777716180/mableton_ga/pearl_s_country_kitchen.html", "address": {"city": "Mableton", "state": "GA", "street": "1129 Veterans Memorial Hwy Sw", "postal_code": "30126"}, "capProviderId": null, "distance": null, "has_offers": false, "name": "Pearl's Country Kitchen", "longitude": -84.58707, "has_menu": false, "awards": null, "user_review_count": 2}, {"business_operation_status": 1, "rating": null, "neighborhood": null, "image": null, "scorecard": null, "featured": false, "sample_categories": "Restaurants", "public_id": "monicas-restaurant-mableton", "id": 777643360, "votes": null, "tagline": null, "has_video": false, "website": null, "offers": null, "latitude": 33.783418, "politanName": "Atlanta, GA Metro ", "phone_number": "7704850955", "tags": [{"primary": true, "id": 1722, "name": "Restaurants"}], "fax_number": null, "expansion": {"count": null, "uri": null}, "impression_id": "000b00000017d15e1c9f384da48cbae1cefb785dfe", "profile": "http://www.citysearch.com/profile/777643360/mableton_ga/monica_s_restaurant.html", "address": {"city": "Mableton", "state": "GA", "street": "6960 Mableton Pkwy Se", "postal_code": "30126"}, "capProviderId": null, "distance": null, "has_offers": false, "name": "Monica's Restaurant", "longitude": -84.541117, "has_menu": false, "awards": null, "user_review_count": 0}, {"business_operation_status": 1, "rating": null, "neighborhood": null, "image": null, "scorecard": null, "featured": false, "sample_categories": "Restaurants", "public_id": "j-r-cricket-mableton", "id": 832544960, "votes": null, "tagline": null, "has_video": false, "website": null, "offers": null, "latitude": 33.823999, "politanName": "Atlanta, GA Metro ", "phone_number": "7707455475", "tags": [{"primary": true, "id": 1722, "name": "Restaurants"}], "fax_number": null, "expansion": {"count": null, "uri": null}, "impression_id": "000b00000038e6e9a6f17c4246ae64913864234cb7", "profile": "http://www.citysearch.com/profile/832544960/mableton_ga/j_r_cricket.html", "address": {"city": "Mableton", "state": "GA", "street": "5345 Floyd Rd SW # J", "postal_code": "30126"}, "capProviderId": null, "distance": null, "has_offers": false, "name": "J R Cricket", "longitude": -84.574687, "has_menu": true, "awards": null, "user_review_count": 0}, {"business_operation_status": 1, "rating": null, "neighborhood": null, "image": null, "scorecard": null, "featured": false, "sample_categories": "Restaurants", "public_id": "island-breeze-restaurant-mableton-2", "id": 713524240, "votes": null, "tagline": null, "has_video": false, "website": null, "offers": null, "latitude": 33.783961, "politanName": "Atlanta, GA Metro ", "phone_number": "6784645910", "tags": [{"primary": true, "id": 1722, "name": "Restaurants"}], "fax_number": null, "expansion": {"count": null, "uri": null}, "impression_id": "000b0000002cba9cfa0b1f4852977d7fed11aaf337", "profile": "http://www.citysearch.com/profile/713524240/mableton_ga/island_breeze_restaurant.html", "address": {"city": "Mableton", "state": "GA", "street": "6981 Mableton Pkwy Se # 115", "postal_code": "30126"}, "capProviderId": null, "distance": null, "has_offers": false, "name": "Island Breeze Restaurant", "longitude": -84.540201, "has_menu": false, "awards": null, "user_review_count": 0}, {"business_operation_status": 1, "rating": null, "neighborhood": null, "image": null, "scorecard": null, "featured": false, "sample_categories": "Restaurants", "public_id": "la-joya-taqueira-mableton", "id": 837082200, "votes": null, "tagline": null, "has_video": false, "website": null, "offers": null, "latitude": 33.783418, "politanName": "Atlanta, GA Metro ", "phone_number": "6788876324", "tags": [{"primary": true, "id": 1722, "name": "Restaurants"}], "fax_number": null, "expansion": {"count": null, "uri": null}, "impression_id": "000b000000e9744b24b6994796a401dba0515ea490", "profile": "http://www.citysearch.com/profile/837082200/mableton_ga/la_joya_taqueira.html", "address": {"city": "Mableton", "state": "GA", "street": "6960 Mableton Pkwy SE # B", "postal_code": "30126"}, "capProviderId": null, "distance": null, "has_offers": false, "name": "La Joya Taqueira", "longitude": -84.541117, "has_menu": false, "awards": null, "user_review_count": 0}, {"business_operation_status": 1, "rating": null, "neighborhood": null, "image": null, "scorecard": null, "featured": false, "sample_categories": "Restaurants, Mexican", "public_id": "restaurante-salvadoreno-santa-mableton", "id": 40944476, "votes": null, "tagline": null, "has_video": false, "website": null, "offers": null, "latitude": 33.801687, "politanName": "Atlanta, GA Metro ", "phone_number": "7707398147", "tags": [{"primary": false, "id": 11208, "name": "Mexican"}, {"primary": true, "id": 1722, "name": "Restaurants"}], "fax_number": null, "expansion": {"count": null, "uri": null}, "impression_id": "000b000000ddf97c4b5ed2491582c0b0cb5d7027f6", "profile": "http://www.citysearch.com/profile/40944476/mableton_ga/restaurante_salvadoreno_santa.html", "address": {"city": "Mableton", "state": "GA", "street": "6231 Mabletn Pkwy SW", "postal_code": "30126"}, "capProviderId": null, "distance": null, "has_offers": false, "name": "Restaurante Salvadoreno Santa", "longitude": -84.566851, "has_menu": false, "awards": null, "user_review_count": 0}, {"business_operation_status": 1, "rating": null, "neighborhood": null, "image": null, "scorecard": null, "featured": false, "sample_categories": "Restaurants, Bistros", "public_id": "pearls-southern-bistro-mableton", "id": 787089110, "votes": null, "tagline": null, "has_video": false, "website": null, "offers": null, "latitude": 33.817233, "politanName": "Atlanta, GA Metro ", "phone_number": "7707092666", "tags": [{"primary": false, "id": 13690, "name": "Bistros"}, {"primary": true, "id": 1722, "name": "Restaurants"}], "fax_number": null, "expansion": {"count": null, "uri": null}, "impression_id": "000b000000a9deed8e05d04d6fb2ac46bb49ece2da", "profile": "http://www.citysearch.com/profile/787089110/mableton_ga/pearl_s_southern_bistro.html", "address": {"city": "Mableton", "state": "GA", "street": "1174 Veterans Memorial Hwy Sw", "postal_code": "30126"}, "capProviderId": null, "distance": null, "has_offers": false, "name": "Pearl's Southern Bistro", "longitude": -84.588574, "has_menu": false, "awards": null, "user_review_count": 0}, {"business_operation_status": 1, "rating": null, "neighborhood": null, "image": null, "scorecard": null, "featured": false, "sample_categories": "Restaurants", "public_id": "la-isla-dominican-cafe-mableton", "id": 796129680, "votes": null, "tagline": null, "has_video": false, "website": null, "offers": null, "latitude": 33.818318, "politanName": "Atlanta, GA Metro ", "phone_number": "6784017696", "tags": [{"primary": true, "id": 1722, "name": "Restaurants"}], "fax_number": null, "expansion": {"count": null, "uri": null}, "impression_id": "000b0000000fc7f6c33a5c4f848e031180475c0e89", "profile": "http://www.citysearch.com/profile/796129680/mableton_ga/la_isla_dominican_cafe.html", "address": {"city": "Mableton", "state": "GA", "street": "679 Veterans Memorial Hwy Sw", "postal_code": "30126"}, "capProviderId": null, "distance": null, "has_offers": false, "name": "La Isla Dominican Cafe", "longitude": -84.574544, "has_menu": false, "awards": null, "user_review_count": 0}, {"business_operation_status": 1, "rating": null, "neighborhood": null, "image": null, "scorecard": null, "featured": false, "sample_categories": "Restaurants, Barbecue Restaurants", "public_id": "wings-grill-mableton", "id": 787135080, "votes": null, "tagline": null, "has_video": false, "website": null, "offers": null, "latitude": 33.823999, "politanName": "Atlanta, GA Metro ", "phone_number": "7706757267", "tags": [{"primary": false, "id": 1724, "name": "Barbecue Restaurants"}, {"primary": true, "id": 1722, "name": "Restaurants"}], "fax_number": null, "expansion": {"count": null, "uri": null}, "impression_id": "000b0000005261650607de4e0c9cce5d07401cd908", "profile": "http://www.citysearch.com/profile/787135080/mableton_ga/wings_grill.html", "address": {"city": "Mableton", "state": "GA", "street": "5345 Floyd Rd Sw", "postal_code": "30126"}, "capProviderId": null, "distance": null, "has_offers": false, "name": "Wings & Grill", "longitude": -84.574687, "has_menu": false, "awards": null, "user_review_count": 0}, {"business_operation_status": 1, "rating": null, "neighborhood": null, "image": null, "scorecard": null, "featured": false, "sample_categories": "Restaurants", "public_id": "golden-glory-cafe-mableton", "id": 627145624, "votes": null, "tagline": null, "has_video": false, "website": null, "offers": null, "latitude": 33.818318, "politanName": "Atlanta, GA Metro ", "phone_number": "6783880800", "tags": [{"primary": true, "id": 1722, "name": "Restaurants"}], "fax_number": null, "expansion": {"count": null, "uri": null}, "impression_id": "000b000000fdd82aff935e42ab9fca26556d0873c4", "profile": "http://www.citysearch.com/profile/627145624/mableton_ga/golden_glory_cafe.html", "address": {"city": "Mableton", "state": "GA", "street": "679 Veterans Memorial Hwy SW", "postal_code": "30126"}, "capProviderId": null, "distance": null, "has_offers": false, "name": "Golden Glory Cafe", "longitude": -84.57454, "has_menu": false, "awards": null, "user_review_count": 0}, {"business_operation_status": 1, "rating": null, "neighborhood": null, "image": null, "scorecard": null, "featured": false, "sample_categories": "Food Delivery", "public_id": "beffalicious-mableton", "id": 809126440, "votes": null, "tagline": null, "has_video": false, "website": null, "offers": null, "latitude": 33.817489, "politanName": "Atlanta, GA Metro ", "phone_number": "7707452381", "tags": [{"primary": true, "id": 11267, "name": "Food Delivery"}], "fax_number": null, "expansion": {"count": null, "uri": null}, "impression_id": "000b0000005e10b332868d425abe4e1a88c91d6bf1", "profile": "http://www.citysearch.com/profile/809126440/mableton_ga/beffalicious.html", "address": {"city": "Mableton", "state": "GA", "street": "5590 Mableton Pkwy SW", "postal_code": "30126"}, "capProviderId": null, "distance": null, "has_offers": false, "name": "Beffalicious", "longitude": -84.575963, "has_menu": false, "awards": null, "user_review_count": 0}, {"business_operation_status": 1, "rating": null, "neighborhood": null, "image": null, "scorecard": null, "featured": false, "sample_categories": "Restaurants", "public_id": "mcdonald-ronda-mableton", "id": 812801220, "votes": null, "tagline": null, "has_video": false, "website": null, "offers": null, "latitude": 33.805594, "politanName": "Atlanta, GA Metro ", "phone_number": "7707398785", "tags": [{"primary": true, "id": 1722, "name": "Restaurants"}], "fax_number": null, "expansion": {"count": null, "uri": null}, "impression_id": "000b000000c3cb2b514ce84309ae19d2ff769a274b", "profile": "http://www.citysearch.com/profile/812801220/mableton_ga/mcdonald_ronda.html", "address": {"city": "Mableton", "state": "GA", "street": "6066 Heritage Way SE", "postal_code": "30126"}, "capProviderId": null, "distance": null, "has_offers": false, "name": "Mcdonald & Ronda", "longitude": -84.552065, "has_menu": false, "awards": null, "user_review_count": 0}, {"business_operation_status": 1, "rating": null, "neighborhood": null, "image": null, "scorecard": null, "featured": false, "sample_categories": "Catering, Restaurants, Pizza, Carry Out, Food Delivery", "public_id": "pizza-hut-mableton-2", "id": 835803370, "votes": null, "tagline": null, "has_video": false, "website": "http://www.citysearch.com/profile/external/835803370/mableton_ga/pizza_hut.html", "offers": null, "latitude": 33.833318, "politanName": "Atlanta, GA Metro ", "phone_number": "7707397739", "tags": [{"primary": false, "id": 1705, "name": "Catering"}, {"primary": false, "id": 1722, "name": "Restaurants"}, {"primary": false, "id": 11247, "name": "Carry Out"}, {"primary": false, "id": 11267, "name": "Food Delivery"}, {"primary": true, "id": 11299, "name": "Pizza"}], "fax_number": null, "expansion": {"count": null, "uri": null}, "impression_id": "000b0000006a99f7c13f2749e6b2bb591924b1c776", "profile": "http://www.citysearch.com/profile/835803370/mableton_ga/pizza_hut.html", "address": {"city": "Mableton", "state": "GA", "street": "5005 Floyd Rd SW 910", "postal_code": "30126"}, "capProviderId": null, "distance": null, "has_offers": false, "name": "Pizza Hut", "longitude": -84.575479, "has_menu": true, "awards": null, "user_review_count": 0}, {"business_operation_status": 1, "rating": null, "neighborhood": null, "image": null, "scorecard": null, "featured": false, "sample_categories": "Ice Cream Parlors, Restaurants, Dessert Shops", "public_id": "tongue-slide-water-ice-mableton", "id": 41608412, "votes": null, "tagline": null, "has_video": false, "website": null, "offers": null, "latitude": 33.813153, "politanName": "Atlanta, GA Metro ", "phone_number": "7707452233", "tags": [{"primary": false, "id": 1722, "name": "Restaurants"}, {"primary": false, "id": 1728, "name": "Dessert Shops"}, {"primary": true, "id": 1730, "name": "Ice Cream Parlors"}], "fax_number": null, "expansion": {"count": null, "uri": null}, "impression_id": "000b00000087b1a0cdb2f7406ab52088830b875acf", "profile": "http://www.citysearch.com/profile/41608412/mableton_ga/tongue_slide_water_ice.html", "address": {"city": "Mableton", "state": "GA", "street": "296 Veterans Memorial Hwy SE", "postal_code": "30126"}, "capProviderId": null, "distance": null, "has_offers": false, "name": "Tongue Slide Water Ice", "longitude": -84.54604, "has_menu": false, "awards": null, "user_review_count": 0}, {"business_operation_status": 1, "rating": null, "neighborhood": null, "image": null, "scorecard": null, "featured": false, "sample_categories": "Restaurants", "public_id": "taco-prado-mableton", "id": 839815990, "votes": null, "tagline": null, "has_video": false, "website": null, "offers": null, "latitude": 33.785092, "politanName": "Atlanta, GA Metro ", "phone_number": "7706933459", "tags": [{"primary": true, "id": 1722, "name": "Restaurants"}], "fax_number": null, "expansion": {"count": null, "uri": null}, "impression_id": "000b000000737cc6eff5104a9196845ed4905953d5", "profile": "http://www.citysearch.com/profile/839815990/mableton_ga/taco_prado.html", "address": {"city": "Mableton", "state": "GA", "street": "6912 Mableton Pkwy SE", "postal_code": "30126"}, "capProviderId": null, "distance": null, "has_offers": false, "name": "Taco Prado", "longitude": -84.543614, "has_menu": false, "awards": null, "user_review_count": 0}, {"business_operation_status": 0, "rating": 8.0, "neighborhood": null, "image": null, "scorecard": null, "featured": false, "sample_categories": "Catering, Restaurants, Food Delivery", "public_id": "old-hickory-barbeque-mableton", "id": 33652110, "votes": null, "tagline": null, "has_video": false, "website": null, "offers": null, "latitude": 33.816965, "politanName": "Atlanta, GA Metro ", "phone_number": "7709489451", "tags": [{"primary": false, "id": 1722, "name": "Restaurants"}, {"primary": false, "id": 11267, "name": "Food Delivery"}, {"primary": true, "id": 1705, "name": "Catering"}], "fax_number": null, "expansion": {"count": null, "uri": null}, "impression_id": "000b000000b521738525d6425f8081df1f6ce2b013", "profile": "http://www.citysearch.com/profile/33652110/mableton_ga/old_hickory_barbeque.html", "address": {"city": "Mableton", "state": "GA", "street": "499 Veterans Memorial Hwy SW", "postal_code": "30126"}, "capProviderId": null, "distance": null, "has_offers": false, "name": "Old Hickory Barbeque", "longitude": -84.568558, "has_menu": false, "awards": null, "user_review_count": 0}, {"business_operation_status": 1, "rating": null, "neighborhood": null, "image": null, "scorecard": null, "featured": false, "sample_categories": "Restaurants", "public_id": "obs-bbq-catfish-ribs-mableton", "id": 672612400, "votes": null, "tagline": null, "has_video": false, "website": null, "offers": null, "latitude": 33.816965, "politanName": "Atlanta, GA Metro ", "phone_number": null, "tags": [{"primary": true, "id": 1722, "name": "Restaurants"}], "fax_number": null, "expansion": {"count": null, "uri": null}, "impression_id": "000b000000117076f57f744a1d87253a1ced5f6536", "profile": "http://www.citysearch.com/profile/672612400/mableton_ga/o_b_s_bbq_catfish_ribs.html", "address": {"city": "Mableton", "state": "GA", "street": "499 Veterans Memorial Hwy SW", "postal_code": "30126"}, "capProviderId": null, "distance": null, "has_offers": false, "name": "O.B.'s BBQ Catfish & Ribs", "longitude": -84.568558, "has_menu": false, "awards": null, "user_review_count": 0}, {"business_operation_status": 1, "rating": null, "neighborhood": null, "image": null, "scorecard": null, "featured": false, "sample_categories": "Ice Cream Parlors, Frozen Yogurt Shops", "public_id": "baskinrobbins-mableton", "id": 764906520, "votes": null, "tagline": null, "has_video": false, "website": null, "offers": null, "latitude": 33.83335, "politanName": "Atlanta, GA Metro ", "phone_number": "7707329319", "tags": [{"primary": false, "id": 1729, "name": "Frozen Yogurt Shops"}, {"primary": true, "id": 1730, "name": "Ice Cream Parlors"}], "fax_number": null, "expansion": {"count": null, "uri": null}, "impression_id": "000b000000f22a874050854fe4be2915b0d4402342", "profile": "http://www.citysearch.com/profile/764906520/mableton_ga/baskin_robbins.html", "address": {"city": "Mableton", "state": "GA", "street": "5005 Floyd Rd SW", "postal_code": "30126"}, "capProviderId": null, "distance": null, "has_offers": false, "name": "Baskin-Robbins", "longitude": -84.575544, "has_menu": false, "awards": null, "user_review_count": 0}, {"business_operation_status": 1, "rating": null, "neighborhood": "Retreat At Vinings Lake", "image": null, "scorecard": null, "featured": false, "sample_categories": "Restaurants", "public_id": "ernies-steakhouse-mableton", "id": 820049540, "votes": null, "tagline": null, "has_video": false, "website": null, "offers": null, "latitude": 33.82157, "politanName": "Atlanta, GA Metro ", "phone_number": "7709414601", "tags": [{"primary": true, "id": 1722, "name": "Restaurants"}], "fax_number": null, "expansion": {"count": null, "uri": null}, "impression_id": "000b00000004e94ed467ef4596bdc259c934cc0df6", "profile": "http://www.citysearch.com/profile/820049540/mableton_ga/ernie_s_steakhouse.html", "address": {"city": "Mableton", "state": "GA", "street": "5015 Floyd Rd SW", "postal_code": "30126"}, "capProviderId": null, "distance": null, "has_offers": false, "name": "Ernie's Steakhouse", "longitude": -84.553668, "has_menu": false, "awards": null, "user_review_count": 0}, {"business_operation_status": 1, "rating": null, "neighborhood": null, "image": null, "scorecard": null, "featured": false, "sample_categories": "Restaurants", "public_id": "sage-dining-svc-inc-mableton", "id": 632929260, "votes": null, "tagline": null, "has_video": false, "website": null, "offers": null, "latitude": 33.822283, "politanName": "Atlanta, GA Metro ", "phone_number": "6783051413", "tags": [{"primary": true, "id": 1722, "name": "Restaurants"}], "fax_number": null, "expansion": {"count": null, "uri": null}, "impression_id": "000b00000013a18623d61e42bf8cb5614817f7feb4", "profile": "http://www.citysearch.com/profile/632929260/mableton_ga/sage_dining_svc_inc.html", "address": {"city": "Mableton", "state": "GA", "street": "1 Whitefield Dr Se", "postal_code": "30126"}, "capProviderId": null, "distance": null, "has_offers": false, "name": "Sage Dining Svc Inc", "longitude": -84.509583, "has_menu": false, "awards": null, "user_review_count": 0}, {"business_operation_status": 1, "rating": null, "neighborhood": null, "image": null, "scorecard": null, "featured": false, "sample_categories": "Restaurants, Hot Dogs", "public_id": "otasty-family-restaurant-mableton", "id": 790765820, "votes": null, "tagline": null, "has_video": false, "website": null, "offers": null, "latitude": 33.780755, "politanName": "Atlanta, GA Metro ", "phone_number": "7707395720", "tags": [{"primary": false, "id": 11274, "name": "Hot Dogs"}, {"primary": true, "id": 1722, "name": "Restaurants"}], "fax_number": null, "expansion": {"count": null, "uri": null}, "impression_id": "000b000000b71618c371e4486ebe58f611fef9391b", "profile": "http://www.citysearch.com/profile/790765820/mableton_ga/o_tasty_family_restaurant.html", "address": {"city": "Mableton", "state": "GA", "street": "559 Six Flags Pkwy", "postal_code": "30126"}, "capProviderId": null, "distance": null, "has_offers": false, "name": "O'tasty Family Restaurant", "longitude": -84.539942, "has_menu": false, "awards": null, "user_review_count": 0}, {"business_operation_status": 1, "rating": null, "neighborhood": null, "image": null, "scorecard": null, "featured": false, "sample_categories": "Restaurants", "public_id": "mablton-cafe-mableton", "id": 682238240, "votes": null, "tagline": null, "has_video": false, "website": null, "offers": null, "latitude": 33.817964, "politanName": "Atlanta, GA Metro ", "phone_number": "7709412233", "tags": [{"primary": true, "id": 1722, "name": "Restaurants"}], "fax_number": null, "expansion": {"count": null, "uri": null}, "impression_id": "000b00000094a7229875b742d7ad2ccaff6d59ff10", "profile": "http://www.citysearch.com/profile/682238240/mableton_ga/mablton_cafe.html", "address": {"city": "Mableton", "state": "GA", "street": "5590 Mableton Pkwy Sw # 102", "postal_code": "30126"}, "capProviderId": null, "distance": null, "has_offers": false, "name": "Mablton Cafe", "longitude": -84.576041, "has_menu": false, "awards": null, "user_review_count": 0}, {"business_operation_status": 1, "rating": null, "neighborhood": null, "image": null, "scorecard": null, "featured": false, "sample_categories": "Restaurants, Soul", "public_id": "trinas-soul-kitchen-mableton", "id": 762760900, "votes": null, "tagline": null, "has_video": false, "website": null, "offers": null, "latitude": 33.845849, "politanName": "Atlanta, GA Metro ", "phone_number": "7704853300", "tags": [{"primary": false, "id": 15140, "name": "Soul"}, {"primary": true, "id": 1722, "name": "Restaurants"}], "fax_number": null, "expansion": {"count": null, "uri": null}, "impression_id": "000b0000002a6a42acc7e047df8cfba193c9ac0a67", "profile": "http://www.citysearch.com/profile/762760900/mableton_ga/trina_s_soul_kitchen.html", "address": {"city": "Mableton", "state": "GA", "street": "4426 Floyd Rd SW # 100", "postal_code": "30126"}, "capProviderId": null, "distance": null, "has_offers": false, "name": "Trina's Soul Kitchen", "longitude": -84.583979, "has_menu": false, "awards": null, "user_review_count": 0}, {"business_operation_status": 1, "rating": null, "neighborhood": null, "image": null, "scorecard": null, "featured": false, "sample_categories": "Restaurants", "public_id": "bjs-country-cooking-mableton", "id": 828752570, "votes": null, "tagline": null, "has_video": false, "website": null, "offers": null, "latitude": 33.81695, "politanName": "Atlanta, GA Metro ", "phone_number": "7708199232", "tags": [{"primary": true, "id": 1722, "name": "Restaurants"}], "fax_number": null, "expansion": {"count": null, "uri": null}, "impression_id": "000b00000026a0bcb96f344189b0afbbe028679331", "profile": "http://www.citysearch.com/profile/828752570/mableton_ga/bjs_country_cooking.html", "address": {"city": "Mableton", "state": "GA", "street": "499 Veterans Memorial Hwy SW", "postal_code": "30126"}, "capProviderId": null, "distance": null, "has_offers": false, "name": "Bjs Country Cooking", "longitude": -84.568566, "has_menu": false, "awards": null, "user_review_count": 0}, {"business_operation_status": 1, "rating": null, "neighborhood": null, "image": null, "scorecard": null, "featured": false, "sample_categories": "Restaurants, Barbecue Restaurants", "public_id": "st-louis-barbeque-blues-mableton", "id": 638803040, "votes": null, "tagline": null, "has_video": false, "website": null, "offers": null, "latitude": 33.805377, "politanName": "Atlanta, GA Metro ", "phone_number": "6783985055", "tags": [{"primary": false, "id": 1724, "name": "Barbecue Restaurants"}, {"primary": true, "id": 1722, "name": "Restaurants"}], "fax_number": null, "expansion": {"count": null, "uri": null}, "impression_id": "000b00000056d6817fab174a989276a433da38fb25", "profile": "http://www.citysearch.com/profile/638803040/mableton_ga/st_louis_barbeque_blues.html", "address": {"city": "Mableton", "state": "GA", "street": "1025 Veterans Memorial Hwy Se", "postal_code": "30126"}, "capProviderId": null, "distance": null, "has_offers": false, "name": "St Louis Barbeque & Blues", "longitude": -84.52581, "has_menu": false, "awards": null, "user_review_count": 0}, {"business_operation_status": 1, "rating": null, "neighborhood": null, "image": null, "scorecard": null, "featured": false, "sample_categories": "Restaurants", "public_id": "real-pit-bbq-breakfast-mableton", "id": 672307600, "votes": null, "tagline": null, "has_video": false, "website": null, "offers": null, "latitude": 33.783418, "politanName": "Atlanta, GA Metro ", "phone_number": null, "tags": [{"primary": true, "id": 1722, "name": "Restaurants"}], "fax_number": null, "expansion": {"count": null, "uri": null}, "impression_id": "000b0000009c2e2dada2994cdba5065ee06ba45b25", "profile": "http://www.citysearch.com/profile/672307600/mableton_ga/real_pit_bbq_breakfast.html", "address": {"city": "Mableton", "state": "GA", "street": "6960 Mableton Parkway", "postal_code": "30126"}, "capProviderId": null, "distance": null, "has_offers": false, "name": "Real Pit BBQ & Breakfast", "longitude": -84.541117, "has_menu": false, "awards": null, "user_review_count": 0}, {"business_operation_status": 1, "rating": null, "neighborhood": null, "image": null, "scorecard": null, "featured": false, "sample_categories": "Restaurants", "public_id": "jbones-mableton", "id": 672571120, "votes": null, "tagline": null, "has_video": false, "website": null, "offers": null, "latitude": 33.816965, "politanName": "Atlanta, GA Metro ", "phone_number": null, "tags": [{"primary": true, "id": 1722, "name": "Restaurants"}], "fax_number": null, "expansion": {"count": null, "uri": null}, "impression_id": "000b000000d380fb531ee040e198ea2793c817e650", "profile": "http://www.citysearch.com/profile/672571120/mableton_ga/j_bones.html", "address": {"city": "Mableton", "state": "GA", "street": "499 Veterans Memorial Hwy SW", "postal_code": "30126"}, "capProviderId": null, "distance": null, "has_offers": false, "name": "J-Bones", "longitude": -84.568558, "has_menu": false, "awards": null, "user_review_count": 0}, {"business_operation_status": 1, "rating": null, "neighborhood": null, "image": null, "scorecard": null, "featured": false, "sample_categories": "Restaurants", "public_id": "hans-new-mableton", "id": 748335370, "votes": null, "tagline": null, "has_video": false, "website": null, "offers": null, "latitude": 33.835173, "politanName": "Atlanta, GA Metro ", "phone_number": "7709412314", "tags": [{"primary": true, "id": 1722, "name": "Restaurants"}], "fax_number": null, "expansion": {"count": null, "uri": null}, "impression_id": "000b00000060a1f1c19036413f9e94bcef1bff5e8d", "profile": "http://www.citysearch.com/profile/748335370/mableton_ga/hans_new.html", "address": {"city": "Mableton", "state": "GA", "street": "4875 Floyd Rd SW # 108", "postal_code": "30126"}, "capProviderId": null, "distance": null, "has_offers": false, "name": "Hans New", "longitude": -84.574622, "has_menu": false, "awards": null, "user_review_count": 0}, {"business_operation_status": 1, "rating": null, "neighborhood": null, "image": null, "scorecard": null, "featured": false, "sample_categories": "Restaurants, Bars & Pubs", "public_id": "tigers-sports-bar-grill-mableton", "id": 764894490, "votes": null, "tagline": null, "has_video": false, "website": null, "offers": null, "latitude": 33.791516, "politanName": "Atlanta, GA Metro ", "phone_number": "7709415349", "tags": [{"primary": false, "id": 1686, "name": "Bars & Pubs"}, {"primary": true, "id": 1722, "name": "Restaurants"}], "fax_number": null, "expansion": {"count": null, "uri": null}, "impression_id": "000b00000046b8dc743dbc4682ab437ab26c3e784a", "profile": "http://www.citysearch.com/profile/764894490/mableton_ga/tigers_sports_bar_grill.html", "address": {"city": "Mableton", "state": "GA", "street": "6175 Mableton Pkwy SE", "postal_code": "30126"}, "capProviderId": null, "distance": null, "has_offers": false, "name": "Tigers Sports Bar & Grill", "longitude": -84.555393, "has_menu": false, "awards": null, "user_review_count": 0}, {"business_operation_status": 1, "rating": null, "neighborhood": null, "image": null, "scorecard": null, "featured": false, "sample_categories": "Restaurants, Mexican", "public_id": "paqueria-la-pasadita-mableton", "id": 653586340, "votes": null, "tagline": null, "has_video": false, "website": null, "offers": null, "latitude": 33.801202, "politanName": "Atlanta, GA Metro ", "phone_number": "6787385332", "tags": [{"primary": false, "id": 11208, "name": "Mexican"}, {"primary": true, "id": 1722, "name": "Restaurants"}], "fax_number": null, "expansion": {"count": null, "uri": null}, "impression_id": "000b000000ccfb67d89115482bb273242dd0737e2e", "profile": "http://www.citysearch.com/profile/653586340/mableton_ga/paqueria_la_pasadita.html", "address": {"city": "Mableton", "state": "GA", "street": "6260 Mableton Pkwy Sw", "postal_code": "30126"}, "capProviderId": null, "distance": null, "has_offers": false, "name": "Paqueria La Pasadita", "longitude": -84.567423, "has_menu": false, "awards": null, "user_review_count": 0}, {"business_operation_status": 0, "rating": null, "neighborhood": null, "image": null, "scorecard": null, "featured": false, "sample_categories": "Restaurants, Cuban", "public_id": "mojo-grill-cuban-cuisine-mableton", "id": 777749200, "votes": null, "tagline": null, "has_video": false, "website": null, "offers": null, "latitude": 33.817341, "politanName": "Atlanta, GA Metro ", "phone_number": "7708190771", "tags": [{"primary": false, "id": 11192, "name": "Cuban"}, {"primary": true, "id": 1722, "name": "Restaurants"}], "fax_number": null, "expansion": {"count": null, "uri": null}, "impression_id": "000b000000fb535f11de6647ca9db54869dcc85f92", "profile": "http://www.citysearch.com/profile/777749200/mableton_ga/mojo_grill_cuban_cuisine.html", "address": {"city": "Mableton", "state": "GA", "street": "925 Vet Mem Hwy Sw # 168", "postal_code": "30126"}, "capProviderId": null, "distance": null, "has_offers": false, "name": "Mojo Grill Cuban Cuisine", "longitude": -84.580424, "has_menu": false, "awards": null, "user_review_count": 0}, {"business_operation_status": 1, "rating": null, "neighborhood": null, "image": null, "scorecard": null, "featured": false, "sample_categories": "Restaurants", "public_id": "sliders-burger-joint-mableton", "id": 617721644, "votes": null, "tagline": null, "has_video": false, "website": null, "offers": null, "latitude": 33.783961, "politanName": "Atlanta, GA Metro ", "phone_number": "6782478895", "tags": [{"primary": true, "id": 1722, "name": "Restaurants"}], "fax_number": null, "expansion": {"count": null, "uri": null}, "impression_id": "000b000000ff21e113c5344e84bcd0ee61399dead3", "profile": "http://www.citysearch.com/profile/617721644/mableton_ga/sliders_burger_joint.html", "address": {"city": "Mableton", "state": "GA", "street": "6981 Mableton Pkwy SE", "postal_code": "30126"}, "capProviderId": null, "distance": null, "has_offers": false, "name": "Sliders Burger Joint", "longitude": -84.540201, "has_menu": false, "awards": null, "user_review_count": 0}, {"business_operation_status": 1, "rating": null, "neighborhood": null, "image": null, "scorecard": null, "featured": false, "sample_categories": "Restaurants, Soul", "public_id": "willie-bs-sisters-southern-cuisine-mableton", "id": 837980970, "votes": null, "tagline": null, "has_video": false, "website": null, "offers": null, "latitude": 33.788903, "politanName": "Atlanta, GA Metro ", "phone_number": "6784021792", "tags": [{"primary": false, "id": 1722, "name": "Restaurants"}, {"primary": true, "id": 15140, "name": "Soul"}], "fax_number": null, "expansion": {"count": null, "uri": null}, "impression_id": "000b0000008022c28416db471da2eadcbfa7228147", "profile": "http://www.citysearch.com/profile/837980970/mableton_ga/willie_b_s_sisters_southern_cuisine.html", "address": {"city": "Mableton", "state": "GA", "street": "705 S Gordon Rd SW", "postal_code": "30126"}, "capProviderId": null, "distance": null, "has_offers": false, "name": "Willie B's Sisters Southern Cuisine", "longitude": -84.575373, "has_menu": false, "awards": null, "user_review_count": 0}, {"business_operation_status": 1, "rating": null, "neighborhood": null, "image": null, "scorecard": null, "featured": false, "sample_categories": "Restaurants", "public_id": "peramona-home-taste-mableton", "id": 827075450, "votes": null, "tagline": null, "has_video": false, "website": null, "offers": null, "latitude": 33.79153, "politanName": "Atlanta, GA Metro ", "phone_number": "7707395755", "tags": [{"primary": true, "id": 1722, "name": "Restaurants"}], "fax_number": null, "expansion": {"count": null, "uri": null}, "impression_id": "000b0000002016585e7f6d4683a62240f9e41ac578", "profile": "http://www.citysearch.com/profile/827075450/mableton_ga/peramona_home_taste.html", "address": {"city": "Mableton", "state": "GA", "street": "6029 Mableton Pkwy SE", "postal_code": "30126"}, "capProviderId": null, "distance": null, "has_offers": false, "name": "Peramona Home Taste", "longitude": -84.555407, "has_menu": false, "awards": null, "user_review_count": 0}, {"business_operation_status": 1, "rating": null, "neighborhood": null, "image": null, "scorecard": null, "featured": false, "sample_categories": "Restaurants", "public_id": "peramang-home-taste-mableton", "id": 768803810, "votes": null, "tagline": null, "has_video": false, "website": null, "offers": null, "latitude": 33.80705, "politanName": "Atlanta, GA Metro ", "phone_number": "7709481042", "tags": [{"primary": true, "id": 1722, "name": "Restaurants"}], "fax_number": null, "expansion": {"count": null, "uri": null}, "impression_id": "000b000000250f36d39ac74b2f80464546c35a1243", "profile": "http://www.citysearch.com/profile/768803810/mableton_ga/peramang_home_taste.html", "address": {"city": "Mableton", "state": "GA", "street": "6041 Mableton Pkwy SW # 142", "postal_code": "30126"}, "capProviderId": null, "distance": null, "has_offers": false, "name": "Peramang Home Taste", "longitude": -84.569431, "has_menu": false, "awards": null, "user_review_count": 0}, {"business_operation_status": 1, "rating": null, "neighborhood": null, "image": null, "scorecard": null, "featured": false, "sample_categories": "Restaurants, Barbecue Restaurants", "public_id": "beast-bone-barbecue-mableton", "id": 777755900, "votes": null, "tagline": null, "has_video": false, "website": null, "offers": null, "latitude": 33.805377, "politanName": "Atlanta, GA Metro ", "phone_number": "7707390002", "tags": [{"primary": false, "id": 1724, "name": "Barbecue Restaurants"}, {"primary": true, "id": 1722, "name": "Restaurants"}], "fax_number": null, "expansion": {"count": null, "uri": null}, "impression_id": "000b0000008fe79b2b6f334958b3f2af4e3edae768", "profile": "http://www.citysearch.com/profile/777755900/mableton_ga/beast_bone_barbecue.html", "address": {"city": "Mableton", "state": "GA", "street": "1025 Veterans Memorial Hwy Se", "postal_code": "30126"}, "capProviderId": null, "distance": null, "has_offers": false, "name": "Beast Bone Barbecue", "longitude": -84.52581, "has_menu": false, "awards": null, "user_review_count": 0}], "histograms": [], "tag_ids": [1722], "uri": "http://api.citygridmedia.com:8080/search/places/v2/search/where?has_offers=false&type=restaurant&format=json&page=2&where=30126&rpp=50&histograms=false&publisher=10000009598&region_type=circle", "did_you_mean": "", "regions": [{"latitude": 33.816576999999995, "default_radius": 4.42, "type": "postal_code", "name": "30126", "longitude": -84.550635}], "call_id": "000b000000ff98ff9f41f646bc87f02b561167b633", "first_hit": 51, "total_hits": 893, "geo_ids": [26301], "page": 2, "last_hit": 100}}