{"results": {"rpp": 50, "locations": [{"business_operation_status": 1, "rating": null, "neighborhood": null, "image": null, "scorecard": null, "featured": false, "sample_categories": "Restaurants", "public_id": "simply-chicken-austell", "id": 823240420, "votes": null, "tagline": null, "has_video": false, "website": null, "offers": null, "latitude": 33.850442, "politanName": "Atlanta, GA Metro ", "phone_number": "6789456144", "tags": [{"primary": true, "id": 1722, "name": "Restaurants"}], "fax_number": null, "expansion": {"count": null, "uri": null}, "impression_id": "000b000000d9d4c11f333242e5ae88fb3201782985", "profile": "http://www.citysearch.com/profile/823240420/austell_ga/simply_chicken.html", "address": {"city": "Austell", "state": "GA", "street": "4228 Floyd Rd", "postal_code": "30106"}, "capProviderId": null, "distance": null, "has_offers": false, "name": "Simply Chicken", "longitude": -84.588525, "has_menu": false, "awards": null, "user_review_count": 0}, {"business_operation_status": 1, "rating": null, "neighborhood": null, "image": null, "scorecard": null, "featured": false, "sample_categories": "Restaurants", "public_id": "chef-chen-smyrna", "id": 627616980, "votes": null, "tagline": null, "has_video": false, "website": "http://www.citysearch.com/profile/external/627616980/smyrna_ga/chef_chen.html", "offers": null, "latitude": 33.831642, "politanName": "Atlanta, GA Metro ", "phone_number": "7708058688", "tags": [{"primary": true, "id": 1722, "name": "Restaurants"}], "fax_number": null, "expansion": {"count": null, "uri": null}, "impression_id": "000b00000073ef3e6c2b694aba8694d6e3bd37307d", "profile": "http://www.citysearch.com/profile/627616980/smyrna_ga/chef_chen.html", "address": {"city": "Smyrna", "state": "GA", "street": "4924 S Cobb Dr Se # Cde", "postal_code": "30080"}, "capProviderId": null, "distance": null, "has_offers": false, "name": "Chef Chen", "longitude": -84.493491, "has_menu": false, "awards": null, "user_review_count": 0}, {"business_operation_status": 1, "rating": null, "neighborhood": null, "image": null, "scorecard": null, "featured": false, "sample_categories": "Restaurants, Japanese, Asian", "public_id": "sushi-nobo-in-vinings-smyrna", "id": 655895920, "votes": null, "tagline": null, "has_video": false, "website": null, "offers": null, "latitude": 33.842892, "politanName": "Atlanta, GA Metro ", "phone_number": "6784027893", "tags": [{"primary": false, "id": 11202, "name": "Japanese"}, {"primary": false, "id": 11235, "name": "Asian"}, {"primary": true, "id": 1722, "name": "Restaurants"}], "fax_number": null, "expansion": {"count": null, "uri": null}, "impression_id": "000b000000b08c6a4f34e24437bed2f05858eaa801", "profile": "http://www.citysearch.com/profile/655895920/smyrna_ga/sushi_nobo_in_vinings.html", "address": {"city": "Smyrna", "state": "GA", "street": "4500 West Village Pl Se", "postal_code": "30080"}, "capProviderId": null, "distance": null, "has_offers": false, "name": "Sushi Nobo In Vinings", "longitude": -84.490261, "has_menu": false, "awards": null, "user_review_count": 0}, {"business_operation_status": 1, "rating": 8.0, "neighborhood": null, "image": null, "scorecard": null, "featured": false, "sample_categories": "Restaurants, Barbecue Restaurants, MasterCard, Visa", "public_id": "wing-factory-smyrna", "id": 39887521, "votes": null, "tagline": null, "has_video": false, "website": null, "offers": null, "latitude": 33.886503, "politanName": "Atlanta, GA Metro ", "phone_number": "7704259533", "tags": [{"primary": false, "id": 1724, "name": "Barbecue Restaurants"}, {"primary": false, "id": 11361, "name": "MasterCard"}, {"primary": false, "id": 11382, "name": "Visa"}, {"primary": true, "id": 1722, "name": "Restaurants"}], "fax_number": null, "expansion": {"count": null, "uri": null}, "impression_id": "000b0000005eb0fc53c8184f84906204b9382cbaaf", "profile": "http://www.citysearch.com/profile/39887521/smyrna_ga/wing_factory.html", "address": {"city": "Smyrna", "state": "GA", "street": "1150 Powder Springs St SE", "postal_code": "30080"}, "capProviderId": null, "distance": null, "has_offers": false, "name": "Wing Factory", "longitude": -84.519854, "has_menu": false, "awards": null, "user_review_count": 0}, {"business_operation_status": 1, "rating": 5.0, "neighborhood": null, "image": null, "scorecard": null, "featured": false, "sample_categories": "Restaurants, Carry Out, American Express, MasterCard, Visa", "public_id": "zaxbys-smyrna-3", "id": 43841885, "votes": null, "tagline": null, "has_video": false, "website": "http://www.citysearch.com/profile/external/43841885/smyrna_ga/zaxby_s.html", "offers": null, "latitude": 33.826513, "politanName": "Atlanta, GA Metro ", "phone_number": "4047922288", "tags": [{"primary": false, "id": 11247, "name": "Carry Out"}, {"primary": false, "id": 11333, "name": "American Express"}, {"primary": false, "id": 11361, "name": "MasterCard"}, {"primary": false, "id": 11382, "name": "Visa"}, {"primary": false, "id": 12839, "name": "Chicken"}, {"primary": true, "id": 1722, "name": "Restaurants"}], "fax_number": null, "expansion": {"count": null, "uri": null}, "impression_id": "000b000000b42d9923dc4942d98af95b0686ed003d", "profile": "http://www.citysearch.com/profile/43841885/smyrna_ga/zaxby_s.html", "address": {"city": "Smyrna", "state": "GA", "street": "5201 S Cobb Dr SE", "postal_code": "30080"}, "capProviderId": null, "distance": null, "has_offers": false, "name": "Zaxby's", "longitude": -84.490726, "has_menu": true, "awards": null, "user_review_count": 2}, {"business_operation_status": 1, "rating": null, "neighborhood": null, "image": null, "scorecard": null, "featured": false, "sample_categories": "Restaurants, Pizza", "public_id": "bellas-pizzeria-austell", "id": 44775455, "votes": null, "tagline": null, "has_video": false, "website": null, "offers": null, "latitude": 33.860912, "politanName": "Atlanta, GA Metro ", "phone_number": "7064399555", "tags": [{"primary": false, "id": 11299, "name": "Pizza"}, {"primary": true, "id": 1722, "name": "Restaurants"}], "fax_number": null, "expansion": {"count": null, "uri": null}, "impression_id": "000b000000b914c52941bc462ca76e787d4359b302", "profile": "http://www.citysearch.com/profile/44775455/austell_ga/bellas_pizzeria.html", "address": {"city": "Austell", "state": "GA", "street": "2495 E West Connector", "postal_code": "30106"}, "capProviderId": null, "distance": null, "has_offers": false, "name": "Bellas Pizzeria", "longitude": -84.620637, "has_menu": true, "awards": null, "user_review_count": 0}, {"business_operation_status": 1, "rating": null, "neighborhood": "Southwest, Collier Heights, Southwest", "image": null, "scorecard": null, "featured": false, "sample_categories": "Restaurants", "public_id": "community-barbq-atlanta", "id": 821598980, "votes": null, "tagline": null, "has_video": false, "website": null, "offers": null, "latitude": 33.785632, "politanName": "Atlanta, GA Metro ", "phone_number": "4047929485", "tags": [{"primary": true, "id": 1722, "name": "Restaurants"}], "fax_number": null, "expansion": {"count": null, "uri": null}, "impression_id": "000b000000dce0e98962c34ffeb2303e78249501cd", "profile": "http://www.citysearch.com/profile/821598980/atlanta_ga/community_barbq.html", "address": {"city": "Atlanta", "state": "GA", "street": "3170 Hllwell Pkwy NW", "postal_code": "30318"}, "capProviderId": null, "distance": null, "has_offers": false, "name": "Community Barbq", "longitude": -84.491006, "has_menu": false, "awards": null, "user_review_count": 0}, {"business_operation_status": 1, "rating": null, "neighborhood": null, "image": null, "scorecard": null, "featured": false, "sample_categories": "Carry Out", "public_id": "jamaican-amer-kitchen-take-austell", "id": 826577100, "votes": null, "tagline": null, "has_video": false, "website": null, "offers": null, "latitude": 33.790432, "politanName": "Atlanta, GA Metro ", "phone_number": "7708190034", "tags": [{"primary": true, "id": 11247, "name": "Carry Out"}], "fax_number": null, "expansion": {"count": null, "uri": null}, "impression_id": "000b0000007a75bf0bb66242229fc79e91342726ee", "profile": "http://www.citysearch.com/profile/826577100/austell_ga/jamaican_amer_kitchen_take.html", "address": {"city": "Austell", "state": "GA", "street": "530 Thornton Rd # A", "postal_code": "30106"}, "capProviderId": null, "distance": null, "has_offers": false, "name": "Jamaican & Amer Kitchen Take", "longitude": -84.621192, "has_menu": false, "awards": null, "user_review_count": 0}, {"business_operation_status": 1, "rating": null, "neighborhood": null, "image": null, "scorecard": null, "featured": false, "sample_categories": "Coffeehouses", "public_id": "c-a-f-sicna-llc-austell", "id": 837888260, "votes": null, "tagline": null, "has_video": false, "website": null, "offers": null, "latitude": 33.772359, "politanName": "Atlanta, GA Metro ", "phone_number": "4043247927", "tags": [{"primary": true, "id": 1726, "name": "Coffeehouses"}], "fax_number": null, "expansion": {"count": null, "uri": null}, "impression_id": "000b0000000ed85847eb884bd1b8e423974fd20016", "profile": "http://www.citysearch.com/profile/837888260/austell_ga/c_a_f_sicna_llc.html", "address": {"city": "Austell", "state": "GA", "street": "135 Riverside Pkwy # E", "postal_code": "30168"}, "capProviderId": null, "distance": null, "has_offers": false, "name": "C A F Sicna LLC", "longitude": -84.559582, "has_menu": false, "awards": null, "user_review_count": 0}, {"business_operation_status": 1, "rating": null, "neighborhood": "Southwest, Southwest", "image": null, "scorecard": null, "featured": false, "sample_categories": "Restaurants", "public_id": "wingstop-incorporated-atlanta", "id": 37309731, "votes": null, "tagline": null, "has_video": false, "website": null, "offers": null, "latitude": 33.724313, "politanName": "Atlanta, GA Metro ", "phone_number": "4045050502", "tags": [{"primary": true, "id": 1722, "name": "Restaurants"}], "fax_number": null, "expansion": {"count": null, "uri": null}, "impression_id": "000b000000c457b6f31a0c40948ae4da4e5cd85e39", "profile": "http://www.citysearch.com/profile/37309731/atlanta_ga/wingstop_incorporated.html", "address": {"city": "Atlanta", "state": "GA", "street": "3695 Cascade Rd SWSte K", "postal_code": "30331"}, "capProviderId": null, "distance": null, "has_offers": false, "name": "Wingstop Incorporated", "longitude": -84.508412, "has_menu": true, "awards": null, "user_review_count": 0}, {"business_operation_status": 1, "rating": null, "neighborhood": null, "image": null, "scorecard": null, "featured": false, "sample_categories": "Restaurants", "public_id": "jen-pal-smyrna", "id": 611103124, "votes": null, "tagline": null, "has_video": false, "website": null, "offers": null, "latitude": 33.884162, "politanName": "Atlanta, GA Metro ", "phone_number": "7704319620", "tags": [{"primary": true, "id": 1722, "name": "Restaurants"}], "fax_number": null, "expansion": {"count": null, "uri": null}, "impression_id": "000b000000cec9c47b1c71460a81715e98fa394083", "profile": "http://www.citysearch.com/profile/611103124/smyrna_ga/jen_pal.html", "address": {"city": "Smyrna", "state": "GA", "street": "1260 W Spring St SE # D", "postal_code": "30080"}, "capProviderId": null, "distance": null, "has_offers": false, "name": "Jen Pal", "longitude": -84.515885, "has_menu": false, "awards": null, "user_review_count": 0}, {"business_operation_status": 1, "rating": null, "neighborhood": "Southwest, Southwest", "image": null, "scorecard": null, "featured": false, "sample_categories": "Restaurants", "public_id": "outpost-atlanta", "id": 41570743, "votes": null, "tagline": null, "has_video": false, "website": null, "offers": null, "latitude": 33.721912, "politanName": "Atlanta, GA Metro ", "phone_number": "4043447678", "tags": [{"primary": true, "id": 1722, "name": "Restaurants"}], "fax_number": null, "expansion": {"count": null, "uri": null}, "impression_id": "000b000000dbfb3fe7d3204abca389010d26466c60", "profile": "http://www.citysearch.com/profile/41570743/atlanta_ga/outpost.html", "address": {"city": "Atlanta", "state": "GA", "street": "1195 Fairburn Rd SW", "postal_code": "30331"}, "capProviderId": null, "distance": null, "has_offers": false, "name": "Outpost", "longitude": -84.509411, "has_menu": false, "awards": null, "user_review_count": 0}, {"business_operation_status": 1, "rating": null, "neighborhood": null, "image": null, "scorecard": null, "featured": false, "sample_categories": "Restaurants, Delis And Delicatessens", "public_id": "sub-station-ii-smyrna", "id": 2922311, "votes": null, "tagline": null, "has_video": false, "website": "http://www.citysearch.com/profile/external/2922311/smyrna_ga/sub_station_ii.html", "offers": null, "latitude": 33.890368, "politanName": "Atlanta, GA Metro ", "phone_number": "4044356027", "tags": [{"primary": false, "id": 1727, "name": "Delis And Delicatessens"}, {"primary": true, "id": 1722, "name": "Restaurants"}], "fax_number": null, "expansion": {"count": null, "uri": null}, "impression_id": "000b000000d05ad18919dd4b5c82e6584246573dcb", "profile": "http://www.citysearch.com/profile/2922311/smyrna_ga/sub_station_ii.html", "address": {"city": "Smyrna", "state": "GA", "street": "2538 Atlanta Rd SE Ste B", "postal_code": "30080"}, "capProviderId": null, "distance": null, "has_offers": false, "name": "Sub Station II", "longitude": -84.51719, "has_menu": true, "awards": null, "user_review_count": 1}, {"business_operation_status": 1, "rating": null, "neighborhood": null, "image": null, "scorecard": null, "featured": false, "sample_categories": "Restaurants, Carry Out, American Express, Discover, MasterCard", "public_id": "chickfila-marietta-4", "id": 621935420, "votes": null, "tagline": null, "has_video": false, "website": "http://www.citysearch.com/profile/external/621935420/marietta_ga/chick_fil_a.html", "offers": null, "latitude": 33.904224, "politanName": "Atlanta, GA Metro ", "phone_number": "6783555297", "tags": [{"primary": false, "id": 11247, "name": "Carry Out"}, {"primary": false, "id": 11333, "name": "American Express"}, {"primary": false, "id": 11349, "name": "Discover"}, {"primary": false, "id": 11361, "name": "MasterCard"}, {"primary": false, "id": 11382, "name": "Visa"}, {"primary": false, "id": 12839, "name": "Chicken"}, {"primary": true, "id": 1722, "name": "Restaurants"}], "fax_number": null, "expansion": {"count": null, "uri": null}, "impression_id": "000b000000661202b1563842dbaa8ef30d5e45441a", "profile": "http://www.citysearch.com/profile/621935420/marietta_ga/chick_fil_a.html", "address": {"city": "Marietta", "state": "GA", "street": "2005 Macland Rd Sw", "postal_code": "30064"}, "capProviderId": null, "distance": null, "has_offers": false, "name": "Chick-Fil-A", "longitude": -84.610996, "has_menu": true, "awards": null, "user_review_count": 0}, {"business_operation_status": 1, "rating": null, "neighborhood": null, "image": null, "scorecard": null, "featured": false, "sample_categories": "Restaurants", "public_id": "wings-101-smyrna", "id": 621900654, "votes": null, "tagline": null, "has_video": false, "website": null, "offers": null, "latitude": 33.894038, "politanName": "Atlanta, GA Metro ", "phone_number": "7709891520", "tags": [{"primary": true, "id": 1722, "name": "Restaurants"}], "fax_number": null, "expansion": {"count": null, "uri": null}, "impression_id": "000b000000ce016c8a13d744acbf2a9a2f7f55cd07", "profile": "http://www.citysearch.com/profile/621900654/smyrna_ga/wings_101.html", "address": {"city": "Smyrna", "state": "GA", "street": "998 Windy Hill Rd SE", "postal_code": "30080"}, "capProviderId": null, "distance": null, "has_offers": false, "name": "Wings 101", "longitude": -84.524382, "has_menu": false, "awards": null, "user_review_count": 0}, {"business_operation_status": 1, "rating": null, "neighborhood": null, "image": null, "scorecard": null, "featured": false, "sample_categories": "Restaurants, Barbecue Restaurants", "public_id": "hubies-buffalo-wings-austell", "id": 622209390, "votes": null, "tagline": null, "has_video": false, "website": "http://www.citysearch.com/profile/external/622209390/austell_ga/hubie_s_buffalo_wings.html", "offers": null, "latitude": 33.812606, "politanName": "Atlanta, GA Metro ", "phone_number": "7704325112", "tags": [{"primary": false, "id": 1724, "name": "Barbecue Restaurants"}, {"primary": true, "id": 1722, "name": "Restaurants"}], "fax_number": null, "expansion": {"count": null, "uri": null}, "impression_id": "000b000000852775d38bd547059c272957796a466d", "profile": "http://www.citysearch.com/profile/622209390/austell_ga/hubie_s_buffalo_wings.html", "address": {"city": "Austell", "state": "GA", "street": "1133 E West ConnectorSte 300", "postal_code": "30106"}, "capProviderId": null, "distance": null, "has_offers": false, "name": "Hubie's Buffalo Wings", "longitude": -84.634378, "has_menu": false, "awards": null, "user_review_count": 0}, {"business_operation_status": 1, "rating": null, "neighborhood": null, "image": null, "scorecard": null, "featured": false, "sample_categories": "Restaurants", "public_id": "wing-it-cafe-marietta", "id": 610478634, "votes": null, "tagline": null, "has_video": false, "website": null, "offers": null, "latitude": 33.883197, "politanName": "Atlanta, GA Metro ", "phone_number": "7702189100", "tags": [{"primary": true, "id": 1722, "name": "Restaurants"}], "fax_number": null, "expansion": {"count": null, "uri": null}, "impression_id": "000b00000006875f0849cf4367b7d7ef40c407b538", "profile": "http://www.citysearch.com/profile/610478634/marietta_ga/wing_it_cafe.html", "address": {"city": "Marietta", "state": "GA", "street": "2200 Powder Springs Rd SW", "postal_code": "30064"}, "capProviderId": null, "distance": null, "has_offers": false, "name": "Wing It Cafe", "longitude": -84.61985, "has_menu": false, "awards": null, "user_review_count": 0}, {"business_operation_status": 1, "rating": null, "neighborhood": null, "image": null, "scorecard": null, "featured": false, "sample_categories": "Restaurants, MasterCard, Visa, Chicken", "public_id": "mrs-winners-chicken-biscuits-atlanta-11", "id": 3010366, "votes": null, "tagline": null, "has_video": false, "website": null, "offers": null, "latitude": 33.703658, "politanName": "Atlanta, GA Metro ", "phone_number": "4043734840", "tags": [{"primary": false, "id": 11361, "name": "MasterCard"}, {"primary": false, "id": 11382, "name": "Visa"}, {"primary": false, "id": 12839, "name": "Chicken"}, {"primary": true, "id": 1722, "name": "Restaurants"}], "fax_number": null, "expansion": {"count": null, "uri": null}, "impression_id": "000b000000d5b36a4be26b420cbebbfc05186dbb2a", "profile": "http://www.citysearch.com/profile/3010366/atlanta_ga/mrs_winners_chicken_biscuits.html", "address": {"city": "Atlanta", "state": "GA", "street": "1950 Blvd Dr NE", "postal_code": "30317"}, "capProviderId": null, "distance": null, "has_offers": false, "name": "Mrs Winners Chicken & Biscuits", "longitude": -84.547391, "has_menu": false, "awards": null, "user_review_count": 0}, {"business_operation_status": 1, "rating": null, "neighborhood": null, "image": null, "scorecard": null, "featured": false, "sample_categories": "Coffeehouses", "public_id": "pet-pet-ltd-smyrna", "id": 732184890, "votes": null, "tagline": null, "has_video": false, "website": null, "offers": null, "latitude": 33.851216, "politanName": "Atlanta, GA Metro ", "phone_number": "7708198835", "tags": [{"primary": true, "id": 1726, "name": "Coffeehouses"}], "fax_number": null, "expansion": {"count": null, "uri": null}, "impression_id": "000b0000009924c4224e1c4e919d6c819c40d95cb7", "profile": "http://www.citysearch.com/profile/732184890/smyrna_ga/pet_pet_ltd.html", "address": {"city": "Smyrna", "state": "GA", "street": "4131 Gregory Manor Cir SW", "postal_code": "30082"}, "capProviderId": null, "distance": null, "has_offers": false, "name": "Pet Pet Ltd", "longitude": -84.568419, "has_menu": false, "awards": null, "user_review_count": 0}, {"business_operation_status": 1, "rating": null, "neighborhood": null, "image": null, "scorecard": null, "featured": false, "sample_categories": "Restaurants, Fast Food, Carry Out, Hamburgers, American Express", "public_id": "mc-donalds-austell-2", "id": 37648233, "votes": null, "tagline": null, "has_video": false, "website": "http://www.citysearch.com/profile/external/37648233/austell_ga/mc_donald_s.html", "offers": null, "latitude": 33.856577, "politanName": "Atlanta, GA Metro ", "phone_number": "7704344002", "tags": [{"primary": false, "id": 11199, "name": "Fast Food"}, {"primary": false, "id": 11247, "name": "Carry Out"}, {"primary": false, "id": 11270, "name": "Hamburgers"}, {"primary": false, "id": 11333, "name": "American Express"}, {"primary": false, "id": 11349, "name": "Discover"}, {"primary": false, "id": 11361, "name": "MasterCard"}, {"primary": false, "id": 11382, "name": "Visa"}, {"primary": true, "id": 1722, "name": "Restaurants"}], "fax_number": null, "expansion": {"count": null, "uri": null}, "impression_id": "000b0000006bdd9f877f954f74bf2232330e0dbc8e", "profile": "http://www.citysearch.com/profile/37648233/austell_ga/mc_donald_s.html", "address": {"city": "Austell", "state": "GA", "street": "1133 E West Connector", "postal_code": "30106"}, "capProviderId": null, "distance": null, "has_offers": false, "name": "Mc Donald's", "longitude": -84.58945, "has_menu": true, "awards": null, "user_review_count": 0}, {"business_operation_status": 1, "rating": null, "neighborhood": null, "image": null, "scorecard": null, "featured": false, "sample_categories": "Coffeehouses, Restaurants", "public_id": "higher-grounds-coffee-cafe-incorporated-dallas", "id": 37649206, "votes": null, "tagline": null, "has_video": false, "website": null, "offers": null, "latitude": 33.935326, "politanName": "Atlanta, GA Metro ", "phone_number": "7705055051", "tags": [{"primary": false, "id": 1722, "name": "Restaurants"}, {"primary": true, "id": 1726, "name": "Coffeehouses"}], "fax_number": null, "expansion": {"count": null, "uri": null}, "impression_id": "000b00000015998968dbcc4658baa72d2f4d5d17c9", "profile": "http://www.citysearch.com/profile/37649206/dallas_ga/higher_grounds_coffee_cafe_incorporated.html", "address": {"city": "Dallas", "state": "GA", "street": "4075 Charles Hardy Pkwy", "postal_code": "30157"}, "capProviderId": null, "distance": null, "has_offers": false, "name": "Higher Grounds Coffee Cafe Incorporated", "longitude": -84.725993, "has_menu": false, "awards": null, "user_review_count": 0}, {"business_operation_status": 1, "rating": null, "neighborhood": null, "image": null, "scorecard": null, "featured": false, "sample_categories": "Restaurants, Pizza", "public_id": "noble-romans-pizza-austell", "id": 816918980, "votes": null, "tagline": null, "has_video": false, "website": null, "offers": null, "latitude": 33.752551, "politanName": "Atlanta, GA Metro ", "phone_number": "7707450383", "tags": [{"primary": false, "id": 1722, "name": "Restaurants"}, {"primary": true, "id": 11299, "name": "Pizza"}], "fax_number": null, "expansion": {"count": null, "uri": null}, "impression_id": "000b000000bb7f14d22bc44155b047c0be25be7d63", "profile": "http://www.citysearch.com/profile/816918980/austell_ga/noble_romans_pizza.html", "address": {"city": "Austell", "state": "GA", "street": "860 Six Flags Rd", "postal_code": "30168"}, "capProviderId": null, "distance": null, "has_offers": false, "name": "Noble Romans Pizza", "longitude": -84.580625, "has_menu": true, "awards": null, "user_review_count": 0}, {"business_operation_status": 1, "rating": null, "neighborhood": null, "image": null, "scorecard": null, "featured": false, "sample_categories": "Restaurants", "public_id": "corner-taqueria-smyrna", "id": 837793660, "votes": null, "tagline": null, "has_video": false, "website": "http://www.citysearch.com/profile/external/837793660/smyrna_ga/corner_taqueria.html", "offers": null, "latitude": 33.883705, "politanName": "Atlanta, GA Metro ", "phone_number": "6788420050", "tags": [{"primary": true, "id": 1722, "name": "Restaurants"}], "fax_number": null, "expansion": {"count": null, "uri": null}, "impression_id": "000b000000d1c2cecb9ddd4bdcb7f0cc991fd19443", "profile": "http://www.citysearch.com/profile/837793660/smyrna_ga/corner_taqueria.html", "address": {"city": "Smyrna", "state": "GA", "street": "2860 Atlanta Rd SE", "postal_code": "30080"}, "capProviderId": null, "distance": null, "has_offers": false, "name": "Corner Taqueria", "longitude": -84.514807, "has_menu": false, "awards": null, "user_review_count": 0}, {"business_operation_status": 1, "rating": null, "neighborhood": null, "image": null, "scorecard": null, "featured": false, "sample_categories": "Restaurants, Bars & Clubs", "public_id": "tio-bar-grill-smyrna", "id": 802510740, "votes": null, "tagline": null, "has_video": false, "website": null, "offers": null, "latitude": 33.886772, "politanName": "Atlanta, GA Metro ", "phone_number": "7709891065", "tags": [{"primary": false, "id": 164, "name": "Bars & Clubs"}, {"primary": true, "id": 1722, "name": "Restaurants"}], "fax_number": null, "expansion": {"count": null, "uri": null}, "impression_id": "000b0000005523d203179f4200bd8db867775c31df", "profile": "http://www.citysearch.com/profile/802510740/smyrna_ga/tio_bar_grill.html", "address": {"city": "Smyrna", "state": "GA", "street": "2731 S Cobb Dr Se", "postal_code": "30080"}, "capProviderId": null, "distance": null, "has_offers": false, "name": "Tio Bar & Grill", "longitude": -84.534827, "has_menu": false, "awards": null, "user_review_count": 0}, {"business_operation_status": 1, "rating": null, "neighborhood": "Northside, Northside", "image": null, "scorecard": null, "featured": false, "sample_categories": "Restaurants", "public_id": "melting-pot-restaurant-atlanta-2", "id": 805904900, "votes": null, "tagline": null, "has_video": false, "website": null, "offers": null, "latitude": 33.809801, "politanName": "Atlanta, GA Metro ", "phone_number": "4043511811", "tags": [{"primary": true, "id": 1722, "name": "Restaurants"}], "fax_number": null, "expansion": {"count": null, "uri": null}, "impression_id": "000b000000a84ac43399de43509f1047b9b6012546", "profile": "http://www.citysearch.com/profile/805904900/atlanta_ga/melting_pot_restaurant.html", "address": {"city": "Atlanta", "state": "GA", "street": "857 Collier Rd NW # 1", "postal_code": "30318"}, "capProviderId": null, "distance": null, "has_offers": false, "name": "Melting Pot Restaurant", "longitude": -84.416377, "has_menu": true, "awards": null, "user_review_count": 0}, {"business_operation_status": 0, "rating": null, "neighborhood": null, "image": null, "scorecard": null, "featured": false, "sample_categories": "Ice Cream Parlors, Restaurants, Dessert Shops, Traditional American, Fast Food", "public_id": "dairy-queen-smyrna", "id": 43853384, "votes": null, "tagline": null, "has_video": false, "website": "http://www.citysearch.com/profile/external/43853384/smyrna_ga/dairy_queen.html", "offers": null, "latitude": 33.838977, "politanName": "Atlanta, GA Metro ", "phone_number": "4047920120", "tags": [{"primary": false, "id": 1722, "name": "Restaurants"}, {"primary": false, "id": 1728, "name": "Dessert Shops"}, {"primary": false, "id": 11190, "name": "Traditional American"}, {"primary": false, "id": 11199, "name": "Fast Food"}, {"primary": true, "id": 1730, "name": "Ice Cream Parlors"}], "fax_number": null, "expansion": {"count": null, "uri": null}, "impression_id": "000b000000baf482b8247740b3b7840dfe3cb811ac", "profile": "http://www.citysearch.com/profile/43853384/smyrna_ga/dairy_queen.html", "address": {"city": "Smyrna", "state": "GA", "street": "4715 S Atlanta Rd SE", "postal_code": "30080"}, "capProviderId": null, "distance": null, "has_offers": false, "name": "Dairy Queen", "longitude": -84.481545, "has_menu": true, "awards": null, "user_review_count": 0}, {"business_operation_status": 1, "rating": null, "neighborhood": null, "image": null, "scorecard": null, "featured": false, "sample_categories": "Restaurants", "public_id": "smoothies-more-austell", "id": 43863527, "votes": null, "tagline": null, "has_video": false, "website": null, "offers": null, "latitude": 33.855384, "politanName": "Atlanta, GA Metro ", "phone_number": "6783099699", "tags": [{"primary": true, "id": 1722, "name": "Restaurants"}], "fax_number": null, "expansion": {"count": null, "uri": null}, "impression_id": "000b000000f42313fc01f64875b923eea6c7efba4d", "profile": "http://www.citysearch.com/profile/43863527/austell_ga/smoothies_more.html", "address": {"city": "Austell", "state": "GA", "street": "1025 E West Connector", "postal_code": "30106"}, "capProviderId": null, "distance": null, "has_offers": false, "name": "Smoothies & More", "longitude": -84.583167, "has_menu": false, "awards": null, "user_review_count": 0}, {"business_operation_status": 1, "rating": null, "neighborhood": "Northside, Northside", "image": null, "scorecard": null, "featured": false, "sample_categories": "Restaurants", "public_id": "ruben-goycochea-atlanta", "id": 43873760, "votes": null, "tagline": null, "has_video": false, "website": null, "offers": null, "latitude": 33.819953, "politanName": "Atlanta, GA Metro ", "phone_number": "4046030275", "tags": [{"primary": true, "id": 1722, "name": "Restaurants"}], "fax_number": null, "expansion": {"count": null, "uri": null}, "impression_id": "000b000000ce57a6fa92594d3bb0970c0372b64d6a", "profile": "http://www.citysearch.com/profile/43873760/atlanta_ga/ruben_goycochea.html", "address": {"city": "Atlanta", "state": "GA", "street": "2611 Bolton Rd NW", "postal_code": "30318"}, "capProviderId": null, "distance": null, "has_offers": false, "name": "Ruben Goycochea", "longitude": -84.449421, "has_menu": false, "awards": null, "user_review_count": 0}, {"business_operation_status": 1, "rating": null, "neighborhood": null, "image": null, "scorecard": null, "featured": false, "sample_categories": "Restaurants", "public_id": "filimons-restaurant-smyrna", "id": 811872330, "votes": null, "tagline": null, "has_video": false, "website": null, "offers": null, "latitude": 33.887574, "politanName": "Atlanta, GA Metro ", "phone_number": "6782131556", "tags": [{"primary": true, "id": 1722, "name": "Restaurants"}], "fax_number": null, "expansion": {"count": null, "uri": null}, "impression_id": "000b000000ecbf3dde81e74529b03c9d328631396a", "profile": "http://www.citysearch.com/profile/811872330/smyrna_ga/filimon_s_restaurant.html", "address": {"city": "Smyrna", "state": "GA", "street": "601 Powder Springs St SE", "postal_code": "30080"}, "capProviderId": null, "distance": null, "has_offers": false, "name": "Filimon's Restaurant", "longitude": -84.535901, "has_menu": false, "awards": null, "user_review_count": 0}, {"business_operation_status": 1, "rating": null, "neighborhood": null, "image": null, "scorecard": null, "featured": false, "sample_categories": "Restaurants, Carry Out, Pizza", "public_id": "johnnys-new-york-style-pizza-atlanta-5", "id": 601365630, "votes": null, "tagline": null, "has_video": false, "website": "http://www.citysearch.com/profile/external/601365630/atlanta_ga/johnny_s_new_york_style_pizza.html", "offers": null, "latitude": 33.730135, "politanName": "Atlanta, GA Metro ", "phone_number": "6789730634", "tags": [{"primary": false, "id": 1722, "name": "Restaurants"}, {"primary": false, "id": 11299, "name": "Pizza"}, {"primary": true, "id": 11247, "name": "Carry Out"}], "fax_number": null, "expansion": {"count": null, "uri": null}, "impression_id": "000b000000b23557496d554753833972c8058b48c3", "profile": "http://www.citysearch.com/profile/601365630/atlanta_ga/johnny_s_new_york_style_pizza.html", "address": {"city": "Atlanta", "state": "GA", "street": "5495 Cascade Rd SW", "postal_code": "30331"}, "capProviderId": null, "distance": null, "has_offers": false, "name": "Johnny's New York Style Pizza", "longitude": -84.555739, "has_menu": true, "awards": null, "user_review_count": 0}, {"business_operation_status": 1, "rating": null, "neighborhood": null, "image": null, "scorecard": null, "featured": false, "sample_categories": "Restaurants, Delis And Delicatessens, Sandwich Shops, Carry Out", "public_id": "subway-smyrna-18", "id": 682667190, "votes": null, "tagline": null, "has_video": false, "website": "http://www.citysearch.com/profile/external/682667190/smyrna_ga/subway.html", "offers": null, "latitude": 33.827294, "politanName": "Atlanta, GA Metro ", "phone_number": "4047924294", "tags": [{"primary": false, "id": 1727, "name": "Delis And Delicatessens"}, {"primary": false, "id": 1736, "name": "Sandwich Shops"}, {"primary": false, "id": 11247, "name": "Carry Out"}, {"primary": true, "id": 1722, "name": "Restaurants"}], "fax_number": null, "expansion": {"count": null, "uri": null}, "impression_id": "000b0000000d6fd462aa9d4e84bd50194f99551983", "profile": "http://www.citysearch.com/profile/682667190/smyrna_ga/subway.html", "address": {"city": "Smyrna", "state": "GA", "street": "5185 S Cobb Dr Se", "postal_code": "30080"}, "capProviderId": null, "distance": null, "has_offers": false, "name": "Subway", "longitude": -84.491362, "has_menu": true, "awards": null, "user_review_count": 0}, {"business_operation_status": 1, "rating": null, "neighborhood": null, "image": null, "scorecard": null, "featured": false, "sample_categories": "Restaurants", "public_id": "the-fillin-station-smyrna", "id": 672118610, "votes": null, "tagline": null, "has_video": false, "website": null, "offers": null, "latitude": 33.844657, "politanName": "Atlanta, GA Metro ", "phone_number": "6782390399", "tags": [{"primary": true, "id": 1722, "name": "Restaurants"}], "fax_number": null, "expansion": {"count": null, "uri": null}, "impression_id": "000b00000057a61a55d13945889a3f69dab30562af", "profile": "http://www.citysearch.com/profile/672118610/smyrna_ga/the_fillin_station.html", "address": {"city": "Smyrna", "state": "GA", "street": "4425 South Cobb Drive", "postal_code": "30080"}, "capProviderId": null, "distance": null, "has_offers": false, "name": "The Fillin Station", "longitude": -84.501961, "has_menu": false, "awards": null, "user_review_count": 0}, {"business_operation_status": 1, "rating": null, "neighborhood": null, "image": null, "scorecard": null, "featured": false, "sample_categories": "Restaurants", "public_id": "wings-factory-austell", "id": 673030580, "votes": null, "tagline": null, "has_video": false, "website": null, "offers": null, "latitude": 33.859727, "politanName": "Atlanta, GA Metro ", "phone_number": "6782134040", "tags": [{"primary": true, "id": 1722, "name": "Restaurants"}], "fax_number": null, "expansion": {"count": null, "uri": null}, "impression_id": "000b000000b3ffab683e9f468797395fa8f080a97d", "profile": "http://www.citysearch.com/profile/673030580/austell_ga/wings_factory.html", "address": {"city": "Austell", "state": "GA", "street": "4180 Austell Rd SW", "postal_code": "30106"}, "capProviderId": null, "distance": null, "has_offers": false, "name": "Wings Factory", "longitude": -84.59921, "has_menu": false, "awards": null, "user_review_count": 0}, {"business_operation_status": 1, "rating": null, "neighborhood": null, "image": null, "scorecard": null, "featured": false, "sample_categories": "Restaurants", "public_id": "el-pollo-dorado-llc-lithia", "id": 607566664, "votes": null, "tagline": null, "has_video": false, "website": null, "offers": null, "latitude": 33.78703, "politanName": "Atlanta, GA Metro ", "phone_number": "6783248398", "tags": [{"primary": true, "id": 1722, "name": "Restaurants"}], "fax_number": null, "expansion": {"count": null, "uri": null}, "impression_id": "000b000000f0e118e0d48b4270ad79f59427f7b04c", "profile": "http://www.citysearch.com/profile/607566664/lithia_springs_ga/el_pollo_dorado_llc.html", "address": {"city": "Lithia Springs", "state": "GA", "street": "639 Thornton Rd", "postal_code": "30122"}, "capProviderId": null, "distance": null, "has_offers": false, "name": "El Pollo Dorado LLC", "longitude": -84.619446, "has_menu": false, "awards": null, "user_review_count": 0}, {"business_operation_status": 1, "rating": null, "neighborhood": null, "image": null, "scorecard": null, "featured": false, "sample_categories": "Personal Trainers, Dancing, Yoga", "public_id": "lailahs-studio-austell", "id": 724382250, "votes": null, "tagline": null, "has_video": false, "website": null, "offers": null, "latitude": 33.833377, "politanName": "Atlanta, GA Metro ", "phone_number": "6784010866", "tags": [{"primary": false, "id": 11255, "name": "Dancing"}, {"primary": false, "id": 12606, "name": "Yoga"}, {"primary": true, "id": 3999, "name": "Personal Trainers"}], "fax_number": null, "expansion": {"count": null, "uri": null}, "impression_id": "000b0000000455b35402e14b90a01680025445afc4", "profile": "http://www.citysearch.com/profile/724382250/austell_ga/lailah_s_studio.html", "address": {"city": "Austell", "state": "GA", "street": "4968 Austell Rd", "postal_code": "30106"}, "capProviderId": null, "distance": null, "has_offers": false, "name": "Lailah's Studio", "longitude": -84.611891, "has_menu": false, "awards": null, "user_review_count": 0}, {"business_operation_status": 1, "rating": null, "neighborhood": "Riverside, Northside, Northside", "image": null, "scorecard": null, "featured": false, "sample_categories": "Restaurants, Carry Out", "public_id": "waffle-house-atlanta-32", "id": 621730054, "votes": null, "tagline": null, "has_video": false, "website": "http://www.citysearch.com/profile/external/621730054/atlanta_ga/waffle_house.html", "offers": null, "latitude": 33.81087, "politanName": "Atlanta, GA Metro ", "phone_number": "4047929009", "tags": [{"primary": false, "id": 11247, "name": "Carry Out"}, {"primary": true, "id": 1722, "name": "Restaurants"}], "fax_number": null, "expansion": {"count": null, "uri": null}, "impression_id": "000b000000d9e116f19c324db0aa84c234e4af59e3", "profile": "http://www.citysearch.com/profile/621730054/atlanta_ga/waffle_house.html", "address": {"city": "Atlanta", "state": "GA", "street": "2025 Bolton Rd NW", "postal_code": "30318"}, "capProviderId": null, "distance": null, "has_offers": false, "name": "Waffle House", "longitude": -84.476265, "has_menu": false, "awards": null, "user_review_count": 0}, {"business_operation_status": 1, "rating": null, "neighborhood": null, "image": null, "scorecard": null, "featured": false, "sample_categories": "Restaurants", "public_id": "grill-boss-austell", "id": 627583724, "votes": null, "tagline": null, "has_video": false, "website": null, "offers": null, "latitude": 33.817547, "politanName": "Atlanta, GA Metro ", "phone_number": "6785038054", "tags": [{"primary": true, "id": 1722, "name": "Restaurants"}], "fax_number": null, "expansion": {"count": null, "uri": null}, "impression_id": "000b0000006eee24b5437e42d4b583d816b70c2abf", "profile": "http://www.citysearch.com/profile/627583724/austell_ga/grill_boss.html", "address": {"city": "Austell", "state": "GA", "street": "1768 Veterans Memorial Hwy SW", "postal_code": "30168"}, "capProviderId": null, "distance": null, "has_offers": false, "name": "Grill Boss", "longitude": -84.605747, "has_menu": false, "awards": null, "user_review_count": 0}, {"business_operation_status": 0, "rating": null, "neighborhood": null, "image": null, "scorecard": null, "featured": false, "sample_categories": "Restaurants", "public_id": "acapulquito-mexican-austell", "id": 748329610, "votes": null, "tagline": null, "has_video": false, "website": null, "offers": null, "latitude": 33.817442, "politanName": "Atlanta, GA Metro ", "phone_number": "7709448300", "tags": [{"primary": true, "id": 1722, "name": "Restaurants"}], "fax_number": null, "expansion": {"count": null, "uri": null}, "impression_id": "000b00000090103f3f92964200bef2a0409f4db9a5", "profile": "http://www.citysearch.com/profile/748329610/austell_ga/acapulquito_mexican.html", "address": {"city": "Austell", "state": "GA", "street": "1936 Veterans Memorial Hwy SW", "postal_code": "30168"}, "capProviderId": null, "distance": null, "has_offers": false, "name": "Acapulquito Mexican", "longitude": -84.611504, "has_menu": false, "awards": null, "user_review_count": 0}, {"business_operation_status": 1, "rating": null, "neighborhood": null, "image": null, "scorecard": null, "featured": false, "sample_categories": "Restaurants, Southwestern", "public_id": "tico-joes-southwest-gril-lithia", "id": 764846790, "votes": null, "tagline": null, "has_video": false, "website": null, "offers": null, "latitude": 33.78703, "politanName": "Atlanta, GA Metro ", "phone_number": "7706939699", "tags": [{"primary": false, "id": 11313, "name": "Southwestern"}, {"primary": true, "id": 1722, "name": "Restaurants"}], "fax_number": null, "expansion": {"count": null, "uri": null}, "impression_id": "000b000000390ba4fbee17485d943c5475e330449c", "profile": "http://www.citysearch.com/profile/764846790/lithia_springs_ga/tico_joe_s_southwest_gril.html", "address": {"city": "Lithia Springs", "state": "GA", "street": "639 Thornton Rd # 101", "postal_code": "30122"}, "capProviderId": null, "distance": null, "has_offers": false, "name": "Tico Joe's Southwest Gril", "longitude": -84.619446, "has_menu": false, "awards": null, "user_review_count": 0}, {"business_operation_status": 1, "rating": null, "neighborhood": null, "image": null, "scorecard": null, "featured": false, "sample_categories": "Restaurants", "public_id": "gut-busters-atlanta", "id": 762717950, "votes": null, "tagline": null, "has_video": false, "website": null, "offers": null, "latitude": 33.730459, "politanName": "Atlanta, GA Metro ", "phone_number": "4042282725", "tags": [{"primary": true, "id": 1722, "name": "Restaurants"}], "fax_number": null, "expansion": {"count": null, "uri": null}, "impression_id": "000b0000002419348cf3a24cf488d50237fe2b6179", "profile": "http://www.citysearch.com/profile/762717950/atlanta_ga/gut_busters.html", "address": {"city": "Atlanta", "state": "GA", "street": "5495 Cascade Rd SW", "postal_code": "30331"}, "capProviderId": null, "distance": null, "has_offers": false, "name": "Gut Busters", "longitude": -84.567461, "has_menu": false, "awards": null, "user_review_count": 0}, {"business_operation_status": 1, "rating": null, "neighborhood": null, "image": null, "scorecard": null, "featured": false, "sample_categories": "Restaurants, Carry Out", "public_id": "burger-king-powder", "id": 764855980, "votes": null, "tagline": null, "has_video": false, "website": null, "offers": null, "latitude": 33.906794, "politanName": "Atlanta, GA Metro ", "phone_number": "7704391489", "tags": [{"primary": false, "id": 11247, "name": "Carry Out"}, {"primary": true, "id": 1722, "name": "Restaurants"}], "fax_number": null, "expansion": {"count": null, "uri": null}, "impression_id": "000b000000e5df3d2654dd408aa2ae2de7e90279b8", "profile": "http://www.citysearch.com/profile/764855980/powder_springs_ga/burger_king.html", "address": {"city": "Powder Springs", "state": "GA", "street": "3640 Velma Dr", "postal_code": "30127"}, "capProviderId": null, "distance": null, "has_offers": false, "name": "Burger King", "longitude": -84.660285, "has_menu": false, "awards": null, "user_review_count": 0}, {"business_operation_status": 1, "rating": null, "neighborhood": null, "image": null, "scorecard": null, "featured": false, "sample_categories": "Restaurants", "public_id": "b-bs-steak-seafood-lithia-spgs", "id": 36286812, "votes": null, "tagline": null, "has_video": false, "website": null, "offers": null, "latitude": 33.790812, "politanName": "Atlanta, GA Metro ", "phone_number": "7707393084", "tags": [{"primary": true, "id": 1722, "name": "Restaurants"}], "fax_number": null, "expansion": {"count": null, "uri": null}, "impression_id": "000b0000004d27211da15f46b1aca9d75803d57c85", "profile": "http://www.citysearch.com/profile/36286812/lithia_springs_ga/b_b_s_steak_seafood.html", "address": {"city": "Lithia Springs", "state": "GA", "street": "470 Westfork Blvd", "postal_code": "30122"}, "capProviderId": null, "distance": null, "has_offers": false, "name": "B B's Steak & Seafood", "longitude": -84.62506, "has_menu": false, "awards": null, "user_review_count": 0}, {"business_operation_status": 1, "rating": null, "neighborhood": null, "image": null, "scorecard": null, "featured": false, "sample_categories": "Restaurants", "public_id": "smokeys-bar-b-que-austell", "id": 36715095, "votes": null, "tagline": null, "has_video": false, "website": null, "offers": null, "latitude": 33.833281, "politanName": "Atlanta, GA Metro ", "phone_number": "7707452040", "tags": [{"primary": true, "id": 1722, "name": "Restaurants"}], "fax_number": null, "expansion": {"count": null, "uri": null}, "impression_id": "000b00000088d5ecc525fa417ea3a11f50fedaba68", "profile": "http://www.citysearch.com/profile/36715095/austell_ga/smokey_s_bar_b_que.html", "address": {"city": "Austell", "state": "GA", "street": "4990 Austell Rd", "postal_code": "30106"}, "capProviderId": null, "distance": null, "has_offers": false, "name": "Smokey's Bar B Que", "longitude": -84.611921, "has_menu": false, "awards": null, "user_review_count": 0}, {"business_operation_status": 1, "rating": null, "neighborhood": null, "image": null, "scorecard": null, "featured": false, "sample_categories": "Ice Cream Parlors, Shop Online", "public_id": "cold-stone-creamery-austell", "id": 775217430, "votes": null, "tagline": null, "has_video": false, "website": "http://www.citysearch.com/profile/external/775217430/austell_ga/cold_stone_creamery.html", "offers": null, "latitude": 33.768363, "politanName": "Atlanta, GA Metro ", "phone_number": "7707393546", "tags": [{"primary": false, "id": 11375, "name": "Shop Online"}, {"primary": true, "id": 1730, "name": "Ice Cream Parlors"}], "fax_number": null, "expansion": {"count": null, "uri": null}, "impression_id": "000b00000040c1c12290264691b9dd078e0f122ecf", "profile": "http://www.citysearch.com/profile/775217430/austell_ga/cold_stone_creamery.html", "address": {"city": "Austell", "state": "GA", "street": "275 Riverside Pkwy", "postal_code": "30168"}, "capProviderId": null, "distance": null, "has_offers": false, "name": "Cold Stone Creamery", "longitude": -84.557831, "has_menu": false, "awards": null, "user_review_count": 0}, {"business_operation_status": 1, "rating": null, "neighborhood": null, "image": null, "scorecard": null, "featured": false, "sample_categories": "Restaurants", "public_id": "sips-cookin-austell", "id": 775236240, "votes": null, "tagline": null, "has_video": false, "website": null, "offers": null, "latitude": 33.826174, "politanName": "Atlanta, GA Metro ", "phone_number": "7708196833", "tags": [{"primary": true, "id": 1722, "name": "Restaurants"}], "fax_number": null, "expansion": {"count": null, "uri": null}, "impression_id": "000b000000e15bb3108ce745f9954c95aa0c3844ad", "profile": "http://www.citysearch.com/profile/775236240/austell_ga/sip_s_cookin.html", "address": {"city": "Austell", "state": "GA", "street": "5742 Austell Powder Springs Rd", "postal_code": "30106"}, "capProviderId": null, "distance": null, "has_offers": false, "name": "Sip's Cookin", "longitude": -84.645454, "has_menu": false, "awards": null, "user_review_count": 0}, {"business_operation_status": 1, "rating": null, "neighborhood": null, "image": null, "scorecard": null, "featured": false, "sample_categories": "Restaurants, Delis And Delicatessens, Sandwich Shops, Carry Out", "public_id": "firehouse-subs-smyrna-4", "id": 777803930, "votes": null, "tagline": null, "has_video": false, "website": "http://www.citysearch.com/profile/external/777803930/smyrna_ga/firehouse_subs.html", "offers": null, "latitude": 33.841827, "politanName": "Atlanta, GA Metro ", "phone_number": "7703331399", "tags": [{"primary": false, "id": 1727, "name": "Delis And Delicatessens"}, {"primary": false, "id": 1736, "name": "Sandwich Shops"}, {"primary": false, "id": 11247, "name": "Carry Out"}, {"primary": true, "id": 1722, "name": "Restaurants"}], "fax_number": null, "expansion": {"count": null, "uri": null}, "impression_id": "000b000000e43330598e6049469cd0c8bbe750f393", "profile": "http://www.citysearch.com/profile/777803930/smyrna_ga/firehouse_subs.html", "address": {"city": "Smyrna", "state": "GA", "street": "4624 Camp Highland Se # 1000", "postal_code": "30082"}, "capProviderId": null, "distance": null, "has_offers": false, "name": "Firehouse Subs", "longitude": -84.505595, "has_menu": true, "awards": null, "user_review_count": 0}, {"business_operation_status": 1, "rating": null, "neighborhood": "Southwest, Southwest", "image": null, "scorecard": null, "featured": false, "sample_categories": "Ice Cream Parlors", "public_id": "bulay-twiste-llc-atlanta", "id": 781217790, "votes": null, "tagline": null, "has_video": false, "website": null, "offers": null, "latitude": 33.736227, "politanName": "Atlanta, GA Metro ", "phone_number": "4046910444", "tags": [{"primary": true, "id": 1730, "name": "Ice Cream Parlors"}], "fax_number": null, "expansion": {"count": null, "uri": null}, "impression_id": "000b000000c6a26af250c349399a26d01859e8e3f6", "profile": "http://www.citysearch.com/profile/781217790/atlanta_ga/bu_lay_twiste_llc.html", "address": {"city": "Atlanta", "state": "GA", "street": "4355 Cascade Rd Sw", "postal_code": "30331"}, "capProviderId": null, "distance": null, "has_offers": false, "name": "Bu-Lay Twiste LLC", "longitude": -84.531451, "has_menu": false, "awards": null, "user_review_count": 0}, {"business_operation_status": 1, "rating": null, "neighborhood": null, "image": null, "scorecard": null, "featured": false, "sample_categories": "Restaurants", "public_id": "puntacana-dominican-bargrill-marietta", "id": 802510780, "votes": null, "tagline": null, "has_video": false, "website": null, "offers": null, "latitude": 33.901077, "politanName": "Atlanta, GA Metro ", "phone_number": "7707954500", "tags": [{"primary": true, "id": 1722, "name": "Restaurants"}], "fax_number": null, "expansion": {"count": null, "uri": null}, "impression_id": "000b000000662217606bac4be3a5e3fcd9954e872a", "profile": "http://www.citysearch.com/profile/802510780/marietta_ga/puntacana_dominican_bar_grill.html", "address": {"city": "Marietta", "state": "GA", "street": "1812 Powder Springs Rd Sw", "postal_code": "30064"}, "capProviderId": null, "distance": null, "has_offers": false, "name": "Puntacana Dominican Bar-Grill", "longitude": -84.606768, "has_menu": false, "awards": null, "user_review_count": 0}, {"business_operation_status": 1, "rating": null, "neighborhood": null, "image": null, "scorecard": null, "featured": false, "sample_categories": "Restaurants", "public_id": "quick-n-tasty-cafe-smyrna", "id": 732219770, "votes": null, "tagline": null, "has_video": false, "website": null, "offers": null, "latitude": 33.891129, "politanName": "Atlanta, GA Metro ", "phone_number": "7704386170", "tags": [{"primary": true, "id": 1722, "name": "Restaurants"}], "fax_number": null, "expansion": {"count": null, "uri": null}, "impression_id": "000b00000082eee95f5c4742178c8164b3a34e02ea", "profile": "http://www.citysearch.com/profile/732219770/smyrna_ga/quick_n_tasty_cafe.html", "address": {"city": "Smyrna", "state": "GA", "street": "1651 Roswell St SE", "postal_code": "30080"}, "capProviderId": null, "distance": null, "has_offers": false, "name": "Quick N Tasty Cafe", "longitude": -84.504659, "has_menu": false, "awards": null, "user_review_count": 0}, {"business_operation_status": 1, "rating": null, "neighborhood": null, "image": null, "scorecard": null, "featured": false, "sample_categories": "Restaurants", "public_id": "mamafus-smyrna", "id": 828608580, "votes": null, "tagline": null, "has_video": false, "website": null, "offers": null, "latitude": 33.884889, "politanName": "Atlanta, GA Metro ", "phone_number": "6782133663", "tags": [{"primary": true, "id": 1722, "name": "Restaurants"}], "fax_number": null, "expansion": {"count": null, "uri": null}, "impression_id": "000b000000e77c9d945aef473caed29947d54d3e0f", "profile": "http://www.citysearch.com/profile/828608580/smyrna_ga/mamafu_s.html", "address": {"city": "Smyrna", "state": "GA", "street": "400 Village Green Cir SE", "postal_code": "30080"}, "capProviderId": null, "distance": null, "has_offers": false, "name": "Mamafu's", "longitude": -84.516415, "has_menu": false, "awards": null, "user_review_count": 0}], "histograms": [], "tag_ids": [1722], "uri": "http://api.citygridmedia.com:8080/search/places/v2/search/where?has_offers=false&type=restaurant&format=json&page=17&where=30126&rpp=50&histograms=false&publisher=10000009598&region_type=circle", "did_you_mean": "", "regions": [{"latitude": 33.816576999999995, "default_radius": 4.42, "type": "postal_code", "name": "30126", "longitude": -84.550635}], "call_id": "000b0000002a93cef769cf491c9530510765b8e7f7", "first_hit": 801, "total_hits": 893, "geo_ids": [26301], "page": 17, "last_hit": 850}}