{"results": {"rpp": 50, "locations": [{"business_operation_status": 1, "rating": null, "neighborhood": null, "image": null, "scorecard": null, "featured": false, "sample_categories": "Delis And Delicatessens", "public_id": "craig-family-deli-llc-atlanta", "id": 617965984, "votes": null, "tagline": null, "has_video": false, "website": null, "offers": null, "latitude": 33.747167, "politanName": "Atlanta, GA Metro ", "phone_number": "4703551333", "tags": [{"primary": true, "id": 1727, "name": "Delis And Delicatessens"}], "fax_number": null, "expansion": {"count": null, "uri": null}, "impression_id": "000b000000886dd55611e64f9ebddbd0cbc85629b2", "profile": "http://www.citysearch.com/profile/617965984/atlanta_ga/craig_family_deli_llc.html", "address": {"city": "Atlanta", "state": "GA", "street": "370 Great Southwest Pkwy SW", "postal_code": "30336"}, "capProviderId": null, "distance": null, "has_offers": false, "name": "Craig Family Deli LLC", "longitude": -84.5657, "has_menu": false, "awards": null, "user_review_count": 0}, {"business_operation_status": 0, "rating": null, "neighborhood": "Northside, Northside", "image": null, "scorecard": null, "featured": false, "sample_categories": "Barbecue Restaurants, Restaurants", "public_id": "billy-jacks-bar-bq-atlanta", "id": 655939420, "votes": null, "tagline": null, "has_video": false, "website": null, "offers": null, "latitude": 33.809802, "politanName": "Atlanta, GA Metro ", "phone_number": "4043517979", "tags": [{"primary": false, "id": 1722, "name": "Restaurants"}, {"primary": true, "id": 1724, "name": "Barbecue Restaurants"}], "fax_number": null, "expansion": {"count": null, "uri": null}, "impression_id": "000b000000f4e671bdbf424aabb945dbe339ef110d", "profile": "http://www.citysearch.com/profile/655939420/atlanta_ga/billy_jack_s_bar_bq.html", "address": {"city": "Atlanta", "state": "GA", "street": "857 Collier Rd Nw", "postal_code": "30318"}, "capProviderId": null, "distance": null, "has_offers": false, "name": "Billy Jack's Bar Bq", "longitude": -84.416381, "has_menu": false, "awards": null, "user_review_count": 0}, {"business_operation_status": 1, "rating": null, "neighborhood": null, "image": null, "scorecard": null, "featured": false, "sample_categories": "Restaurants", "public_id": "tokyo-japneese-steak-house-smyrna", "id": 618511154, "votes": null, "tagline": null, "has_video": false, "website": null, "offers": null, "latitude": 33.841776, "politanName": "Atlanta, GA Metro ", "phone_number": "6783051188", "tags": [{"primary": true, "id": 1722, "name": "Restaurants"}], "fax_number": null, "expansion": {"count": null, "uri": null}, "impression_id": "000b0000000b83ed454c8d4e45bfcef6c61321949e", "profile": "http://www.citysearch.com/profile/618511154/smyrna_ga/tokyo_japneese_steak_house.html", "address": {"city": "Smyrna", "state": "GA", "street": "4624 Camp Highland Rd SE", "postal_code": "30082"}, "capProviderId": null, "distance": null, "has_offers": false, "name": "Tokyo Japneese Steak House", "longitude": -84.505687, "has_menu": false, "awards": null, "user_review_count": 0}, {"business_operation_status": 1, "rating": null, "neighborhood": "Northside, Northside", "image": null, "scorecard": null, "featured": false, "sample_categories": "Bakeries, Restaurants", "public_id": "west-side-pie-atlanta", "id": 748336210, "votes": null, "tagline": null, "has_video": false, "website": null, "offers": null, "latitude": 33.789045, "politanName": "Atlanta, GA Metro ", "phone_number": "4043678410", "tags": [{"primary": false, "id": 1722, "name": "Restaurants"}, {"primary": true, "id": 1685, "name": "Bakeries"}], "fax_number": null, "expansion": {"count": null, "uri": null}, "impression_id": "000b00000066ff57853ff24ecaaf8efbdb1914c862", "profile": "http://www.citysearch.com/profile/748336210/atlanta_ga/west_side_pie.html", "address": {"city": "Atlanta", "state": "GA", "street": "1133 Huff Rd NW", "postal_code": "30318"}, "capProviderId": null, "distance": null, "has_offers": false, "name": "West Side Pie", "longitude": -84.425066, "has_menu": false, "awards": null, "user_review_count": 0}, {"business_operation_status": 1, "rating": null, "neighborhood": "Highlands Park", "image": null, "scorecard": null, "featured": false, "sample_categories": "Coffeehouses", "public_id": "tuxedo-coffee-vending-smyrna", "id": 790726220, "votes": null, "tagline": null, "has_video": false, "website": null, "offers": null, "latitude": 33.83335, "politanName": "Atlanta, GA Metro ", "phone_number": "7704364222", "tags": [{"primary": true, "id": 1726, "name": "Coffeehouses"}], "fax_number": null, "expansion": {"count": null, "uri": null}, "impression_id": "000b0000009e5e51b0d62b40b4aec03364bf01c2b6", "profile": "http://www.citysearch.com/profile/790726220/smyrna_ga/tuxedo_coffee_vending.html", "address": {"city": "Smyrna", "state": "GA", "street": "1600 Wilson Way Se # 7", "postal_code": "30082"}, "capProviderId": null, "distance": null, "has_offers": false, "name": "Tuxedo Coffee & Vending", "longitude": -84.50808, "has_menu": false, "awards": null, "user_review_count": 0}, {"business_operation_status": 1, "rating": null, "neighborhood": null, "image": null, "scorecard": null, "featured": false, "sample_categories": "Ice Cream Parlors, Restaurants, Carry Out", "public_id": "dairy-queen-smyrna-4", "id": 777697890, "votes": null, "tagline": null, "has_video": false, "website": "http://www.citysearch.com/profile/external/777697890/smyrna_ga/dairy_queen.html", "offers": null, "latitude": 33.882258, "politanName": "Atlanta, GA Metro ", "phone_number": "7704323809", "tags": [{"primary": false, "id": 1722, "name": "Restaurants"}, {"primary": false, "id": 11247, "name": "Carry Out"}, {"primary": true, "id": 1730, "name": "Ice Cream Parlors"}], "fax_number": null, "expansion": {"count": null, "uri": null}, "impression_id": "000b00000081772790f6204e3099510ae637517f36", "profile": "http://www.citysearch.com/profile/777697890/smyrna_ga/dairy_queen.html", "address": {"city": "Smyrna", "state": "GA", "street": "1641 Spring Rd Se", "postal_code": "30080"}, "capProviderId": null, "distance": null, "has_offers": false, "name": "Dairy Queen", "longitude": -84.505572, "has_menu": true, "awards": null, "user_review_count": 0}, {"business_operation_status": 1, "rating": null, "neighborhood": null, "image": null, "scorecard": null, "featured": false, "sample_categories": "Bakeries, Restaurants", "public_id": "vie-de-france-yamazaki-atlanta", "id": 3025879, "votes": null, "tagline": null, "has_video": false, "website": "http://www.citysearch.com/profile/external/3025879/atlanta_ga/vie_de_france_yamazaki.html", "offers": null, "latitude": 33.763624, "politanName": "Atlanta, GA Metro ", "phone_number": "4046965486", "tags": [{"primary": false, "id": 1722, "name": "Restaurants"}, {"primary": true, "id": 1685, "name": "Bakeries"}], "fax_number": null, "expansion": {"count": null, "uri": null}, "impression_id": "000b000000eda92ccc1a894f2ba6f6cf69b335815e", "profile": "http://www.citysearch.com/profile/3025879/atlanta_ga/vie_de_france_yamazaki.html", "address": {"city": "Atlanta", "state": "GA", "street": "4507 Mills Pl SW Ste R", "postal_code": "30336"}, "capProviderId": null, "distance": null, "has_offers": false, "name": "Vie De France Yamazaki", "longitude": -84.536183, "has_menu": false, "awards": null, "user_review_count": 0}, {"business_operation_status": 1, "rating": null, "neighborhood": null, "image": null, "scorecard": null, "featured": false, "sample_categories": "Grocery Stores, Health Food Stores, Herbal Medicine, Weight Loss, Herbs", "public_id": "herb-shop-the-smyrna", "id": 604614262, "votes": null, "tagline": null, "has_video": false, "website": null, "offers": null, "latitude": 33.873647, "politanName": "Atlanta, GA Metro ", "phone_number": "7704358567", "tags": [{"primary": false, "id": 1713, "name": "Grocery Stores"}, {"primary": false, "id": 1716, "name": "Health Food Stores"}, {"primary": false, "id": 1800, "name": "Herbal Medicine"}, {"primary": false, "id": 11170, "name": "Herbs"}, {"primary": false, "id": 11200, "name": "Health Food"}, {"primary": true, "id": 1931, "name": "Weight Loss"}], "fax_number": null, "expansion": {"count": null, "uri": null}, "impression_id": "000b0000009abdb691deab4495877f2ceceab75831", "profile": "http://www.citysearch.com/profile/604614262/smyrna_ga/herb_shop_the.html", "address": {"city": "Smyrna", "state": "GA", "street": "3240 S Cobb Dr Se Ste D", "postal_code": "30080"}, "capProviderId": null, "distance": null, "has_offers": false, "name": "Herb Shop The", "longitude": -84.530458, "has_menu": false, "awards": null, "user_review_count": 2}, {"business_operation_status": 1, "rating": null, "neighborhood": null, "image": null, "scorecard": null, "featured": false, "sample_categories": "Restaurants, Pizza, Carry Out", "public_id": "dominos-pizza-marietta-17", "id": 608562794, "votes": null, "tagline": null, "has_video": false, "website": "http://www.citysearch.com/profile/external/608562794/marietta_ga/domino_s_pizza.html", "offers": null, "latitude": 33.876575, "politanName": "Atlanta, GA Metro ", "phone_number": "7709555585", "tags": [{"primary": false, "id": 1722, "name": "Restaurants"}, {"primary": false, "id": 11247, "name": "Carry Out"}, {"primary": true, "id": 11299, "name": "Pizza"}], "fax_number": null, "expansion": {"count": null, "uri": null}, "impression_id": "000b00000080b9a514d93445dda2a4c8841a1231e3", "profile": "http://www.citysearch.com/profile/608562794/marietta_ga/domino_s_pizza.html", "address": {"city": "Marietta", "state": "GA", "street": "1230 Pair Rd SW", "postal_code": "30067"}, "capProviderId": null, "distance": null, "has_offers": false, "name": "Domino's Pizza", "longitude": -84.589289, "has_menu": false, "awards": null, "user_review_count": 0}, {"business_operation_status": 1, "rating": null, "neighborhood": null, "image": null, "scorecard": null, "featured": false, "sample_categories": "Restaurants", "public_id": "tokyo-sushi-steakhouse-inc-smyrna", "id": 611242984, "votes": null, "tagline": null, "has_video": false, "website": null, "offers": null, "latitude": 33.841776, "politanName": "Atlanta, GA Metro ", "phone_number": "7708056336", "tags": [{"primary": true, "id": 1722, "name": "Restaurants"}], "fax_number": null, "expansion": {"count": null, "uri": null}, "impression_id": "000b000000edac224cd573424c95253670f04b5544", "profile": "http://www.citysearch.com/profile/611242984/smyrna_ga/tokyo_sushi_steakhouse_inc.html", "address": {"city": "Smyrna", "state": "GA", "street": "4624 Camp Highland Rd SE # 700", "postal_code": "30082"}, "capProviderId": null, "distance": null, "has_offers": false, "name": "Tokyo Sushi & Steakhouse Inc", "longitude": -84.505687, "has_menu": false, "awards": null, "user_review_count": 0}, {"business_operation_status": 1, "rating": null, "neighborhood": null, "image": null, "scorecard": null, "featured": false, "sample_categories": "Restaurants", "public_id": "valindas-cozy-kitchen-austell", "id": 807391420, "votes": null, "tagline": null, "has_video": false, "website": null, "offers": null, "latitude": 33.804925, "politanName": "Atlanta, GA Metro ", "phone_number": "7709446694", "tags": [{"primary": true, "id": 1722, "name": "Restaurants"}], "fax_number": null, "expansion": {"count": null, "uri": null}, "impression_id": "000b000000c43895755b6b4d0e894fe08b36f6a348", "profile": "http://www.citysearch.com/profile/807391420/austell_ga/valindas_cozy_kitchen.html", "address": {"city": "Austell", "state": "GA", "street": "2795 Bankhead Hwy", "postal_code": "30168"}, "capProviderId": null, "distance": null, "has_offers": false, "name": "Valindas Cozy Kitchen", "longitude": -84.636781, "has_menu": false, "awards": null, "user_review_count": 0}, {"business_operation_status": 1, "rating": null, "neighborhood": null, "image": null, "scorecard": null, "featured": false, "sample_categories": "Restaurants", "public_id": "stephs-holistic-pet-foods-smyrna", "id": 813753140, "votes": null, "tagline": null, "has_video": false, "website": null, "offers": null, "latitude": 33.844491, "politanName": "Atlanta, GA Metro ", "phone_number": "7704370569", "tags": [{"primary": true, "id": 1722, "name": "Restaurants"}], "fax_number": null, "expansion": {"count": null, "uri": null}, "impression_id": "000b000000f198b267dec44d0b9b80ec4b9cc00802", "profile": "http://www.citysearch.com/profile/813753140/smyrna_ga/stephs_holistic_pet_foods.html", "address": {"city": "Smyrna", "state": "GA", "street": "1925 Ivy Glen Dr SE", "postal_code": "30082"}, "capProviderId": null, "distance": null, "has_offers": false, "name": "Stephs Holistic Pet Foods", "longitude": -84.505442, "has_menu": false, "awards": null, "user_review_count": 0}, {"business_operation_status": 0, "rating": null, "neighborhood": null, "image": null, "scorecard": null, "featured": false, "sample_categories": "Restaurants, Bars & Pubs", "public_id": "benos-sports-bar-grill-austell", "id": 647356910, "votes": null, "tagline": null, "has_video": false, "website": null, "offers": null, "latitude": 33.833761, "politanName": "Atlanta, GA Metro ", "phone_number": "7707458810", "tags": [{"primary": false, "id": 1686, "name": "Bars & Pubs"}, {"primary": true, "id": 1722, "name": "Restaurants"}], "fax_number": null, "expansion": {"count": null, "uri": null}, "impression_id": "000b00000080cbad209398466da7b80ecaafa3820e", "profile": "http://www.citysearch.com/profile/647356910/austell_ga/beno_s_sports_bar_grill.html", "address": {"city": "Austell", "state": "GA", "street": "3156 Mosley Chase Dr", "postal_code": "30106"}, "capProviderId": null, "distance": null, "has_offers": false, "name": "Beno's Sports Bar & Grill", "longitude": -84.646818, "has_menu": false, "awards": null, "user_review_count": 0}, {"business_operation_status": 1, "rating": null, "neighborhood": null, "image": null, "scorecard": null, "featured": false, "sample_categories": "Restaurants", "public_id": "lnc-cafeteria-smyrna", "id": 45555720, "votes": null, "tagline": null, "has_video": false, "website": null, "offers": null, "latitude": 33.826155, "politanName": "Atlanta, GA Metro ", "phone_number": "4047946122", "tags": [{"primary": true, "id": 1722, "name": "Restaurants"}], "fax_number": null, "expansion": {"count": null, "uri": null}, "impression_id": "000b0000009527558e22e446ef87e82e7355aaff60", "profile": "http://www.citysearch.com/profile/45555720/smyrna_ga/lnc_cafeteria.html", "address": {"city": "Smyrna", "state": "GA", "street": "5240 S Cobb Dr SE", "postal_code": "30080"}, "capProviderId": null, "distance": null, "has_offers": false, "name": "Lnc Cafeteria", "longitude": -84.49064, "has_menu": false, "awards": null, "user_review_count": 0}, {"business_operation_status": 1, "rating": null, "neighborhood": null, "image": null, "scorecard": null, "featured": false, "sample_categories": "Restaurants, Seafood", "public_id": "cat-fish-alley-atlanta", "id": 45566133, "votes": null, "tagline": null, "has_video": false, "website": null, "offers": null, "latitude": 33.764656, "politanName": "Atlanta, GA Metro ", "phone_number": "4046964367", "tags": [{"primary": false, "id": 11228, "name": "Seafood"}, {"primary": true, "id": 1722, "name": "Restaurants"}], "fax_number": null, "expansion": {"count": null, "uri": null}, "impression_id": "000b0000007759d5cc90f448d3bbd8b8f0f51e885e", "profile": "http://www.citysearch.com/profile/45566133/atlanta_ga/cat_fish_alley.html", "address": {"city": "Atlanta", "state": "GA", "street": "304 Fulton Industrial Cir SW", "postal_code": "30336"}, "capProviderId": null, "distance": null, "has_offers": false, "name": "Cat Fish Alley", "longitude": -84.53182, "has_menu": false, "awards": null, "user_review_count": 1}, {"business_operation_status": 1, "rating": null, "neighborhood": "Northside, Northside", "image": null, "scorecard": null, "featured": false, "sample_categories": "Restaurants, Unclassified", "public_id": "pangaea-atlanta", "id": 672142520, "votes": null, "tagline": null, "has_video": false, "website": "http://www.citysearch.com/profile/external/672142520/atlanta_ga/pangaea.html", "offers": null, "latitude": 33.788597, "politanName": "Atlanta, GA Metro ", "phone_number": "4043508787", "tags": [{"primary": false, "id": 1722, "name": "Restaurants"}, {"primary": false, "id": 6019, "name": "Unclassified"}], "fax_number": null, "expansion": {"count": null, "uri": null}, "impression_id": "000b000000b0ebe4fe339148d9abcf8b4bab31ea69", "profile": "http://www.citysearch.com/profile/672142520/atlanta_ga/pangaea.html", "address": {"city": "Atlanta", "state": "GA", "street": "1082 Huff Rd NW", "postal_code": "30318"}, "capProviderId": null, "distance": null, "has_offers": false, "name": "Pangaea", "longitude": -84.423023, "has_menu": false, "awards": null, "user_review_count": 1}, {"business_operation_status": 1, "rating": null, "neighborhood": null, "image": null, "scorecard": null, "featured": false, "sample_categories": "Restaurants", "public_id": "the-olive-tree-lithia-spgs", "id": 673007600, "votes": null, "tagline": null, "has_video": false, "website": "http://www.citysearch.com/profile/external/673007600/lithia_springs_ga/the_olive_tree.html", "offers": null, "latitude": 33.784778, "politanName": "Atlanta, GA Metro ", "phone_number": "7709481288", "tags": [{"primary": true, "id": 1722, "name": "Restaurants"}], "fax_number": null, "expansion": {"count": null, "uri": null}, "impression_id": "000b0000008d7d96b3076b4da7894e325ba9d5e2a8", "profile": "http://www.citysearch.com/profile/673007600/lithia_springs_ga/the_olive_tree.html", "address": {"city": "Lithia Springs", "state": "GA", "street": "849 Thornton Rd", "postal_code": "30122"}, "capProviderId": null, "distance": null, "has_offers": false, "name": "The Olive Tree", "longitude": -84.612367, "has_menu": false, "awards": null, "user_review_count": 0}, {"business_operation_status": 1, "rating": null, "neighborhood": "Southwest, Southwest", "image": null, "scorecard": null, "featured": false, "sample_categories": "Restaurants, Pizza, Carry Out", "public_id": "little-caesars-pizza-atlanta-2", "id": 682444590, "votes": null, "tagline": null, "has_video": false, "website": "http://www.citysearch.com/profile/external/682444590/atlanta_ga/little_caesars_pizza.html", "offers": null, "latitude": 33.726029, "politanName": "Atlanta, GA Metro ", "phone_number": "4046999190", "tags": [{"primary": false, "id": 1722, "name": "Restaurants"}, {"primary": false, "id": 11247, "name": "Carry Out"}, {"primary": true, "id": 11299, "name": "Pizza"}], "fax_number": null, "expansion": {"count": null, "uri": null}, "impression_id": "000b000000b974372e4d7f4b9ab645a99e0fc1d698", "profile": "http://www.citysearch.com/profile/682444590/atlanta_ga/little_caesars_pizza.html", "address": {"city": "Atlanta", "state": "GA", "street": "1075 Fairburn Rd Sw", "postal_code": "30331"}, "capProviderId": null, "distance": null, "has_offers": false, "name": "Little Caesars Pizza", "longitude": -84.51095, "has_menu": false, "awards": null, "user_review_count": 0}, {"business_operation_status": 1, "rating": null, "neighborhood": null, "image": null, "scorecard": null, "featured": false, "sample_categories": "Restaurants", "public_id": "winstons-food-spirits-austell-2", "id": 699576350, "votes": null, "tagline": null, "has_video": false, "website": null, "offers": null, "latitude": 33.812606, "politanName": "Atlanta, GA Metro ", "phone_number": "7707391130", "tags": [{"primary": true, "id": 1722, "name": "Restaurants"}], "fax_number": null, "expansion": {"count": null, "uri": null}, "impression_id": "000b00000066533070b7b14f788ee9e544b0b6590c", "profile": "http://www.citysearch.com/profile/699576350/austell_ga/winston_s_food_spirits.html", "address": {"city": "Austell", "state": "GA", "street": "Sandy Plain Rd", "postal_code": "30106"}, "capProviderId": null, "distance": null, "has_offers": false, "name": "Winston's Food & Spirits", "longitude": -84.634378, "has_menu": false, "awards": null, "user_review_count": 0}, {"business_operation_status": 1, "rating": null, "neighborhood": null, "image": null, "scorecard": null, "featured": false, "sample_categories": "Restaurants", "public_id": "el-barco-mexican-restaurant-marietta-2", "id": 813626580, "votes": null, "tagline": null, "has_video": false, "website": null, "offers": null, "latitude": 33.903309, "politanName": "Atlanta, GA Metro ", "phone_number": "6783555007", "tags": [{"primary": true, "id": 1722, "name": "Restaurants"}], "fax_number": null, "expansion": {"count": null, "uri": null}, "impression_id": "000b00000032ebd4d9ad064e7e80b09d68445c5457", "profile": "http://www.citysearch.com/profile/813626580/marietta_ga/el_barco_mexican_restaurant.html", "address": {"city": "Marietta", "state": "GA", "street": "Arbor Spring CT SW", "postal_code": "30064"}, "capProviderId": null, "distance": null, "has_offers": false, "name": "El Barco Mexican Restaurant", "longitude": -84.629546, "has_menu": false, "awards": null, "user_review_count": 0}, {"business_operation_status": 1, "rating": null, "neighborhood": null, "image": null, "scorecard": null, "featured": false, "sample_categories": "Restaurants", "public_id": "k-j-fish-chicken-marietta", "id": 816880880, "votes": null, "tagline": null, "has_video": false, "website": null, "offers": null, "latitude": 33.894433, "politanName": "Atlanta, GA Metro ", "phone_number": "7704058877", "tags": [{"primary": true, "id": 1722, "name": "Restaurants"}], "fax_number": null, "expansion": {"count": null, "uri": null}, "impression_id": "000b000000579c5f1bceca424c8c463f13b8f4a5af", "profile": "http://www.citysearch.com/profile/816880880/marietta_ga/k_j_fish_chicken.html", "address": {"city": "Marietta", "state": "GA", "street": "234 Windy Hill Rd SE", "postal_code": "30060"}, "capProviderId": null, "distance": null, "has_offers": false, "name": "K J Fish & Chicken", "longitude": -84.552798, "has_menu": false, "awards": null, "user_review_count": 0}, {"business_operation_status": 1, "rating": null, "neighborhood": "Northside, Northside", "image": null, "scorecard": null, "featured": false, "sample_categories": "Restaurants", "public_id": "green-derby-restaurant-atlanta", "id": 762720750, "votes": null, "tagline": null, "has_video": false, "website": null, "offers": null, "latitude": 33.798942, "politanName": "Atlanta, GA Metro ", "phone_number": "4043529076", "tags": [{"primary": true, "id": 1722, "name": "Restaurants"}], "fax_number": null, "expansion": {"count": null, "uri": null}, "impression_id": "000b0000004432684a5a434010992352f9819fb727", "profile": "http://www.citysearch.com/profile/762720750/atlanta_ga/green_derby_restaurant.html", "address": {"city": "Atlanta", "state": "GA", "street": "1610 Howell Mill Rd NW", "postal_code": "30318"}, "capProviderId": null, "distance": null, "has_offers": false, "name": "Green Derby Restaurant", "longitude": -84.416062, "has_menu": false, "awards": null, "user_review_count": 0}, {"business_operation_status": 1, "rating": null, "neighborhood": null, "image": null, "scorecard": null, "featured": false, "sample_categories": "Restaurants", "public_id": "crawdaddys-cajun-station-austell", "id": 828702840, "votes": null, "tagline": null, "has_video": false, "website": null, "offers": null, "latitude": 33.812606, "politanName": "Atlanta, GA Metro ", "phone_number": "6785742377", "tags": [{"primary": true, "id": 1722, "name": "Restaurants"}], "fax_number": null, "expansion": {"count": null, "uri": null}, "impression_id": "000b00000071ab811478c04786a2c51b23b0e531fb", "profile": "http://www.citysearch.com/profile/828702840/austell_ga/crawdaddy_s_cajun_station.html", "address": {"city": "Austell", "state": "GA", "street": "5000 Aus Pdr Spg Rd # 365", "postal_code": "30106"}, "capProviderId": null, "distance": null, "has_offers": false, "name": "Crawdaddy's Cajun Station", "longitude": -84.634378, "has_menu": false, "awards": null, "user_review_count": 0}, {"business_operation_status": 1, "rating": null, "neighborhood": "Southwest, Southwest", "image": null, "scorecard": null, "featured": false, "sample_categories": "Restaurants, Delis And Delicatessens, Sandwich Shops, Carry Out, American Express", "public_id": "quiznos-atlanta-11", "id": 43880704, "votes": null, "tagline": null, "has_video": false, "website": "http://www.citysearch.com/profile/external/43880704/atlanta_ga/quiznos_sub.html", "offers": null, "latitude": 33.726029, "politanName": "Atlanta, GA Metro ", "phone_number": "4046967166", "tags": [{"primary": false, "id": 1727, "name": "Delis And Delicatessens"}, {"primary": false, "id": 1736, "name": "Sandwich Shops"}, {"primary": false, "id": 11247, "name": "Carry Out"}, {"primary": false, "id": 11333, "name": "American Express"}, {"primary": false, "id": 11349, "name": "Discover"}, {"primary": false, "id": 11361, "name": "MasterCard"}, {"primary": false, "id": 11375, "name": "Shop Online"}, {"primary": false, "id": 11382, "name": "Visa"}, {"primary": true, "id": 1722, "name": "Restaurants"}], "fax_number": null, "expansion": {"count": null, "uri": null}, "impression_id": "000b000000a480fad7fb684d05b8ba55728570ac63", "profile": "http://www.citysearch.com/profile/43880704/atlanta_ga/quiznos_sub.html", "address": {"city": "Atlanta", "state": "GA", "street": "1075 Fairburn Rd SW Ste 104", "postal_code": "30331"}, "capProviderId": null, "distance": null, "has_offers": false, "name": "Quiznos Sub", "longitude": -84.51095, "has_menu": true, "awards": null, "user_review_count": 0}, {"business_operation_status": 1, "rating": null, "neighborhood": "Longleaf", "image": null, "scorecard": null, "featured": false, "sample_categories": "Restaurants", "public_id": "long-leaf-at-vinings-cafe-smyrna", "id": 45555721, "votes": null, "tagline": null, "has_video": false, "website": null, "offers": null, "latitude": 33.835463, "politanName": "Atlanta, GA Metro ", "phone_number": "4047999721", "tags": [{"primary": true, "id": 1722, "name": "Restaurants"}], "fax_number": null, "expansion": {"count": null, "uri": null}, "impression_id": "000b00000096e83844508144e9a936900c4c11fea4", "profile": "http://www.citysearch.com/profile/45555721/smyrna_ga/long_leaf_at_vinings_cafe.html", "address": {"city": "Smyrna", "state": "GA", "street": "4829 Longcourt Dr SE", "postal_code": "30080"}, "capProviderId": null, "distance": null, "has_offers": false, "name": "Long Leaf At Vinings Cafe", "longitude": -84.484693, "has_menu": false, "awards": null, "user_review_count": 0}, {"business_operation_status": 1, "rating": null, "neighborhood": null, "image": null, "scorecard": null, "featured": false, "sample_categories": "Ice Cream Parlors", "public_id": "marble-slab-creamery-smyrna", "id": 822378770, "votes": null, "tagline": null, "has_video": false, "website": null, "offers": null, "latitude": 33.884889, "politanName": "Atlanta, GA Metro ", "phone_number": "7704333336", "tags": [{"primary": true, "id": 1730, "name": "Ice Cream Parlors"}], "fax_number": null, "expansion": {"count": null, "uri": null}, "impression_id": "000b0000005ddfc6f9ccbc45129a2111ad5bf1a774", "profile": "http://www.citysearch.com/profile/822378770/smyrna_ga/marble_slab_creamery.html", "address": {"city": "Smyrna", "state": "GA", "street": "400 Village Green Cir SE", "postal_code": "30080"}, "capProviderId": null, "distance": null, "has_offers": false, "name": "Marble Slab Creamery", "longitude": -84.516415, "has_menu": false, "awards": null, "user_review_count": 0}, {"business_operation_status": 1, "rating": null, "neighborhood": "Highlands Park", "image": null, "scorecard": null, "featured": false, "sample_categories": "Restaurants", "public_id": "coffeenet-smyrna", "id": 822796550, "votes": null, "tagline": null, "has_video": false, "website": null, "offers": null, "latitude": 33.827432, "politanName": "Atlanta, GA Metro ", "phone_number": "4047944468", "tags": [{"primary": true, "id": 1722, "name": "Restaurants"}], "fax_number": null, "expansion": {"count": null, "uri": null}, "impression_id": "000b0000007da63785e97644a8a56f27f635b7c4df", "profile": "http://www.citysearch.com/profile/822796550/smyrna_ga/coffeenet.html", "address": {"city": "Smyrna", "state": "GA", "street": "3100 Highlands Pkwy SE", "postal_code": "30082"}, "capProviderId": null, "distance": null, "has_offers": false, "name": "Coffeenet", "longitude": -84.49424, "has_menu": false, "awards": null, "user_review_count": 0}, {"business_operation_status": 1, "rating": null, "neighborhood": null, "image": null, "scorecard": null, "featured": false, "sample_categories": "Restaurants", "public_id": "crescent-city-kitchen-atlanta", "id": 824114020, "votes": null, "tagline": null, "has_video": false, "website": null, "offers": null, "latitude": 33.764634, "politanName": "Atlanta, GA Metro ", "phone_number": "4045055599", "tags": [{"primary": true, "id": 1722, "name": "Restaurants"}], "fax_number": null, "expansion": {"count": null, "uri": null}, "impression_id": "000b0000002f868f42cc3740e78af39e7457acdd8f", "profile": "http://www.citysearch.com/profile/824114020/atlanta_ga/crescent_city_kitchen.html", "address": {"city": "Atlanta", "state": "GA", "street": "304 Fulton Industrial Cir SW", "postal_code": "30336"}, "capProviderId": null, "distance": null, "has_offers": false, "name": "Crescent City Kitchen", "longitude": -84.531812, "has_menu": false, "awards": null, "user_review_count": 0}, {"business_operation_status": 1, "rating": null, "neighborhood": null, "image": null, "scorecard": null, "featured": false, "sample_categories": "Restaurants, Diners, Traditional American, Carry Out, MasterCard", "public_id": "waffle-house-atlanta-19", "id": 601366213, "votes": null, "tagline": null, "has_video": false, "website": "http://www.citysearch.com/profile/external/601366213/atlanta_ga/waffle_house.html", "offers": null, "latitude": 33.764472, "politanName": "Atlanta, GA Metro ", "phone_number": "4044723559", "tags": [{"primary": false, "id": 1732, "name": "Diners"}, {"primary": false, "id": 11190, "name": "Traditional American"}, {"primary": false, "id": 11247, "name": "Carry Out"}, {"primary": false, "id": 11361, "name": "MasterCard"}, {"primary": false, "id": 11382, "name": "Visa"}, {"primary": true, "id": 1722, "name": "Restaurants"}], "fax_number": null, "expansion": {"count": null, "uri": null}, "impression_id": "000b0000006738894c9b3a48e2aecc71c252827ed7", "profile": "http://www.citysearch.com/profile/601366213/atlanta_ga/waffle_house.html", "address": {"city": "Atlanta", "state": "GA", "street": "4346 Fulton Industrial Blvd Sw", "postal_code": "30336"}, "capProviderId": null, "distance": null, "has_offers": false, "name": "Waffle House", "longitude": -84.53149, "has_menu": true, "awards": null, "user_review_count": 0}, {"business_operation_status": 1, "rating": null, "neighborhood": null, "image": null, "scorecard": null, "featured": false, "sample_categories": "Bakeries, Restaurants", "public_id": "colonial-baking-co-atlanta", "id": 3025999, "votes": null, "tagline": null, "has_video": false, "website": null, "offers": null, "latitude": 33.747273, "politanName": "Atlanta, GA Metro ", "phone_number": "4046914094", "tags": [{"primary": false, "id": 1722, "name": "Restaurants"}, {"primary": true, "id": 1685, "name": "Bakeries"}], "fax_number": null, "expansion": {"count": null, "uri": null}, "impression_id": "000b0000002809751de6a34934bfd568aa7cbcbd9a", "profile": "http://www.citysearch.com/profile/3025999/atlanta_ga/colonial_baking_co.html", "address": {"city": "Atlanta", "state": "GA", "street": "5060 Fulton Industrial Blvd SW", "postal_code": "30336"}, "capProviderId": null, "distance": null, "has_offers": false, "name": "Colonial Baking Co", "longitude": -84.553191, "has_menu": false, "awards": null, "user_review_count": 1}, {"business_operation_status": 1, "rating": null, "neighborhood": null, "image": null, "scorecard": null, "featured": false, "sample_categories": "Restaurants", "public_id": "champs-barbq-smyrna", "id": 819797740, "votes": null, "tagline": null, "has_video": false, "website": null, "offers": null, "latitude": 33.896088, "politanName": "Atlanta, GA Metro ", "phone_number": "7704386618", "tags": [{"primary": true, "id": 1722, "name": "Restaurants"}], "fax_number": null, "expansion": {"count": null, "uri": null}, "impression_id": "000b000000137ca84c99004437b4e1496edd45a0c7", "profile": "http://www.citysearch.com/profile/819797740/smyrna_ga/champs_bar_b_q.html", "address": {"city": "Smyrna", "state": "GA", "street": "2300 S Cobb Dr SE", "postal_code": "30080"}, "capProviderId": null, "distance": null, "has_offers": false, "name": "Champs Bar-B-Q", "longitude": -84.539784, "has_menu": false, "awards": null, "user_review_count": 0}, {"business_operation_status": 1, "rating": null, "neighborhood": null, "image": null, "scorecard": null, "featured": false, "sample_categories": "Restaurants", "public_id": "southern-star-atlanta", "id": 764863250, "votes": null, "tagline": null, "has_video": false, "website": null, "offers": null, "latitude": 33.757439, "politanName": "Atlanta, GA Metro ", "phone_number": "4046913012", "tags": [{"primary": true, "id": 1722, "name": "Restaurants"}], "fax_number": null, "expansion": {"count": null, "uri": null}, "impression_id": "000b000000b56f987684b74200868df0e44d38934b", "profile": "http://www.citysearch.com/profile/764863250/atlanta_ga/southern_star.html", "address": {"city": "Atlanta", "state": "GA", "street": "152 Selig Dr SW", "postal_code": "30336"}, "capProviderId": null, "distance": null, "has_offers": false, "name": "Southern Star", "longitude": -84.54014, "has_menu": false, "awards": null, "user_review_count": 0}, {"business_operation_status": 1, "rating": null, "neighborhood": null, "image": null, "scorecard": null, "featured": false, "sample_categories": "Restaurants", "public_id": "s-s-soul-food-atlanta", "id": 45566132, "votes": null, "tagline": null, "has_video": false, "website": null, "offers": null, "latitude": 33.768286, "politanName": "Atlanta, GA Metro ", "phone_number": "4046912226", "tags": [{"primary": true, "id": 1722, "name": "Restaurants"}], "fax_number": null, "expansion": {"count": null, "uri": null}, "impression_id": "000b000000fa6a1283c5cb4f2d852a07104c56b553", "profile": "http://www.citysearch.com/profile/45566132/atlanta_ga/s_s_soul_food.html", "address": {"city": "Atlanta", "state": "GA", "street": "4120 Fulton Industrial Blvd SW", "postal_code": "30336"}, "capProviderId": null, "distance": null, "has_offers": false, "name": "S & S Soul Food", "longitude": -84.521534, "has_menu": false, "awards": null, "user_review_count": 0}, {"business_operation_status": 1, "rating": null, "neighborhood": null, "image": null, "scorecard": null, "featured": false, "sample_categories": "Restaurants, Carry Out, Italian, Pizza", "public_id": "sbarro-smyrna", "id": 45082264, "votes": null, "tagline": null, "has_video": false, "website": "http://www.citysearch.com/profile/external/45082264/smyrna_ga/sbarro.html", "offers": null, "latitude": 33.874593, "politanName": "Atlanta, GA Metro ", "phone_number": "7704358311", "tags": [{"primary": false, "id": 11247, "name": "Carry Out"}, {"primary": false, "id": 11279, "name": "Italian"}, {"primary": false, "id": 11299, "name": "Pizza"}, {"primary": true, "id": 1722, "name": "Restaurants"}], "fax_number": null, "expansion": {"count": null, "uri": null}, "impression_id": "000b000000f0ce4ae8d979498e86cf90915c02454d", "profile": "http://www.citysearch.com/profile/45082264/smyrna_ga/sbarro.html", "address": {"city": "Smyrna", "state": "GA", "street": "1000 Cumberland Ct SE", "postal_code": "30080"}, "capProviderId": null, "distance": null, "has_offers": false, "name": "Sbarro", "longitude": -84.479034, "has_menu": true, "awards": null, "user_review_count": 0}, {"business_operation_status": 1, "rating": null, "neighborhood": "Northside, Northside", "image": null, "scorecard": null, "featured": false, "sample_categories": "Restaurants, Delis And Delicatessens", "public_id": "highland-wraps-pizza-kitchen-atlanta", "id": 45571108, "votes": null, "tagline": null, "has_video": false, "website": null, "offers": null, "latitude": 33.794104, "politanName": "Atlanta, GA Metro ", "phone_number": "4043522888", "tags": [{"primary": false, "id": 1727, "name": "Delis And Delicatessens"}, {"primary": true, "id": 1722, "name": "Restaurants"}], "fax_number": null, "expansion": {"count": null, "uri": null}, "impression_id": "000b000000e09577991d114e7b917860121493f882", "profile": "http://www.citysearch.com/profile/45571108/atlanta_ga/highland_wraps_pizza_kitchen.html", "address": {"city": "Atlanta", "state": "GA", "street": "1425 Ellsworth Industrial Blvd NW", "postal_code": "30318"}, "capProviderId": null, "distance": null, "has_offers": false, "name": "Highland Wraps & Pizza Kitchen", "longitude": -84.427031, "has_menu": false, "awards": null, "user_review_count": 0}, {"business_operation_status": 1, "rating": 6.0, "neighborhood": null, "image": null, "scorecard": null, "featured": false, "sample_categories": "Restaurants, Bars & Pubs, Taverns, Barbecue Restaurants, MasterCard", "public_id": "wings-pub-smyrna", "id": 2922999, "votes": null, "tagline": null, "has_video": false, "website": null, "offers": null, "latitude": 33.894336, "politanName": "Atlanta, GA Metro ", "phone_number": "7704350007", "tags": [{"primary": false, "id": 1686, "name": "Bars & Pubs"}, {"primary": false, "id": 1702, "name": "Taverns"}, {"primary": false, "id": 1724, "name": "Barbecue Restaurants"}, {"primary": false, "id": 11361, "name": "MasterCard"}, {"primary": false, "id": 11382, "name": "Visa"}, {"primary": true, "id": 1722, "name": "Restaurants"}], "fax_number": null, "expansion": {"count": null, "uri": null}, "impression_id": "000b0000009186b41ee0a44befadae47f21d01619f", "profile": "http://www.citysearch.com/profile/2922999/smyrna_ga/wings_pub.html", "address": {"city": "Smyrna", "state": "GA", "street": "1024 Windy Hill Rd SE", "postal_code": "30080"}, "capProviderId": null, "distance": null, "has_offers": false, "name": "Wings Pub", "longitude": -84.52318, "has_menu": false, "awards": null, "user_review_count": 0}, {"business_operation_status": 1, "rating": null, "neighborhood": null, "image": null, "scorecard": null, "featured": false, "sample_categories": "Restaurants, Hamburgers", "public_id": "juniors-cheeseburgers-marietta", "id": 793366980, "votes": null, "tagline": null, "has_video": false, "website": null, "offers": null, "latitude": 33.881461, "politanName": "Atlanta, GA Metro ", "phone_number": "6783543333", "tags": [{"primary": false, "id": 11270, "name": "Hamburgers"}, {"primary": true, "id": 1722, "name": "Restaurants"}], "fax_number": null, "expansion": {"count": null, "uri": null}, "impression_id": "000b00000057ee8148443a4a929520a814e02a4bfc", "profile": "http://www.citysearch.com/profile/793366980/marietta_ga/juniors_cheeseburgers.html", "address": {"city": "Marietta", "state": "GA", "street": "2325 Powder Springs Rd Sw", "postal_code": "30064"}, "capProviderId": null, "distance": null, "has_offers": false, "name": "Juniors Cheeseburgers", "longitude": -84.619677, "has_menu": false, "awards": null, "user_review_count": 0}, {"business_operation_status": 1, "rating": null, "neighborhood": null, "image": null, "scorecard": null, "featured": false, "sample_categories": "Bakeries, Restaurants", "public_id": "back-2-basics-bakery-lithia-spgs", "id": 43861078, "votes": null, "tagline": null, "has_video": false, "website": null, "offers": null, "latitude": 33.781495, "politanName": "Atlanta, GA Metro ", "phone_number": "7709417851", "tags": [{"primary": false, "id": 1722, "name": "Restaurants"}, {"primary": true, "id": 1685, "name": "Bakeries"}], "fax_number": null, "expansion": {"count": null, "uri": null}, "impression_id": "000b00000094d422f945a3480c9c38e3ae5fa241a1", "profile": "http://www.citysearch.com/profile/43861078/lithia_springs_ga/back_2_basics_bakery.html", "address": {"city": "Lithia Springs", "state": "GA", "street": "2970 Skyview Dr Lot 94", "postal_code": "30122"}, "capProviderId": null, "distance": null, "has_offers": false, "name": "Back 2 Basics Bakery", "longitude": -84.643902, "has_menu": false, "awards": null, "user_review_count": 0}, {"business_operation_status": 1, "rating": null, "neighborhood": null, "image": null, "scorecard": null, "featured": false, "sample_categories": "Restaurants", "public_id": "jalapeno-joes-lithia", "id": 814946090, "votes": null, "tagline": null, "has_video": false, "website": null, "offers": null, "latitude": 33.784776, "politanName": "Atlanta, GA Metro ", "phone_number": "7707391906", "tags": [{"primary": true, "id": 1722, "name": "Restaurants"}], "fax_number": null, "expansion": {"count": null, "uri": null}, "impression_id": "000b000000d633775f875147a7bc14ece7c4d4fdd6", "profile": "http://www.citysearch.com/profile/814946090/lithia_springs_ga/jalapeno_joe_s.html", "address": {"city": "Lithia Springs", "state": "GA", "street": "853 Thornton Rd", "postal_code": "30122"}, "capProviderId": null, "distance": null, "has_offers": false, "name": "Jalapeno Joe's", "longitude": -84.612385, "has_menu": false, "awards": null, "user_review_count": 1}, {"business_operation_status": 1, "rating": null, "neighborhood": null, "image": null, "scorecard": null, "featured": false, "sample_categories": "Restaurants", "public_id": "la-salsa-austell", "id": 608331014, "votes": null, "tagline": null, "has_video": false, "website": null, "offers": null, "latitude": 33.810497, "politanName": "Atlanta, GA Metro ", "phone_number": "7707394666", "tags": [{"primary": true, "id": 1722, "name": "Restaurants"}], "fax_number": null, "expansion": {"count": null, "uri": null}, "impression_id": "000b0000008454495ba6144de48a867c2dac4534fd", "profile": "http://www.citysearch.com/profile/608331014/austell_ga/la_salsa.html", "address": {"city": "Austell", "state": "GA", "street": "2856 Vetbrans Hwy", "postal_code": "30168"}, "capProviderId": null, "distance": null, "has_offers": false, "name": "La Salsa", "longitude": -84.636764, "has_menu": false, "awards": null, "user_review_count": 0}, {"business_operation_status": 1, "rating": null, "neighborhood": null, "image": null, "scorecard": null, "featured": false, "sample_categories": "Restaurants", "public_id": "car-checkers-powder-spgs", "id": 2950697, "votes": null, "tagline": null, "has_video": false, "website": null, "offers": null, "latitude": 33.935913, "politanName": "Atlanta, GA Metro ", "phone_number": "7705148100", "tags": [{"primary": true, "id": 1722, "name": "Restaurants"}], "fax_number": null, "expansion": {"count": null, "uri": null}, "impression_id": "000b000000831caabead6a4528bfb8333243da3b5e", "profile": "http://www.citysearch.com/profile/2950697/powder_springs_ga/car_checkers.html", "address": {"city": "Powder Springs", "state": "GA", "street": "591 Leah Dr", "postal_code": "30127"}, "capProviderId": null, "distance": null, "has_offers": false, "name": "Car Checkers", "longitude": -84.663484, "has_menu": false, "awards": null, "user_review_count": 0}, {"business_operation_status": 1, "rating": null, "neighborhood": null, "image": null, "scorecard": null, "featured": false, "sample_categories": "Restaurants", "public_id": "wingstop-atlanta-3", "id": 620718674, "votes": null, "tagline": null, "has_video": false, "website": "http://www.citysearch.com/profile/external/620718674/atlanta_ga/wingstop.html", "offers": null, "latitude": 33.83285, "politanName": "Atlanta, GA Metro ", "phone_number": "4047929464", "tags": [{"primary": true, "id": 1722, "name": "Restaurants"}], "fax_number": null, "expansion": {"count": null, "uri": null}, "impression_id": "000b00000060fd4ee3363542f2abc44a1eccca80df", "profile": "http://www.citysearch.com/profile/620718674/atlanta_ga/wingstop.html", "address": {"city": "Atlanta", "state": "GA", "street": "4715 S Atlanta Rd SE", "postal_code": "30339"}, "capProviderId": null, "distance": null, "has_offers": false, "name": "Wingstop", "longitude": -84.462675, "has_menu": false, "awards": null, "user_review_count": 0}, {"business_operation_status": 1, "rating": null, "neighborhood": "Riverside, Northside, Northside", "image": null, "scorecard": null, "featured": false, "sample_categories": "Restaurants, Carry Out", "public_id": "waffle-house-atlanta-32", "id": 622021024, "votes": null, "tagline": null, "has_video": false, "website": "http://www.citysearch.com/profile/external/622021024/atlanta_ga/waffle_house.html", "offers": null, "latitude": 33.81087, "politanName": "Atlanta, GA Metro ", "phone_number": "4047929009", "tags": [{"primary": false, "id": 11247, "name": "Carry Out"}, {"primary": true, "id": 1722, "name": "Restaurants"}], "fax_number": null, "expansion": {"count": null, "uri": null}, "impression_id": "000b000000928f90a439c04f34a6bd80f9b96870d2", "profile": "http://www.citysearch.com/profile/622021024/atlanta_ga/waffle_house.html", "address": {"city": "Atlanta", "state": "GA", "street": "2025 Bolton Rd NW", "postal_code": "30318"}, "capProviderId": null, "distance": null, "has_offers": false, "name": "Waffle House", "longitude": -84.476265, "has_menu": false, "awards": null, "user_review_count": 0}, {"business_operation_status": 1, "rating": null, "neighborhood": null, "image": null, "scorecard": null, "featured": false, "sample_categories": "Restaurants", "public_id": "mexican-taqueria-smyrna", "id": 623985844, "votes": null, "tagline": null, "has_video": false, "website": null, "offers": null, "latitude": 33.889788, "politanName": "Atlanta, GA Metro ", "phone_number": "7709891248", "tags": [{"primary": true, "id": 1722, "name": "Restaurants"}], "fax_number": null, "expansion": {"count": null, "uri": null}, "impression_id": "000b00000004208dcb537443c48af30c25819fd83a", "profile": "http://www.citysearch.com/profile/623985844/smyrna_ga/mexican_taqueria.html", "address": {"city": "Smyrna", "state": "GA", "street": "2599 S Cobb Dr SE", "postal_code": "30080"}, "capProviderId": null, "distance": null, "has_offers": false, "name": "Mexican Taqueria", "longitude": -84.536114, "has_menu": false, "awards": null, "user_review_count": 0}, {"business_operation_status": 1, "rating": null, "neighborhood": null, "image": null, "scorecard": null, "featured": false, "sample_categories": "Restaurants, Cajun & Creole", "public_id": "on-the-bayou-smyrna", "id": 764832940, "votes": null, "tagline": null, "has_video": false, "website": null, "offers": null, "latitude": 33.879071, "politanName": "Atlanta, GA Metro ", "phone_number": "7704343329", "tags": [{"primary": false, "id": 11245, "name": "Cajun & Creole"}, {"primary": true, "id": 1722, "name": "Restaurants"}], "fax_number": null, "expansion": {"count": null, "uri": null}, "impression_id": "000b00000006cb45b7c53244b680cb76b7c4520551", "profile": "http://www.citysearch.com/profile/764832940/smyrna_ga/on_the_bayou.html", "address": {"city": "Smyrna", "state": "GA", "street": "3120 S Cobb Dr SE", "postal_code": "30080"}, "capProviderId": null, "distance": null, "has_offers": false, "name": "On the Bayou", "longitude": -84.532683, "has_menu": false, "awards": null, "user_review_count": 0}, {"business_operation_status": 1, "rating": null, "neighborhood": null, "image": null, "scorecard": null, "featured": false, "sample_categories": "Restaurants", "public_id": "twelve06-atlanta", "id": 764934730, "votes": null, "tagline": null, "has_video": false, "website": null, "offers": null, "latitude": 33.859198, "politanName": "Atlanta, GA Metro ", "phone_number": "7703191206", "tags": [{"primary": true, "id": 1722, "name": "Restaurants"}], "fax_number": null, "expansion": {"count": null, "uri": null}, "impression_id": "000b00000060209e3f2dbe4319bccc3def6da83350", "profile": "http://www.citysearch.com/profile/764934730/atlanta_ga/twelve06.html", "address": {"city": "Atlanta", "state": "GA", "street": "2355 Cumberland Pkwy SE", "postal_code": "30339"}, "capProviderId": null, "distance": null, "has_offers": false, "name": "Twelve06", "longitude": -84.480448, "has_menu": false, "awards": null, "user_review_count": 0}, {"business_operation_status": 1, "rating": null, "neighborhood": null, "image": null, "scorecard": null, "featured": false, "sample_categories": "Restaurants", "public_id": "culture-lab-marietta", "id": 764843290, "votes": null, "tagline": null, "has_video": false, "website": null, "offers": null, "latitude": 33.883313, "politanName": "Atlanta, GA Metro ", "phone_number": "7705750926", "tags": [{"primary": true, "id": 1722, "name": "Restaurants"}], "fax_number": null, "expansion": {"count": null, "uri": null}, "impression_id": "000b000000207a82f7b08b46cea677b97127c8897d", "profile": "http://www.citysearch.com/profile/764843290/marietta_ga/culture_lab.html", "address": {"city": "Marietta", "state": "GA", "street": "2200 Powder Springs Rd SW", "postal_code": "30064"}, "capProviderId": null, "distance": null, "has_offers": false, "name": "Culture Lab", "longitude": -84.620092, "has_menu": false, "awards": null, "user_review_count": 0}, {"business_operation_status": 1, "rating": null, "neighborhood": null, "image": null, "scorecard": null, "featured": false, "sample_categories": "Restaurants, Carry Out, Pizza", "public_id": "papa-johns-pizza-marietta-17", "id": 764880820, "votes": null, "tagline": null, "has_video": false, "website": null, "offers": null, "latitude": 33.865697, "politanName": "Atlanta, GA Metro ", "phone_number": "4043330301", "tags": [{"primary": false, "id": 11247, "name": "Carry Out"}, {"primary": false, "id": 11299, "name": "Pizza"}, {"primary": true, "id": 1722, "name": "Restaurants"}], "fax_number": null, "expansion": {"count": null, "uri": null}, "impression_id": "000b000000912b1fbf0bff4240bc73a0af8f1a65df", "profile": "http://www.citysearch.com/profile/764880820/marietta_ga/papa_john_s_pizza.html", "address": {"city": "Marietta", "state": "GA", "street": "3565 Austell Rd SW # 1019", "postal_code": "30008"}, "capProviderId": null, "distance": null, "has_offers": false, "name": "Papa John's Pizza", "longitude": -84.592502, "has_menu": false, "awards": null, "user_review_count": 0}, {"business_operation_status": 1, "rating": null, "neighborhood": null, "image": null, "scorecard": null, "featured": false, "sample_categories": "Juice & Smoothie Shops, Restaurants, Carry Out", "public_id": "orange-julius-smyrna", "id": 764893330, "votes": null, "tagline": null, "has_video": false, "website": null, "offers": null, "latitude": 33.882258, "politanName": "Atlanta, GA Metro ", "phone_number": "7704323809", "tags": [{"primary": false, "id": 1722, "name": "Restaurants"}, {"primary": false, "id": 11247, "name": "Carry Out"}, {"primary": true, "id": 1735, "name": "Juice & Smoothie Shops"}], "fax_number": null, "expansion": {"count": null, "uri": null}, "impression_id": "000b000000c1da2ca1eed14e8ea5ca82d86d0fc172", "profile": "http://www.citysearch.com/profile/764893330/smyrna_ga/orange_julius.html", "address": {"city": "Smyrna", "state": "GA", "street": "1641 Spring Rd SE", "postal_code": "30080"}, "capProviderId": null, "distance": null, "has_offers": false, "name": "Orange Julius", "longitude": -84.505572, "has_menu": false, "awards": null, "user_review_count": 0}, {"business_operation_status": 1, "rating": null, "neighborhood": null, "image": null, "scorecard": null, "featured": false, "sample_categories": "Restaurants, Seafood", "public_id": "surf-turf-austell", "id": 757931480, "votes": null, "tagline": null, "has_video": false, "website": null, "offers": null, "latitude": 33.77728, "politanName": "Atlanta, GA Metro ", "phone_number": "6784031083", "tags": [{"primary": false, "id": 11228, "name": "Seafood"}, {"primary": true, "id": 1722, "name": "Restaurants"}], "fax_number": null, "expansion": {"count": null, "uri": null}, "impression_id": "000b000000bd866c860e0a4656b3d59c193a5a4783", "profile": "http://www.citysearch.com/profile/757931480/austell_ga/surf_turf.html", "address": {"city": "Austell", "state": "GA", "street": "366 Six Flags Dr # 15", "postal_code": "30168"}, "capProviderId": null, "distance": null, "has_offers": false, "name": "Surf & Turf", "longitude": -84.559025, "has_menu": false, "awards": null, "user_review_count": 0}], "histograms": [], "tag_ids": [1722], "uri": "http://api.citygridmedia.com:8080/search/places/v2/search/where?has_offers=false&type=restaurant&format=json&page=11&where=30126&rpp=50&histograms=false&publisher=10000009598&region_type=circle", "did_you_mean": "", "regions": [{"latitude": 33.816576999999995, "default_radius": 4.42, "type": "postal_code", "name": "30126", "longitude": -84.550635}], "call_id": "000b00000015e6a99fd4eb40bba39fe42fbe8acf52", "first_hit": 501, "total_hits": 893, "geo_ids": [26301], "page": 11, "last_hit": 550}}