{"results": {"rpp": 50, "locations": [{"business_operation_status": 1, "rating": null, "neighborhood": null, "image": null, "scorecard": null, "featured": false, "sample_categories": "Restaurants, Carry Out, Chicken", "public_id": "popeyes-chicken-biscuits-marietta-3", "id": 764903940, "votes": null, "tagline": null, "has_video": false, "website": null, "offers": null, "latitude": 33.922747, "politanName": "Atlanta, GA Metro ", "phone_number": "7707947031", "tags": [{"primary": false, "id": 11247, "name": "Carry Out"}, {"primary": false, "id": 12839, "name": "Chicken"}, {"primary": true, "id": 1722, "name": "Restaurants"}], "fax_number": null, "expansion": {"count": null, "uri": null}, "impression_id": "000b0000003fba8aeb60aa4d9199d8fbf7a896e033", "profile": "http://www.citysearch.com/profile/764903940/marietta_ga/popeye_s_chicken_biscuits.html", "address": {"city": "Marietta", "state": "GA", "street": "1444 Livingston Dr SW", "postal_code": "30064"}, "capProviderId": null, "distance": null, "has_offers": false, "name": "Popeye's Chicken & Biscuits", "longitude": -84.596038, "has_menu": false, "awards": null, "user_review_count": 0}, {"business_operation_status": 0, "rating": null, "neighborhood": null, "image": null, "scorecard": null, "featured": false, "sample_categories": "Restaurants, Pizza", "public_id": "brooklyn-pizza-department-austell", "id": 764860920, "votes": null, "tagline": null, "has_video": false, "website": null, "offers": null, "latitude": 33.860912, "politanName": "Atlanta, GA Metro ", "phone_number": "6783840980", "tags": [{"primary": false, "id": 11299, "name": "Pizza"}, {"primary": true, "id": 1722, "name": "Restaurants"}], "fax_number": null, "expansion": {"count": null, "uri": null}, "impression_id": "000b00000052e9ab36f0964477931d8b09acfb9212", "profile": "http://www.citysearch.com/profile/764860920/austell_ga/brooklyn_pizza_department.html", "address": {"city": "Austell", "state": "GA", "street": "2495 E West Connector", "postal_code": "30106"}, "capProviderId": null, "distance": null, "has_offers": false, "name": "Brooklyn Pizza Department", "longitude": -84.620637, "has_menu": false, "awards": null, "user_review_count": 2}, {"business_operation_status": 1, "rating": null, "neighborhood": null, "image": null, "scorecard": null, "featured": false, "sample_categories": "Restaurants", "public_id": "eat-run-chicken-fish-austell", "id": 813668140, "votes": null, "tagline": null, "has_video": false, "website": null, "offers": null, "latitude": 33.776643, "politanName": "Atlanta, GA Metro ", "phone_number": "6789457016", "tags": [{"primary": true, "id": 1722, "name": "Restaurants"}], "fax_number": null, "expansion": {"count": null, "uri": null}, "impression_id": "000b0000005da7cb88d30540cf9968fbae75cdb4e5", "profile": "http://www.citysearch.com/profile/813668140/austell_ga/eat_run_chicken_fish.html", "address": {"city": "Austell", "state": "GA", "street": "361 Six Flags Dr", "postal_code": "30168"}, "capProviderId": null, "distance": null, "has_offers": false, "name": "Eat & Run Chicken & Fish", "longitude": -84.565938, "has_menu": false, "awards": null, "user_review_count": 0}, {"business_operation_status": 1, "rating": null, "neighborhood": null, "image": null, "scorecard": null, "featured": false, "sample_categories": "Restaurants", "public_id": "gato-bizco-cafe-inc-smyrna", "id": 813337660, "votes": null, "tagline": null, "has_video": false, "website": null, "offers": null, "latitude": 33.882251, "politanName": "Atlanta, GA Metro ", "phone_number": "7703333300", "tags": [{"primary": true, "id": 1722, "name": "Restaurants"}], "fax_number": null, "expansion": {"count": null, "uri": null}, "impression_id": "000b000000e423d0ee5134486bafc6dab4cf638ab2", "profile": "http://www.citysearch.com/profile/813337660/smyrna_ga/gato_bizco_cafe_inc.html", "address": {"city": "Smyrna", "state": "GA", "street": "801 Country Park Dr SE", "postal_code": "30080"}, "capProviderId": null, "distance": null, "has_offers": false, "name": "Gato Bizco Cafe Inc", "longitude": -84.489138, "has_menu": false, "awards": null, "user_review_count": 0}, {"business_operation_status": 1, "rating": null, "neighborhood": null, "image": null, "scorecard": null, "featured": false, "sample_categories": "Restaurants, Barbecue Restaurants", "public_id": "boyds-bar-be-que-smyrna", "id": 793283860, "votes": null, "tagline": null, "has_video": false, "website": null, "offers": null, "latitude": 33.890044, "politanName": "Atlanta, GA Metro ", "phone_number": "6783099726", "tags": [{"primary": false, "id": 1724, "name": "Barbecue Restaurants"}, {"primary": true, "id": 1722, "name": "Restaurants"}], "fax_number": null, "expansion": {"count": null, "uri": null}, "impression_id": "000b00000087a197dff0cb4e2da384d70073937bcf", "profile": "http://www.citysearch.com/profile/793283860/smyrna_ga/boyd_s_bar_be_que.html", "address": {"city": "Smyrna", "state": "GA", "street": "2599 S Cobb Dr Se", "postal_code": "30080"}, "capProviderId": null, "distance": null, "has_offers": false, "name": "Boyd's Bar Be Que", "longitude": -84.536832, "has_menu": false, "awards": null, "user_review_count": 0}, {"business_operation_status": 1, "rating": null, "neighborhood": "Northside, Northside", "image": null, "scorecard": null, "featured": false, "sample_categories": "Restaurants", "public_id": "yoi-yoi-steakhouse-sushi-atlanta", "id": 840122880, "votes": null, "tagline": null, "has_video": false, "website": null, "offers": null, "latitude": 33.809801, "politanName": "Atlanta, GA Metro ", "phone_number": "4043511788", "tags": [{"primary": true, "id": 1722, "name": "Restaurants"}], "fax_number": null, "expansion": {"count": null, "uri": null}, "impression_id": "000b0000007d16f6df220a4cd2b7302258fc5e584f", "profile": "http://www.citysearch.com/profile/840122880/atlanta_ga/yoi_yoi_steakhouse_sushi.html", "address": {"city": "Atlanta", "state": "GA", "street": "857 Collier Rd NW", "postal_code": "30318"}, "capProviderId": null, "distance": null, "has_offers": false, "name": "Yoi Yoi Steakhouse & Sushi", "longitude": -84.416377, "has_menu": true, "awards": null, "user_review_count": 0}, {"business_operation_status": 0, "rating": 9.0, "neighborhood": null, "image": null, "scorecard": null, "featured": false, "sample_categories": "Restaurants", "public_id": "great-american-soup-company-smyrna", "id": 2922976, "votes": null, "tagline": null, "has_video": false, "website": null, "offers": null, "latitude": 33.838436, "politanName": "Atlanta, GA Metro ", "phone_number": "4047927687", "tags": [{"primary": true, "id": 1722, "name": "Restaurants"}], "fax_number": null, "expansion": {"count": null, "uri": null}, "impression_id": "000b000000833061202692435fb9557366b2c6f018", "profile": "http://www.citysearch.com/profile/2922976/smyrna_ga/great_american_soup_company.html", "address": {"city": "Smyrna", "state": "GA", "street": "4686 S Atlanta Rd SE", "postal_code": "30080"}, "capProviderId": null, "distance": null, "has_offers": false, "name": "Great American Soup Company", "longitude": -84.482318, "has_menu": false, "awards": null, "user_review_count": 0}, {"business_operation_status": 1, "rating": null, "neighborhood": null, "image": null, "scorecard": null, "featured": false, "sample_categories": "Restaurants, Bars & Clubs, Bars & Pubs", "public_id": "boomers-bar-grill-smyrna", "id": 764862000, "votes": null, "tagline": null, "has_video": false, "website": null, "offers": null, "latitude": 33.899075, "politanName": "Atlanta, GA Metro ", "phone_number": "7709569555", "tags": [{"primary": false, "id": 164, "name": "Bars & Clubs"}, {"primary": false, "id": 1686, "name": "Bars & Pubs"}, {"primary": true, "id": 1722, "name": "Restaurants"}], "fax_number": null, "expansion": {"count": null, "uri": null}, "impression_id": "000b000000a28b2cc6cbc4455b93fb57e3f8192c7a", "profile": "http://www.citysearch.com/profile/764862000/smyrna_ga/boomer_s_bar_grill.html", "address": {"city": "Smyrna", "state": "GA", "street": "2105 S Cobb Dr SE", "postal_code": "30080"}, "capProviderId": null, "distance": null, "has_offers": false, "name": "Boomer's Bar & Grill", "longitude": -84.54028, "has_menu": false, "awards": null, "user_review_count": 0}, {"business_operation_status": 1, "rating": null, "neighborhood": null, "image": null, "scorecard": null, "featured": false, "sample_categories": "Restaurants, Delis And Delicatessens, Carry Out, Shop Online", "public_id": "jimmy-johns-atlanta-17", "id": 793342280, "votes": null, "tagline": null, "has_video": false, "website": "http://www.citysearch.com/profile/external/793342280/atlanta_ga/jimmy_john_s.html", "offers": null, "latitude": 33.731141, "politanName": "Atlanta, GA Metro ", "phone_number": "4046370350", "tags": [{"primary": false, "id": 1727, "name": "Delis And Delicatessens"}, {"primary": false, "id": 11247, "name": "Carry Out"}, {"primary": false, "id": 11375, "name": "Shop Online"}, {"primary": true, "id": 1722, "name": "Restaurants"}], "fax_number": null, "expansion": {"count": null, "uri": null}, "impression_id": "000b0000008f298ba9826e4d559fcda492d180ff25", "profile": "http://www.citysearch.com/profile/793342280/atlanta_ga/jimmy_john_s.html", "address": {"city": "Atlanta", "state": "GA", "street": "5626 Fulton Industrial Blvd Sw", "postal_code": "30336"}, "capProviderId": null, "distance": null, "has_offers": false, "name": "Jimmy John's", "longitude": -84.570206, "has_menu": false, "awards": null, "user_review_count": 0}, {"business_operation_status": 0, "rating": null, "neighborhood": null, "image": null, "scorecard": null, "featured": false, "sample_categories": "Restaurants", "public_id": "mrs-winners-chicken-biscuits-atlanta-4", "id": 3025839, "votes": null, "tagline": null, "has_video": false, "website": null, "offers": null, "latitude": 33.769016, "politanName": "Atlanta, GA Metro ", "phone_number": "4046964784", "tags": [{"primary": true, "id": 1722, "name": "Restaurants"}], "fax_number": null, "expansion": {"count": null, "uri": null}, "impression_id": "000b0000003265cda0bafe4bc088d1da32074be696", "profile": "http://www.citysearch.com/profile/3025839/atlanta_ga/mrs_winners_chicken_biscuits.html", "address": {"city": "Atlanta", "state": "GA", "street": "4145 Fulton Industrial Blvd SW", "postal_code": "30336"}, "capProviderId": null, "distance": null, "has_offers": false, "name": "Mrs Winners Chicken & Biscuits", "longitude": -84.522945, "has_menu": true, "awards": null, "user_review_count": 0}, {"business_operation_status": 1, "rating": null, "neighborhood": null, "image": null, "scorecard": null, "featured": false, "sample_categories": "Restaurants, Carry Out, Hamburgers", "public_id": "mc-donalds-austell-3", "id": 742217920, "votes": null, "tagline": null, "has_video": false, "website": "http://www.citysearch.com/profile/external/742217920/austell_ga/mc_donald_s.html", "offers": null, "latitude": 33.866346, "politanName": "Atlanta, GA Metro ", "phone_number": "7702221927", "tags": [{"primary": false, "id": 11247, "name": "Carry Out"}, {"primary": false, "id": 11270, "name": "Hamburgers"}, {"primary": true, "id": 1722, "name": "Restaurants"}], "fax_number": null, "expansion": {"count": null, "uri": null}, "impression_id": "000b000000c65af71c6ac6439797a5fb7873e72920", "profile": "http://www.citysearch.com/profile/742217920/austell_ga/mc_donald_s.html", "address": {"city": "Austell", "state": "GA", "street": "E West Connector & Marathon", "postal_code": "30106"}, "capProviderId": null, "distance": null, "has_offers": false, "name": "Mc Donald's", "longitude": -84.626708, "has_menu": false, "awards": null, "user_review_count": 0}, {"business_operation_status": 1, "rating": null, "neighborhood": null, "image": null, "scorecard": null, "featured": false, "sample_categories": "Restaurants, Seafood", "public_id": "house-crab-atlanta", "id": 742329070, "votes": null, "tagline": null, "has_video": false, "website": null, "offers": null, "latitude": 33.731895, "politanName": "Atlanta, GA Metro ", "phone_number": "6787053960", "tags": [{"primary": false, "id": 11228, "name": "Seafood"}, {"primary": true, "id": 1722, "name": "Restaurants"}], "fax_number": null, "expansion": {"count": null, "uri": null}, "impression_id": "000b000000e51eda86cbf94aa5acdc1b0b3f465dd8", "profile": "http://www.citysearch.com/profile/742329070/atlanta_ga/house_crab.html", "address": {"city": "Atlanta", "state": "GA", "street": "815 Cascade Ave Sw", "postal_code": "30310"}, "capProviderId": null, "distance": null, "has_offers": false, "name": "House Crab", "longitude": -84.535385, "has_menu": false, "awards": null, "user_review_count": 0}, {"business_operation_status": 1, "rating": null, "neighborhood": null, "image": null, "scorecard": null, "featured": false, "sample_categories": "Restaurants", "public_id": "tropical-smoothie-cafe-smyrna", "id": 807164030, "votes": null, "tagline": null, "has_video": false, "website": null, "offers": null, "latitude": 33.884019, "politanName": "Atlanta, GA Metro ", "phone_number": "7704369980", "tags": [{"primary": true, "id": 1722, "name": "Restaurants"}], "fax_number": null, "expansion": {"count": null, "uri": null}, "impression_id": "000b00000055dac8ba5d1841bb9011a5812faad333", "profile": "http://www.citysearch.com/profile/807164030/smyrna_ga/tropical_smoothie_cafe.html", "address": {"city": "Smyrna", "state": "GA", "street": "1265 W Spring St SE", "postal_code": "30080"}, "capProviderId": null, "distance": null, "has_offers": false, "name": "Tropical Smoothie Cafe", "longitude": -84.515924, "has_menu": false, "awards": null, "user_review_count": 0}, {"business_operation_status": 1, "rating": null, "neighborhood": null, "image": null, "scorecard": null, "featured": false, "sample_categories": "Restaurants", "public_id": "valindas-cozy-kitchen-austell-2", "id": 814424400, "votes": null, "tagline": null, "has_video": false, "website": null, "offers": null, "latitude": 33.834562, "politanName": "Atlanta, GA Metro ", "phone_number": "7709440410", "tags": [{"primary": true, "id": 1722, "name": "Restaurants"}], "fax_number": null, "expansion": {"count": null, "uri": null}, "impression_id": "000b000000f420caf22c3c428ab1270369924cd04a", "profile": "http://www.citysearch.com/profile/814424400/austell_ga/valinda_s_cozy_kitchen.html", "address": {"city": "Austell", "state": "GA", "street": "2075 Warren Dr", "postal_code": "30106"}, "capProviderId": null, "distance": null, "has_offers": false, "name": "Valinda's Cozy Kitchen", "longitude": -84.61502, "has_menu": false, "awards": null, "user_review_count": 0}, {"business_operation_status": 1, "rating": null, "neighborhood": null, "image": null, "scorecard": null, "featured": false, "sample_categories": "Restaurants, Pizza, Carry Out", "public_id": "little-caesars-pizza-austell", "id": 817405370, "votes": null, "tagline": null, "has_video": false, "website": null, "offers": null, "latitude": 33.836659, "politanName": "Atlanta, GA Metro ", "phone_number": "7709485001", "tags": [{"primary": false, "id": 1722, "name": "Restaurants"}, {"primary": false, "id": 11247, "name": "Carry Out"}, {"primary": true, "id": 11299, "name": "Pizza"}], "fax_number": null, "expansion": {"count": null, "uri": null}, "impression_id": "000b0000007df3e25727db412eb8c55743a2192b27", "profile": "http://www.citysearch.com/profile/817405370/austell_ga/little_caesars_pizza.html", "address": {"city": "Austell", "state": "GA", "street": "3753 Austell Rd", "postal_code": "30106"}, "capProviderId": null, "distance": null, "has_offers": false, "name": "Little Caesars Pizza", "longitude": -84.611909, "has_menu": false, "awards": null, "user_review_count": 0}, {"business_operation_status": 1, "rating": null, "neighborhood": null, "image": null, "scorecard": null, "featured": false, "sample_categories": "Restaurants, Carry Out, Pizza", "public_id": "little-caesars-pizza-smyrna-3", "id": 787125170, "votes": null, "tagline": null, "has_video": false, "website": "http://www.citysearch.com/profile/external/787125170/smyrna_ga/little_caesars_pizza.html", "offers": null, "latitude": 33.882426, "politanName": "Atlanta, GA Metro ", "phone_number": "7709891088", "tags": [{"primary": false, "id": 11247, "name": "Carry Out"}, {"primary": false, "id": 11299, "name": "Pizza"}, {"primary": true, "id": 1722, "name": "Restaurants"}], "fax_number": null, "expansion": {"count": null, "uri": null}, "impression_id": "000b0000006e7b87b5ca6046fabde912b859c28e4b", "profile": "http://www.citysearch.com/profile/787125170/smyrna_ga/little_caesars_pizza.html", "address": {"city": "Smyrna", "state": "GA", "street": "2350 Spring Rd Se", "postal_code": "30080"}, "capProviderId": null, "distance": null, "has_offers": false, "name": "Little Caesars Pizza", "longitude": -84.487375, "has_menu": false, "awards": null, "user_review_count": 0}, {"business_operation_status": 1, "rating": null, "neighborhood": null, "image": null, "scorecard": null, "featured": false, "sample_categories": "Restaurants", "public_id": "peppers-grill-bar-marietta", "id": 672240030, "votes": null, "tagline": null, "has_video": false, "website": null, "offers": null, "latitude": 33.865697, "politanName": "Atlanta, GA Metro ", "phone_number": "7704368181", "tags": [{"primary": true, "id": 1722, "name": "Restaurants"}], "fax_number": null, "expansion": {"count": null, "uri": null}, "impression_id": "000b000000df51312bb5c34313a79a78cd89115a50", "profile": "http://www.citysearch.com/profile/672240030/marietta_ga/pepper_s_grill_bar.html", "address": {"city": "Marietta", "state": "GA", "street": "3565 Austell Road SW", "postal_code": "30008"}, "capProviderId": null, "distance": null, "has_offers": false, "name": "Pepper's Grill & Bar", "longitude": -84.592502, "has_menu": false, "awards": null, "user_review_count": 1}, {"business_operation_status": 1, "rating": null, "neighborhood": null, "image": null, "scorecard": null, "featured": false, "sample_categories": "Restaurants", "public_id": "mobile-pit-stop-of-atlanta-smyrna", "id": 754713040, "votes": null, "tagline": null, "has_video": false, "website": null, "offers": null, "latitude": 33.884704, "politanName": "Atlanta, GA Metro ", "phone_number": "7707786349", "tags": [{"primary": true, "id": 1722, "name": "Restaurants"}], "fax_number": null, "expansion": {"count": null, "uri": null}, "impression_id": "000b000000531e08d6b98d4356b2d0f08c516c196b", "profile": "http://www.citysearch.com/profile/754713040/smyrna_ga/mobile_pit_stop_of_atlanta.html", "address": {"city": "Smyrna", "state": "GA", "street": "2051 Glenroy Dr SE", "postal_code": "30080"}, "capProviderId": null, "distance": null, "has_offers": false, "name": "Mobile Pit Stop of Atlanta", "longitude": -84.4941, "has_menu": false, "awards": null, "user_review_count": 0}, {"business_operation_status": 1, "rating": null, "neighborhood": "Northside, Northside", "image": null, "scorecard": null, "featured": false, "sample_categories": "Coffeehouses", "public_id": "blue-cloud-coffee-import-atlanta", "id": 777634030, "votes": null, "tagline": null, "has_video": false, "website": null, "offers": null, "latitude": 33.801078, "politanName": "Atlanta, GA Metro ", "phone_number": "4043556557", "tags": [{"primary": true, "id": 1726, "name": "Coffeehouses"}], "fax_number": null, "expansion": {"count": null, "uri": null}, "impression_id": "000b000000f1036dd08b324712b82705655f605d8e", "profile": "http://www.citysearch.com/profile/777634030/atlanta_ga/blue_cloud_coffee_import.html", "address": {"city": "Atlanta", "state": "GA", "street": "1700 Marietta Blvd NW", "postal_code": "30318"}, "capProviderId": null, "distance": null, "has_offers": false, "name": "Blue Cloud Coffee Import", "longitude": -84.436287, "has_menu": false, "awards": null, "user_review_count": 0}, {"business_operation_status": 1, "rating": null, "neighborhood": "Northside, Northside", "image": null, "scorecard": null, "featured": false, "sample_categories": "Restaurants, Carry Out", "public_id": "mcdonalds-atlanta-10", "id": 818023400, "votes": null, "tagline": null, "has_video": false, "website": "http://www.citysearch.com/profile/external/818023400/atlanta_ga/mcdonald_s.html", "offers": null, "latitude": 33.81868, "politanName": "Atlanta, GA Metro ", "phone_number": "4043510208", "tags": [{"primary": false, "id": 11247, "name": "Carry Out"}, {"primary": true, "id": 1722, "name": "Restaurants"}], "fax_number": null, "expansion": {"count": null, "uri": null}, "impression_id": "000b0000002129d40625834254b149347d9e4173d2", "profile": "http://www.citysearch.com/profile/818023400/atlanta_ga/mcdonald_s.html", "address": {"city": "Atlanta", "state": "GA", "street": "2265 Marietta Blvd NW", "postal_code": "30318"}, "capProviderId": null, "distance": null, "has_offers": false, "name": "McDonald's", "longitude": -84.449266, "has_menu": true, "awards": null, "user_review_count": 0}, {"business_operation_status": 1, "rating": null, "neighborhood": null, "image": null, "scorecard": null, "featured": false, "sample_categories": "Restaurants, Chinese", "public_id": "panda-xpress-lithia", "id": 787089480, "votes": null, "tagline": null, "has_video": false, "website": null, "offers": null, "latitude": 33.793995, "politanName": "Atlanta, GA Metro ", "phone_number": "6782323124", "tags": [{"primary": false, "id": 11252, "name": "Chinese"}, {"primary": true, "id": 1722, "name": "Restaurants"}], "fax_number": null, "expansion": {"count": null, "uri": null}, "impression_id": "000b00000013d8ae19061d456a85752cc9d34ece8c", "profile": "http://www.citysearch.com/profile/787089480/lithia_springs_ga/panda_xpress.html", "address": {"city": "Lithia Springs", "state": "GA", "street": "Po Box 1365", "postal_code": "30122"}, "capProviderId": null, "distance": null, "has_offers": false, "name": "Panda Xpress", "longitude": -84.66049, "has_menu": false, "awards": null, "user_review_count": 0}, {"business_operation_status": 1, "rating": null, "neighborhood": null, "image": null, "scorecard": null, "featured": false, "sample_categories": "Produce Markets, Juice & Smoothie Shops", "public_id": "painted-basket-atlanta", "id": 790822850, "votes": null, "tagline": null, "has_video": false, "website": null, "offers": null, "latitude": 33.852187, "politanName": "Atlanta, GA Metro ", "phone_number": "7704328375", "tags": [{"primary": false, "id": 1735, "name": "Juice & Smoothie Shops"}, {"primary": true, "id": 1717, "name": "Produce Markets"}], "fax_number": null, "expansion": {"count": null, "uri": null}, "impression_id": "000b000000923681bc43294361bb6ec544e10a956f", "profile": "http://www.citysearch.com/profile/790822850/atlanta_ga/painted_basket.html", "address": {"city": "Atlanta", "state": "GA", "street": "2924 Orchard Knob Se", "postal_code": "30339"}, "capProviderId": null, "distance": null, "has_offers": false, "name": "Painted Basket", "longitude": -84.469719, "has_menu": false, "awards": null, "user_review_count": 0}, {"business_operation_status": 1, "rating": null, "neighborhood": null, "image": null, "scorecard": null, "featured": false, "sample_categories": "Restaurants", "public_id": "kds-cafe-inc-powder", "id": 828806350, "votes": null, "tagline": null, "has_video": false, "website": null, "offers": null, "latitude": 33.842913, "politanName": "Atlanta, GA Metro ", "phone_number": "7709434912", "tags": [{"primary": true, "id": 1722, "name": "Restaurants"}], "fax_number": null, "expansion": {"count": null, "uri": null}, "impression_id": "000b0000004c0940ef3f694b78a06107cdbc133698", "profile": "http://www.citysearch.com/profile/828806350/powder_springs_ga/kds_cafe_inc.html", "address": {"city": "Powder Springs", "state": "GA", "street": "4565 Ridgeview Dr", "postal_code": "30127"}, "capProviderId": null, "distance": null, "has_offers": false, "name": "Kds Cafe Inc", "longitude": -84.721382, "has_menu": false, "awards": null, "user_review_count": 0}, {"business_operation_status": 1, "rating": null, "neighborhood": null, "image": null, "scorecard": null, "featured": false, "sample_categories": "Ice Cream Parlors", "public_id": "smyrna-old-fashioned-ice-cream-smyrna", "id": 829274170, "votes": null, "tagline": null, "has_video": false, "website": null, "offers": null, "latitude": 33.8824, "politanName": "Atlanta, GA Metro ", "phone_number": "7704345560", "tags": [{"primary": true, "id": 1730, "name": "Ice Cream Parlors"}], "fax_number": null, "expansion": {"count": null, "uri": null}, "impression_id": "000b000000f0c85919652c41d4a4d11a0555ce0fc7", "profile": "http://www.citysearch.com/profile/829274170/smyrna_ga/smyrna_old_fashioned_ice_cream.html", "address": {"city": "Smyrna", "state": "GA", "street": "885 Flagler Cir SE", "postal_code": "30080"}, "capProviderId": null, "distance": null, "has_offers": false, "name": "Smyrna Old Fashioned Ice Cream", "longitude": -84.527884, "has_menu": false, "awards": null, "user_review_count": 0}, {"business_operation_status": 1, "rating": null, "neighborhood": null, "image": null, "scorecard": null, "featured": false, "sample_categories": "Restaurants", "public_id": "brikishani-enterprises-llc-marietta", "id": 732135290, "votes": null, "tagline": null, "has_video": false, "website": null, "offers": null, "latitude": 33.875537, "politanName": "Atlanta, GA Metro ", "phone_number": "6787990175", "tags": [{"primary": true, "id": 1722, "name": "Restaurants"}], "fax_number": null, "expansion": {"count": null, "uri": null}, "impression_id": "000b00000069dba9db8c694784a51dcd6c92ad5e2e", "profile": "http://www.citysearch.com/profile/732135290/marietta_ga/brikishani_enterprises_llc.html", "address": {"city": "Marietta", "state": "GA", "street": "1727 Silverchase Dr SW", "postal_code": "30008"}, "capProviderId": null, "distance": null, "has_offers": false, "name": "Brikishani Enterprises LLC", "longitude": -84.605105, "has_menu": false, "awards": null, "user_review_count": 0}, {"business_operation_status": 1, "rating": null, "neighborhood": null, "image": null, "scorecard": null, "featured": false, "sample_categories": "Restaurants", "public_id": "pegasus-foods-inc-powder", "id": 732186320, "votes": null, "tagline": null, "has_video": false, "website": null, "offers": null, "latitude": 33.906794, "politanName": "Atlanta, GA Metro ", "phone_number": "7704391489", "tags": [{"primary": true, "id": 1722, "name": "Restaurants"}], "fax_number": null, "expansion": {"count": null, "uri": null}, "impression_id": "000b000000d16d3cef67ba4d0381ea8c332f8748f0", "profile": "http://www.citysearch.com/profile/732186320/powder_springs_ga/pegasus_foods_inc.html", "address": {"city": "Powder Springs", "state": "GA", "street": "3640 Velma Dr", "postal_code": "30127"}, "capProviderId": null, "distance": null, "has_offers": false, "name": "Pegasus Foods Inc", "longitude": -84.660285, "has_menu": false, "awards": null, "user_review_count": 0}, {"business_operation_status": 1, "rating": null, "neighborhood": null, "image": null, "scorecard": null, "featured": false, "sample_categories": "Restaurants, Ice Cream Parlors", "public_id": "smoothie-express-marietta", "id": 653592070, "votes": null, "tagline": null, "has_video": false, "website": "http://www.citysearch.com/profile/external/653592070/marietta_ga/smoothie_express.html", "offers": null, "latitude": 33.899518, "politanName": "Atlanta, GA Metro ", "phone_number": "7705901900", "tags": [{"primary": false, "id": 1730, "name": "Ice Cream Parlors"}, {"primary": true, "id": 1722, "name": "Restaurants"}], "fax_number": null, "expansion": {"count": null, "uri": null}, "impression_id": "000b0000007a0ec9eae27040e1b4c4e6fc3f409d8f", "profile": "http://www.citysearch.com/profile/653592070/marietta_ga/smoothie_express.html", "address": {"city": "Marietta", "state": "GA", "street": "1812 Powder Springs Rd Sw#1107", "postal_code": "30064"}, "capProviderId": null, "distance": null, "has_offers": false, "name": "Smoothie Express", "longitude": -84.606801, "has_menu": false, "awards": null, "user_review_count": 0}, {"business_operation_status": 1, "rating": null, "neighborhood": "Southwest, Southwest", "image": null, "scorecard": null, "featured": false, "sample_categories": "Seafood Markets, Restaurants, Variety Stores, Seafood", "public_id": "rahims-seafood-variety-str-atlanta", "id": 655816860, "votes": null, "tagline": null, "has_video": false, "website": null, "offers": null, "latitude": 33.696354, "politanName": "Atlanta, GA Metro ", "phone_number": "4043498818", "tags": [{"primary": false, "id": 1722, "name": "Restaurants"}, {"primary": false, "id": 3928, "name": "Variety Stores"}, {"primary": false, "id": 11228, "name": "Seafood"}, {"primary": true, "id": 1719, "name": "Seafood Markets"}], "fax_number": null, "expansion": {"count": null, "uri": null}, "impression_id": "000b000000a81837a3ec3f4db192e2c0e5c2d42762", "profile": "http://www.citysearch.com/profile/655816860/atlanta_ga/rahim_s_seafood_variety_str.html", "address": {"city": "Atlanta", "state": "GA", "street": "4485 Campbellton Rd Sw", "postal_code": "30331"}, "capProviderId": null, "distance": null, "has_offers": false, "name": "Rahim's Seafood & Variety Str", "longitude": -84.534969, "has_menu": false, "awards": null, "user_review_count": 0}, {"business_operation_status": 1, "rating": null, "neighborhood": "Collier Heights, Southwest, Southwest", "image": null, "scorecard": null, "featured": false, "sample_categories": "Restaurants, Chicken", "public_id": "diners-chicken-atlanta", "id": 762719800, "votes": null, "tagline": null, "has_video": false, "website": null, "offers": null, "latitude": 33.785336, "politanName": "Atlanta, GA Metro ", "phone_number": "4047927470", "tags": [{"primary": false, "id": 12839, "name": "Chicken"}, {"primary": true, "id": 1722, "name": "Restaurants"}], "fax_number": null, "expansion": {"count": null, "uri": null}, "impression_id": "000b0000003fdfb351fcdc4969bff2868da27ae21a", "profile": "http://www.citysearch.com/profile/762719800/atlanta_ga/diners_chicken.html", "address": {"city": "Atlanta", "state": "GA", "street": "3160 Donald Lee Hollowell Pkwy", "postal_code": "30318"}, "capProviderId": null, "distance": null, "has_offers": false, "name": "Diners Chicken", "longitude": -84.490336, "has_menu": false, "awards": null, "user_review_count": 0}, {"business_operation_status": 1, "rating": null, "neighborhood": null, "image": null, "scorecard": null, "featured": false, "sample_categories": "Seafood Markets, Restaurants, Cajun & Creole", "public_id": "cajun-crawfish-seafood-marietta", "id": 764847750, "votes": null, "tagline": null, "has_video": false, "website": null, "offers": null, "latitude": 33.894433, "politanName": "Atlanta, GA Metro ", "phone_number": "7703190345", "tags": [{"primary": false, "id": 1722, "name": "Restaurants"}, {"primary": false, "id": 11245, "name": "Cajun & Creole"}, {"primary": true, "id": 1719, "name": "Seafood Markets"}], "fax_number": null, "expansion": {"count": null, "uri": null}, "impression_id": "000b000000e18bc8bc3fc64af79fbab12705dec341", "profile": "http://www.citysearch.com/profile/764847750/marietta_ga/cajun_crawfish_seafood.html", "address": {"city": "Marietta", "state": "GA", "street": "234 Windy Hill Rd SE", "postal_code": "30060"}, "capProviderId": null, "distance": null, "has_offers": false, "name": "Cajun Crawfish & Seafood", "longitude": -84.552798, "has_menu": false, "awards": null, "user_review_count": 0}, {"business_operation_status": 1, "rating": null, "neighborhood": null, "image": null, "scorecard": null, "featured": false, "sample_categories": "Restaurants, Mexican", "public_id": "casa-de-oro-mexican-restaurant-smyrna", "id": 777623800, "votes": null, "tagline": null, "has_video": false, "website": null, "offers": null, "latitude": 33.87498, "politanName": "Atlanta, GA Metro ", "phone_number": "7704360333", "tags": [{"primary": false, "id": 11208, "name": "Mexican"}, {"primary": true, "id": 1722, "name": "Restaurants"}], "fax_number": null, "expansion": {"count": null, "uri": null}, "impression_id": "000b000000e3696b4dd21b4a8d86d799f9f018815d", "profile": "http://www.citysearch.com/profile/777623800/smyrna_ga/casa_de_oro_mexican_restaurant.html", "address": {"city": "Smyrna", "state": "GA", "street": "821 Concord Rd Se", "postal_code": "30080"}, "capProviderId": null, "distance": null, "has_offers": false, "name": "Casa De Oro Mexican Restaurant", "longitude": -84.529694, "has_menu": false, "awards": null, "user_review_count": 0}, {"business_operation_status": 1, "rating": null, "neighborhood": null, "image": null, "scorecard": null, "featured": false, "sample_categories": "Restaurants, Soul", "public_id": "acko-frank-soul-food-ctrng-atlanta", "id": 777731350, "votes": null, "tagline": null, "has_video": false, "website": null, "offers": null, "latitude": 33.768286, "politanName": "Atlanta, GA Metro ", "phone_number": "4046963369", "tags": [{"primary": false, "id": 15140, "name": "Soul"}, {"primary": true, "id": 1722, "name": "Restaurants"}], "fax_number": null, "expansion": {"count": null, "uri": null}, "impression_id": "000b0000001027cdf39a77498eaa03c09450cf0a88", "profile": "http://www.citysearch.com/profile/777731350/atlanta_ga/acko_frank_soul_food_ctrng.html", "address": {"city": "Atlanta", "state": "GA", "street": "4120 Fulton Industrial Blvd Sw", "postal_code": "30336"}, "capProviderId": null, "distance": null, "has_offers": false, "name": "Acko Frank Soul Food & Ctrng", "longitude": -84.521534, "has_menu": false, "awards": null, "user_review_count": 0}, {"business_operation_status": 1, "rating": null, "neighborhood": null, "image": null, "scorecard": null, "featured": false, "sample_categories": "Restaurants", "public_id": "rahims-seafood-inc-powder", "id": 806264920, "votes": null, "tagline": null, "has_video": false, "website": null, "offers": null, "latitude": 33.822061, "politanName": "Atlanta, GA Metro ", "phone_number": "7709435544", "tags": [{"primary": true, "id": 1722, "name": "Restaurants"}], "fax_number": null, "expansion": {"count": null, "uri": null}, "impression_id": "000b000000fba1e301059d4cee9172b7a4d405d90e", "profile": "http://www.citysearch.com/profile/806264920/powder_springs_ga/rahim_s_seafood_inc.html", "address": {"city": "Powder Springs", "state": "GA", "street": "4123 Sweetsprings Ter SW", "postal_code": "30127"}, "capProviderId": null, "distance": null, "has_offers": false, "name": "Rahim's Seafood Inc", "longitude": -84.676431, "has_menu": false, "awards": null, "user_review_count": 0}, {"business_operation_status": 1, "rating": null, "neighborhood": null, "image": null, "scorecard": null, "featured": false, "sample_categories": "Restaurants", "public_id": "wan-fu-chinese-austell", "id": 814396930, "votes": null, "tagline": null, "has_video": false, "website": null, "offers": null, "latitude": 33.829858, "politanName": "Atlanta, GA Metro ", "phone_number": "7709486668", "tags": [{"primary": true, "id": 1722, "name": "Restaurants"}], "fax_number": null, "expansion": {"count": null, "uri": null}, "impression_id": "000b0000000f545a51f5df4ae3b1f1d0e38780ec34", "profile": "http://www.citysearch.com/profile/814396930/austell_ga/wan_fu_chinese.html", "address": {"city": "Austell", "state": "GA", "street": "5055 Austell Rd # 153", "postal_code": "30106"}, "capProviderId": null, "distance": null, "has_offers": false, "name": "Wan Fu Chinese", "longitude": -84.612138, "has_menu": false, "awards": null, "user_review_count": 0}, {"business_operation_status": 1, "rating": null, "neighborhood": null, "image": null, "scorecard": null, "featured": false, "sample_categories": "Restaurants", "public_id": "kidz-spot-marietta", "id": 824161410, "votes": null, "tagline": null, "has_video": false, "website": null, "offers": null, "latitude": 33.903812, "politanName": "Atlanta, GA Metro ", "phone_number": "6784494499", "tags": [{"primary": true, "id": 1722, "name": "Restaurants"}], "fax_number": null, "expansion": {"count": null, "uri": null}, "impression_id": "000b00000083847a7215c1485c920154e628cbca59", "profile": "http://www.citysearch.com/profile/824161410/marietta_ga/kidz_spot.html", "address": {"city": "Marietta", "state": "GA", "street": "2930 Maple Springs CT", "postal_code": "30064"}, "capProviderId": null, "distance": null, "has_offers": false, "name": "Kidz Spot", "longitude": -84.638869, "has_menu": false, "awards": null, "user_review_count": 0}, {"business_operation_status": 1, "rating": null, "neighborhood": null, "image": null, "scorecard": null, "featured": false, "sample_categories": "Restaurants", "public_id": "cafe-moms-douglasville", "id": 622212590, "votes": null, "tagline": null, "has_video": false, "website": null, "offers": null, "latitude": 33.78174, "politanName": "Atlanta, GA Metro ", "phone_number": "6784027897", "tags": [{"primary": true, "id": 1722, "name": "Restaurants"}], "fax_number": null, "expansion": {"count": null, "uri": null}, "impression_id": "000b0000004d0564c0aa6843789877677bf613edf0", "profile": "http://www.citysearch.com/profile/622212590/douglasville_ga/cafe_mom_s.html", "address": {"city": "Douglasville", "state": "GA", "street": "4010 Bankhead Hwy", "postal_code": "30134"}, "capProviderId": null, "distance": null, "has_offers": false, "name": "Cafe Mom's", "longitude": -84.702227, "has_menu": false, "awards": null, "user_review_count": 0}, {"business_operation_status": 0, "rating": null, "neighborhood": null, "image": null, "scorecard": null, "featured": false, "sample_categories": "Restaurants", "public_id": "zokas-smyrna", "id": 43845390, "votes": null, "tagline": null, "has_video": false, "website": null, "offers": null, "latitude": 33.890523, "politanName": "Atlanta, GA Metro ", "phone_number": "7704314727", "tags": [{"primary": true, "id": 1722, "name": "Restaurants"}], "fax_number": null, "expansion": {"count": null, "uri": null}, "impression_id": "000b000000e3627b8ef58f4edab538f03f87054ffc", "profile": "http://www.citysearch.com/profile/43845390/smyrna_ga/zoka_s.html", "address": {"city": "Smyrna", "state": "GA", "street": "2506 Atlanta Rd SE Ste O8", "postal_code": "30080"}, "capProviderId": null, "distance": null, "has_offers": false, "name": "Zoka's", "longitude": -84.51736, "has_menu": true, "awards": null, "user_review_count": 0}, {"business_operation_status": 1, "rating": null, "neighborhood": null, "image": null, "scorecard": null, "featured": false, "sample_categories": "Restaurants, Delis And Delicatessens", "public_id": "upstate-sub-house-smyrna", "id": 648920690, "votes": null, "tagline": null, "has_video": false, "website": "http://www.citysearch.com/profile/external/648920690/smyrna_ga/upstate_sub_house.html", "offers": null, "latitude": 33.841827, "politanName": "Atlanta, GA Metro ", "phone_number": "7704369880", "tags": [{"primary": false, "id": 1727, "name": "Delis And Delicatessens"}, {"primary": true, "id": 1722, "name": "Restaurants"}], "fax_number": null, "expansion": {"count": null, "uri": null}, "impression_id": "000b000000ca49cbcfbbe04c878e86ca2c5beccbcc", "profile": "http://www.citysearch.com/profile/648920690/smyrna_ga/upstate_sub_house.html", "address": {"city": "Smyrna", "state": "GA", "street": "4624 Camp Highland Rd SE", "postal_code": "30082"}, "capProviderId": null, "distance": null, "has_offers": false, "name": "Upstate Sub House", "longitude": -84.505595, "has_menu": false, "awards": null, "user_review_count": 0}, {"business_operation_status": 1, "rating": null, "neighborhood": null, "image": null, "scorecard": null, "featured": false, "sample_categories": "Restaurants, Barbecue Restaurants", "public_id": "barbecue-heaven-marietta", "id": 631969010, "votes": null, "tagline": null, "has_video": false, "website": null, "offers": null, "latitude": 33.894508, "politanName": "Atlanta, GA Metro ", "phone_number": "7704344247", "tags": [{"primary": false, "id": 1724, "name": "Barbecue Restaurants"}, {"primary": true, "id": 1722, "name": "Restaurants"}], "fax_number": null, "expansion": {"count": null, "uri": null}, "impression_id": "000b0000009b8763387be04cb88211da2b6764af72", "profile": "http://www.citysearch.com/profile/631969010/marietta_ga/barbecue_heaven.html", "address": {"city": "Marietta", "state": "GA", "street": "186 Windy Hill Rd Sw", "postal_code": "30060"}, "capProviderId": null, "distance": null, "has_offers": false, "name": "Barbecue Heaven", "longitude": -84.555734, "has_menu": false, "awards": null, "user_review_count": 0}, {"business_operation_status": 1, "rating": null, "neighborhood": null, "image": null, "scorecard": null, "featured": false, "sample_categories": "Restaurants", "public_id": "tme-enterprises-i-ltd-lithia-spg", "id": 699265630, "votes": null, "tagline": null, "has_video": false, "website": null, "offers": null, "latitude": 33.778818, "politanName": "Atlanta, GA Metro ", "phone_number": "7707391194", "tags": [{"primary": true, "id": 1722, "name": "Restaurants"}], "fax_number": null, "expansion": {"count": null, "uri": null}, "impression_id": "000b000000ebc60a5ab887452a9c48172af8859bf9", "profile": "http://www.citysearch.com/profile/699265630/lithia_springs_ga/tme_enterprises_i_ltd.html", "address": {"city": "Lithia Springs", "state": "GA", "street": "987 Thornton Rd", "postal_code": "30122"}, "capProviderId": null, "distance": null, "has_offers": false, "name": "Tme Enterprises I LTD", "longitude": -84.60743, "has_menu": false, "awards": null, "user_review_count": 0}, {"business_operation_status": 1, "rating": null, "neighborhood": null, "image": null, "scorecard": null, "featured": false, "sample_categories": "Delis And Delicatessens, Sandwich Shops", "public_id": "threadmill-deli-austell", "id": 695583100, "votes": null, "tagline": null, "has_video": false, "website": null, "offers": null, "latitude": 33.832536, "politanName": "Atlanta, GA Metro ", "phone_number": "7707459100", "tags": [{"primary": false, "id": 1736, "name": "Sandwich Shops"}, {"primary": true, "id": 1727, "name": "Delis And Delicatessens"}], "fax_number": null, "expansion": {"count": null, "uri": null}, "impression_id": "000b000000ef112e87f4274d918722fc41329cad3d", "profile": "http://www.citysearch.com/profile/695583100/austell_ga/threadmill_deli.html", "address": {"city": "Austell", "state": "GA", "street": "5000 Austell Powder Spngs#289", "postal_code": "30106"}, "capProviderId": null, "distance": null, "has_offers": false, "name": "Threadmill Deli", "longitude": -84.654686, "has_menu": false, "awards": null, "user_review_count": 0}, {"business_operation_status": 1, "rating": null, "neighborhood": null, "image": null, "scorecard": null, "featured": false, "sample_categories": "Restaurants, Pizza", "public_id": "johnnys-pizza-austell", "id": 601307782, "votes": null, "tagline": null, "has_video": false, "website": null, "offers": null, "latitude": 33.866983, "politanName": "Atlanta, GA Metro ", "phone_number": "7709439936", "tags": [{"primary": false, "id": 1722, "name": "Restaurants"}, {"primary": true, "id": 11299, "name": "Pizza"}], "fax_number": null, "expansion": {"count": null, "uri": null}, "impression_id": "000b000000c895b91566f04164b872a67e865173a0", "profile": "http://www.citysearch.com/profile/601307782/austell_ga/johnny_s_pizza.html", "address": {"city": "Austell", "state": "GA", "street": "2840 E West Connector # 390", "postal_code": "30106"}, "capProviderId": null, "distance": null, "has_offers": false, "name": "Johnny's Pizza", "longitude": -84.624721, "has_menu": true, "awards": null, "user_review_count": 0}, {"business_operation_status": 1, "rating": null, "neighborhood": null, "image": null, "scorecard": null, "featured": false, "sample_categories": "Restaurants", "public_id": "stellas-neighborhood-grill-austell", "id": 604719582, "votes": null, "tagline": null, "has_video": false, "website": "http://www.citysearch.com/profile/external/604719582/austell_ga/stella_s_neighborhood_grill.html", "offers": null, "latitude": 33.866421, "politanName": "Atlanta, GA Metro ", "phone_number": "7702221331", "tags": [{"primary": true, "id": 1722, "name": "Restaurants"}], "fax_number": null, "expansion": {"count": null, "uri": null}, "impression_id": "000b00000047b373ca4c1844b5b9e8d63521c3371f", "profile": "http://www.citysearch.com/profile/604719582/austell_ga/stella_s_neighborhood_grill.html", "address": {"city": "Austell", "state": "GA", "street": "2810 E West Connector", "postal_code": "30106"}, "capProviderId": null, "distance": null, "has_offers": false, "name": "Stella's Neighborhood Grill", "longitude": -84.625947, "has_menu": false, "awards": null, "user_review_count": 3}, {"business_operation_status": 1, "rating": 6.0, "neighborhood": "Northside, Northside", "image": null, "scorecard": null, "featured": false, "sample_categories": "Restaurants", "public_id": "olympic-flame-restaurant-atlanta", "id": 3011708, "votes": null, "tagline": null, "has_video": false, "website": "http://www.citysearch.com/profile/external/3011708/atlanta_ga/olympic_flame_restaurant.html", "offers": null, "latitude": 33.80216, "politanName": "Atlanta, GA Metro ", "phone_number": "4043514044", "tags": [{"primary": true, "id": 1722, "name": "Restaurants"}], "fax_number": null, "expansion": {"count": null, "uri": null}, "impression_id": "000b00000083c1978c56e0487693f5d5283c2ba279", "profile": "http://www.citysearch.com/profile/3011708/atlanta_ga/olympic_flame_restaurant.html", "address": {"city": "Atlanta", "state": "GA", "street": "1740 Marietta Blvd NW", "postal_code": "30318"}, "capProviderId": null, "distance": null, "has_offers": false, "name": "Olympic Flame Restaurant", "longitude": -84.436541, "has_menu": true, "awards": null, "user_review_count": 2}, {"business_operation_status": 1, "rating": null, "neighborhood": null, "image": null, "scorecard": null, "featured": false, "sample_categories": "Restaurants", "public_id": "sunshine-cuisine-austell", "id": 622256550, "votes": null, "tagline": null, "has_video": false, "website": null, "offers": null, "latitude": 33.798918, "politanName": "Atlanta, GA Metro ", "phone_number": "7709415881", "tags": [{"primary": true, "id": 1722, "name": "Restaurants"}], "fax_number": null, "expansion": {"count": null, "uri": null}, "impression_id": "000b0000001297ca538c214235a763dbe8bd9c37ba", "profile": "http://www.citysearch.com/profile/622256550/austell_ga/sunshine_cuisine.html", "address": {"city": "Austell", "state": "GA", "street": "211 Maxham Rd", "postal_code": "30168"}, "capProviderId": null, "distance": null, "has_offers": false, "name": "Sunshine Cuisine", "longitude": -84.620724, "has_menu": false, "awards": null, "user_review_count": 0}, {"business_operation_status": 1, "rating": null, "neighborhood": "Northside, Northside", "image": null, "scorecard": null, "featured": false, "sample_categories": "Restaurants", "public_id": "somelike-it-hot-atlanta", "id": 3011727, "votes": null, "tagline": null, "has_video": false, "website": null, "offers": null, "latitude": 33.809802, "politanName": "Atlanta, GA Metro ", "phone_number": "4043551616", "tags": [{"primary": true, "id": 1722, "name": "Restaurants"}], "fax_number": null, "expansion": {"count": null, "uri": null}, "impression_id": "000b000000aec10e35d9dd4c7785b8d6be7e98d6c5", "profile": "http://www.citysearch.com/profile/3011727/atlanta_ga/somelike_it_hot.html", "address": {"city": "Atlanta", "state": "GA", "street": "857 Collier Road NW Ste 13", "postal_code": "30318"}, "capProviderId": null, "distance": null, "has_offers": false, "name": "Somelike It Hot", "longitude": -84.416381, "has_menu": false, "awards": null, "user_review_count": 0}, {"business_operation_status": 1, "rating": null, "neighborhood": null, "image": null, "scorecard": null, "featured": false, "sample_categories": "Restaurants, Bars & Clubs, Bars & Pubs, Traditional American, American Express", "public_id": "ciclon-sports-bar-grll-smyrna", "id": 43853277, "votes": null, "tagline": null, "has_video": false, "website": null, "offers": null, "latitude": 33.886772, "politanName": "Atlanta, GA Metro ", "phone_number": "7704318100", "tags": [{"primary": false, "id": 164, "name": "Bars & Clubs"}, {"primary": false, "id": 1686, "name": "Bars & Pubs"}, {"primary": false, "id": 11190, "name": "Traditional American"}, {"primary": false, "id": 11333, "name": "American Express"}, {"primary": false, "id": 11349, "name": "Discover"}, {"primary": false, "id": 11361, "name": "MasterCard"}, {"primary": false, "id": 11382, "name": "Visa"}, {"primary": true, "id": 1722, "name": "Restaurants"}], "fax_number": null, "expansion": {"count": null, "uri": null}, "impression_id": "000b0000003aa586de31ee4b41bd564a46908a3088", "profile": "http://www.citysearch.com/profile/43853277/smyrna_ga/ciclon_sports_bar_grll.html", "address": {"city": "Smyrna", "state": "GA", "street": "2731 S Cobb Dr SE", "postal_code": "30080"}, "capProviderId": null, "distance": null, "has_offers": false, "name": "Ciclon Sports Bar & Grll", "longitude": -84.534827, "has_menu": false, "awards": null, "user_review_count": 0}, {"business_operation_status": 1, "rating": null, "neighborhood": null, "image": null, "scorecard": null, "featured": false, "sample_categories": "Restaurants", "public_id": "bzz-southern-delight-atlanta", "id": 43881357, "votes": null, "tagline": null, "has_video": false, "website": null, "offers": null, "latitude": 33.768286, "politanName": "Atlanta, GA Metro ", "phone_number": "4046963991", "tags": [{"primary": true, "id": 1722, "name": "Restaurants"}], "fax_number": null, "expansion": {"count": null, "uri": null}, "impression_id": "000b00000098aae43760f848de8e0398197f4e8c6b", "profile": "http://www.citysearch.com/profile/43881357/atlanta_ga/b_zz_southern_delight.html", "address": {"city": "Atlanta", "state": "GA", "street": "4120 Fulton Industrial Blvd SW", "postal_code": "30336"}, "capProviderId": null, "distance": null, "has_offers": false, "name": "B'zz Southern Delight", "longitude": -84.521534, "has_menu": false, "awards": null, "user_review_count": 0}, {"business_operation_status": 1, "rating": null, "neighborhood": null, "image": null, "scorecard": null, "featured": false, "sample_categories": "Restaurants, Delis And Delicatessens, Sandwich Shops, Carry Out, MasterCard", "public_id": "quiznos-smyrna-3", "id": 43843494, "votes": null, "tagline": null, "has_video": false, "website": null, "offers": null, "latitude": 33.842593, "politanName": "Atlanta, GA Metro ", "phone_number": "6782131815", "tags": [{"primary": false, "id": 1727, "name": "Delis And Delicatessens"}, {"primary": false, "id": 1736, "name": "Sandwich Shops"}, {"primary": false, "id": 11247, "name": "Carry Out"}, {"primary": false, "id": 11361, "name": "MasterCard"}, {"primary": false, "id": 11382, "name": "Visa"}, {"primary": true, "id": 1722, "name": "Restaurants"}], "fax_number": null, "expansion": {"count": null, "uri": null}, "impression_id": "000b0000006c1b72a6543643d8b6f21a4f6b7f1f97", "profile": "http://www.citysearch.com/profile/43843494/smyrna_ga/quiznos.html", "address": {"city": "Smyrna", "state": "GA", "street": "4585 S Cobb Dr SE", "postal_code": "30080"}, "capProviderId": null, "distance": null, "has_offers": false, "name": "Quiznos", "longitude": -84.498107, "has_menu": true, "awards": null, "user_review_count": 0}, {"business_operation_status": 1, "rating": null, "neighborhood": "Southwest, Southwest", "image": null, "scorecard": null, "featured": false, "sample_categories": "Restaurants, Seafood", "public_id": "ts-fish-more-atlanta", "id": 655891990, "votes": null, "tagline": null, "has_video": false, "website": null, "offers": null, "latitude": 33.698565, "politanName": "Atlanta, GA Metro ", "phone_number": "4043444456", "tags": [{"primary": false, "id": 11228, "name": "Seafood"}, {"primary": true, "id": 1722, "name": "Restaurants"}], "fax_number": null, "expansion": {"count": null, "uri": null}, "impression_id": "000b00000095497e7816b0408aa4b55290d45b1532", "profile": "http://www.citysearch.com/profile/655891990/atlanta_ga/t_s_fish_more.html", "address": {"city": "Atlanta", "state": "GA", "street": "2841 Greenbriar Pkwy Sw #N316a", "postal_code": "30331"}, "capProviderId": null, "distance": null, "has_offers": false, "name": "T's Fish & More", "longitude": -84.543187, "has_menu": false, "awards": null, "user_review_count": 0}], "histograms": [], "tag_ids": [1722], "uri": "http://api.citygridmedia.com:8080/search/places/v2/search/where?has_offers=false&type=restaurant&format=json&page=12&where=30126&rpp=50&histograms=false&publisher=10000009598&region_type=circle", "did_you_mean": "", "regions": [{"latitude": 33.816576999999995, "default_radius": 4.42, "type": "postal_code", "name": "30126", "longitude": -84.550635}], "call_id": "000b000000e53d189633194e80a257622da7375b1e", "first_hit": 551, "total_hits": 893, "geo_ids": [26301], "page": 12, "last_hit": 600}}