{"results": {"rpp": 50, "locations": [{"business_operation_status": 1, "rating": null, "neighborhood": "Northwest, Northwest", "image": null, "scorecard": null, "featured": false, "sample_categories": "Restaurants, Spices", "public_id": "georgia-spice-co-inc-atlanta", "id": 713521050, "votes": null, "tagline": null, "has_video": false, "website": null, "offers": null, "latitude": 33.799035, "politanName": "Atlanta, GA Metro ", "phone_number": "4046966200", "tags": [{"primary": false, "id": 1722, "name": "Restaurants"}, {"primary": true, "id": 11175, "name": "Spices"}], "fax_number": null, "expansion": {"count": null, "uri": null}, "impression_id": "000b000000ce42a0da40984fd0992806258ac9f48c", "profile": "http://www.citysearch.com/profile/713521050/atlanta_ga/georgia_spice_co_inc.html", "address": {"city": "Atlanta", "state": "GA", "street": "3600 Atlanta Industrial Pkwy N", "postal_code": "30331"}, "capProviderId": null, "distance": null, "has_offers": false, "name": "Georgia Spice Co INC", "longitude": -84.497102, "has_menu": false, "awards": null, "user_review_count": 0}, {"business_operation_status": 1, "rating": null, "neighborhood": null, "image": null, "scorecard": null, "featured": false, "sample_categories": "Restaurants, Mexican, American Express, Discover, MasterCard", "public_id": "tortillas-de-casa-atlanta", "id": 33609531, "votes": null, "tagline": null, "has_video": false, "website": "http://www.citysearch.com/profile/external/33609531/atlanta_ga/tortillas_de_casa.html", "offers": null, "latitude": 33.741576, "politanName": "Atlanta, GA Metro ", "phone_number": "4043446355", "tags": [{"primary": false, "id": 11208, "name": "Mexican"}, {"primary": false, "id": 11333, "name": "American Express"}, {"primary": false, "id": 11349, "name": "Discover"}, {"primary": false, "id": 11361, "name": "MasterCard"}, {"primary": false, "id": 11382, "name": "Visa"}, {"primary": true, "id": 1722, "name": "Restaurants"}], "fax_number": null, "expansion": {"count": null, "uri": null}, "impression_id": "000b000000e72cea5589494637844bcd96f8765e76", "profile": "http://www.citysearch.com/profile/33609531/atlanta_ga/tortillas_de_casa.html", "address": {"city": "Atlanta", "state": "GA", "street": "5500 Bucknell Dr SW", "postal_code": "30336"}, "capProviderId": null, "distance": null, "has_offers": false, "name": "Tortillas De Casa", "longitude": -84.572913, "has_menu": false, "awards": null, "user_review_count": 1}, {"business_operation_status": 0, "rating": null, "neighborhood": null, "image": null, "scorecard": null, "featured": false, "sample_categories": "Restaurants, Mexican", "public_id": "pipiolo-mexican-cafe-atlanta", "id": 33614724, "votes": null, "tagline": null, "has_video": false, "website": null, "offers": null, "latitude": 33.740022, "politanName": "Atlanta, GA Metro ", "phone_number": "4043498766", "tags": [{"primary": false, "id": 11208, "name": "Mexican"}, {"primary": true, "id": 1722, "name": "Restaurants"}], "fax_number": null, "expansion": {"count": null, "uri": null}, "impression_id": "000b000000e5a4e104a4c44194a36131de349b9067", "profile": "http://www.citysearch.com/profile/33614724/atlanta_ga/pipiolo_mexican_cafe.html", "address": {"city": "Atlanta", "state": "GA", "street": "5220 Bucknell Dr SW", "postal_code": "30336"}, "capProviderId": null, "distance": null, "has_offers": false, "name": "Pipiolo Mexican Cafe", "longitude": -84.565429, "has_menu": false, "awards": null, "user_review_count": 0}, {"business_operation_status": 1, "rating": null, "neighborhood": null, "image": null, "scorecard": null, "featured": false, "sample_categories": "Restaurants", "public_id": "jimbos-cafe-atlanta", "id": 816043340, "votes": null, "tagline": null, "has_video": false, "website": null, "offers": null, "latitude": 33.740022, "politanName": "Atlanta, GA Metro ", "phone_number": "4043448877", "tags": [{"primary": true, "id": 1722, "name": "Restaurants"}], "fax_number": null, "expansion": {"count": null, "uri": null}, "impression_id": "000b0000003b49395c9fda47e2986280aafd599708", "profile": "http://www.citysearch.com/profile/816043340/atlanta_ga/jimbo_s_cafe.html", "address": {"city": "Atlanta", "state": "GA", "street": "5220 Bucknell Dr SW", "postal_code": "30336"}, "capProviderId": null, "distance": null, "has_offers": false, "name": "Jimbo's Cafe", "longitude": -84.565429, "has_menu": false, "awards": null, "user_review_count": 0}, {"business_operation_status": 1, "rating": null, "neighborhood": null, "image": null, "scorecard": null, "featured": false, "sample_categories": "Restaurants, Coffee & Tea Shops", "public_id": "coffee-pause-co-inc-atlanta", "id": 814720000, "votes": null, "tagline": null, "has_video": false, "website": null, "offers": null, "latitude": 33.758773, "politanName": "Atlanta, GA Metro ", "phone_number": "4046964497", "tags": [{"primary": false, "id": 1722, "name": "Restaurants"}, {"primary": true, "id": 1711, "name": "Coffee & Tea Shops"}], "fax_number": null, "expansion": {"count": null, "uri": null}, "impression_id": "000b0000007ec99f967a8e413596899e59ddb4f269", "profile": "http://www.citysearch.com/profile/814720000/atlanta_ga/coffee_pause_co_inc.html", "address": {"city": "Atlanta", "state": "GA", "street": "110 Selig Dr SW", "postal_code": "30336"}, "capProviderId": null, "distance": null, "has_offers": false, "name": "Coffee Pause Co Inc", "longitude": -84.538748, "has_menu": false, "awards": null, "user_review_count": 0}, {"business_operation_status": 1, "rating": null, "neighborhood": null, "image": null, "scorecard": null, "featured": false, "sample_categories": "Restaurants, Delis And Delicatessens, Sandwich Shops, Carry Out", "public_id": "quiznos-austell", "id": 827661580, "votes": null, "tagline": null, "has_video": false, "website": null, "offers": null, "latitude": 33.860912, "politanName": "Atlanta, GA Metro ", "phone_number": "6783840005", "tags": [{"primary": false, "id": 1727, "name": "Delis And Delicatessens"}, {"primary": false, "id": 1736, "name": "Sandwich Shops"}, {"primary": false, "id": 11247, "name": "Carry Out"}, {"primary": true, "id": 1722, "name": "Restaurants"}], "fax_number": null, "expansion": {"count": null, "uri": null}, "impression_id": "000b0000000013ee6c85284c3fbef40522063f49b4", "profile": "http://www.citysearch.com/profile/827661580/austell_ga/quiznos.html", "address": {"city": "Austell", "state": "GA", "street": "2495 E West Connector # 80", "postal_code": "30106"}, "capProviderId": null, "distance": null, "has_offers": false, "name": "Quiznos", "longitude": -84.620637, "has_menu": false, "awards": null, "user_review_count": 0}, {"business_operation_status": 1, "rating": null, "neighborhood": null, "image": null, "scorecard": null, "featured": false, "sample_categories": "Restaurants", "public_id": "westside-diner-lithia", "id": 823709610, "votes": null, "tagline": null, "has_video": false, "website": null, "offers": null, "latitude": 33.785807, "politanName": "Atlanta, GA Metro ", "phone_number": "6789450070", "tags": [{"primary": true, "id": 1722, "name": "Restaurants"}], "fax_number": null, "expansion": {"count": null, "uri": null}, "impression_id": "000b000000744b8c4a54b840498387d5e567985a9a", "profile": "http://www.citysearch.com/profile/823709610/lithia_springs_ga/westside_diner.html", "address": {"city": "Lithia Springs", "state": "GA", "street": "6945 S Sweetwater Rd", "postal_code": "30122"}, "capProviderId": null, "distance": null, "has_offers": false, "name": "Westside Diner", "longitude": -84.656793, "has_menu": false, "awards": null, "user_review_count": 0}, {"business_operation_status": 1, "rating": null, "neighborhood": null, "image": null, "scorecard": null, "featured": false, "sample_categories": "Restaurants, Pizza", "public_id": "johnnys-new-york-style-pizza-smyrna-5", "id": 824318460, "votes": null, "tagline": null, "has_video": false, "website": null, "offers": null, "latitude": 33.846135, "politanName": "Atlanta, GA Metro ", "phone_number": "7703498191", "tags": [{"primary": false, "id": 1722, "name": "Restaurants"}, {"primary": true, "id": 11299, "name": "Pizza"}], "fax_number": null, "expansion": {"count": null, "uri": null}, "impression_id": "000b000000a745f5fcb9b94e449cee5538f2810c8f", "profile": "http://www.citysearch.com/profile/824318460/smyrna_ga/johnny_s_new_york_style_pizza.html", "address": {"city": "Smyrna", "state": "GA", "street": "4268 Mill Grove Ln SW", "postal_code": "30082"}, "capProviderId": null, "distance": null, "has_offers": false, "name": "Johnny's New York Style Pizza", "longitude": -84.563226, "has_menu": false, "awards": null, "user_review_count": 0}, {"business_operation_status": 1, "rating": null, "neighborhood": null, "image": null, "scorecard": null, "featured": false, "sample_categories": "Delis And Delicatessens", "public_id": "beyahs-mobile-deli-smyrna", "id": 824638410, "votes": null, "tagline": null, "has_video": false, "website": null, "offers": null, "latitude": 33.869932, "politanName": "Atlanta, GA Metro ", "phone_number": "7704378084", "tags": [{"primary": true, "id": 1727, "name": "Delis And Delicatessens"}], "fax_number": null, "expansion": {"count": null, "uri": null}, "impression_id": "000b0000006be468e019f64413affeb020bbafafbd", "profile": "http://www.citysearch.com/profile/824638410/smyrna_ga/beyahs_mobile_deli.html", "address": {"city": "Smyrna", "state": "GA", "street": "156 Hurt Rd SW", "postal_code": "30082"}, "capProviderId": null, "distance": null, "has_offers": false, "name": "Beyahs Mobile Deli", "longitude": -84.557188, "has_menu": false, "awards": null, "user_review_count": 0}, {"business_operation_status": 1, "rating": null, "neighborhood": null, "image": null, "scorecard": null, "featured": false, "sample_categories": "Coffeehouses, Doughnut Shops", "public_id": "dunkin-donuts-smyrna-6", "id": 773447620, "votes": null, "tagline": null, "has_video": false, "website": "http://www.citysearch.com/profile/external/773447620/smyrna_ga/dunkin_donuts.html", "offers": null, "latitude": 33.830905, "politanName": "Atlanta, GA Metro ", "phone_number": "7704338033", "tags": [{"primary": false, "id": 1726, "name": "Coffeehouses"}, {"primary": true, "id": 1734, "name": "Doughnut Shops"}], "fax_number": null, "expansion": {"count": null, "uri": null}, "impression_id": "000b00000094d89fe6ffe84b328c7d5485f740bb2e", "profile": "http://www.citysearch.com/profile/773447620/smyrna_ga/dunkin_donuts.html", "address": {"city": "Smyrna", "state": "GA", "street": "4928 S Cobb Dr SE", "postal_code": "30080"}, "capProviderId": null, "distance": null, "has_offers": false, "name": "Dunkin' Donuts", "longitude": -84.493221, "has_menu": false, "awards": null, "user_review_count": 0}, {"business_operation_status": 1, "rating": null, "neighborhood": null, "image": null, "scorecard": null, "featured": false, "sample_categories": "Restaurants, Barbecue Restaurants", "public_id": "hurricane-grill-wings-austell", "id": 777739530, "votes": null, "tagline": null, "has_video": false, "website": "http://www.citysearch.com/profile/external/777739530/austell_ga/hurricane_grill_wings.html", "offers": null, "latitude": 33.856949, "politanName": "Atlanta, GA Metro ", "phone_number": "7708011345", "tags": [{"primary": false, "id": 1724, "name": "Barbecue Restaurants"}, {"primary": true, "id": 1722, "name": "Restaurants"}], "fax_number": null, "expansion": {"count": null, "uri": null}, "impression_id": "000b0000003beb7d8d97a540a9a2c8e95db0e82d62", "profile": "http://www.citysearch.com/profile/777739530/austell_ga/hurricane_grill_wings.html", "address": {"city": "Austell", "state": "GA", "street": "3961 Floyd Rd # 100", "postal_code": "30106"}, "capProviderId": null, "distance": null, "has_offers": false, "name": "Hurricane Grill & Wings", "longitude": -84.590442, "has_menu": true, "awards": null, "user_review_count": 0}, {"business_operation_status": 1, "rating": 8.0, "neighborhood": null, "image": null, "scorecard": null, "featured": false, "sample_categories": "Dessert Shops, Traditional American", "public_id": "darlenes-philadelphia-water-austell", "id": 36286186, "votes": null, "tagline": null, "has_video": false, "website": null, "offers": null, "latitude": 33.827117, "politanName": "Atlanta, GA Metro ", "phone_number": "7707397199", "tags": [{"primary": false, "id": 1728, "name": "Dessert Shops"}, {"primary": true, "id": 11190, "name": "Traditional American"}], "fax_number": null, "expansion": {"count": null, "uri": null}, "impression_id": "000b000000476bf2996bbb496caecbd387fc7d63af", "profile": "http://www.citysearch.com/profile/36286186/austell_ga/darlene_s_philadelphia_water.html", "address": {"city": "Austell", "state": "GA", "street": "5220 Austell RdSte C", "postal_code": "30106"}, "capProviderId": null, "distance": null, "has_offers": false, "name": "Darlene's Philadelphia Water", "longitude": -84.61505, "has_menu": false, "awards": null, "user_review_count": 0}, {"business_operation_status": 1, "rating": null, "neighborhood": "Riverside, Northside, Northside", "image": null, "scorecard": null, "featured": false, "sample_categories": "Restaurants, Carry Out", "public_id": "waffle-house-atlanta-32", "id": 621872814, "votes": null, "tagline": null, "has_video": false, "website": "http://www.citysearch.com/profile/external/621872814/atlanta_ga/waffle_house.html", "offers": null, "latitude": 33.81087, "politanName": "Atlanta, GA Metro ", "phone_number": "4047929009", "tags": [{"primary": false, "id": 11247, "name": "Carry Out"}, {"primary": true, "id": 1722, "name": "Restaurants"}], "fax_number": null, "expansion": {"count": null, "uri": null}, "impression_id": "000b000000e38efb078fc341e78a82a47c61d329fa", "profile": "http://www.citysearch.com/profile/621872814/atlanta_ga/waffle_house.html", "address": {"city": "Atlanta", "state": "GA", "street": "2025 Bolton Rd NW", "postal_code": "30318"}, "capProviderId": null, "distance": null, "has_offers": false, "name": "Waffle House", "longitude": -84.476265, "has_menu": false, "awards": null, "user_review_count": 0}, {"business_operation_status": 1, "rating": null, "neighborhood": null, "image": null, "scorecard": null, "featured": false, "sample_categories": "Restaurants", "public_id": "garveys-west-indian-marietta", "id": 672435580, "votes": null, "tagline": null, "has_video": false, "website": null, "offers": null, "latitude": 33.869778, "politanName": "Atlanta, GA Metro ", "phone_number": "6783840766", "tags": [{"primary": true, "id": 1722, "name": "Restaurants"}], "fax_number": null, "expansion": {"count": null, "uri": null}, "impression_id": "000b00000079074416fa624dfcacd323d3266d478f", "profile": "http://www.citysearch.com/profile/672435580/marietta_ga/garvey_s_west_indian.html", "address": {"city": "Marietta", "state": "GA", "street": "2575 Whitehaven dr", "postal_code": "30064"}, "capProviderId": null, "distance": null, "has_offers": false, "name": "Garvey's West Indian", "longitude": -84.629052, "has_menu": false, "awards": null, "user_review_count": 0}, {"business_operation_status": 1, "rating": null, "neighborhood": "Highlands Park", "image": null, "scorecard": null, "featured": false, "sample_categories": "Restaurants", "public_id": "kaysons-grille-smyrna", "id": 673024990, "votes": null, "tagline": null, "has_video": false, "website": null, "offers": null, "latitude": 33.827992, "politanName": "Atlanta, GA Metro ", "phone_number": "6782130238", "tags": [{"primary": true, "id": 1722, "name": "Restaurants"}], "fax_number": null, "expansion": {"count": null, "uri": null}, "impression_id": "000b000000c54878c3745d4362b2be8c7f9cfac489", "profile": "http://www.citysearch.com/profile/673024990/smyrna_ga/kaysons_grille.html", "address": {"city": "Smyrna", "state": "GA", "street": "3100 Highlands Pky SE", "postal_code": "30082"}, "capProviderId": null, "distance": null, "has_offers": false, "name": "Kaysons Grille", "longitude": -84.495565, "has_menu": false, "awards": null, "user_review_count": 0}, {"business_operation_status": 1, "rating": null, "neighborhood": null, "image": null, "scorecard": null, "featured": false, "sample_categories": "Restaurants, Delis And Delicatessens, Sandwich Shops, Carry Out", "public_id": "subway-powder", "id": 713516600, "votes": null, "tagline": null, "has_video": false, "website": "http://www.citysearch.com/profile/external/713516600/powder_springs_ga/subway.html", "offers": null, "latitude": 33.903473, "politanName": "Atlanta, GA Metro ", "phone_number": "7702222710", "tags": [{"primary": false, "id": 1727, "name": "Delis And Delicatessens"}, {"primary": false, "id": 1736, "name": "Sandwich Shops"}, {"primary": false, "id": 11247, "name": "Carry Out"}, {"primary": true, "id": 1722, "name": "Restaurants"}], "fax_number": null, "expansion": {"count": null, "uri": null}, "impression_id": "000b00000042ed0df149224a7fb351b316a0d56411", "profile": "http://www.citysearch.com/profile/713516600/powder_springs_ga/subway.html", "address": {"city": "Powder Springs", "state": "GA", "street": "4150 Macland Rd", "postal_code": "30127"}, "capProviderId": null, "distance": null, "has_offers": false, "name": "SUBWAY", "longitude": -84.67471, "has_menu": true, "awards": null, "user_review_count": 0}, {"business_operation_status": 1, "rating": null, "neighborhood": "Northside, Northside", "image": null, "scorecard": null, "featured": false, "sample_categories": "Seafood Markets, Restaurants, Seafood", "public_id": "off-the-dock-seafood-atlanta", "id": 713580320, "votes": null, "tagline": null, "has_video": false, "website": "http://www.citysearch.com/profile/external/713580320/atlanta_ga/off_the_dock_seafood.html", "offers": null, "latitude": 33.79921, "politanName": "Atlanta, GA Metro ", "phone_number": "4045492576", "tags": [{"primary": false, "id": 1722, "name": "Restaurants"}, {"primary": false, "id": 11228, "name": "Seafood"}, {"primary": true, "id": 1719, "name": "Seafood Markets"}], "fax_number": null, "expansion": {"count": null, "uri": null}, "impression_id": "000b00000078ceb27aa3d04644826882c128da36cb", "profile": "http://www.citysearch.com/profile/713580320/atlanta_ga/off_the_dock_seafood.html", "address": {"city": "Atlanta", "state": "GA", "street": "1500 Southland Cir NW", "postal_code": "30318"}, "capProviderId": null, "distance": null, "has_offers": false, "name": "Off The Dock Seafood", "longitude": -84.432104, "has_menu": false, "awards": null, "user_review_count": 0}, {"business_operation_status": 1, "rating": null, "neighborhood": null, "image": null, "scorecard": null, "featured": false, "sample_categories": "Restaurants", "public_id": "tropicanna-billards-grill-smyrna", "id": 614750544, "votes": null, "tagline": null, "has_video": false, "website": null, "offers": null, "latitude": 33.891092, "politanName": "Atlanta, GA Metro ", "phone_number": "7704320051", "tags": [{"primary": true, "id": 1722, "name": "Restaurants"}], "fax_number": null, "expansion": {"count": null, "uri": null}, "impression_id": "000b000000c2a7e71f752842248c0dc160b2774b1b", "profile": "http://www.citysearch.com/profile/614750544/smyrna_ga/tropicanna_billards_grill.html", "address": {"city": "Smyrna", "state": "GA", "street": "2540 Atlanta Rd SE", "postal_code": "30080"}, "capProviderId": null, "distance": null, "has_offers": false, "name": "Tropicanna Billards & Grill", "longitude": -84.519025, "has_menu": false, "awards": null, "user_review_count": 0}, {"business_operation_status": 1, "rating": null, "neighborhood": null, "image": null, "scorecard": null, "featured": false, "sample_categories": "Restaurants", "public_id": "wings-101-smyrna", "id": 622039784, "votes": null, "tagline": null, "has_video": false, "website": null, "offers": null, "latitude": 33.894038, "politanName": "Atlanta, GA Metro ", "phone_number": "7709891520", "tags": [{"primary": true, "id": 1722, "name": "Restaurants"}], "fax_number": null, "expansion": {"count": null, "uri": null}, "impression_id": "000b0000007705b3f39f6940fc91915041734c6e0b", "profile": "http://www.citysearch.com/profile/622039784/smyrna_ga/wings_101.html", "address": {"city": "Smyrna", "state": "GA", "street": "998 Windy Hill Rd SE", "postal_code": "30080"}, "capProviderId": null, "distance": null, "has_offers": false, "name": "Wings 101", "longitude": -84.524382, "has_menu": false, "awards": null, "user_review_count": 0}, {"business_operation_status": 1, "rating": null, "neighborhood": null, "image": null, "scorecard": null, "featured": false, "sample_categories": "Ice Cream Parlors, Deordorant, Soap, Glue, Air Fresheners", "public_id": "ritas-ice-smyrna", "id": 638835090, "votes": null, "tagline": null, "has_video": false, "website": "http://www.citysearch.com/profile/external/638835090/smyrna_ga/rita_s_ice.html", "offers": null, "latitude": 33.842892, "politanName": "Atlanta, GA Metro ", "phone_number": "7706273225", "tags": [{"primary": false, "id": 23400, "name": "Deordorant"}, {"primary": false, "id": 23410, "name": "Soap"}, {"primary": false, "id": 24950, "name": "Glue"}, {"primary": false, "id": 25880, "name": "Air Fresheners"}, {"primary": true, "id": 1730, "name": "Ice Cream Parlors"}], "fax_number": null, "expansion": {"count": null, "uri": null}, "impression_id": "000b000000ccacf4f721684220b35604609b9c67f4", "profile": "http://www.citysearch.com/profile/638835090/smyrna_ga/rita_s_ice.html", "address": {"city": "Smyrna", "state": "GA", "street": "4500 West Village Pl Se", "postal_code": "30080"}, "capProviderId": null, "distance": null, "has_offers": false, "name": "Rita's Ice", "longitude": -84.490261, "has_menu": false, "awards": null, "user_review_count": 0}, {"business_operation_status": 1, "rating": null, "neighborhood": null, "image": null, "scorecard": null, "featured": false, "sample_categories": "Restaurants, Mexican", "public_id": "el-barco-mexican-restaurant-marietta", "id": 638790530, "votes": null, "tagline": null, "has_video": false, "website": null, "offers": null, "latitude": 33.890372, "politanName": "Atlanta, GA Metro ", "phone_number": "6782906778", "tags": [{"primary": false, "id": 11208, "name": "Mexican"}, {"primary": true, "id": 1722, "name": "Restaurants"}], "fax_number": null, "expansion": {"count": null, "uri": null}, "impression_id": "000b000000587313b1651844a8a23975d5ccbd36a6", "profile": "http://www.citysearch.com/profile/638790530/marietta_ga/el_barco_mexican_restaurant.html", "address": {"city": "Marietta", "state": "GA", "street": "2586 Thorns Hill Pl Sw", "postal_code": "30064"}, "capProviderId": null, "distance": null, "has_offers": false, "name": "El Barco Mexican Restaurant", "longitude": -84.630827, "has_menu": false, "awards": null, "user_review_count": 0}, {"business_operation_status": 1, "rating": null, "neighborhood": null, "image": null, "scorecard": null, "featured": false, "sample_categories": "Delis And Delicatessens", "public_id": "holy-smokes-powder", "id": 713521490, "votes": null, "tagline": null, "has_video": false, "website": null, "offers": null, "latitude": 33.861418, "politanName": "Atlanta, GA Metro ", "phone_number": "7709122104", "tags": [{"primary": true, "id": 1727, "name": "Delis And Delicatessens"}], "fax_number": null, "expansion": {"count": null, "uri": null}, "impression_id": "000b00000089daf6b39fd94b5ba0dab281246c7e20", "profile": "http://www.citysearch.com/profile/713521490/powder_springs_ga/holy_smokes.html", "address": {"city": "Powder Springs", "state": "GA", "street": "2991 Powder Springs Rd", "postal_code": "30127"}, "capProviderId": null, "distance": null, "has_offers": false, "name": "Holy Smokes", "longitude": -84.642139, "has_menu": false, "awards": null, "user_review_count": 0}, {"business_operation_status": 1, "rating": null, "neighborhood": null, "image": null, "scorecard": null, "featured": false, "sample_categories": "Restaurants", "public_id": "great-wall-of-china-inc-austell", "id": 613940844, "votes": null, "tagline": null, "has_video": false, "website": null, "offers": null, "latitude": 33.798694, "politanName": "Atlanta, GA Metro ", "phone_number": "7709487181", "tags": [{"primary": true, "id": 1722, "name": "Restaurants"}], "fax_number": null, "expansion": {"count": null, "uri": null}, "impression_id": "000b000000ac0adf670ff84c729fa07ce9f22cb7af", "profile": "http://www.citysearch.com/profile/613940844/austell_ga/great_wall_of_china_inc.html", "address": {"city": "Austell", "state": "GA", "street": "3018 Bankhead Hwy", "postal_code": "30168"}, "capProviderId": null, "distance": null, "has_offers": false, "name": "Great Wall Of China Inc", "longitude": -84.641691, "has_menu": false, "awards": null, "user_review_count": 0}, {"business_operation_status": 1, "rating": null, "neighborhood": null, "image": null, "scorecard": null, "featured": false, "sample_categories": "Restaurants", "public_id": "great-wall-chinese-restaurant-austell", "id": 839408800, "votes": null, "tagline": null, "has_video": false, "website": null, "offers": null, "latitude": 33.805931, "politanName": "Atlanta, GA Metro ", "phone_number": "7709487181", "tags": [{"primary": true, "id": 1722, "name": "Restaurants"}], "fax_number": null, "expansion": {"count": null, "uri": null}, "impression_id": "000b000000ec2665f328ab422c89b3bf3254f3ae3f", "profile": "http://www.citysearch.com/profile/839408800/austell_ga/great_wall_chinese_restaurant.html", "address": {"city": "Austell", "state": "GA", "street": "3018 Veterans Memorial Hwy SW", "postal_code": "30168"}, "capProviderId": null, "distance": null, "has_offers": false, "name": "Great Wall Chinese Restaurant", "longitude": -84.636554, "has_menu": false, "awards": null, "user_review_count": 0}, {"business_operation_status": 0, "rating": null, "neighborhood": "Northside, Northside", "image": null, "scorecard": null, "featured": false, "sample_categories": "Restaurants", "public_id": "peppers-restaurant-atlanta", "id": 33614686, "votes": null, "tagline": null, "has_video": false, "website": null, "offers": null, "latitude": 33.819953, "politanName": "Atlanta, GA Metro ", "phone_number": "4043520770", "tags": [{"primary": true, "id": 1722, "name": "Restaurants"}], "fax_number": null, "expansion": {"count": null, "uri": null}, "impression_id": "000b0000000f7a318974774f48a1af0daa59b9d394", "profile": "http://www.citysearch.com/profile/33614686/atlanta_ga/peppers_restaurant.html", "address": {"city": "Atlanta", "state": "GA", "street": "2611 Bolton Rd NW", "postal_code": "30318"}, "capProviderId": null, "distance": null, "has_offers": false, "name": "Peppers Restaurant", "longitude": -84.449421, "has_menu": true, "awards": null, "user_review_count": 0}, {"business_operation_status": 1, "rating": 4.0, "neighborhood": null, "image": null, "scorecard": null, "featured": false, "sample_categories": "Restaurants, Carry Out, Hamburgers", "public_id": "johnny-rockets-austell", "id": 43864989, "votes": null, "tagline": null, "has_video": false, "website": "http://www.citysearch.com/profile/external/43864989/austell_ga/johnny_rockets.html", "offers": null, "latitude": 33.768338, "politanName": "Atlanta, GA Metro ", "phone_number": "7709489290", "tags": [{"primary": false, "id": 11247, "name": "Carry Out"}, {"primary": false, "id": 11270, "name": "Hamburgers"}, {"primary": true, "id": 1722, "name": "Restaurants"}], "fax_number": null, "expansion": {"count": null, "uri": null}, "impression_id": "000b000000c715dbbaff714fd482b5569866c64687", "profile": "http://www.citysearch.com/profile/43864989/austell_ga/johnny_rockets.html", "address": {"city": "Austell", "state": "GA", "street": "275 Riverside Pkwy", "postal_code": "30168"}, "capProviderId": null, "distance": null, "has_offers": false, "name": "Johnny Rockets", "longitude": -84.557799, "has_menu": true, "awards": null, "user_review_count": 0}, {"business_operation_status": 1, "rating": null, "neighborhood": "Northside, Northside", "image": null, "scorecard": null, "featured": false, "sample_categories": "Restaurants", "public_id": "khima-atlanta", "id": 672957830, "votes": null, "tagline": null, "has_video": false, "website": null, "offers": null, "latitude": 33.807938, "politanName": "Atlanta, GA Metro ", "phone_number": "4046099666", "tags": [{"primary": true, "id": 1722, "name": "Restaurants"}], "fax_number": null, "expansion": {"count": null, "uri": null}, "impression_id": "000b000000480b9aed30274ccdb4ca7fdb898e8424", "profile": "http://www.citysearch.com/profile/672957830/atlanta_ga/khima.html", "address": {"city": "Atlanta", "state": "GA", "street": "1954 Howell Mill Rd", "postal_code": "30318"}, "capProviderId": null, "distance": null, "has_offers": false, "name": "Khima", "longitude": -84.412689, "has_menu": false, "awards": null, "user_review_count": 0}, {"business_operation_status": 1, "rating": null, "neighborhood": null, "image": null, "scorecard": null, "featured": false, "sample_categories": "Restaurants", "public_id": "ksun-llc-powder", "id": 768794220, "votes": null, "tagline": null, "has_video": false, "website": null, "offers": null, "latitude": 33.866955, "politanName": "Atlanta, GA Metro ", "phone_number": "7709439399", "tags": [{"primary": true, "id": 1722, "name": "Restaurants"}], "fax_number": null, "expansion": {"count": null, "uri": null}, "impression_id": "000b000000d7ee480958f14e8983618524ce393ffc", "profile": "http://www.citysearch.com/profile/768794220/powder_springs_ga/ksun_llc.html", "address": {"city": "Powder Springs", "state": "GA", "street": "2860 East-West Connector SW", "postal_code": "30127"}, "capProviderId": null, "distance": null, "has_offers": false, "name": "Ksun Llc", "longitude": -84.626974, "has_menu": false, "awards": null, "user_review_count": 0}, {"business_operation_status": 0, "rating": null, "neighborhood": null, "image": null, "scorecard": null, "featured": false, "sample_categories": "Restaurants", "public_id": "feeder-of-flocks-rib-chips-marietta", "id": 801084460, "votes": null, "tagline": null, "has_video": false, "website": null, "offers": null, "latitude": 33.880532, "politanName": "Atlanta, GA Metro ", "phone_number": "4046689810", "tags": [{"primary": true, "id": 1722, "name": "Restaurants"}], "fax_number": null, "expansion": {"count": null, "uri": null}, "impression_id": "000b0000007f135bc54c84432cb7091413d4f64467", "profile": "http://www.citysearch.com/profile/801084460/marietta_ga/feeder_of_flocks_rib_chips.html", "address": {"city": "Marietta", "state": "GA", "street": "901 Milford Church Rd Sw # G", "postal_code": "30060"}, "capProviderId": null, "distance": null, "has_offers": false, "name": "Feeder of Flocks Rib & Chips", "longitude": -84.580368, "has_menu": false, "awards": null, "user_review_count": 0}, {"business_operation_status": 1, "rating": null, "neighborhood": null, "image": null, "scorecard": null, "featured": false, "sample_categories": "Restaurants, Fast Food, Carry Out, Hamburgers, American Express", "public_id": "mc-donalds-lithia-spgs", "id": 39888447, "votes": null, "tagline": null, "has_video": false, "website": "http://www.citysearch.com/profile/external/39888447/lithia_springs_ga/mc_donald_s.html", "offers": null, "latitude": 33.773654, "politanName": "Atlanta, GA Metro ", "phone_number": "7707399572", "tags": [{"primary": false, "id": 11199, "name": "Fast Food"}, {"primary": false, "id": 11247, "name": "Carry Out"}, {"primary": false, "id": 11270, "name": "Hamburgers"}, {"primary": false, "id": 11333, "name": "American Express"}, {"primary": false, "id": 11349, "name": "Discover"}, {"primary": false, "id": 11361, "name": "MasterCard"}, {"primary": false, "id": 11382, "name": "Visa"}, {"primary": true, "id": 1722, "name": "Restaurants"}], "fax_number": null, "expansion": {"count": null, "uri": null}, "impression_id": "000b0000000ad70fabca5f41919bce3facd4336b56", "profile": "http://www.citysearch.com/profile/39888447/lithia_springs_ga/mc_donald_s.html", "address": {"city": "Lithia Springs", "state": "GA", "street": "1100 Thornton Rd", "postal_code": "30122"}, "capProviderId": null, "distance": null, "has_offers": false, "name": "Mc Donald's", "longitude": -84.602752, "has_menu": true, "awards": null, "user_review_count": 0}, {"business_operation_status": 1, "rating": null, "neighborhood": "Southwest, Southwest", "image": null, "scorecard": null, "featured": false, "sample_categories": "Restaurants", "public_id": "atlanta-checkers-rallys-atlanta", "id": 825245560, "votes": null, "tagline": null, "has_video": false, "website": null, "offers": null, "latitude": 33.698565, "politanName": "Atlanta, GA Metro ", "phone_number": "4046964626", "tags": [{"primary": true, "id": 1722, "name": "Restaurants"}], "fax_number": null, "expansion": {"count": null, "uri": null}, "impression_id": "000b0000008b684e7383084d629a8367d0bd689781", "profile": "http://www.citysearch.com/profile/825245560/atlanta_ga/atlanta_checkers_rallys.html", "address": {"city": "Atlanta", "state": "GA", "street": "3566 M L King Jr Dr SW", "postal_code": "30331"}, "capProviderId": null, "distance": null, "has_offers": false, "name": "Atlanta Checkers Rallys", "longitude": -84.543187, "has_menu": false, "awards": null, "user_review_count": 0}, {"business_operation_status": 1, "rating": null, "neighborhood": null, "image": null, "scorecard": null, "featured": false, "sample_categories": "Restaurants, Barbecue Restaurants", "public_id": "barbeque-bills-smyrna", "id": 825550660, "votes": null, "tagline": null, "has_video": false, "website": null, "offers": null, "latitude": 33.877641, "politanName": "Atlanta, GA Metro ", "phone_number": "7703841227", "tags": [{"primary": false, "id": 1724, "name": "Barbecue Restaurants"}, {"primary": true, "id": 1722, "name": "Restaurants"}], "fax_number": null, "expansion": {"count": null, "uri": null}, "impression_id": "000b000000cebf3ac1a7804b5da26d23d744b075f5", "profile": "http://www.citysearch.com/profile/825550660/smyrna_ga/barbeque_bill_s.html", "address": {"city": "Smyrna", "state": "GA", "street": "3120 S Cobb Dr SE", "postal_code": "30080"}, "capProviderId": null, "distance": null, "has_offers": false, "name": "Barbeque Bill's", "longitude": -84.532789, "has_menu": false, "awards": null, "user_review_count": 0}, {"business_operation_status": 1, "rating": null, "neighborhood": null, "image": null, "scorecard": null, "featured": false, "sample_categories": "Restaurants, Pizza, Carry Out", "public_id": "mellow-mushroom-atlanta-14", "id": 607710224, "votes": null, "tagline": null, "has_video": false, "website": "http://www.citysearch.com/profile/external/607710224/atlanta_ga/mellow_mushroom.html", "offers": null, "latitude": 33.748947, "politanName": "Atlanta, GA Metro ", "phone_number": "6785398990", "tags": [{"primary": false, "id": 1722, "name": "Restaurants"}, {"primary": false, "id": 11247, "name": "Carry Out"}, {"primary": true, "id": 11299, "name": "Pizza"}], "fax_number": null, "expansion": {"count": null, "uri": null}, "impression_id": "000b0000007f2736a723364415845f2e22d1f341dc", "profile": "http://www.citysearch.com/profile/607710224/atlanta_ga/mellow_mushroom.html", "address": {"city": "Atlanta", "state": "GA", "street": "Fulton Industurial", "postal_code": "30336"}, "capProviderId": null, "distance": null, "has_offers": false, "name": "Mellow Mushroom", "longitude": -84.548428, "has_menu": false, "awards": null, "user_review_count": 0}, {"business_operation_status": 1, "rating": null, "neighborhood": null, "image": null, "scorecard": null, "featured": false, "sample_categories": "Restaurants, Catering, Gourmet Foods", "public_id": "masani-gourmet-southern-c-marietta", "id": 682266220, "votes": null, "tagline": null, "has_video": false, "website": "http://www.citysearch.com/profile/external/682266220/marietta_ga/masani_gourmet_southern_c.html", "offers": null, "latitude": 33.886828, "politanName": "Atlanta, GA Metro ", "phone_number": "6785982121", "tags": [{"primary": false, "id": 1705, "name": "Catering"}, {"primary": false, "id": 11169, "name": "Gourmet Foods"}, {"primary": true, "id": 1722, "name": "Restaurants"}], "fax_number": null, "expansion": {"count": null, "uri": null}, "impression_id": "000b0000009bb7fed473024fc181db5617d6543b84", "profile": "http://www.citysearch.com/profile/682266220/marietta_ga/masani_gourmet_southern_c.html", "address": {"city": "Marietta", "state": "GA", "street": "246 Timber Creek Ln Sw", "postal_code": "30060"}, "capProviderId": null, "distance": null, "has_offers": false, "name": "Masani Gourmet Southern C", "longitude": -84.557713, "has_menu": false, "awards": null, "user_review_count": 0}, {"business_operation_status": 1, "rating": null, "neighborhood": null, "image": null, "scorecard": null, "featured": false, "sample_categories": "Delis And Delicatessens, Restaurants, Fast Food", "public_id": "best-wings-deli-douglasville", "id": 682618300, "votes": null, "tagline": null, "has_video": false, "website": null, "offers": null, "latitude": 33.747372, "politanName": "Atlanta, GA Metro ", "phone_number": "7709477880", "tags": [{"primary": false, "id": 1722, "name": "Restaurants"}, {"primary": false, "id": 11199, "name": "Fast Food"}, {"primary": true, "id": 1727, "name": "Delis And Delicatessens"}], "fax_number": null, "expansion": {"count": null, "uri": null}, "impression_id": "000b000000569ca007d9f34260a7cf0d9605ab86a1", "profile": "http://www.citysearch.com/profile/682618300/douglasville_ga/city_s_best_wings_and_deli.html", "address": {"city": "Douglasville", "state": "GA", "street": "2134 Fairburn Rd", "postal_code": "30135"}, "capProviderId": null, "distance": null, "has_offers": false, "name": "City's Best Wings and Deli", "longitude": -84.699929, "has_menu": false, "awards": null, "user_review_count": 0}, {"business_operation_status": 1, "rating": null, "neighborhood": null, "image": null, "scorecard": null, "featured": false, "sample_categories": "Restaurants, Traditional American, Carry Out, American Express, Discover", "public_id": "golden-corral-buffet-grill-marietta", "id": 682491030, "votes": null, "tagline": null, "has_video": false, "website": "http://www.citysearch.com/profile/external/682491030/marietta_ga/golden_corral_buffet_grill.html", "offers": null, "latitude": 33.858906, "politanName": "Atlanta, GA Metro ", "phone_number": "7707328014", "tags": [{"primary": false, "id": 11190, "name": "Traditional American"}, {"primary": false, "id": 11247, "name": "Carry Out"}, {"primary": false, "id": 11333, "name": "American Express"}, {"primary": false, "id": 11349, "name": "Discover"}, {"primary": false, "id": 11361, "name": "MasterCard"}, {"primary": false, "id": 11382, "name": "Visa"}, {"primary": true, "id": 1722, "name": "Restaurants"}], "fax_number": null, "expansion": {"count": null, "uri": null}, "impression_id": "000b0000007a99c45329294c79b30d8fbe419a750d", "profile": "http://www.citysearch.com/profile/682491030/marietta_ga/golden_corral_buffet_grill.html", "address": {"city": "Marietta", "state": "GA", "street": "3845 Austell Rd Sw", "postal_code": "30008"}, "capProviderId": null, "distance": null, "has_offers": false, "name": "Golden Corral Buffet & Grill", "longitude": -84.598385, "has_menu": false, "awards": null, "user_review_count": 0}, {"business_operation_status": 1, "rating": null, "neighborhood": null, "image": null, "scorecard": null, "featured": false, "sample_categories": "Ice Cream Parlors", "public_id": "slush-puppie-of-atlanta-atlanta", "id": 612214754, "votes": null, "tagline": null, "has_video": false, "website": null, "offers": null, "latitude": 33.836397, "politanName": "Atlanta, GA Metro ", "phone_number": "4047924330", "tags": [{"primary": true, "id": 1730, "name": "Ice Cream Parlors"}], "fax_number": null, "expansion": {"count": null, "uri": null}, "impression_id": "000b0000005b0c7c40eb0446e8ab447216abdc3cd8", "profile": "http://www.citysearch.com/profile/612214754/atlanta_ga/slush_puppie_of_atlanta.html", "address": {"city": "Atlanta", "state": "GA", "street": "4820 N Church Ln SE", "postal_code": "30339"}, "capProviderId": null, "distance": null, "has_offers": false, "name": "Slush Puppie Of Atlanta", "longitude": -84.482929, "has_menu": false, "awards": null, "user_review_count": 0}, {"business_operation_status": 1, "rating": null, "neighborhood": "Northside, Northside", "image": null, "scorecard": null, "featured": false, "sample_categories": "Restaurants", "public_id": "good-eats-restaurants-atlanta", "id": 820069120, "votes": null, "tagline": null, "has_video": false, "website": null, "offers": null, "latitude": 33.811491, "politanName": "Atlanta, GA Metro ", "phone_number": "4043520008", "tags": [{"primary": true, "id": 1722, "name": "Restaurants"}], "fax_number": null, "expansion": {"count": null, "uri": null}, "impression_id": "000b000000e98a831cab7447d78e39be3071e04dc7", "profile": "http://www.citysearch.com/profile/820069120/atlanta_ga/good_eats_restaurants.html", "address": {"city": "Atlanta", "state": "GA", "street": "1341 Collier Rd NW", "postal_code": "30318"}, "capProviderId": null, "distance": null, "has_offers": false, "name": "Good Eats Restaurants", "longitude": -84.431673, "has_menu": true, "awards": null, "user_review_count": 0}, {"business_operation_status": 1, "rating": null, "neighborhood": "Southwest, Southwest", "image": null, "scorecard": null, "featured": false, "sample_categories": "Restaurants", "public_id": "raging-cajun-atlanta", "id": 820900360, "votes": null, "tagline": null, "has_video": false, "website": null, "offers": null, "latitude": 33.698565, "politanName": "Atlanta, GA Metro ", "phone_number": "4042862833", "tags": [{"primary": true, "id": 1722, "name": "Restaurants"}], "fax_number": null, "expansion": {"count": null, "uri": null}, "impression_id": "000b000000c66a9b4eb8a84ca6baa889571a42bd60", "profile": "http://www.citysearch.com/profile/820900360/atlanta_ga/raging_cajun.html", "address": {"city": "Atlanta", "state": "GA", "street": "3554 M L King Jr Dr SW", "postal_code": "30331"}, "capProviderId": null, "distance": null, "has_offers": false, "name": "Raging Cajun", "longitude": -84.543187, "has_menu": false, "awards": null, "user_review_count": 0}, {"business_operation_status": 1, "rating": null, "neighborhood": null, "image": null, "scorecard": null, "featured": false, "sample_categories": "Restaurants", "public_id": "el-barco-mexican-restaurant-marietta-3", "id": 822028770, "votes": null, "tagline": null, "has_video": false, "website": null, "offers": null, "latitude": 33.883313, "politanName": "Atlanta, GA Metro ", "phone_number": "6783555007", "tags": [{"primary": true, "id": 1722, "name": "Restaurants"}], "fax_number": null, "expansion": {"count": null, "uri": null}, "impression_id": "000b000000ab4e573efc37419d8a2374c40d9b3cfa", "profile": "http://www.citysearch.com/profile/822028770/marietta_ga/el_barco_mexican_restaurant.html", "address": {"city": "Marietta", "state": "GA", "street": "2200 Powder Springs Rd SW #100", "postal_code": "30064"}, "capProviderId": null, "distance": null, "has_offers": false, "name": "El Barco Mexican Restaurant", "longitude": -84.620092, "has_menu": false, "awards": null, "user_review_count": 0}, {"business_operation_status": 1, "rating": null, "neighborhood": null, "image": null, "scorecard": null, "featured": false, "sample_categories": "Delis And Delicatessens", "public_id": "deli-express-lithia", "id": 742225870, "votes": null, "tagline": null, "has_video": false, "website": null, "offers": null, "latitude": 33.761023, "politanName": "Atlanta, GA Metro ", "phone_number": "4043842309", "tags": [{"primary": true, "id": 1727, "name": "Delis And Delicatessens"}], "fax_number": null, "expansion": {"count": null, "uri": null}, "impression_id": "000b0000003a38d83713f3418692c3df9d9fa24746", "profile": "http://www.citysearch.com/profile/742225870/lithia_springs_ga/deli_express.html", "address": {"city": "Lithia Springs", "state": "GA", "street": "8003 Wrightwood Way", "postal_code": "30122"}, "capProviderId": null, "distance": null, "has_offers": false, "name": "Deli Express", "longitude": -84.657278, "has_menu": false, "awards": null, "user_review_count": 0}, {"business_operation_status": 1, "rating": null, "neighborhood": "Northside, Northside", "image": null, "scorecard": null, "featured": false, "sample_categories": "Restaurants, Traditional American", "public_id": "wingnuts-atlanta-2", "id": 793381620, "votes": null, "tagline": null, "has_video": false, "website": "http://www.citysearch.com/profile/external/793381620/atlanta_ga/wingnuts.html", "offers": null, "latitude": 33.794633, "politanName": "Atlanta, GA Metro ", "phone_number": "6787029990", "tags": [{"primary": false, "id": 11190, "name": "Traditional American"}, {"primary": true, "id": 1722, "name": "Restaurants"}], "fax_number": null, "expansion": {"count": null, "uri": null}, "impression_id": "000b0000000e1f6a33232f459189af270f58f27bdb", "profile": "http://www.citysearch.com/profile/793381620/atlanta_ga/wingnuts.html", "address": {"city": "Atlanta", "state": "GA", "street": "768 Naric St", "postal_code": "30318"}, "capProviderId": null, "distance": null, "has_offers": false, "name": "Wingnuts", "longitude": -84.448772, "has_menu": false, "awards": null, "user_review_count": 0}, {"business_operation_status": 1, "rating": null, "neighborhood": null, "image": null, "scorecard": null, "featured": false, "sample_categories": "Restaurants", "public_id": "grain-works-smyrna", "id": 815926420, "votes": null, "tagline": null, "has_video": false, "website": null, "offers": null, "latitude": 33.844924, "politanName": "Atlanta, GA Metro ", "phone_number": "6785030710", "tags": [{"primary": true, "id": 1722, "name": "Restaurants"}], "fax_number": null, "expansion": {"count": null, "uri": null}, "impression_id": "000b000000296d6cca77f040479ccde09c756edb7a", "profile": "http://www.citysearch.com/profile/815926420/smyrna_ga/grain_works.html", "address": {"city": "Smyrna", "state": "GA", "street": "1270 Winchester Pkwy SE # 219", "postal_code": "30080"}, "capProviderId": null, "distance": null, "has_offers": false, "name": "Grain Works", "longitude": -84.489021, "has_menu": false, "awards": null, "user_review_count": 0}, {"business_operation_status": 1, "rating": null, "neighborhood": null, "image": null, "scorecard": null, "featured": false, "sample_categories": "Coffeehouses", "public_id": "gold-cup-coffee-service-inc-smyrna", "id": 817382800, "votes": null, "tagline": null, "has_video": false, "website": null, "offers": null, "latitude": 33.897454, "politanName": "Atlanta, GA Metro ", "phone_number": "7703199067", "tags": [{"primary": true, "id": 1726, "name": "Coffeehouses"}], "fax_number": null, "expansion": {"count": null, "uri": null}, "impression_id": "000b000000c7eaacd5ba744434b3d5b5d9fe5e39af", "profile": "http://www.citysearch.com/profile/817382800/smyrna_ga/gold_cup_coffee_service_inc.html", "address": {"city": "Smyrna", "state": "GA", "street": "2301 Benson Poole Rd SE", "postal_code": "30082"}, "capProviderId": null, "distance": null, "has_offers": false, "name": "Gold Cup Coffee Service Inc", "longitude": -84.541681, "has_menu": false, "awards": null, "user_review_count": 0}, {"business_operation_status": 1, "rating": null, "neighborhood": null, "image": null, "scorecard": null, "featured": false, "sample_categories": "Restaurants", "public_id": "village-cafe-gourmet-smyrna", "id": 614556564, "votes": null, "tagline": null, "has_video": false, "website": null, "offers": null, "latitude": 33.869097, "politanName": "Atlanta, GA Metro ", "phone_number": "7704319620", "tags": [{"primary": true, "id": 1722, "name": "Restaurants"}], "fax_number": null, "expansion": {"count": null, "uri": null}, "impression_id": "000b00000016317175c4d740b69a692373e5ac7525", "profile": "http://www.citysearch.com/profile/614556564/smyrna_ga/village_cafe_gourmet.html", "address": {"city": "Smyrna", "state": "GA", "street": "1265 W Spring St SE", "postal_code": "30080"}, "capProviderId": null, "distance": null, "has_offers": false, "name": "Village Cafe & Gourmet", "longitude": -84.495999, "has_menu": false, "awards": null, "user_review_count": 1}, {"business_operation_status": 0, "rating": null, "neighborhood": null, "image": null, "scorecard": null, "featured": false, "sample_categories": "Restaurants, Carry Out", "public_id": "shoneys-restaurant-atlanta", "id": 3025962, "votes": null, "tagline": null, "has_video": false, "website": null, "offers": null, "latitude": 33.771143, "politanName": "Atlanta, GA Metro ", "phone_number": "4046969393", "tags": [{"primary": false, "id": 11247, "name": "Carry Out"}, {"primary": true, "id": 1722, "name": "Restaurants"}], "fax_number": null, "expansion": {"count": null, "uri": null}, "impression_id": "000b000000061817cfb07f4f4ab4acb0a38c913741", "profile": "http://www.citysearch.com/profile/3025962/atlanta_ga/shoney_s_restaurant.html", "address": {"city": "Atlanta", "state": "GA", "street": "3930 Fulton Industrial Blvd SW", "postal_code": "30336"}, "capProviderId": null, "distance": null, "has_offers": false, "name": "Shoney's Restaurant", "longitude": -84.516707, "has_menu": true, "awards": null, "user_review_count": 0}, {"business_operation_status": 1, "rating": null, "neighborhood": null, "image": null, "scorecard": null, "featured": false, "sample_categories": "Coffeehouses", "public_id": "partners-coffee-llc-atlanta", "id": 3026457, "votes": null, "tagline": null, "has_video": false, "website": "http://www.citysearch.com/profile/external/3026457/atlanta_ga/partners_coffee_llc.html", "offers": null, "latitude": 33.734722, "politanName": "Atlanta, GA Metro ", "phone_number": "4043445282", "tags": [{"primary": true, "id": 1726, "name": "Coffeehouses"}], "fax_number": null, "expansion": {"count": null, "uri": null}, "impression_id": "000b00000088e52105a6394b6a889ba40d21883871", "profile": "http://www.citysearch.com/profile/3026457/atlanta_ga/partners_coffee_llc.html", "address": {"city": "Atlanta", "state": "GA", "street": "4225 Westfield Dr SW", "postal_code": "30336"}, "capProviderId": null, "distance": null, "has_offers": false, "name": "Partners Coffee Llc", "longitude": -84.560644, "has_menu": false, "awards": null, "user_review_count": 0}, {"business_operation_status": 1, "rating": null, "neighborhood": null, "image": null, "scorecard": null, "featured": false, "sample_categories": "Restaurants, Chinese", "public_id": "number-one-chinese-restaurant-smyrna", "id": 773448470, "votes": null, "tagline": null, "has_video": false, "website": null, "offers": null, "latitude": 33.873639, "politanName": "Atlanta, GA Metro ", "phone_number": "7703331293", "tags": [{"primary": false, "id": 11252, "name": "Chinese"}, {"primary": true, "id": 1722, "name": "Restaurants"}], "fax_number": null, "expansion": {"count": null, "uri": null}, "impression_id": "000b000000a3ad4892624c4bcdacfec61e3c862183", "profile": "http://www.citysearch.com/profile/773448470/smyrna_ga/number_one_chinese_restaurant.html", "address": {"city": "Smyrna", "state": "GA", "street": "3240 S Cobb Dr SE", "postal_code": "30080"}, "capProviderId": null, "distance": null, "has_offers": false, "name": "Number One Chinese Restaurant", "longitude": -84.530478, "has_menu": false, "awards": null, "user_review_count": 0}, {"business_operation_status": 1, "rating": null, "neighborhood": null, "image": null, "scorecard": null, "featured": false, "sample_categories": "Delis And Delicatessens", "public_id": "kroger-deli-smyrna-2", "id": 694352350, "votes": null, "tagline": null, "has_video": false, "website": null, "offers": null, "latitude": 33.838977, "politanName": "Atlanta, GA Metro ", "phone_number": "4047926990", "tags": [{"primary": true, "id": 1727, "name": "Delis And Delicatessens"}], "fax_number": null, "expansion": {"count": null, "uri": null}, "impression_id": "000b000000ca191a5e67ab4e97850a388a88ffb5d8", "profile": "http://www.citysearch.com/profile/694352350/smyrna_ga/kroger_deli.html", "address": {"city": "Smyrna", "state": "GA", "street": "4715 S Atlanta Rd Se # 100", "postal_code": "30080"}, "capProviderId": null, "distance": null, "has_offers": false, "name": "Kroger Deli", "longitude": -84.481545, "has_menu": false, "awards": null, "user_review_count": 0}, {"business_operation_status": 1, "rating": null, "neighborhood": null, "image": null, "scorecard": null, "featured": false, "sample_categories": "Restaurants", "public_id": "little-china-smyrna", "id": 805796770, "votes": null, "tagline": null, "has_video": false, "website": null, "offers": null, "latitude": 33.894335, "politanName": "Atlanta, GA Metro ", "phone_number": "6783057377", "tags": [{"primary": true, "id": 1722, "name": "Restaurants"}], "fax_number": null, "expansion": {"count": null, "uri": null}, "impression_id": "000b000000e1bf41cd38e64b77be8c4e0dc220a9ef", "profile": "http://www.citysearch.com/profile/805796770/smyrna_ga/little_china.html", "address": {"city": "Smyrna", "state": "GA", "street": "1065 Windy Hill Rd SE", "postal_code": "30080"}, "capProviderId": null, "distance": null, "has_offers": false, "name": "Little China", "longitude": -84.522435, "has_menu": false, "awards": null, "user_review_count": 0}], "histograms": [], "tag_ids": [1722], "uri": "http://api.citygridmedia.com:8080/search/places/v2/search/where?has_offers=false&type=restaurant&format=json&page=14&where=30126&rpp=50&histograms=false&publisher=10000009598&region_type=circle", "did_you_mean": "", "regions": [{"latitude": 33.816576999999995, "default_radius": 4.42, "type": "postal_code", "name": "30126", "longitude": -84.550635}], "call_id": "000b00000067c8f5b45d31421e8dcc7c60648c3d44", "first_hit": 651, "total_hits": 893, "geo_ids": [26301], "page": 14, "last_hit": 700}}