{"results": {"rpp": 50, "locations": [{"business_operation_status": 1, "rating": null, "neighborhood": "Southwest, Southwest", "image": null, "scorecard": null, "featured": false, "sample_categories": "Restaurants, Fast Food, Carry Out, Hamburgers, American Express", "public_id": "mc-donalds-atlanta-37", "id": 43877808, "votes": null, "tagline": null, "has_video": false, "website": "http://www.citysearch.com/profile/external/43877808/atlanta_ga/mc_donald_s.html", "offers": null, "latitude": 33.722898, "politanName": "Atlanta, GA Metro ", "phone_number": "4046997481", "tags": [{"primary": false, "id": 11199, "name": "Fast Food"}, {"primary": false, "id": 11247, "name": "Carry Out"}, {"primary": false, "id": 11270, "name": "Hamburgers"}, {"primary": false, "id": 11333, "name": "American Express"}, {"primary": false, "id": 11349, "name": "Discover"}, {"primary": false, "id": 11361, "name": "MasterCard"}, {"primary": false, "id": 11382, "name": "Visa"}, {"primary": true, "id": 1722, "name": "Restaurants"}], "fax_number": null, "expansion": {"count": null, "uri": null}, "impression_id": "000b00000034718f652cf947869548fa2bcd035cb3", "profile": "http://www.citysearch.com/profile/43877808/atlanta_ga/mc_donald_s.html", "address": {"city": "Atlanta", "state": "GA", "street": "3670 Cascade Rd SW", "postal_code": "30331"}, "capProviderId": null, "distance": null, "has_offers": false, "name": "Mc Donald's", "longitude": -84.50757, "has_menu": false, "awards": null, "user_review_count": 0}, {"business_operation_status": 1, "rating": null, "neighborhood": null, "image": null, "scorecard": null, "featured": false, "sample_categories": "Restaurants, Fast Food, Carry Out, Chicken", "public_id": "chickfila-atlanta-13", "id": 601369671, "votes": null, "tagline": null, "has_video": false, "website": null, "offers": null, "latitude": 33.860583, "politanName": "Atlanta, GA Metro ", "phone_number": "7708030182", "tags": [{"primary": false, "id": 11199, "name": "Fast Food"}, {"primary": false, "id": 11247, "name": "Carry Out"}, {"primary": false, "id": 12839, "name": "Chicken"}, {"primary": true, "id": 1722, "name": "Restaurants"}], "fax_number": null, "expansion": {"count": null, "uri": null}, "impression_id": "000b00000006c0ef37551347ce8bdc99fc537da131", "profile": "http://www.citysearch.com/profile/601369671/atlanta_ga/chick_fil_a.html", "address": {"city": "Atlanta", "state": "GA", "street": "2845 Cumberland Pkwy Se", "postal_code": "30339"}, "capProviderId": null, "distance": null, "has_offers": false, "name": "Chick-Fil-A", "longitude": -84.47869, "has_menu": false, "awards": null, "user_review_count": 0}, {"business_operation_status": 1, "rating": null, "neighborhood": null, "image": null, "scorecard": null, "featured": false, "sample_categories": "Restaurants", "public_id": "hibachi-express-smyrna", "id": 609007094, "votes": null, "tagline": null, "has_video": false, "website": null, "offers": null, "latitude": 33.889892, "politanName": "Atlanta, GA Metro ", "phone_number": "7704345005", "tags": [{"primary": true, "id": 1722, "name": "Restaurants"}], "fax_number": null, "expansion": {"count": null, "uri": null}, "impression_id": "000b000000e9d3ddda4e944902a36434dafb241112", "profile": "http://www.citysearch.com/profile/609007094/smyrna_ga/hibachi_express.html", "address": {"city": "Smyrna", "state": "GA", "street": "2596 S Cobb Dr SE", "postal_code": "30080"}, "capProviderId": null, "distance": null, "has_offers": false, "name": "Hibachi Express", "longitude": -84.537398, "has_menu": false, "awards": null, "user_review_count": 0}, {"business_operation_status": 1, "rating": null, "neighborhood": null, "image": null, "scorecard": null, "featured": false, "sample_categories": "Restaurants, Delis And Delicatessens, Sandwich Shops, Carry Out", "public_id": "dakota-enterprises-austell", "id": 33586641, "votes": null, "tagline": null, "has_video": false, "website": "http://www.citysearch.com/profile/external/33586641/austell_ga/dakota_enterprises.html", "offers": null, "latitude": 33.811558, "politanName": "Atlanta, GA Metro ", "phone_number": "7708198888", "tags": [{"primary": false, "id": 1727, "name": "Delis And Delicatessens"}, {"primary": false, "id": 1736, "name": "Sandwich Shops"}, {"primary": false, "id": 11247, "name": "Carry Out"}, {"primary": true, "id": 1722, "name": "Restaurants"}], "fax_number": null, "expansion": {"count": null, "uri": null}, "impression_id": "000b000000d4fe5be0f56f47e18bb0b3530ef0dbbe", "profile": "http://www.citysearch.com/profile/33586641/austell_ga/dakota_enterprises.html", "address": {"city": "Austell", "state": "GA", "street": "5875 Gore Pl", "postal_code": "30106"}, "capProviderId": null, "distance": null, "has_offers": false, "name": "Dakota Enterprises", "longitude": -84.641027, "has_menu": false, "awards": null, "user_review_count": 0}, {"business_operation_status": 1, "rating": null, "neighborhood": null, "image": null, "scorecard": null, "featured": false, "sample_categories": "Restaurants", "public_id": "fannies-restaurant-atlanta", "id": 33613569, "votes": null, "tagline": null, "has_video": false, "website": null, "offers": null, "latitude": 33.703645, "politanName": "Atlanta, GA Metro ", "phone_number": "4046878833", "tags": [{"primary": true, "id": 1722, "name": "Restaurants"}], "fax_number": null, "expansion": {"count": null, "uri": null}, "impression_id": "000b000000d65314d8bb294e8abf43f83bfd46e8ca", "profile": "http://www.citysearch.com/profile/33613569/atlanta_ga/fannie_s_restaurant.html", "address": {"city": "Atlanta", "state": "GA", "street": "2012 Blvd Dr NE", "postal_code": "30317"}, "capProviderId": null, "distance": null, "has_offers": false, "name": "Fannie's Restaurant", "longitude": -84.547402, "has_menu": false, "awards": null, "user_review_count": 0}, {"business_operation_status": 1, "rating": null, "neighborhood": null, "image": null, "scorecard": null, "featured": false, "sample_categories": "Food Delivery", "public_id": "nanas-fish-n-wings-austell", "id": 826891830, "votes": null, "tagline": null, "has_video": false, "website": null, "offers": null, "latitude": 33.804939, "politanName": "Atlanta, GA Metro ", "phone_number": "7707321234", "tags": [{"primary": true, "id": 11267, "name": "Food Delivery"}], "fax_number": null, "expansion": {"count": null, "uri": null}, "impression_id": "000b0000006e1ffbc2389649d799004822f6ea9782", "profile": "http://www.citysearch.com/profile/826891830/austell_ga/nana_s_fish_n_wings.html", "address": {"city": "Austell", "state": "GA", "street": "5770 Veterans Memorial Hwy SW", "postal_code": "30168"}, "capProviderId": null, "distance": null, "has_offers": false, "name": "Nana's Fish N Wings", "longitude": -84.636774, "has_menu": false, "awards": null, "user_review_count": 0}, {"business_operation_status": 1, "rating": null, "neighborhood": null, "image": null, "scorecard": null, "featured": false, "sample_categories": "Restaurants, Carry Out", "public_id": "popeyes-chicken-biscuits-smyrna-2", "id": 614164814, "votes": null, "tagline": null, "has_video": false, "website": "http://www.citysearch.com/profile/external/614164814/smyrna_ga/popeye_s_chicken_biscuits.html", "offers": null, "latitude": 33.871926, "politanName": "Atlanta, GA Metro ", "phone_number": "7704389500", "tags": [{"primary": false, "id": 11247, "name": "Carry Out"}, {"primary": true, "id": 1722, "name": "Restaurants"}], "fax_number": null, "expansion": {"count": null, "uri": null}, "impression_id": "000b00000092043a805d084cd8a6e9a5909865ab05", "profile": "http://www.citysearch.com/profile/614164814/smyrna_ga/popeye_s_chicken_biscuits.html", "address": {"city": "Smyrna", "state": "GA", "street": "3350 S Cobb Dr SE", "postal_code": "30080"}, "capProviderId": null, "distance": null, "has_offers": false, "name": "Popeye's Chicken & Biscuits", "longitude": -84.529826, "has_menu": false, "awards": null, "user_review_count": 0}, {"business_operation_status": 1, "rating": null, "neighborhood": null, "image": null, "scorecard": null, "featured": false, "sample_categories": "Restaurants", "public_id": "happy-buddha-austell", "id": 620056464, "votes": null, "tagline": null, "has_video": false, "website": null, "offers": null, "latitude": 33.798694, "politanName": "Atlanta, GA Metro ", "phone_number": "7709447800", "tags": [{"primary": true, "id": 1722, "name": "Restaurants"}], "fax_number": null, "expansion": {"count": null, "uri": null}, "impression_id": "000b000000ac4d7ee7b23d4fbfa0f676291cddf4d0", "profile": "http://www.citysearch.com/profile/620056464/austell_ga/happy_buddha.html", "address": {"city": "Austell", "state": "GA", "street": "3018 Bankhead Hwy", "postal_code": "30168"}, "capProviderId": null, "distance": null, "has_offers": false, "name": "Happy Buddha", "longitude": -84.641691, "has_menu": true, "awards": null, "user_review_count": 1}, {"business_operation_status": 1, "rating": null, "neighborhood": null, "image": null, "scorecard": null, "featured": false, "sample_categories": "Restaurants", "public_id": "first-watch-the-daytime-cafe-smyrna", "id": 607140834, "votes": null, "tagline": null, "has_video": false, "website": "http://www.citysearch.com/profile/external/607140834/smyrna_ga/first_watch_the_daytime_cafe.html", "offers": null, "latitude": 33.849301, "politanName": "Atlanta, GA Metro ", "phone_number": "6782130312", "tags": [{"primary": true, "id": 1722, "name": "Restaurants"}], "fax_number": null, "expansion": {"count": null, "uri": null}, "impression_id": "000b000000bee4769fa965449781d2db9c13467217", "profile": "http://www.citysearch.com/profile/607140834/smyrna_ga/first_watch_the_daytime_cafe.html", "address": {"city": "Smyrna", "state": "GA", "street": "1675 Cumberland Pkwy SE", "postal_code": "30080"}, "capProviderId": null, "distance": null, "has_offers": false, "name": "First Watch The Daytime Cafe", "longitude": -84.492846, "has_menu": false, "awards": null, "user_review_count": 0}, {"business_operation_status": 1, "rating": null, "neighborhood": null, "image": null, "scorecard": null, "featured": false, "sample_categories": "Juice & Smoothie Shops", "public_id": "juice-me-too-austell", "id": 611119264, "votes": null, "tagline": null, "has_video": false, "website": null, "offers": null, "latitude": 33.855802, "politanName": "Atlanta, GA Metro ", "phone_number": "4046688380", "tags": [{"primary": true, "id": 1735, "name": "Juice & Smoothie Shops"}], "fax_number": null, "expansion": {"count": null, "uri": null}, "impression_id": "000b00000076fd09b95649403daccb3d65b4c10a52", "profile": "http://www.citysearch.com/profile/611119264/austell_ga/juice_me_too.html", "address": {"city": "Austell", "state": "GA", "street": "3999 Austell Rd", "postal_code": "30106"}, "capProviderId": null, "distance": null, "has_offers": false, "name": "Juice Me Too", "longitude": -84.600338, "has_menu": false, "awards": null, "user_review_count": 0}, {"business_operation_status": 1, "rating": null, "neighborhood": null, "image": null, "scorecard": null, "featured": false, "sample_categories": "Restaurants", "public_id": "winstons-food-spirits-austell", "id": 627650230, "votes": null, "tagline": null, "has_video": false, "website": null, "offers": null, "latitude": 33.856339, "politanName": "Atlanta, GA Metro ", "phone_number": "7707391130", "tags": [{"primary": true, "id": 1722, "name": "Restaurants"}], "fax_number": null, "expansion": {"count": null, "uri": null}, "impression_id": "000b000000614d0a6d558e40b0b39452e7a2343346", "profile": "http://www.citysearch.com/profile/627650230/austell_ga/winston_s_food_spirits.html", "address": {"city": "Austell", "state": "GA", "street": "3999 Austell Rd", "postal_code": "30106"}, "capProviderId": null, "distance": null, "has_offers": false, "name": "Winston's Food & Spirits", "longitude": -84.599753, "has_menu": false, "awards": null, "user_review_count": 0}, {"business_operation_status": 1, "rating": null, "neighborhood": null, "image": null, "scorecard": null, "featured": false, "sample_categories": "Restaurants, Delis And Delicatessens, Sandwich Shops, Carry Out", "public_id": "subway-austell-2", "id": 623813194, "votes": null, "tagline": null, "has_video": false, "website": null, "offers": null, "latitude": 33.772359, "politanName": "Atlanta, GA Metro ", "phone_number": "6789032510", "tags": [{"primary": false, "id": 1727, "name": "Delis And Delicatessens"}, {"primary": false, "id": 1736, "name": "Sandwich Shops"}, {"primary": false, "id": 11247, "name": "Carry Out"}, {"primary": true, "id": 1722, "name": "Restaurants"}], "fax_number": null, "expansion": {"count": null, "uri": null}, "impression_id": "000b000000202fc23b285c419fbedef974bd86398c", "profile": "http://www.citysearch.com/profile/623813194/austell_ga/subway.html", "address": {"city": "Austell", "state": "GA", "street": "135 Riverside Pkwy", "postal_code": "30168"}, "capProviderId": null, "distance": null, "has_offers": false, "name": "Subway", "longitude": -84.559582, "has_menu": false, "awards": null, "user_review_count": 0}, {"business_operation_status": 1, "rating": null, "neighborhood": null, "image": null, "scorecard": null, "featured": false, "sample_categories": "Restaurants, Delis And Delicatessens, Sandwich Shops, Carry Out", "public_id": "subway-smyrna-20", "id": 713364310, "votes": null, "tagline": null, "has_video": false, "website": "http://www.citysearch.com/profile/external/713364310/smyrna_ga/subway.html", "offers": null, "latitude": 33.842892, "politanName": "Atlanta, GA Metro ", "phone_number": "6784027179", "tags": [{"primary": false, "id": 1727, "name": "Delis And Delicatessens"}, {"primary": false, "id": 1736, "name": "Sandwich Shops"}, {"primary": false, "id": 11247, "name": "Carry Out"}, {"primary": true, "id": 1722, "name": "Restaurants"}], "fax_number": null, "expansion": {"count": null, "uri": null}, "impression_id": "000b0000003f3669608a544ffd897ecb321806e3be", "profile": "http://www.citysearch.com/profile/713364310/smyrna_ga/subway.html", "address": {"city": "Smyrna", "state": "GA", "street": "4500 West Village Pl Se", "postal_code": "30080"}, "capProviderId": null, "distance": null, "has_offers": false, "name": "SUBWAY", "longitude": -84.490261, "has_menu": false, "awards": null, "user_review_count": 0}, {"business_operation_status": 1, "rating": null, "neighborhood": null, "image": null, "scorecard": null, "featured": false, "sample_categories": "Restaurants", "public_id": "peldng-garden-restaurant-smyrna", "id": 713430280, "votes": null, "tagline": null, "has_video": false, "website": null, "offers": null, "latitude": 33.891107, "politanName": "Atlanta, GA Metro ", "phone_number": "7704324048", "tags": [{"primary": true, "id": 1722, "name": "Restaurants"}], "fax_number": null, "expansion": {"count": null, "uri": null}, "impression_id": "000b000000245f5410ad2546588ed1754b0b78ae5d", "profile": "http://www.citysearch.com/profile/713430280/smyrna_ga/peldng_garden_restaurant.html", "address": {"city": "Smyrna", "state": "GA", "street": "2526 S Cobb Dr Se", "postal_code": "30080"}, "capProviderId": null, "distance": null, "has_offers": false, "name": "Peldng Garden Restaurant", "longitude": -84.537851, "has_menu": false, "awards": null, "user_review_count": 0}, {"business_operation_status": 1, "rating": null, "neighborhood": null, "image": null, "scorecard": null, "featured": false, "sample_categories": "Restaurants", "public_id": "nashville-restaurant-mgmt-smyrna", "id": 713616520, "votes": null, "tagline": null, "has_video": false, "website": null, "offers": null, "latitude": 33.871625, "politanName": "Atlanta, GA Metro ", "phone_number": "7704389400", "tags": [{"primary": true, "id": 1722, "name": "Restaurants"}], "fax_number": null, "expansion": {"count": null, "uri": null}, "impression_id": "000b000000ce868afe8b4a4ca3bc6d33333ac3599e", "profile": "http://www.citysearch.com/profile/713616520/smyrna_ga/nashville_restaurant_mgmt.html", "address": {"city": "Smyrna", "state": "GA", "street": "3350 S Cobb Dr Se", "postal_code": "30080"}, "capProviderId": null, "distance": null, "has_offers": false, "name": "Nashville Restaurant Mgmt", "longitude": -84.528763, "has_menu": false, "awards": null, "user_review_count": 0}, {"business_operation_status": 1, "rating": null, "neighborhood": null, "image": null, "scorecard": null, "featured": false, "sample_categories": "Restaurants", "public_id": "yuraku-sushi-steak-smyrna", "id": 672566190, "votes": null, "tagline": null, "has_video": false, "website": null, "offers": null, "latitude": 33.842892, "politanName": "Atlanta, GA Metro ", "phone_number": null, "tags": [{"primary": true, "id": 1722, "name": "Restaurants"}], "fax_number": null, "expansion": {"count": null, "uri": null}, "impression_id": "000b000000b07b5c6748894385a543b21b2a00a7dc", "profile": "http://www.citysearch.com/profile/672566190/smyrna_ga/yuraku_sushi_steak.html", "address": {"city": "Smyrna", "state": "GA", "street": "4500 West Village Place", "postal_code": "30080"}, "capProviderId": null, "distance": null, "has_offers": false, "name": "Yuraku Sushi & Steak", "longitude": -84.490261, "has_menu": false, "awards": null, "user_review_count": 0}, {"business_operation_status": 1, "rating": null, "neighborhood": "Southwest, Southwest", "image": null, "scorecard": null, "featured": false, "sample_categories": "Restaurants, Bars & Clubs, Bars & Pubs", "public_id": "speakeasy-lounge-atlanta-2", "id": 762806000, "votes": null, "tagline": null, "has_video": false, "website": null, "offers": null, "latitude": 33.707171, "politanName": "Atlanta, GA Metro ", "phone_number": "4047527912", "tags": [{"primary": false, "id": 164, "name": "Bars & Clubs"}, {"primary": false, "id": 1686, "name": "Bars & Pubs"}, {"primary": true, "id": 1722, "name": "Restaurants"}], "fax_number": null, "expansion": {"count": null, "uri": null}, "impression_id": "000b00000096acbf395a934dadab0aadfbc132c915", "profile": "http://www.citysearch.com/profile/762806000/atlanta_ga/speakeasy_lounge.html", "address": {"city": "Atlanta", "state": "GA", "street": "1749 Austin Rd SW", "postal_code": "30331"}, "capProviderId": null, "distance": null, "has_offers": false, "name": "Speakeasy Lounge", "longitude": -84.510599, "has_menu": false, "awards": null, "user_review_count": 0}, {"business_operation_status": 1, "rating": null, "neighborhood": null, "image": null, "scorecard": null, "featured": false, "sample_categories": "Restaurants, Delis And Delicatessens, Sandwich Shops, Carry Out", "public_id": "subway-marietta-47", "id": 713567500, "votes": null, "tagline": null, "has_video": false, "website": "http://www.citysearch.com/profile/external/713567500/marietta_ga/subway.html", "offers": null, "latitude": 33.882452, "politanName": "Atlanta, GA Metro ", "phone_number": "7704365640", "tags": [{"primary": false, "id": 1727, "name": "Delis And Delicatessens"}, {"primary": false, "id": 1736, "name": "Sandwich Shops"}, {"primary": false, "id": 11247, "name": "Carry Out"}, {"primary": true, "id": 1722, "name": "Restaurants"}], "fax_number": null, "expansion": {"count": null, "uri": null}, "impression_id": "000b0000000e6b38965430445d8f343bd87eab91ae", "profile": "http://www.citysearch.com/profile/713567500/marietta_ga/subway.html", "address": {"city": "Marietta", "state": "GA", "street": "2909 Austell Rd Sw # 114", "postal_code": "30008"}, "capProviderId": null, "distance": null, "has_offers": false, "name": "SUBWAY", "longitude": -84.58798, "has_menu": false, "awards": null, "user_review_count": 0}, {"business_operation_status": 1, "rating": null, "neighborhood": null, "image": null, "scorecard": null, "featured": false, "sample_categories": "Ice Cream Parlors, Restaurants, Dessert Shops, Information & Referral Services", "public_id": "noels-ice-cream-smyrna", "id": 2924493, "votes": null, "tagline": null, "has_video": false, "website": null, "offers": null, "latitude": 33.867003, "politanName": "Atlanta, GA Metro ", "phone_number": "7703330515", "tags": [{"primary": false, "id": 1722, "name": "Restaurants"}, {"primary": false, "id": 1728, "name": "Dessert Shops"}, {"primary": false, "id": 624, "name": "Information & Referral Services"}, {"primary": true, "id": 1730, "name": "Ice Cream Parlors"}], "fax_number": null, "expansion": {"count": null, "uri": null}, "impression_id": "000b0000007f9d2b26d5db4f5080dd7dc57ebc9d47", "profile": "http://www.citysearch.com/profile/2924493/smyrna_ga/noels_ice_cream.html", "address": {"city": "Smyrna", "state": "GA", "street": "3539 Westbrook Dr SE", "postal_code": "30082"}, "capProviderId": null, "distance": null, "has_offers": false, "name": "Noels Ice Cream", "longitude": -84.526611, "has_menu": false, "awards": null, "user_review_count": 1}, {"business_operation_status": 1, "rating": null, "neighborhood": null, "image": null, "scorecard": null, "featured": false, "sample_categories": "Restaurants, Carry Out, Pizza", "public_id": "sbarro-smyrna-2", "id": 682322420, "votes": null, "tagline": null, "has_video": false, "website": "http://www.citysearch.com/profile/external/682322420/smyrna_ga/sbarro.html", "offers": null, "latitude": 33.87774, "politanName": "Atlanta, GA Metro ", "phone_number": "7704443994", "tags": [{"primary": false, "id": 11247, "name": "Carry Out"}, {"primary": false, "id": 11299, "name": "Pizza"}, {"primary": true, "id": 1722, "name": "Restaurants"}], "fax_number": null, "expansion": {"count": null, "uri": null}, "impression_id": "000b000000471a6850535442db8de968bfabf1f0ee", "profile": "http://www.citysearch.com/profile/682322420/smyrna_ga/sbarro.html", "address": {"city": "Smyrna", "state": "GA", "street": "3030 Montclair Cir Se", "postal_code": "30080"}, "capProviderId": null, "distance": null, "has_offers": false, "name": "Sbarro", "longitude": -84.508306, "has_menu": false, "awards": null, "user_review_count": 0}, {"business_operation_status": 1, "rating": null, "neighborhood": null, "image": null, "scorecard": null, "featured": false, "sample_categories": "Restaurants", "public_id": "fad-restaurant-marietta", "id": 682613120, "votes": null, "tagline": null, "has_video": false, "website": null, "offers": null, "latitude": 33.865697, "politanName": "Atlanta, GA Metro ", "phone_number": "7704318505", "tags": [{"primary": true, "id": 1722, "name": "Restaurants"}], "fax_number": null, "expansion": {"count": null, "uri": null}, "impression_id": "000b000000f38591a2e6e64bbd977375a584c25d99", "profile": "http://www.citysearch.com/profile/682613120/marietta_ga/fad_restaurant.html", "address": {"city": "Marietta", "state": "GA", "street": "3565 Austell Rd Sw # 1061", "postal_code": "30008"}, "capProviderId": null, "distance": null, "has_offers": false, "name": "Fad Restaurant", "longitude": -84.592502, "has_menu": false, "awards": null, "user_review_count": 0}, {"business_operation_status": 1, "rating": null, "neighborhood": null, "image": null, "scorecard": null, "featured": false, "sample_categories": "Restaurants, Mexican", "public_id": "pipiolo-mexican-cafe-atlanta-2", "id": 682307170, "votes": null, "tagline": null, "has_video": false, "website": "http://www.citysearch.com/profile/external/682307170/atlanta_ga/pipiolo_mexican_cafe.html", "offers": null, "latitude": 33.752496, "politanName": "Atlanta, GA Metro ", "phone_number": "4046965600", "tags": [{"primary": false, "id": 11208, "name": "Mexican"}, {"primary": true, "id": 1722, "name": "Restaurants"}], "fax_number": null, "expansion": {"count": null, "uri": null}, "impression_id": "000b0000006a97a1ee0b9b43929cc30d4740725999", "profile": "http://www.citysearch.com/profile/682307170/atlanta_ga/pipiolo_mexican_cafe.html", "address": {"city": "Atlanta", "state": "GA", "street": "4842 Fulton Industrial Blvd Sw", "postal_code": "30336"}, "capProviderId": null, "distance": null, "has_offers": false, "name": "Pipiolo Mexican Cafe", "longitude": -84.548615, "has_menu": false, "awards": null, "user_review_count": 2}, {"business_operation_status": 1, "rating": null, "neighborhood": null, "image": null, "scorecard": null, "featured": false, "sample_categories": "Catering, Restaurants, Pizza, Carry Out, Food Delivery", "public_id": "pizza-hut-smyrna-6", "id": 682233460, "votes": null, "tagline": null, "has_video": false, "website": "http://www.citysearch.com/profile/external/682233460/smyrna_ga/pizza_hut.html", "offers": null, "latitude": 33.843629, "politanName": "Atlanta, GA Metro ", "phone_number": "7704342345", "tags": [{"primary": false, "id": 1705, "name": "Catering"}, {"primary": false, "id": 1722, "name": "Restaurants"}, {"primary": false, "id": 11247, "name": "Carry Out"}, {"primary": false, "id": 11267, "name": "Food Delivery"}, {"primary": false, "id": 11333, "name": "American Express"}, {"primary": false, "id": 11349, "name": "Discover"}, {"primary": false, "id": 11361, "name": "MasterCard"}, {"primary": false, "id": 11382, "name": "Visa"}, {"primary": true, "id": 11299, "name": "Pizza"}], "fax_number": null, "expansion": {"count": null, "uri": null}, "impression_id": "000b00000051815286f9d44b52a8aa74ad133a7adb", "profile": "http://www.citysearch.com/profile/682233460/smyrna_ga/pizza_hut.html", "address": {"city": "Smyrna", "state": "GA", "street": "4520 S Cobb Dr SE", "postal_code": "30080"}, "capProviderId": null, "distance": null, "has_offers": false, "name": "Pizza Hut", "longitude": -84.50254, "has_menu": true, "awards": null, "user_review_count": 0}, {"business_operation_status": 1, "rating": null, "neighborhood": null, "image": null, "scorecard": null, "featured": false, "sample_categories": "Restaurants, Barbecue Restaurants", "public_id": "staqs-bar-b-que-smyrna", "id": 647325040, "votes": null, "tagline": null, "has_video": false, "website": null, "offers": null, "latitude": 33.890026, "politanName": "Atlanta, GA Metro ", "phone_number": "7704384301", "tags": [{"primary": false, "id": 1724, "name": "Barbecue Restaurants"}, {"primary": true, "id": 1722, "name": "Restaurants"}], "fax_number": null, "expansion": {"count": null, "uri": null}, "impression_id": "000b0000009cbe744ca6aa43c8a5430d0d49f8204a", "profile": "http://www.citysearch.com/profile/647325040/smyrna_ga/staqs_bar_b_que.html", "address": {"city": "Smyrna", "state": "GA", "street": "2599 S Cobb Dr Se", "postal_code": "30080"}, "capProviderId": null, "distance": null, "has_offers": false, "name": "Staqs Bar B Que", "longitude": -84.536726, "has_menu": true, "awards": null, "user_review_count": 0}, {"business_operation_status": 1, "rating": null, "neighborhood": null, "image": null, "scorecard": null, "featured": false, "sample_categories": "Restaurants, Delis And Delicatessens", "public_id": "best-wings-deli-douglasville-2", "id": 728017940, "votes": null, "tagline": null, "has_video": false, "website": null, "offers": null, "latitude": 33.747372, "politanName": "Atlanta, GA Metro ", "phone_number": "7709477809", "tags": [{"primary": false, "id": 1727, "name": "Delis And Delicatessens"}, {"primary": true, "id": 1722, "name": "Restaurants"}], "fax_number": null, "expansion": {"count": null, "uri": null}, "impression_id": "000b0000001d77918f9fcc4599bd999bc9f410b23c", "profile": "http://www.citysearch.com/profile/728017940/douglasville_ga/best_wings_deli.html", "address": {"city": "Douglasville", "state": "GA", "street": "2134 Fairburn Rd", "postal_code": "30135"}, "capProviderId": null, "distance": null, "has_offers": false, "name": "Best Wings & Deli", "longitude": -84.699929, "has_menu": false, "awards": null, "user_review_count": 0}, {"business_operation_status": 1, "rating": null, "neighborhood": null, "image": null, "scorecard": null, "featured": false, "sample_categories": "Restaurants, Caribbean", "public_id": "caribbean-cafe-dallas", "id": 732148300, "votes": null, "tagline": null, "has_video": false, "website": null, "offers": null, "latitude": 33.909628, "politanName": "Atlanta, GA Metro ", "phone_number": "7702228844", "tags": [{"primary": false, "id": 11195, "name": "Caribbean"}, {"primary": true, "id": 1722, "name": "Restaurants"}], "fax_number": null, "expansion": {"count": null, "uri": null}, "impression_id": "000b000000091c0069e2144046a85469cb7173fb57", "profile": "http://www.citysearch.com/profile/732148300/dallas_ga/caribbean_cafe.html", "address": {"city": "Dallas", "state": "GA", "street": "1336 Hiram Acworth Hwy", "postal_code": "30157"}, "capProviderId": null, "distance": null, "has_offers": false, "name": "Caribbean Cafe", "longitude": -84.746817, "has_menu": false, "awards": null, "user_review_count": 0}, {"business_operation_status": 1, "rating": null, "neighborhood": null, "image": null, "scorecard": null, "featured": false, "sample_categories": "Restaurants, Carry Out, Chicken", "public_id": "churchs-chicken-lithia", "id": 757951440, "votes": null, "tagline": null, "has_video": false, "website": "http://www.citysearch.com/profile/external/757951440/lithia_springs_ga/church_s_chicken.html", "offers": null, "latitude": 33.790275, "politanName": "Atlanta, GA Metro ", "phone_number": "7709416077", "tags": [{"primary": false, "id": 11247, "name": "Carry Out"}, {"primary": false, "id": 12839, "name": "Chicken"}, {"primary": true, "id": 1722, "name": "Restaurants"}], "fax_number": null, "expansion": {"count": null, "uri": null}, "impression_id": "000b000000bc5958701eb34f9f80b71fa708afadaf", "profile": "http://www.citysearch.com/profile/757951440/lithia_springs_ga/church_s_chicken.html", "address": {"city": "Lithia Springs", "state": "GA", "street": "570 Thornton Rd", "postal_code": "30122"}, "capProviderId": null, "distance": null, "has_offers": false, "name": "Church's Chicken", "longitude": -84.623974, "has_menu": false, "awards": null, "user_review_count": 0}, {"business_operation_status": 1, "rating": null, "neighborhood": null, "image": null, "scorecard": null, "featured": false, "sample_categories": "Restaurants, Pizza", "public_id": "marios-ny-pizza-smyrna", "id": 764838040, "votes": null, "tagline": null, "has_video": false, "website": null, "offers": null, "latitude": 33.883027, "politanName": "Atlanta, GA Metro ", "phone_number": "7704379199", "tags": [{"primary": false, "id": 11299, "name": "Pizza"}, {"primary": true, "id": 1722, "name": "Restaurants"}], "fax_number": null, "expansion": {"count": null, "uri": null}, "impression_id": "000b000000642a402e21854a1590678b3f0d87f786", "profile": "http://www.citysearch.com/profile/764838040/smyrna_ga/marios_ny_pizza.html", "address": {"city": "Smyrna", "state": "GA", "street": "2930 S Cobb Dr SE", "postal_code": "30080"}, "capProviderId": null, "distance": null, "has_offers": false, "name": "Marios Ny Pizza", "longitude": -84.534643, "has_menu": false, "awards": null, "user_review_count": 0}, {"business_operation_status": 1, "rating": null, "neighborhood": "Northside, Northside", "image": null, "scorecard": null, "featured": false, "sample_categories": "Catering, Restaurants, Pizza, Carry Out, Italian", "public_id": "johnnys-new-york-style-pizza-atlanta-2", "id": 632921250, "votes": null, "tagline": null, "has_video": false, "website": "http://www.citysearch.com/profile/external/632921250/atlanta_ga/johnny_s_new_york_style_pizza.html", "offers": null, "latitude": 33.807596, "politanName": "Atlanta, GA Metro ", "phone_number": "4046038043", "tags": [{"primary": false, "id": 1705, "name": "Catering"}, {"primary": false, "id": 1722, "name": "Restaurants"}, {"primary": false, "id": 11247, "name": "Carry Out"}, {"primary": false, "id": 11279, "name": "Italian"}, {"primary": false, "id": 11333, "name": "American Express"}, {"primary": false, "id": 11349, "name": "Discover"}, {"primary": false, "id": 11361, "name": "MasterCard"}, {"primary": false, "id": 11382, "name": "Visa"}, {"primary": true, "id": 11299, "name": "Pizza"}], "fax_number": null, "expansion": {"count": null, "uri": null}, "impression_id": "000b0000005e24cc77920c4a7a8826939f01c42ca5", "profile": "http://www.citysearch.com/profile/632921250/atlanta_ga/johnny_s_new_york_style_pizza.html", "address": {"city": "Atlanta", "state": "GA", "street": "1465 Chattahoochee Ave NW 850", "postal_code": "30318"}, "capProviderId": null, "distance": null, "has_offers": false, "name": "Johnny's New York Style Pizza", "longitude": -84.434341, "has_menu": false, "awards": null, "user_review_count": 0}, {"business_operation_status": 1, "rating": null, "neighborhood": null, "image": null, "scorecard": null, "featured": false, "sample_categories": "Restaurants, Bakeries", "public_id": "brooklyn-bagel-co-atlanta", "id": 790634610, "votes": null, "tagline": null, "has_video": false, "website": null, "offers": null, "latitude": 33.764409, "politanName": "Atlanta, GA Metro ", "phone_number": "7705697290", "tags": [{"primary": false, "id": 1685, "name": "Bakeries"}, {"primary": true, "id": 1722, "name": "Restaurants"}], "fax_number": null, "expansion": {"count": null, "uri": null}, "impression_id": "000b00000066db0dc7b0924475a3beb15364068ded", "profile": "http://www.citysearch.com/profile/790634610/atlanta_ga/brooklyn_bagel_co.html", "address": {"city": "Atlanta", "state": "GA", "street": "3926 Shirley Dr Sw", "postal_code": "30336"}, "capProviderId": null, "distance": null, "has_offers": false, "name": "Brooklyn Bagel Co", "longitude": -84.516667, "has_menu": false, "awards": null, "user_review_count": 0}, {"business_operation_status": 1, "rating": null, "neighborhood": null, "image": null, "scorecard": null, "featured": false, "sample_categories": "Restaurants, Ice Cream Parlors, Carry Out", "public_id": "dairy-queen-atlanta-9", "id": 813405490, "votes": null, "tagline": null, "has_video": false, "website": "http://www.citysearch.com/profile/external/813405490/atlanta_ga/dairy_queen.html", "offers": null, "latitude": 33.770572, "politanName": "Atlanta, GA Metro ", "phone_number": "4046962963", "tags": [{"primary": false, "id": 1730, "name": "Ice Cream Parlors"}, {"primary": false, "id": 11247, "name": "Carry Out"}, {"primary": true, "id": 1722, "name": "Restaurants"}], "fax_number": null, "expansion": {"count": null, "uri": null}, "impression_id": "000b000000aade6a6a7f0546beb00520c0da35d039", "profile": "http://www.citysearch.com/profile/813405490/atlanta_ga/dairy_queen.html", "address": {"city": "Atlanta", "state": "GA", "street": "4090 Martin Luther King Jr SW", "postal_code": "30336"}, "capProviderId": null, "distance": null, "has_offers": false, "name": "Dairy Queen", "longitude": -84.521711, "has_menu": true, "awards": null, "user_review_count": 0}, {"business_operation_status": 1, "rating": null, "neighborhood": null, "image": null, "scorecard": null, "featured": false, "sample_categories": "Restaurants", "public_id": "i-repair-i-austell", "id": 764872320, "votes": null, "tagline": null, "has_video": false, "website": null, "offers": null, "latitude": 33.831904, "politanName": "Atlanta, GA Metro ", "phone_number": "6784021158", "tags": [{"primary": true, "id": 1722, "name": "Restaurants"}], "fax_number": null, "expansion": {"count": null, "uri": null}, "impression_id": "000b00000048cccb8c00c2477cb6c84996b37622ff", "profile": "http://www.citysearch.com/profile/764872320/austell_ga/i_repair_i.html", "address": {"city": "Austell", "state": "GA", "street": "2401 Clay Rd", "postal_code": "30106"}, "capProviderId": null, "distance": null, "has_offers": false, "name": "I Repair I", "longitude": -84.622801, "has_menu": false, "awards": null, "user_review_count": 0}, {"business_operation_status": 1, "rating": null, "neighborhood": null, "image": null, "scorecard": null, "featured": false, "sample_categories": "Restaurants, Delis And Delicatessens, Sandwich Shops, Carry Out", "public_id": "subway-atlanta-102", "id": 764830380, "votes": null, "tagline": null, "has_video": false, "website": "http://www.citysearch.com/profile/external/764830380/atlanta_ga/subway.html", "offers": null, "latitude": 33.775765, "politanName": "Atlanta, GA Metro ", "phone_number": "4047626008", "tags": [{"primary": false, "id": 1727, "name": "Delis And Delicatessens"}, {"primary": false, "id": 1736, "name": "Sandwich Shops"}, {"primary": false, "id": 11247, "name": "Carry Out"}, {"primary": true, "id": 1722, "name": "Restaurants"}], "fax_number": null, "expansion": {"count": null, "uri": null}, "impression_id": "000b00000080e107137ded4bb7bcd10198f54d3e98", "profile": "http://www.citysearch.com/profile/764830380/atlanta_ga/subway.html", "address": {"city": "Atlanta", "state": "GA", "street": "99 National Dr SW", "postal_code": "30336"}, "capProviderId": null, "distance": null, "has_offers": false, "name": "SUBWAY", "longitude": -84.527874, "has_menu": true, "awards": null, "user_review_count": 0}, {"business_operation_status": 1, "rating": null, "neighborhood": null, "image": null, "scorecard": null, "featured": false, "sample_categories": "Restaurants, Barbecue Restaurants", "public_id": "georgia-pit-barbque-smyrna", "id": 745584800, "votes": null, "tagline": null, "has_video": false, "website": null, "offers": null, "latitude": 33.844595, "politanName": "Atlanta, GA Metro ", "phone_number": "7704348394", "tags": [{"primary": false, "id": 1724, "name": "Barbecue Restaurants"}, {"primary": true, "id": 1722, "name": "Restaurants"}], "fax_number": null, "expansion": {"count": null, "uri": null}, "impression_id": "000b000000213ccbe8b01747218d9987972637326a", "profile": "http://www.citysearch.com/profile/745584800/smyrna_ga/georgia_pit_bar_b_que.html", "address": {"city": "Smyrna", "state": "GA", "street": "4479 S Cobb Dr SE", "postal_code": "30080"}, "capProviderId": null, "distance": null, "has_offers": false, "name": "Georgia Pit Bar-B-Que", "longitude": -84.501876, "has_menu": false, "awards": null, "user_review_count": 0}, {"business_operation_status": 1, "rating": null, "neighborhood": "Northside, Riverside, Northside", "image": null, "scorecard": null, "featured": false, "sample_categories": "Restaurants, Carry Out, Hamburgers, American Express, Discover", "public_id": "burger-king-atlanta-31", "id": 781188810, "votes": null, "tagline": null, "has_video": false, "website": "http://www.citysearch.com/profile/external/781188810/atlanta_ga/burger_king.html", "offers": null, "latitude": 33.814013, "politanName": "Atlanta, GA Metro ", "phone_number": "4042071823", "tags": [{"primary": false, "id": 11247, "name": "Carry Out"}, {"primary": false, "id": 11270, "name": "Hamburgers"}, {"primary": false, "id": 11333, "name": "American Express"}, {"primary": false, "id": 11349, "name": "Discover"}, {"primary": false, "id": 11361, "name": "MasterCard"}, {"primary": false, "id": 11382, "name": "Visa"}, {"primary": true, "id": 1722, "name": "Restaurants"}], "fax_number": null, "expansion": {"count": null, "uri": null}, "impression_id": "000b00000060178c13d9f24158a31ed0f94c427710", "profile": "http://www.citysearch.com/profile/781188810/atlanta_ga/burger_king.html", "address": {"city": "Atlanta", "state": "GA", "street": "Main Terminal", "postal_code": "30320"}, "capProviderId": null, "distance": null, "has_offers": false, "name": "Burger King", "longitude": -84.476327, "has_menu": false, "awards": null, "user_review_count": 0}, {"business_operation_status": 1, "rating": null, "neighborhood": null, "image": null, "scorecard": null, "featured": false, "sample_categories": "Restaurants, Carry Out, Chicken", "public_id": "popeyes-chicken-biscuits-lithia", "id": 773419390, "votes": null, "tagline": null, "has_video": false, "website": "http://www.citysearch.com/profile/external/773419390/lithia_springs_ga/popeye_s_chicken_biscuits.html", "offers": null, "latitude": 33.789316, "politanName": "Atlanta, GA Metro ", "phone_number": "7709440898", "tags": [{"primary": false, "id": 11247, "name": "Carry Out"}, {"primary": false, "id": 12839, "name": "Chicken"}, {"primary": true, "id": 1722, "name": "Restaurants"}], "fax_number": null, "expansion": {"count": null, "uri": null}, "impression_id": "000b00000040de5613c0a1453fb7bcf3e767649b73", "profile": "http://www.citysearch.com/profile/773419390/lithia_springs_ga/popeye_s_chicken_biscuits.html", "address": {"city": "Lithia Springs", "state": "GA", "street": "608 Thornton Rd", "postal_code": "30122"}, "capProviderId": null, "distance": null, "has_offers": false, "name": "Popeye's Chicken & Biscuits", "longitude": -84.621752, "has_menu": false, "awards": null, "user_review_count": 0}, {"business_operation_status": 1, "rating": null, "neighborhood": null, "image": null, "scorecard": null, "featured": false, "sample_categories": "Restaurants, Chinese", "public_id": "beijing-lithia", "id": 793324500, "votes": null, "tagline": null, "has_video": false, "website": null, "offers": null, "latitude": 33.76865, "politanName": "Atlanta, GA Metro ", "phone_number": "7707329999", "tags": [{"primary": false, "id": 11252, "name": "Chinese"}, {"primary": true, "id": 1722, "name": "Restaurants"}], "fax_number": null, "expansion": {"count": null, "uri": null}, "impression_id": "000b0000003c19f632395d459381df4a21b1e086d7", "profile": "http://www.citysearch.com/profile/793324500/lithia_springs_ga/beijing.html", "address": {"city": "Lithia Springs", "state": "GA", "street": "100 Interstate West Pkwy", "postal_code": "30122"}, "capProviderId": null, "distance": null, "has_offers": false, "name": "Beijing", "longitude": -84.599743, "has_menu": false, "awards": null, "user_review_count": 0}, {"business_operation_status": 1, "rating": null, "neighborhood": null, "image": null, "scorecard": null, "featured": false, "sample_categories": "Ice Cream Parlors", "public_id": "rafiq-inc-smyrna", "id": 808300710, "votes": null, "tagline": null, "has_video": false, "website": null, "offers": null, "latitude": 33.878681, "politanName": "Atlanta, GA Metro ", "phone_number": "7708050214", "tags": [{"primary": true, "id": 1730, "name": "Ice Cream Parlors"}], "fax_number": null, "expansion": {"count": null, "uri": null}, "impression_id": "000b00000052ce5ec0fe764b75990a544592adb1b6", "profile": "http://www.citysearch.com/profile/808300710/smyrna_ga/rafiq_inc.html", "address": {"city": "Smyrna", "state": "GA", "street": "2216 Goodwood Blvd SE", "postal_code": "30080"}, "capProviderId": null, "distance": null, "has_offers": false, "name": "Rafiq Inc", "longitude": -84.493022, "has_menu": false, "awards": null, "user_review_count": 0}, {"business_operation_status": 1, "rating": null, "neighborhood": null, "image": null, "scorecard": null, "featured": false, "sample_categories": "Restaurants", "public_id": "chili-llc-douglasville", "id": 809001270, "votes": null, "tagline": null, "has_video": false, "website": null, "offers": null, "latitude": 33.695226, "politanName": "Atlanta, GA Metro ", "phone_number": "6787153443", "tags": [{"primary": true, "id": 1722, "name": "Restaurants"}], "fax_number": null, "expansion": {"count": null, "uri": null}, "impression_id": "000b0000008e194c89c8ef4373b311db8186d92448", "profile": "http://www.citysearch.com/profile/809001270/douglasville_ga/chili_llc.html", "address": {"city": "Douglasville", "state": "GA", "street": "3811 Highway 166", "postal_code": "30135"}, "capProviderId": null, "distance": null, "has_offers": false, "name": "Chili LLC", "longitude": -84.665579, "has_menu": false, "awards": null, "user_review_count": 0}, {"business_operation_status": 1, "rating": null, "neighborhood": "Southwest, Southwest", "image": null, "scorecard": null, "featured": false, "sample_categories": "Luaus", "public_id": "number-one-china-atlanta", "id": 819617710, "votes": null, "tagline": null, "has_video": false, "website": null, "offers": null, "latitude": 33.752751, "politanName": "Atlanta, GA Metro ", "phone_number": "4044723550", "tags": [{"primary": true, "id": 11285, "name": "Luaus"}], "fax_number": null, "expansion": {"count": null, "uri": null}, "impression_id": "000b000000d920e91502974476ab1654a07e684f62", "profile": "http://www.citysearch.com/profile/819617710/atlanta_ga/number_one_china.html", "address": {"city": "Atlanta", "state": "GA", "street": "3024 Martin L King Jr Dr SW", "postal_code": "30311"}, "capProviderId": null, "distance": null, "has_offers": false, "name": "NUMBER ONE CHINA", "longitude": -84.486156, "has_menu": false, "awards": null, "user_review_count": 0}, {"business_operation_status": 1, "rating": null, "neighborhood": null, "image": null, "scorecard": null, "featured": false, "sample_categories": "Restaurants", "public_id": "flight-deck-cafe-atlanta", "id": 821291530, "votes": null, "tagline": null, "has_video": false, "website": null, "offers": null, "latitude": 33.774718, "politanName": "Atlanta, GA Metro ", "phone_number": "4046997730", "tags": [{"primary": true, "id": 1722, "name": "Restaurants"}], "fax_number": null, "expansion": {"count": null, "uri": null}, "impression_id": "000b00000008affc1a634f4191b06de195e0a92e2a", "profile": "http://www.citysearch.com/profile/821291530/atlanta_ga/flight_deck_cafe.html", "address": {"city": "Atlanta", "state": "GA", "street": "3952 Aviation Cir NW", "postal_code": "30336"}, "capProviderId": null, "distance": null, "has_offers": false, "name": "Flight Deck Cafe", "longitude": -84.520529, "has_menu": false, "awards": null, "user_review_count": 1}, {"business_operation_status": 1, "rating": null, "neighborhood": "Southwest, Southwest", "image": null, "scorecard": null, "featured": false, "sample_categories": "Restaurants", "public_id": "mrs-winners-chkn-biscuits-605-atlanta", "id": 824219850, "votes": null, "tagline": null, "has_video": false, "website": null, "offers": null, "latitude": 33.698565, "politanName": "Atlanta, GA Metro ", "phone_number": "4045057557", "tags": [{"primary": true, "id": 1722, "name": "Restaurants"}], "fax_number": null, "expansion": {"count": null, "uri": null}, "impression_id": "000b0000004ab933aa7dd34d83b43896edae368aa8", "profile": "http://www.citysearch.com/profile/824219850/atlanta_ga/mrs_winners_chkn_biscuits_605.html", "address": {"city": "Atlanta", "state": "GA", "street": "1005 Res Ctr Atl Dr SW", "postal_code": "30331"}, "capProviderId": null, "distance": null, "has_offers": false, "name": "Mrs Winners Chkn Biscuits 605", "longitude": -84.543187, "has_menu": false, "awards": null, "user_review_count": 0}, {"business_operation_status": 1, "rating": null, "neighborhood": null, "image": null, "scorecard": null, "featured": false, "sample_categories": "Restaurants", "public_id": "blackstone-restaurant-smyrna-2", "id": 830377620, "votes": null, "tagline": null, "has_video": false, "website": null, "offers": null, "latitude": 33.838806, "politanName": "Atlanta, GA Metro ", "phone_number": "7707946100", "tags": [{"primary": true, "id": 1722, "name": "Restaurants"}], "fax_number": null, "expansion": {"count": null, "uri": null}, "impression_id": "000b0000004d678123badf4014906c8ac768a4b7d9", "profile": "http://www.citysearch.com/profile/830377620/smyrna_ga/blackstone_restaurant.html", "address": {"city": "Smyrna", "state": "GA", "street": "4686 S Atlanta Rd SE # C", "postal_code": "30080"}, "capProviderId": null, "distance": null, "has_offers": false, "name": "Blackstone Restaurant", "longitude": -84.483334, "has_menu": false, "awards": null, "user_review_count": 0}, {"business_operation_status": 1, "rating": null, "neighborhood": null, "image": null, "scorecard": null, "featured": false, "sample_categories": "Restaurants", "public_id": "jonesgissendanner-catfish-smyrna", "id": 827366690, "votes": null, "tagline": null, "has_video": false, "website": null, "offers": null, "latitude": 33.869097, "politanName": "Atlanta, GA Metro ", "phone_number": "6785943257", "tags": [{"primary": true, "id": 1722, "name": "Restaurants"}], "fax_number": null, "expansion": {"count": null, "uri": null}, "impression_id": "000b0000009af90fcf7bc6461c9c279951a27b537f", "profile": "http://www.citysearch.com/profile/827366690/smyrna_ga/jones_gissendanner_catfish.html", "address": {"city": "Smyrna", "state": "GA", "street": "2 Villa CT SE", "postal_code": "30080"}, "capProviderId": null, "distance": null, "has_offers": false, "name": "Jones-Gissendanner Catfish", "longitude": -84.495999, "has_menu": false, "awards": null, "user_review_count": 0}, {"business_operation_status": 1, "rating": null, "neighborhood": null, "image": null, "scorecard": null, "featured": false, "sample_categories": "Restaurants", "public_id": "jmc-restaurant-distribution-atlanta", "id": 816880000, "votes": null, "tagline": null, "has_video": false, "website": null, "offers": null, "latitude": 33.743799, "politanName": "Atlanta, GA Metro ", "phone_number": "4046960245", "tags": [{"primary": true, "id": 1722, "name": "Restaurants"}], "fax_number": null, "expansion": {"count": null, "uri": null}, "impression_id": "000b000000d5de685445864ebca19f3a2886b5e501", "profile": "http://www.citysearch.com/profile/816880000/atlanta_ga/jmc_restaurant_distribution.html", "address": {"city": "Atlanta", "state": "GA", "street": "5250 Fulton Industrial Blvd SW", "postal_code": "30336"}, "capProviderId": null, "distance": null, "has_offers": false, "name": "Jmc Restaurant Distribution", "longitude": -84.559986, "has_menu": false, "awards": null, "user_review_count": 0}, {"business_operation_status": 1, "rating": null, "neighborhood": "Northside, Northside", "image": null, "scorecard": null, "featured": false, "sample_categories": "Restaurants, Mexican, Carry Out", "public_id": "chipotle-mexican-grill-atlanta-10", "id": 764910450, "votes": null, "tagline": null, "has_video": false, "website": "http://www.citysearch.com/profile/external/764910450/atlanta_ga/chipotle_mexican_grill.html", "offers": null, "latitude": 33.810195, "politanName": "Atlanta, GA Metro ", "phone_number": "4043519175", "tags": [{"primary": false, "id": 11208, "name": "Mexican"}, {"primary": false, "id": 11247, "name": "Carry Out"}, {"primary": true, "id": 1722, "name": "Restaurants"}], "fax_number": null, "expansion": {"count": null, "uri": null}, "impression_id": "000b0000007e9207722d014378ab2fea5ceab70a89", "profile": "http://www.citysearch.com/profile/764910450/atlanta_ga/chipotle_mexican_grill.html", "address": {"city": "Atlanta", "state": "GA", "street": "2020 Howell Mill Rd NW", "postal_code": "30318"}, "capProviderId": null, "distance": null, "has_offers": false, "name": "Chipotle Mexican Grill", "longitude": -84.414711, "has_menu": false, "awards": null, "user_review_count": 0}, {"business_operation_status": 1, "rating": null, "neighborhood": null, "image": null, "scorecard": null, "featured": false, "sample_categories": "Restaurants", "public_id": "new-york-deli-smyrna", "id": 838123390, "votes": null, "tagline": null, "has_video": false, "website": null, "offers": null, "latitude": 33.839674, "politanName": "Atlanta, GA Metro ", "phone_number": "7704058696", "tags": [{"primary": true, "id": 1722, "name": "Restaurants"}], "fax_number": null, "expansion": {"count": null, "uri": null}, "impression_id": "000b000000f3b5e7339c2f42e9a44854a24c74a71e", "profile": "http://www.citysearch.com/profile/838123390/smyrna_ga/new_york_deli.html", "address": {"city": "Smyrna", "state": "GA", "street": "4691 S Atlanta Rd SE # 150", "postal_code": "30080"}, "capProviderId": null, "distance": null, "has_offers": false, "name": "New York Deli", "longitude": -84.483302, "has_menu": false, "awards": null, "user_review_count": 0}, {"business_operation_status": 1, "rating": 6.0, "neighborhood": "Highlands Park", "image": null, "scorecard": null, "featured": false, "sample_categories": "Restaurants, Bakeries, Carry Out", "public_id": "atlanta-bread-company-smyrna", "id": 2924474, "votes": null, "tagline": null, "has_video": false, "website": "http://www.citysearch.com/profile/external/2924474/smyrna_ga/atlanta_bread_company.html", "offers": null, "latitude": 33.832362, "politanName": "Atlanta, GA Metro ", "phone_number": "7704314994", "tags": [{"primary": false, "id": 1685, "name": "Bakeries"}, {"primary": false, "id": 11247, "name": "Carry Out"}, {"primary": true, "id": 1722, "name": "Restaurants"}], "fax_number": null, "expansion": {"count": null, "uri": null}, "impression_id": "000b0000006a3d4edafa5f46d28ade7afc9b3eaab4", "profile": "http://www.citysearch.com/profile/2924474/smyrna_ga/atlanta_bread_company.html", "address": {"city": "Smyrna", "state": "GA", "street": "1200 Wilson Way SE", "postal_code": "30082"}, "capProviderId": null, "distance": null, "has_offers": false, "name": "Atlanta Bread Company", "longitude": -84.50764, "has_menu": true, "awards": null, "user_review_count": 1}, {"business_operation_status": 1, "rating": null, "neighborhood": null, "image": null, "scorecard": null, "featured": false, "sample_categories": "Restaurants", "public_id": "puras-portas-corporate-office-austell", "id": 819677350, "votes": null, "tagline": null, "has_video": false, "website": null, "offers": null, "latitude": 33.785267, "politanName": "Atlanta, GA Metro ", "phone_number": "7709485711", "tags": [{"primary": true, "id": 1722, "name": "Restaurants"}], "fax_number": null, "expansion": {"count": null, "uri": null}, "impression_id": "000b00000086370dfa2ff947a295692e5b4c0c2f74", "profile": "http://www.citysearch.com/profile/819677350/austell_ga/puras_portas_corporate_office.html", "address": {"city": "Austell", "state": "GA", "street": "6955 Oak Ridge Pkwy", "postal_code": "30168"}, "capProviderId": null, "distance": null, "has_offers": false, "name": "Puras Portas Corporate Office", "longitude": -84.607051, "has_menu": false, "awards": null, "user_review_count": 0}, {"business_operation_status": 1, "rating": null, "neighborhood": null, "image": null, "scorecard": null, "featured": false, "sample_categories": "Restaurants, Catering, Barbecue Restaurants", "public_id": "sonnys-real-pit-barbq-austell", "id": 827597680, "votes": null, "tagline": null, "has_video": false, "website": null, "offers": null, "latitude": 33.854519, "politanName": "Atlanta, GA Metro ", "phone_number": "7707457240", "tags": [{"primary": false, "id": 1705, "name": "Catering"}, {"primary": false, "id": 1724, "name": "Barbecue Restaurants"}, {"primary": true, "id": 1722, "name": "Restaurants"}], "fax_number": null, "expansion": {"count": null, "uri": null}, "impression_id": "000b000000be786f2f3d11432d8c780815fecc843d", "profile": "http://www.citysearch.com/profile/827597680/austell_ga/sonny_s_real_pit_bar_b_q.html", "address": {"city": "Austell", "state": "GA", "street": "1804 E West Connector", "postal_code": "30106"}, "capProviderId": null, "distance": null, "has_offers": false, "name": "Sonny's Real Pit Bar-B-Q", "longitude": -84.605012, "has_menu": true, "awards": null, "user_review_count": 0}], "histograms": [], "tag_ids": [1722], "uri": "http://api.citygridmedia.com:8080/search/places/v2/search/where?has_offers=false&type=restaurant&format=json&page=10&where=30126&rpp=50&histograms=false&publisher=10000009598&region_type=circle", "did_you_mean": "", "regions": [{"latitude": 33.816576999999995, "default_radius": 4.42, "type": "postal_code", "name": "30126", "longitude": -84.550635}], "call_id": "000b000000c9074ce682564925b7fdd52cbf71fb73", "first_hit": 451, "total_hits": 893, "geo_ids": [26301], "page": 10, "last_hit": 500}}