{"results": {"rpp": 50, "locations": [{"business_operation_status": 1, "rating": null, "neighborhood": "Northside, Northside", "image": null, "scorecard": null, "featured": false, "sample_categories": "Restaurants", "public_id": "whaleback-als-atlanta", "id": 764936690, "votes": null, "tagline": null, "has_video": false, "website": null, "offers": null, "latitude": 33.842181, "politanName": "Atlanta, GA Metro ", "phone_number": "4046099897", "tags": [{"primary": true, "id": 1722, "name": "Restaurants"}], "fax_number": null, "expansion": {"count": null, "uri": null}, "impression_id": "000b000000fd013ccbf58348778b45168568d6400c", "profile": "http://www.citysearch.com/profile/764936690/atlanta_ga/whaleback_als.html", "address": {"city": "Atlanta", "state": "GA", "street": "3193 Howell Mill Rd NW", "postal_code": "30327"}, "capProviderId": null, "distance": null, "has_offers": false, "name": "Whaleback Als", "longitude": -84.427827, "has_menu": false, "awards": null, "user_review_count": 0}, {"business_operation_status": 1, "rating": null, "neighborhood": null, "image": null, "scorecard": null, "featured": false, "sample_categories": "Restaurants", "public_id": "ragazzis-marietta", "id": 775214350, "votes": null, "tagline": null, "has_video": false, "website": null, "offers": null, "latitude": 33.863583, "politanName": "Atlanta, GA Metro ", "phone_number": "7704326846", "tags": [{"primary": true, "id": 1722, "name": "Restaurants"}], "fax_number": null, "expansion": {"count": null, "uri": null}, "impression_id": "000b0000007c611eb28f6e4315910be6d7dceb0d28", "profile": "http://www.citysearch.com/profile/775214350/marietta_ga/ragazzi_s.html", "address": {"city": "Marietta", "state": "GA", "street": "3696 Austell Rd SW", "postal_code": "30008"}, "capProviderId": null, "distance": null, "has_offers": false, "name": "Ragazzi's", "longitude": -84.595971, "has_menu": false, "awards": null, "user_review_count": 0}, {"business_operation_status": 1, "rating": null, "neighborhood": "Northside, Northside", "image": null, "scorecard": null, "featured": false, "sample_categories": "Restaurants", "public_id": "cafe-pavillion-atlanta", "id": 790898050, "votes": null, "tagline": null, "has_video": false, "website": null, "offers": null, "latitude": 33.842181, "politanName": "Atlanta, GA Metro ", "phone_number": "6789745537", "tags": [{"primary": true, "id": 1722, "name": "Restaurants"}], "fax_number": null, "expansion": {"count": null, "uri": null}, "impression_id": "000b00000016c5b21a9fa443d4bbbfb05521665775", "profile": "http://www.citysearch.com/profile/790898050/atlanta_ga/cafe_pavillion.html", "address": {"city": "Atlanta", "state": "GA", "street": "3193 Howell Mill Rd NW", "postal_code": "30327"}, "capProviderId": null, "distance": null, "has_offers": false, "name": "Cafe Pavillion", "longitude": -84.427827, "has_menu": false, "awards": null, "user_review_count": 0}, {"business_operation_status": 1, "rating": 8.0, "neighborhood": null, "image": null, "scorecard": null, "featured": false, "sample_categories": "Restaurants, Seafood", "public_id": "on-the-bay-seafood-restaurant-austell", "id": 43863836, "votes": null, "tagline": null, "has_video": false, "website": null, "offers": null, "latitude": 33.814998, "politanName": "Atlanta, GA Metro ", "phone_number": "7707391175", "tags": [{"primary": false, "id": 1722, "name": "Restaurants"}, {"primary": true, "id": 11228, "name": "Seafood"}], "fax_number": null, "expansion": {"count": null, "uri": null}, "impression_id": "000b00000098fa6523be624782832a2adc0cd8cb45", "profile": "http://www.citysearch.com/profile/43863836/austell_ga/on_the_bay_seafood_restaurant.html", "address": {"city": "Austell", "state": "GA", "street": "5742 Austell Powder Springs Rd", "postal_code": "30106"}, "capProviderId": null, "distance": null, "has_offers": false, "name": "On The Bay Seafood Restaurant", "longitude": -84.635173, "has_menu": false, "awards": null, "user_review_count": 0}, {"business_operation_status": 1, "rating": null, "neighborhood": null, "image": null, "scorecard": null, "featured": false, "sample_categories": "Ice Cream Parlors, Restaurants, Dessert Shops, Information & Referral Services", "public_id": "j-t-ice-cream-marietta", "id": 43838545, "votes": null, "tagline": null, "has_video": false, "website": null, "offers": null, "latitude": 33.883858, "politanName": "Atlanta, GA Metro ", "phone_number": "7708607124", "tags": [{"primary": false, "id": 1722, "name": "Restaurants"}, {"primary": false, "id": 1728, "name": "Dessert Shops"}, {"primary": false, "id": 624, "name": "Information & Referral Services"}, {"primary": true, "id": 1730, "name": "Ice Cream Parlors"}], "fax_number": null, "expansion": {"count": null, "uri": null}, "impression_id": "000b000000988a44618fbc4c23884e12de65d50145", "profile": "http://www.citysearch.com/profile/43838545/marietta_ga/j_t_ice_cream.html", "address": {"city": "Marietta", "state": "GA", "street": "2879 Lakemont Dr SW", "postal_code": "30060"}, "capProviderId": null, "distance": null, "has_offers": false, "name": "J & T Ice Cream", "longitude": -84.554682, "has_menu": false, "awards": null, "user_review_count": 0}, {"business_operation_status": 1, "rating": null, "neighborhood": null, "image": null, "scorecard": null, "featured": false, "sample_categories": "Restaurants", "public_id": "houstons-restaurants-del-smyrna", "id": 810805950, "votes": null, "tagline": null, "has_video": false, "website": null, "offers": null, "latitude": 33.852594, "politanName": "Atlanta, GA Metro ", "phone_number": "7703338377", "tags": [{"primary": true, "id": 1722, "name": "Restaurants"}], "fax_number": null, "expansion": {"count": null, "uri": null}, "impression_id": "000b00000087a6cb456b17483093e677b48d2f0621", "profile": "http://www.citysearch.com/profile/810805950/smyrna_ga/houstons_restaurants_del.html", "address": {"city": "Smyrna", "state": "GA", "street": "4112 Oberon Dr SE", "postal_code": "30080"}, "capProviderId": null, "distance": null, "has_offers": false, "name": "Houstons Restaurants Del", "longitude": -84.487327, "has_menu": false, "awards": null, "user_review_count": 0}, {"business_operation_status": 1, "rating": null, "neighborhood": "Southwest, Southwest", "image": null, "scorecard": null, "featured": false, "sample_categories": "Restaurants", "public_id": "e-b-enterprise-inc-atlanta", "id": 812756610, "votes": null, "tagline": null, "has_video": false, "website": null, "offers": null, "latitude": 33.708988, "politanName": "Atlanta, GA Metro ", "phone_number": "4046295774", "tags": [{"primary": true, "id": 1722, "name": "Restaurants"}], "fax_number": null, "expansion": {"count": null, "uri": null}, "impression_id": "000b000000e85d2491dc8644ee88043052986b5d32", "profile": "http://www.citysearch.com/profile/812756610/atlanta_ga/e_b_enterprise_inc.html", "address": {"city": "Atlanta", "state": "GA", "street": "330 Hidden Oak CT SW", "postal_code": "30331"}, "capProviderId": null, "distance": null, "has_offers": false, "name": "E B Enterprise Inc", "longitude": -84.542917, "has_menu": false, "awards": null, "user_review_count": 0}, {"business_operation_status": 1, "rating": null, "neighborhood": null, "image": null, "scorecard": null, "featured": false, "sample_categories": "Restaurants", "public_id": "mels-atlanta", "id": 810279390, "votes": null, "tagline": null, "has_video": false, "website": null, "offers": null, "latitude": 33.764562, "politanName": "Atlanta, GA Metro ", "phone_number": "4046912221", "tags": [{"primary": true, "id": 1722, "name": "Restaurants"}], "fax_number": null, "expansion": {"count": null, "uri": null}, "impression_id": "000b000000e617ba5bc49344b69a15d59f37d54616", "profile": "http://www.citysearch.com/profile/810279390/atlanta_ga/mel_s.html", "address": {"city": "Atlanta", "state": "GA", "street": "4403 Fulton Industrial Blvd SW", "postal_code": "30336"}, "capProviderId": null, "distance": null, "has_offers": false, "name": "Mel's", "longitude": -84.531854, "has_menu": false, "awards": null, "user_review_count": 0}, {"business_operation_status": 1, "rating": null, "neighborhood": "Northside, Northside", "image": null, "scorecard": null, "featured": false, "sample_categories": "Restaurants, Food Stores, Mexican, MasterCard, Visa", "public_id": "carniceria-ramirez-atlanta", "id": 43873739, "votes": null, "tagline": null, "has_video": false, "website": null, "offers": null, "latitude": 33.820552, "politanName": "Atlanta, GA Metro ", "phone_number": "4043556160", "tags": [{"primary": false, "id": 1706, "name": "Food Stores"}, {"primary": false, "id": 11208, "name": "Mexican"}, {"primary": false, "id": 11361, "name": "MasterCard"}, {"primary": false, "id": 11382, "name": "Visa"}, {"primary": true, "id": 1722, "name": "Restaurants"}], "fax_number": null, "expansion": {"count": null, "uri": null}, "impression_id": "000b0000009e93c577159d4b07b153d4faaca74d17", "profile": "http://www.citysearch.com/profile/43873739/atlanta_ga/carniceria_ramirez.html", "address": {"city": "Atlanta", "state": "GA", "street": "2600 Bolton Rd NW", "postal_code": "30318"}, "capProviderId": null, "distance": null, "has_offers": false, "name": "Carniceria Ramirez", "longitude": -84.45, "has_menu": false, "awards": null, "user_review_count": 1}, {"business_operation_status": 1, "rating": null, "neighborhood": null, "image": null, "scorecard": null, "featured": false, "sample_categories": "Restaurants, Delis And Delicatessens, Sandwich Shops, Carry Out, Soups", "public_id": "subway-smyrna-7", "id": 43839574, "votes": null, "tagline": null, "has_video": false, "website": "http://www.citysearch.com/profile/external/43839574/smyrna_ga/subway.html", "offers": null, "latitude": 33.838117, "politanName": "Atlanta, GA Metro ", "phone_number": "4047991300", "tags": [{"primary": false, "id": 1727, "name": "Delis And Delicatessens"}, {"primary": false, "id": 1736, "name": "Sandwich Shops"}, {"primary": false, "id": 11247, "name": "Carry Out"}, {"primary": false, "id": 11311, "name": "Soups"}, {"primary": false, "id": 11333, "name": "American Express"}, {"primary": false, "id": 11349, "name": "Discover"}, {"primary": false, "id": 11361, "name": "MasterCard"}, {"primary": false, "id": 11382, "name": "Visa"}, {"primary": true, "id": 1722, "name": "Restaurants"}], "fax_number": null, "expansion": {"count": null, "uri": null}, "impression_id": "000b000000ea2282807c4a4a4fad6038e2c14a06ba", "profile": "http://www.citysearch.com/profile/43839574/smyrna_ga/subway.html", "address": {"city": "Smyrna", "state": "GA", "street": "4725 S Atlanta Rd SE Ste D", "postal_code": "30080"}, "capProviderId": null, "distance": null, "has_offers": false, "name": "Subway", "longitude": -84.480226, "has_menu": true, "awards": null, "user_review_count": 0}, {"business_operation_status": 1, "rating": null, "neighborhood": null, "image": null, "scorecard": null, "featured": false, "sample_categories": "Restaurants, Delis And Delicatessens, Sandwich Shops, Carry Out, Soups", "public_id": "subway-marietta-23", "id": 45988791, "votes": null, "tagline": null, "has_video": false, "website": "http://www.citysearch.com/profile/external/45988791/marietta_ga/subway.html", "offers": null, "latitude": 33.868309, "politanName": "Atlanta, GA Metro ", "phone_number": "6783841428", "tags": [{"primary": false, "id": 1727, "name": "Delis And Delicatessens"}, {"primary": false, "id": 1736, "name": "Sandwich Shops"}, {"primary": false, "id": 11247, "name": "Carry Out"}, {"primary": false, "id": 11311, "name": "Soups"}, {"primary": true, "id": 1722, "name": "Restaurants"}], "fax_number": null, "expansion": {"count": null, "uri": null}, "impression_id": "000b0000002a36fe86e0d9474cb18ae16c47abd52b", "profile": "http://www.citysearch.com/profile/45988791/marietta_ga/subway.html", "address": {"city": "Marietta", "state": "GA", "street": "6520 Ernest W Barrett Pkwy SW", "postal_code": "30064"}, "capProviderId": null, "distance": null, "has_offers": false, "name": "Subway", "longitude": -84.632278, "has_menu": true, "awards": null, "user_review_count": 0}, {"business_operation_status": 1, "rating": null, "neighborhood": null, "image": null, "scorecard": null, "featured": false, "sample_categories": "Restaurants, Pizza, Carry Out", "public_id": "dominos-pizza-austell-2", "id": 619755814, "votes": null, "tagline": null, "has_video": false, "website": "http://www.citysearch.com/profile/external/619755814/austell_ga/domino_s_pizza.html", "offers": null, "latitude": 33.798057, "politanName": "Atlanta, GA Metro ", "phone_number": "7709441111", "tags": [{"primary": false, "id": 1722, "name": "Restaurants"}, {"primary": false, "id": 11247, "name": "Carry Out"}, {"primary": true, "id": 11299, "name": "Pizza"}], "fax_number": null, "expansion": {"count": null, "uri": null}, "impression_id": "000b000000ae91720757234dcd9bc58fcc04b1484b", "profile": "http://www.citysearch.com/profile/619755814/austell_ga/domino_s_pizza.html", "address": {"city": "Austell", "state": "GA", "street": "3046 Bankhead Hwy", "postal_code": "30168"}, "capProviderId": null, "distance": null, "has_offers": false, "name": "Domino's Pizza", "longitude": -84.642153, "has_menu": true, "awards": null, "user_review_count": 0}, {"business_operation_status": 1, "rating": null, "neighborhood": null, "image": null, "scorecard": null, "featured": false, "sample_categories": "Restaurants, Carry Out, Chicken", "public_id": "bojangles-famous-chicken-lithia", "id": 748313860, "votes": null, "tagline": null, "has_video": false, "website": "http://www.citysearch.com/profile/external/748313860/lithia_springs_ga/bojangles_famous_chicken.html", "offers": null, "latitude": 33.779843, "politanName": "Atlanta, GA Metro ", "phone_number": "7707459090", "tags": [{"primary": false, "id": 11247, "name": "Carry Out"}, {"primary": false, "id": 12839, "name": "Chicken"}, {"primary": true, "id": 1722, "name": "Restaurants"}], "fax_number": null, "expansion": {"count": null, "uri": null}, "impression_id": "000b000000639b4d802a1e4b72be9fdb90eea3ccdd", "profile": "http://www.citysearch.com/profile/748313860/lithia_springs_ga/bojangles_famous_chicken.html", "address": {"city": "Lithia Springs", "state": "GA", "street": "885 Thornton Rd", "postal_code": "30122"}, "capProviderId": null, "distance": null, "has_offers": false, "name": "Bojangles' Famous Chicken", "longitude": -84.608462, "has_menu": false, "awards": null, "user_review_count": 0}, {"business_operation_status": 0, "rating": null, "neighborhood": null, "image": null, "scorecard": null, "featured": false, "sample_categories": "Restaurants, Carry Out", "public_id": "cheesecake-factory-marietta", "id": 739060620, "votes": null, "tagline": null, "has_video": false, "website": null, "offers": null, "latitude": 33.879177, "politanName": "Atlanta, GA Metro ", "phone_number": "7704371190", "tags": [{"primary": false, "id": 11247, "name": "Carry Out"}, {"primary": true, "id": 1722, "name": "Restaurants"}], "fax_number": null, "expansion": {"count": null, "uri": null}, "impression_id": "000b00000083cb54253880458eabeb7293813a2363", "profile": "http://www.citysearch.com/profile/739060620/marietta_ga/cheesecake_factory.html", "address": {"city": "Marietta", "state": "GA", "street": "1562 Milford Creek Ln SW", "postal_code": "30008"}, "capProviderId": null, "distance": null, "has_offers": false, "name": "Cheesecake Factory", "longitude": -84.599961, "has_menu": false, "awards": null, "user_review_count": 0}, {"business_operation_status": 1, "rating": null, "neighborhood": null, "image": null, "scorecard": null, "featured": false, "sample_categories": "Restaurants, Asian", "public_id": "china-express-blue-ocean-atlanta", "id": 751313180, "votes": null, "tagline": null, "has_video": false, "website": null, "offers": null, "latitude": 33.768682, "politanName": "Atlanta, GA Metro ", "phone_number": "6789748977", "tags": [{"primary": false, "id": 11235, "name": "Asian"}, {"primary": true, "id": 1722, "name": "Restaurants"}], "fax_number": null, "expansion": {"count": null, "uri": null}, "impression_id": "000b000000ac3f5cd6ba8b4fb581269eb895f43123", "profile": "http://www.citysearch.com/profile/751313180/atlanta_ga/china_express_blue_ocean.html", "address": {"city": "Atlanta", "state": "GA", "street": "4155 Fulton Industrial Blvd SW", "postal_code": "30336"}, "capProviderId": null, "distance": null, "has_offers": false, "name": "China Express Blue Ocean", "longitude": -84.523698, "has_menu": false, "awards": null, "user_review_count": 0}, {"business_operation_status": 1, "rating": null, "neighborhood": null, "image": null, "scorecard": null, "featured": false, "sample_categories": "Restaurants, Pizza, American Express, Debit Card, Discover", "public_id": "stevi-bs-pizza-smyrna", "id": 655867830, "votes": null, "tagline": null, "has_video": false, "website": "http://www.citysearch.com/profile/external/655867830/smyrna_ga/stevi_b_s_pizza.html", "offers": null, "latitude": 33.84362, "politanName": "Atlanta, GA Metro ", "phone_number": "7703198600", "tags": [{"primary": false, "id": 1722, "name": "Restaurants"}, {"primary": false, "id": 11333, "name": "American Express"}, {"primary": false, "id": 11347, "name": "Debit Card"}, {"primary": false, "id": 11349, "name": "Discover"}, {"primary": false, "id": 11361, "name": "MasterCard"}, {"primary": false, "id": 11382, "name": "Visa"}, {"primary": true, "id": 11299, "name": "Pizza"}], "fax_number": null, "expansion": {"count": null, "uri": null}, "impression_id": "000b00000068eb818327b84ef8b952f7e252ab01e0", "profile": "http://www.citysearch.com/profile/655867830/smyrna_ga/stevi_b_s_pizza.html", "address": {"city": "Smyrna", "state": "GA", "street": "4480 S Cobb Dr Se", "postal_code": "30080"}, "capProviderId": null, "distance": null, "has_offers": false, "name": "Stevi B's Pizza", "longitude": -84.503397, "has_menu": true, "awards": null, "user_review_count": 0}, {"business_operation_status": 1, "rating": null, "neighborhood": null, "image": null, "scorecard": null, "featured": false, "sample_categories": "Restaurants, Japanese", "public_id": "yuki-japanese-restaurant-lithia", "id": 777807160, "votes": null, "tagline": null, "has_video": false, "website": null, "offers": null, "latitude": 33.790812, "politanName": "Atlanta, GA Metro ", "phone_number": "7707321212", "tags": [{"primary": false, "id": 11202, "name": "Japanese"}, {"primary": true, "id": 1722, "name": "Restaurants"}], "fax_number": null, "expansion": {"count": null, "uri": null}, "impression_id": "000b000000e17fdcf3cb4f4652843267e44969f803", "profile": "http://www.citysearch.com/profile/777807160/lithia_springs_ga/yuki_japanese_restaurant.html", "address": {"city": "Lithia Springs", "state": "GA", "street": "470 Westfork Blvd", "postal_code": "30122"}, "capProviderId": null, "distance": null, "has_offers": false, "name": "Yuki Japanese Restaurant", "longitude": -84.62506, "has_menu": true, "awards": null, "user_review_count": 1}, {"business_operation_status": 1, "rating": null, "neighborhood": null, "image": null, "scorecard": null, "featured": false, "sample_categories": "Restaurants", "public_id": "hot-skillet-marietta", "id": 798833310, "votes": null, "tagline": null, "has_video": false, "website": null, "offers": null, "latitude": 33.883313, "politanName": "Atlanta, GA Metro ", "phone_number": "4043746897", "tags": [{"primary": true, "id": 1722, "name": "Restaurants"}], "fax_number": null, "expansion": {"count": null, "uri": null}, "impression_id": "000b0000005ccaea66496842ab9517ba9afe633379", "profile": "http://www.citysearch.com/profile/798833310/marietta_ga/hot_skillet.html", "address": {"city": "Marietta", "state": "GA", "street": "2200 Powder Springs Rd Sw", "postal_code": "30064"}, "capProviderId": null, "distance": null, "has_offers": false, "name": "Hot Skillet", "longitude": -84.620092, "has_menu": false, "awards": null, "user_review_count": 0}, {"business_operation_status": 1, "rating": null, "neighborhood": null, "image": null, "scorecard": null, "featured": false, "sample_categories": "Restaurants", "public_id": "atlanta-leftovers-inc-powder", "id": 732147950, "votes": null, "tagline": null, "has_video": false, "website": null, "offers": null, "latitude": 33.814495, "politanName": "Atlanta, GA Metro ", "phone_number": "6786137741", "tags": [{"primary": true, "id": 1722, "name": "Restaurants"}], "fax_number": null, "expansion": {"count": null, "uri": null}, "impression_id": "000b00000008f0a219863e48b587912de206128e7f", "profile": "http://www.citysearch.com/profile/732147950/powder_springs_ga/atlanta_leftovers_inc.html", "address": {"city": "Powder Springs", "state": "GA", "street": "5430 Beaver Lake Dr", "postal_code": "30127"}, "capProviderId": null, "distance": null, "has_offers": false, "name": "Atlanta Leftovers Inc", "longitude": -84.715276, "has_menu": false, "awards": null, "user_review_count": 0}, {"business_operation_status": 1, "rating": null, "neighborhood": null, "image": null, "scorecard": null, "featured": false, "sample_categories": "Restaurants", "public_id": "cancun-seafood-restaurant-smyrna", "id": 807595980, "votes": null, "tagline": null, "has_video": false, "website": null, "offers": null, "latitude": 33.894868, "politanName": "Atlanta, GA Metro ", "phone_number": "7704360565", "tags": [{"primary": true, "id": 1722, "name": "Restaurants"}], "fax_number": null, "expansion": {"count": null, "uri": null}, "impression_id": "000b000000448d868608c343d2a47ca8696d69aa0c", "profile": "http://www.citysearch.com/profile/807595980/smyrna_ga/cancun_seafood_restaurant.html", "address": {"city": "Smyrna", "state": "GA", "street": "1005 Windy Hill Rd SE", "postal_code": "30080"}, "capProviderId": null, "distance": null, "has_offers": false, "name": "Cancun Seafood Restaurant", "longitude": -84.523746, "has_menu": false, "awards": null, "user_review_count": 0}, {"business_operation_status": 1, "rating": null, "neighborhood": null, "image": null, "scorecard": null, "featured": false, "sample_categories": "Restaurants", "public_id": "caribbean-paradise-austell", "id": 827239180, "votes": null, "tagline": null, "has_video": false, "website": null, "offers": null, "latitude": 33.816141, "politanName": "Atlanta, GA Metro ", "phone_number": "7707392212", "tags": [{"primary": true, "id": 1722, "name": "Restaurants"}], "fax_number": null, "expansion": {"count": null, "uri": null}, "impression_id": "000b000000fd89c66cd43f4c1aadcad098a0ea3d42", "profile": "http://www.citysearch.com/profile/827239180/austell_ga/caribbean_paradise.html", "address": {"city": "Austell", "state": "GA", "street": "6205 Veterans Memorial Hwy SW", "postal_code": "30168"}, "capProviderId": null, "distance": null, "has_offers": false, "name": "Caribbean Paradise", "longitude": -84.619745, "has_menu": false, "awards": null, "user_review_count": 0}, {"business_operation_status": 1, "rating": null, "neighborhood": "Northside, Northside", "image": null, "scorecard": null, "featured": false, "sample_categories": "Restaurants", "public_id": "carlyles-atlanta-3", "id": 787123100, "votes": null, "tagline": null, "has_video": false, "website": "http://www.citysearch.com/profile/external/787123100/atlanta_ga/carlyle_s.html", "offers": null, "latitude": 33.79921, "politanName": "Atlanta, GA Metro ", "phone_number": "4048724231", "tags": [{"primary": true, "id": 1722, "name": "Restaurants"}], "fax_number": null, "expansion": {"count": null, "uri": null}, "impression_id": "000b000000f372a85f7bd54e718fa3138c9849501f", "profile": "http://www.citysearch.com/profile/787123100/atlanta_ga/carlyle_s.html", "address": {"city": "Atlanta", "state": "GA", "street": "1500 Southland Cir NW # M", "postal_code": "30318"}, "capProviderId": null, "distance": null, "has_offers": false, "name": "Carlyle's", "longitude": -84.432104, "has_menu": false, "awards": null, "user_review_count": 0}, {"business_operation_status": 1, "rating": null, "neighborhood": null, "image": null, "scorecard": null, "featured": false, "sample_categories": "Restaurants, Mexican", "public_id": "las-tortas-smyrna", "id": 36642548, "votes": null, "tagline": null, "has_video": false, "website": null, "offers": null, "latitude": 33.894337, "politanName": "Atlanta, GA Metro ", "phone_number": "7708050304", "tags": [{"primary": false, "id": 11208, "name": "Mexican"}, {"primary": true, "id": 1722, "name": "Restaurants"}], "fax_number": null, "expansion": {"count": null, "uri": null}, "impression_id": "000b000000ee49c5ff2347425da09cf725034a81fe", "profile": "http://www.citysearch.com/profile/36642548/smyrna_ga/las_tortas.html", "address": {"city": "Smyrna", "state": "GA", "street": "1026 Windy Hill Rd SE", "postal_code": "30080"}, "capProviderId": null, "distance": null, "has_offers": false, "name": "Las Tortas", "longitude": -84.523128, "has_menu": false, "awards": null, "user_review_count": 0}, {"business_operation_status": 1, "rating": null, "neighborhood": "Southwest, Southwest", "image": null, "scorecard": null, "featured": false, "sample_categories": "Restaurants", "public_id": "gorilla-hoagie-atlanta", "id": 37308079, "votes": null, "tagline": null, "has_video": false, "website": null, "offers": null, "latitude": 33.752906, "politanName": "Atlanta, GA Metro ", "phone_number": "4046914448", "tags": [{"primary": true, "id": 1722, "name": "Restaurants"}], "fax_number": null, "expansion": {"count": null, "uri": null}, "impression_id": "000b000000a4177536095c4b4bad9bbd9f45a7fafc", "profile": "http://www.citysearch.com/profile/37308079/atlanta_ga/gorilla_hoagie.html", "address": {"city": "Atlanta", "state": "GA", "street": "3024 Martin Luther King Jr SW", "postal_code": "30311"}, "capProviderId": null, "distance": null, "has_offers": false, "name": "Gorilla Hoagie", "longitude": -84.485967, "has_menu": false, "awards": null, "user_review_count": 0}, {"business_operation_status": 1, "rating": null, "neighborhood": null, "image": null, "scorecard": null, "featured": false, "sample_categories": "Restaurants, Barbecue Restaurants", "public_id": "halftime-wings-austell", "id": 801133720, "votes": null, "tagline": null, "has_video": false, "website": null, "offers": null, "latitude": 33.776643, "politanName": "Atlanta, GA Metro ", "phone_number": "7709418000", "tags": [{"primary": false, "id": 1724, "name": "Barbecue Restaurants"}, {"primary": true, "id": 1722, "name": "Restaurants"}], "fax_number": null, "expansion": {"count": null, "uri": null}, "impression_id": "000b000000cead1c0c8d6243cf922c20f9656d5964", "profile": "http://www.citysearch.com/profile/801133720/austell_ga/halftime_wings.html", "address": {"city": "Austell", "state": "GA", "street": "361 Six Flags Dr", "postal_code": "30168"}, "capProviderId": null, "distance": null, "has_offers": false, "name": "Halftime Wings", "longitude": -84.565938, "has_menu": false, "awards": null, "user_review_count": 0}, {"business_operation_status": 1, "rating": null, "neighborhood": null, "image": null, "scorecard": null, "featured": false, "sample_categories": "Health Food Stores, Restaurants, Health Food Stores", "public_id": "smoothie-king-austell", "id": 601307784, "votes": null, "tagline": null, "has_video": false, "website": "http://www.citysearch.com/profile/external/601307784/austell_ga/smoothie_king.html", "offers": null, "latitude": 33.866983, "politanName": "Atlanta, GA Metro ", "phone_number": "7704395464", "tags": [{"primary": false, "id": 1722, "name": "Restaurants"}, {"primary": false, "id": 17570, "name": "Health Food Stores"}, {"primary": true, "id": 1716, "name": "Health Food Stores"}], "fax_number": null, "expansion": {"count": null, "uri": null}, "impression_id": "000b0000001f3148ef196d4d4bb62536e1e96eebee", "profile": "http://www.citysearch.com/profile/601307784/austell_ga/smoothie_king.html", "address": {"city": "Austell", "state": "GA", "street": "2840 E West Connector 340", "postal_code": "30106"}, "capProviderId": null, "distance": null, "has_offers": false, "name": "Smoothie King", "longitude": -84.624721, "has_menu": false, "awards": null, "user_review_count": 0}, {"business_operation_status": 0, "rating": null, "neighborhood": null, "image": null, "scorecard": null, "featured": false, "sample_categories": "Restaurants", "public_id": "atlanta-ribs-smyrna", "id": 672295420, "votes": null, "tagline": null, "has_video": false, "website": null, "offers": null, "latitude": 33.841827, "politanName": "Atlanta, GA Metro ", "phone_number": "7704382886", "tags": [{"primary": true, "id": 1722, "name": "Restaurants"}], "fax_number": null, "expansion": {"count": null, "uri": null}, "impression_id": "000b000000b577093bbcf54c7aa6e9beed60658190", "profile": "http://www.citysearch.com/profile/672295420/smyrna_ga/atlanta_ribs.html", "address": {"city": "Smyrna", "state": "GA", "street": "4624 Camp Highland Rd SE # 700", "postal_code": "30082"}, "capProviderId": null, "distance": null, "has_offers": false, "name": "Atlanta Ribs", "longitude": -84.505595, "has_menu": false, "awards": null, "user_review_count": 1}, {"business_operation_status": 1, "rating": null, "neighborhood": "Highlands Park", "image": null, "scorecard": null, "featured": false, "sample_categories": "Restaurants", "public_id": "great-taste-noodle-house-smyrna", "id": 672374540, "votes": null, "tagline": null, "has_video": false, "website": null, "offers": null, "latitude": 33.842359, "politanName": "Atlanta, GA Metro ", "phone_number": null, "tags": [{"primary": true, "id": 1722, "name": "Restaurants"}], "fax_number": null, "expansion": {"count": null, "uri": null}, "impression_id": "000b0000001dcafbd033ce4447820a18e53eb6cee9", "profile": "http://www.citysearch.com/profile/672374540/smyrna_ga/great_taste_noodle_house.html", "address": {"city": "Smyrna", "state": "GA", "street": "5350 United Dr SE", "postal_code": "30082"}, "capProviderId": null, "distance": null, "has_offers": false, "name": "Great Taste Noodle House", "longitude": -84.524757, "has_menu": false, "awards": null, "user_review_count": 0}, {"business_operation_status": 0, "rating": null, "neighborhood": null, "image": null, "scorecard": null, "featured": false, "sample_categories": "Restaurants", "public_id": "chez-carmelle-pastry-restaurant-smyrna", "id": 672394340, "votes": null, "tagline": null, "has_video": false, "website": null, "offers": null, "latitude": 33.89429, "politanName": "Atlanta, GA Metro ", "phone_number": "7704384331", "tags": [{"primary": true, "id": 1722, "name": "Restaurants"}], "fax_number": null, "expansion": {"count": null, "uri": null}, "impression_id": "000b00000044c2c1aeabce425ebefd61f071519bfa", "profile": "http://www.citysearch.com/profile/672394340/smyrna_ga/chez_carmelle_pastry_restaurant.html", "address": {"city": "Smyrna", "state": "GA", "street": "560 Windy Hill Rd SE", "postal_code": "30080"}, "capProviderId": null, "distance": null, "has_offers": false, "name": "Chez Carmelle Pastry Restaurant", "longitude": -84.536945, "has_menu": false, "awards": null, "user_review_count": 0}, {"business_operation_status": 1, "rating": null, "neighborhood": "Northwest, Northwest", "image": null, "scorecard": null, "featured": false, "sample_categories": "Delis And Delicatessens, Restaurants", "public_id": "tillmans-deli-catering-atlanta", "id": 3024951, "votes": null, "tagline": null, "has_video": false, "website": null, "offers": null, "latitude": 33.791998, "politanName": "Atlanta, GA Metro ", "phone_number": "4046961302", "tags": [{"primary": false, "id": 1727, "name": "Delis And Delicatessens"}, {"primary": true, "id": 1722, "name": "Restaurants"}], "fax_number": null, "expansion": {"count": null, "uri": null}, "impression_id": "000b0000001f3c8c6303bb49d2b7b43f7a0990eaab", "profile": "http://www.citysearch.com/profile/3024951/atlanta_ga/tillman_s_deli_catering.html", "address": {"city": "Atlanta", "state": "GA", "street": "3201 Atlanta Industrial Pkwy NW", "postal_code": "30331"}, "capProviderId": null, "distance": null, "has_offers": false, "name": "Tillman's Deli & Catering", "longitude": -84.494999, "has_menu": false, "awards": null, "user_review_count": 0}, {"business_operation_status": 1, "rating": null, "neighborhood": null, "image": null, "scorecard": null, "featured": false, "sample_categories": "Restaurants, Seafood Markets, Italian Food Products, Italian, American Express", "public_id": "mezza-luna-pasta-seafood-smyrna", "id": 801105940, "votes": null, "tagline": null, "has_video": false, "website": "http://www.citysearch.com/profile/external/801105940/smyrna_ga/mezza_luna_pasta_and_seafood.html", "offers": null, "latitude": 33.882797, "politanName": "Atlanta, GA Metro ", "phone_number": "7703190333", "tags": [{"primary": false, "id": 1719, "name": "Seafood Markets"}, {"primary": false, "id": 11154, "name": "Italian Food Products"}, {"primary": false, "id": 11279, "name": "Italian"}, {"primary": false, "id": 11333, "name": "American Express"}, {"primary": false, "id": 11347, "name": "Debit Card"}, {"primary": false, "id": 11349, "name": "Discover"}, {"primary": false, "id": 11361, "name": "MasterCard"}, {"primary": false, "id": 11382, "name": "Visa"}, {"primary": true, "id": 1722, "name": "Restaurants"}], "fax_number": null, "expansion": {"count": null, "uri": null}, "impression_id": "000b0000000e96eb254ad040369ede2c3f438f26a5", "profile": "http://www.citysearch.com/profile/801105940/smyrna_ga/mezza_luna_pasta_and_seafood.html", "address": {"city": "Smyrna", "state": "GA", "street": "1669 Spring Rd SE", "postal_code": "30080"}, "capProviderId": null, "distance": null, "has_offers": false, "name": "Mezza Luna Pasta and Seafood", "longitude": -84.504883, "has_menu": false, "awards": null, "user_review_count": 0}, {"business_operation_status": 1, "rating": null, "neighborhood": null, "image": null, "scorecard": null, "featured": false, "sample_categories": "Delis And Delicatessens", "public_id": "kroger-deli-powder-spg-2", "id": 694161420, "votes": null, "tagline": null, "has_video": false, "website": null, "offers": null, "latitude": 33.903473, "politanName": "Atlanta, GA Metro ", "phone_number": "7702225180", "tags": [{"primary": true, "id": 1727, "name": "Delis And Delicatessens"}], "fax_number": null, "expansion": {"count": null, "uri": null}, "impression_id": "000b000000e349e6f4f8564404ba827f4852d53381", "profile": "http://www.citysearch.com/profile/694161420/powder_springs_ga/kroger_deli.html", "address": {"city": "Powder Springs", "state": "GA", "street": "4150 Macland Rd", "postal_code": "30127"}, "capProviderId": null, "distance": null, "has_offers": false, "name": "Kroger Deli", "longitude": -84.67471, "has_menu": false, "awards": null, "user_review_count": 0}, {"business_operation_status": 1, "rating": null, "neighborhood": null, "image": null, "scorecard": null, "featured": false, "sample_categories": "Catering, Restaurants, Chinese", "public_id": "china-king-marietta", "id": 604719482, "votes": null, "tagline": null, "has_video": false, "website": null, "offers": null, "latitude": 33.882452, "politanName": "Atlanta, GA Metro ", "phone_number": "7704326688", "tags": [{"primary": false, "id": 1722, "name": "Restaurants"}, {"primary": false, "id": 11252, "name": "Chinese"}, {"primary": true, "id": 1705, "name": "Catering"}], "fax_number": null, "expansion": {"count": null, "uri": null}, "impression_id": "000b00000086940c431d1e428fb62153f97134c49c", "profile": "http://www.citysearch.com/profile/604719482/marietta_ga/china_king.html", "address": {"city": "Marietta", "state": "GA", "street": "2909 Austell Rd SW", "postal_code": "30008"}, "capProviderId": null, "distance": null, "has_offers": false, "name": "China King", "longitude": -84.58798, "has_menu": false, "awards": null, "user_review_count": 0}, {"business_operation_status": 0, "rating": null, "neighborhood": null, "image": null, "scorecard": null, "featured": false, "sample_categories": "Restaurants", "public_id": "dawg-it-smyrna-2", "id": 713402410, "votes": null, "tagline": null, "has_video": false, "website": null, "offers": null, "latitude": 33.831642, "politanName": "Atlanta, GA Metro ", "phone_number": "7704352900", "tags": [{"primary": true, "id": 1722, "name": "Restaurants"}], "fax_number": null, "expansion": {"count": null, "uri": null}, "impression_id": "000b00000037f2c3ce904a47f4bfb216127c6872d5", "profile": "http://www.citysearch.com/profile/713402410/smyrna_ga/dawg_it.html", "address": {"city": "Smyrna", "state": "GA", "street": "4924 S Cobb Dr Se # B", "postal_code": "30080"}, "capProviderId": null, "distance": null, "has_offers": false, "name": "Dawg It", "longitude": -84.493491, "has_menu": false, "awards": null, "user_review_count": 0}, {"business_operation_status": 1, "rating": null, "neighborhood": null, "image": null, "scorecard": null, "featured": false, "sample_categories": "Restaurants", "public_id": "smoothie-express-marietta-2", "id": 653609590, "votes": null, "tagline": null, "has_video": false, "website": null, "offers": null, "latitude": 33.88207, "politanName": "Atlanta, GA Metro ", "phone_number": "6782969342", "tags": [{"primary": true, "id": 1722, "name": "Restaurants"}], "fax_number": null, "expansion": {"count": null, "uri": null}, "impression_id": "000b0000003d3d8c568be643c581b58a3d1d3bd3b4", "profile": "http://www.citysearch.com/profile/653609590/marietta_ga/smoothie_express.html", "address": {"city": "Marietta", "state": "GA", "street": "1661 Milford Creek Overlook Sw", "postal_code": "30008"}, "capProviderId": null, "distance": null, "has_offers": false, "name": "Smoothie Express", "longitude": -84.59932, "has_menu": false, "awards": null, "user_review_count": 0}, {"business_operation_status": 1, "rating": null, "neighborhood": null, "image": null, "scorecard": null, "featured": false, "sample_categories": "Restaurants, Carry Out, Chicken", "public_id": "chickfila-atlanta-41", "id": 775192080, "votes": null, "tagline": null, "has_video": false, "website": "http://www.citysearch.com/profile/external/775192080/atlanta_ga/chick_fil_a.html", "offers": null, "latitude": 33.857869, "politanName": "Atlanta, GA Metro ", "phone_number": "7704281230", "tags": [{"primary": false, "id": 11247, "name": "Carry Out"}, {"primary": false, "id": 12839, "name": "Chicken"}, {"primary": true, "id": 1722, "name": "Restaurants"}], "fax_number": null, "expansion": {"count": null, "uri": null}, "impression_id": "000b0000000658767593084d5a9063cb1a1f09bbb6", "profile": "http://www.citysearch.com/profile/775192080/atlanta_ga/chick_fil_a.html", "address": {"city": "Atlanta", "state": "GA", "street": "3951 Austell Re SW", "postal_code": "30303"}, "capProviderId": null, "distance": null, "has_offers": false, "name": "Chick-Fil-A", "longitude": -84.59993, "has_menu": false, "awards": null, "user_review_count": 0}, {"business_operation_status": 1, "rating": null, "neighborhood": null, "image": null, "scorecard": null, "featured": false, "sample_categories": "Restaurants, Pizza, Carry Out", "public_id": "mellow-mushroom-marietta-4", "id": 777735910, "votes": null, "tagline": null, "has_video": false, "website": "http://www.citysearch.com/profile/external/777735910/marietta_ga/mellow_mushroom.html", "offers": null, "latitude": 33.908085, "politanName": "Atlanta, GA Metro ", "phone_number": "7704255511", "tags": [{"primary": false, "id": 1722, "name": "Restaurants"}, {"primary": false, "id": 11247, "name": "Carry Out"}, {"primary": true, "id": 11299, "name": "Pizza"}], "fax_number": null, "expansion": {"count": null, "uri": null}, "impression_id": "000b000000b1caf557a505490885365a866b8f939d", "profile": "http://www.citysearch.com/profile/777735910/marietta_ga/mellow_mushroom.html", "address": {"city": "Marietta", "state": "GA", "street": "1690 Powder Springs Rd Sw #214", "postal_code": "30064"}, "capProviderId": null, "distance": null, "has_offers": false, "name": "Mellow Mushroom", "longitude": -84.602757, "has_menu": true, "awards": null, "user_review_count": 0}, {"business_operation_status": 1, "rating": null, "neighborhood": null, "image": null, "scorecard": null, "featured": false, "sample_categories": "Restaurants", "public_id": "manna-smyrna", "id": 777817720, "votes": null, "tagline": null, "has_video": false, "website": null, "offers": null, "latitude": 33.879067, "politanName": "Atlanta, GA Metro ", "phone_number": "7704311992", "tags": [{"primary": true, "id": 1722, "name": "Restaurants"}], "fax_number": null, "expansion": {"count": null, "uri": null}, "impression_id": "000b000000a70fcb47761c46dbbc4075a30729daad", "profile": "http://www.citysearch.com/profile/777817720/smyrna_ga/manna.html", "address": {"city": "Smyrna", "state": "GA", "street": "3120 S Cobb Dr Se", "postal_code": "30080"}, "capProviderId": null, "distance": null, "has_offers": false, "name": "Manna", "longitude": -84.5327, "has_menu": false, "awards": null, "user_review_count": 0}, {"business_operation_status": 1, "rating": null, "neighborhood": null, "image": null, "scorecard": null, "featured": false, "sample_categories": "Restaurants", "public_id": "bonz-sports-grill-smyrna", "id": 777729350, "votes": null, "tagline": null, "has_video": false, "website": null, "offers": null, "latitude": 33.873639, "politanName": "Atlanta, GA Metro ", "phone_number": "7704352669", "tags": [{"primary": true, "id": 1722, "name": "Restaurants"}], "fax_number": null, "expansion": {"count": null, "uri": null}, "impression_id": "000b000000afc9bdacf93d44de9bd979762d5f7e33", "profile": "http://www.citysearch.com/profile/777729350/smyrna_ga/bonz_sports_grill.html", "address": {"city": "Smyrna", "state": "GA", "street": "3240 S Cobb Dr Se # N", "postal_code": "30080"}, "capProviderId": null, "distance": null, "has_offers": false, "name": "Bonz Sports Grill", "longitude": -84.530478, "has_menu": false, "awards": null, "user_review_count": 1}, {"business_operation_status": 1, "rating": null, "neighborhood": "Southwest, Southwest", "image": null, "scorecard": null, "featured": false, "sample_categories": "Barbecue Restaurants, Restaurants", "public_id": "southern-select-bbq-atlanta", "id": 777693800, "votes": null, "tagline": null, "has_video": false, "website": null, "offers": null, "latitude": 33.722961, "politanName": "Atlanta, GA Metro ", "phone_number": "4043445771", "tags": [{"primary": false, "id": 1722, "name": "Restaurants"}, {"primary": true, "id": 1724, "name": "Barbecue Restaurants"}], "fax_number": null, "expansion": {"count": null, "uri": null}, "impression_id": "000b000000601cd069da1c434cbeb3d2ee1d79dc5b", "profile": "http://www.citysearch.com/profile/777693800/atlanta_ga/southern_select_bbq.html", "address": {"city": "Atlanta", "state": "GA", "street": "3580 Cascade Rd Sw", "postal_code": "30331"}, "capProviderId": null, "distance": null, "has_offers": false, "name": "Southern Select BBQ", "longitude": -84.505517, "has_menu": false, "awards": null, "user_review_count": 0}, {"business_operation_status": 1, "rating": null, "neighborhood": null, "image": null, "scorecard": null, "featured": false, "sample_categories": "Restaurants", "public_id": "b-3-bar-grill-austell", "id": 779686570, "votes": null, "tagline": null, "has_video": false, "website": null, "offers": null, "latitude": 33.814027, "politanName": "Atlanta, GA Metro ", "phone_number": "7706275049", "tags": [{"primary": true, "id": 1722, "name": "Restaurants"}], "fax_number": null, "expansion": {"count": null, "uri": null}, "impression_id": "000b000000e6df8b5f41c543c8b2bb3b66d8fe073f", "profile": "http://www.citysearch.com/profile/779686570/austell_ga/b_3_bar_grill.html", "address": {"city": "Austell", "state": "GA", "street": "2523 Veterans Memorial Hwy Sw", "postal_code": "30168"}, "capProviderId": null, "distance": null, "has_offers": false, "name": "B 3 Bar & Grill", "longitude": -84.62753, "has_menu": false, "awards": null, "user_review_count": 0}, {"business_operation_status": 1, "rating": null, "neighborhood": null, "image": null, "scorecard": null, "featured": false, "sample_categories": "Restaurants", "public_id": "miyako-hibachi-sushi-steak-house-austell", "id": 672372180, "votes": null, "tagline": null, "has_video": false, "website": null, "offers": null, "latitude": 33.855384, "politanName": "Atlanta, GA Metro ", "phone_number": "7708056336", "tags": [{"primary": true, "id": 1722, "name": "Restaurants"}], "fax_number": null, "expansion": {"count": null, "uri": null}, "impression_id": "000b000000cd3538a828d34589b3875602848e0f45", "profile": "http://www.citysearch.com/profile/672372180/austell_ga/miyako_hibachi_sushi_steak_house.html", "address": {"city": "Austell", "state": "GA", "street": "1025 East-West Connector", "postal_code": "30106"}, "capProviderId": null, "distance": null, "has_offers": false, "name": "Miyako Hibachi, Sushi & Steak House", "longitude": -84.583167, "has_menu": false, "awards": null, "user_review_count": 0}, {"business_operation_status": 1, "rating": null, "neighborhood": null, "image": null, "scorecard": null, "featured": false, "sample_categories": "Restaurants", "public_id": "mojo-grill-cuban-cuisine-smyrna", "id": 672444450, "votes": null, "tagline": null, "has_video": false, "website": null, "offers": null, "latitude": 33.879071, "politanName": "Atlanta, GA Metro ", "phone_number": null, "tags": [{"primary": true, "id": 1722, "name": "Restaurants"}], "fax_number": null, "expansion": {"count": null, "uri": null}, "impression_id": "000b0000004ee5fa0bd36f4c7d9e33d912b9e57d10", "profile": "http://www.citysearch.com/profile/672444450/smyrna_ga/mojo_grill_cuban_cuisine.html", "address": {"city": "Smyrna", "state": "GA", "street": "3120 S Cobb Dr SE", "postal_code": "30080"}, "capProviderId": null, "distance": null, "has_offers": false, "name": "Mojo Grill Cuban Cuisine", "longitude": -84.532683, "has_menu": false, "awards": null, "user_review_count": 0}, {"business_operation_status": 1, "rating": 8.0, "neighborhood": null, "image": null, "scorecard": null, "featured": false, "sample_categories": "Restaurants", "public_id": "vittles-restaurant-smyrna", "id": 33561245, "votes": null, "tagline": null, "has_video": false, "website": "http://www.citysearch.com/profile/external/33561245/smyrna_ga/vittle_s_restaurant.html", "offers": null, "latitude": 33.890311, "politanName": "Atlanta, GA Metro ", "phone_number": "7704330047", "tags": [{"primary": true, "id": 1722, "name": "Restaurants"}], "fax_number": null, "expansion": {"count": null, "uri": null}, "impression_id": "000b0000002be2c935959943d7aec59554235b7013", "profile": "http://www.citysearch.com/profile/33561245/smyrna_ga/vittle_s_restaurant.html", "address": {"city": "Smyrna", "state": "GA", "street": "2579 S Cobb Dr SE", "postal_code": "30080"}, "capProviderId": null, "distance": null, "has_offers": false, "name": "Vittle's Restaurant", "longitude": -84.536797, "has_menu": true, "awards": null, "user_review_count": 0}, {"business_operation_status": 1, "rating": null, "neighborhood": null, "image": null, "scorecard": null, "featured": false, "sample_categories": "Catering, Restaurants, Seafood", "public_id": "uncle-buds-catering-smyrna", "id": 33571244, "votes": null, "tagline": null, "has_video": false, "website": null, "offers": null, "latitude": 33.872853, "politanName": "Atlanta, GA Metro ", "phone_number": "4046425066", "tags": [{"primary": false, "id": 1722, "name": "Restaurants"}, {"primary": false, "id": 11228, "name": "Seafood"}, {"primary": true, "id": 1705, "name": "Catering"}], "fax_number": null, "expansion": {"count": null, "uri": null}, "impression_id": "000b00000050777e3352eb456bae713c28d8d5ea44", "profile": "http://www.citysearch.com/profile/33571244/smyrna_ga/uncle_bud_s_catering.html", "address": {"city": "Smyrna", "state": "GA", "street": "725 Concord Rd SE", "postal_code": "30082"}, "capProviderId": null, "distance": null, "has_offers": false, "name": "Uncle Bud's Catering", "longitude": -84.533536, "has_menu": false, "awards": null, "user_review_count": 0}, {"business_operation_status": 1, "rating": null, "neighborhood": null, "image": null, "scorecard": null, "featured": false, "sample_categories": "Delis And Delicatessens", "public_id": "kroger-deli-lithia-spg", "id": 696292440, "votes": null, "tagline": null, "has_video": false, "website": null, "offers": null, "latitude": 33.796626, "politanName": "Atlanta, GA Metro ", "phone_number": "7707326999", "tags": [{"primary": true, "id": 1727, "name": "Delis And Delicatessens"}], "fax_number": null, "expansion": {"count": null, "uri": null}, "impression_id": "000b000000db2c9df23cfb4c799621a719a820e7c9", "profile": "http://www.citysearch.com/profile/696292440/lithia_springs_ga/kroger_deli.html", "address": {"city": "Lithia Springs", "state": "GA", "street": "630 Thornton Rd", "postal_code": "30122"}, "capProviderId": null, "distance": null, "has_offers": false, "name": "Kroger Deli", "longitude": -84.641616, "has_menu": false, "awards": null, "user_review_count": 0}, {"business_operation_status": 1, "rating": null, "neighborhood": "Northside, Northside", "image": null, "scorecard": null, "featured": false, "sample_categories": "Restaurants, Carry Out, Hamburgers", "public_id": "krystal-atlanta-10", "id": 787117020, "votes": null, "tagline": null, "has_video": false, "website": "http://www.citysearch.com/profile/external/787117020/atlanta_ga/krystal.html", "offers": null, "latitude": 33.794633, "politanName": "Atlanta, GA Metro ", "phone_number": "7709442586", "tags": [{"primary": false, "id": 11247, "name": "Carry Out"}, {"primary": false, "id": 11270, "name": "Hamburgers"}, {"primary": true, "id": 1722, "name": "Restaurants"}], "fax_number": null, "expansion": {"count": null, "uri": null}, "impression_id": "000b000000a4622c0734bb45bf90e4d1f993079d39", "profile": "http://www.citysearch.com/profile/787117020/atlanta_ga/krystal.html", "address": {"city": "Atlanta", "state": "GA", "street": "725 Hllwell Hwy NW", "postal_code": "30318"}, "capProviderId": null, "distance": null, "has_offers": false, "name": "Krystal", "longitude": -84.448772, "has_menu": true, "awards": null, "user_review_count": 0}, {"business_operation_status": 1, "rating": null, "neighborhood": null, "image": null, "scorecard": null, "featured": false, "sample_categories": "Restaurants, Carry Out", "public_id": "super-suppers-smyrna", "id": 777798500, "votes": null, "tagline": null, "has_video": false, "website": "http://www.citysearch.com/profile/external/777798500/smyrna_ga/super_suppers.html", "offers": null, "latitude": 33.840772, "politanName": "Atlanta, GA Metro ", "phone_number": "7708035466", "tags": [{"primary": false, "id": 11247, "name": "Carry Out"}, {"primary": true, "id": 1722, "name": "Restaurants"}], "fax_number": null, "expansion": {"count": null, "uri": null}, "impression_id": "000b00000045f9169611fd4a2b91efab07882ac621", "profile": "http://www.citysearch.com/profile/777798500/smyrna_ga/super_suppers.html", "address": {"city": "Smyrna", "state": "GA", "street": "1385 Highlands Ridge Rd Se # A", "postal_code": "30082"}, "capProviderId": null, "distance": null, "has_offers": false, "name": "Super Suppers", "longitude": -84.519704, "has_menu": true, "awards": null, "user_review_count": 0}, {"business_operation_status": 1, "rating": null, "neighborhood": null, "image": null, "scorecard": null, "featured": false, "sample_categories": "Delis And Delicatessens", "public_id": "kroger-deli-smyrna-4", "id": 705897390, "votes": null, "tagline": null, "has_video": false, "website": null, "offers": null, "latitude": 33.873676, "politanName": "Atlanta, GA Metro ", "phone_number": "7704338380", "tags": [{"primary": true, "id": 1727, "name": "Delis And Delicatessens"}], "fax_number": null, "expansion": {"count": null, "uri": null}, "impression_id": "000b000000b4b079d0a3624b25b3fbe236b57e5408", "profile": "http://www.citysearch.com/profile/705897390/smyrna_ga/kroger_deli.html", "address": {"city": "Smyrna", "state": "GA", "street": "3315 S Cobb Dr Se # 1", "postal_code": "30080"}, "capProviderId": null, "distance": null, "has_offers": false, "name": "Kroger Deli", "longitude": -84.52868, "has_menu": false, "awards": null, "user_review_count": 0}, {"business_operation_status": 1, "rating": null, "neighborhood": null, "image": null, "scorecard": null, "featured": false, "sample_categories": "Restaurants, Delis And Delicatessens, Carry Out", "public_id": "firehouse-subs-lithia", "id": 798825170, "votes": null, "tagline": null, "has_video": false, "website": null, "offers": null, "latitude": 33.7867, "politanName": "Atlanta, GA Metro ", "phone_number": "7704854552", "tags": [{"primary": false, "id": 1727, "name": "Delis And Delicatessens"}, {"primary": false, "id": 11247, "name": "Carry Out"}, {"primary": true, "id": 1722, "name": "Restaurants"}], "fax_number": null, "expansion": {"count": null, "uri": null}, "impression_id": "000b00000046f3c6739a8c4bbca26e13b90e6d2f4f", "profile": "http://www.citysearch.com/profile/798825170/lithia_springs_ga/firehouse_subs.html", "address": {"city": "Lithia Springs", "state": "GA", "street": "1300 W Corporate Ct", "postal_code": "30122"}, "capProviderId": null, "distance": null, "has_offers": false, "name": "Firehouse Subs", "longitude": -84.618514, "has_menu": true, "awards": null, "user_review_count": 0}], "histograms": [], "tag_ids": [1722], "uri": "http://api.citygridmedia.com:8080/search/places/v2/search/where?has_offers=false&type=restaurant&format=json&page=13&where=30126&rpp=50&histograms=false&publisher=10000009598&region_type=circle", "did_you_mean": "", "regions": [{"latitude": 33.816576999999995, "default_radius": 4.42, "type": "postal_code", "name": "30126", "longitude": -84.550635}], "call_id": "000b00000013a018514a87419aa247632b3b5535b1", "first_hit": 601, "total_hits": 893, "geo_ids": [26301], "page": 13, "last_hit": 650}}