{"results": {"rpp": 50, "locations": [{"business_operation_status": 1, "rating": null, "neighborhood": null, "image": null, "scorecard": null, "featured": false, "sample_categories": "Restaurants, Barbecue Restaurants", "public_id": "birdies-wings-more-dallas", "id": 793298080, "votes": null, "tagline": null, "has_video": false, "website": "http://www.citysearch.com/profile/external/793298080/dallas_ga/birdie_s_wings_more.html", "offers": null, "latitude": 34.010309, "politanName": "Atlanta, GA Metro ", "phone_number": "6785747470", "tags": [{"primary": false, "id": 1724, "name": "Barbecue Restaurants"}, {"primary": true, "id": 1722, "name": "Restaurants"}], "fax_number": null, "expansion": {"count": null, "uri": null}, "impression_id": "000b0000003c1cba4b9bf34cb1bcc438f187f79b47", "profile": "http://www.citysearch.com/profile/793298080/dallas_ga/birdie_s_wings_more.html", "address": {"city": "Dallas", "state": "GA", "street": "8876 Dallas Acworth Hwy", "postal_code": "30132"}, "capProviderId": null, "distance": null, "has_offers": false, "name": "Birdie's Wings & More", "longitude": -84.753348, "has_menu": false, "awards": null, "user_review_count": 0}, {"business_operation_status": 1, "rating": null, "neighborhood": null, "image": null, "scorecard": null, "featured": false, "sample_categories": "Delis And Delicatessens", "public_id": "kroger-deli-acworth-3", "id": 706509510, "votes": null, "tagline": null, "has_video": false, "website": "http://www.citysearch.com/profile/external/706509510/acworth_ga/kroger_deli.html", "offers": null, "latitude": 34.060456, "politanName": "Atlanta, GA Metro ", "phone_number": "7709758652", "tags": [{"primary": true, "id": 1727, "name": "Delis And Delicatessens"}], "fax_number": null, "expansion": {"count": null, "uri": null}, "impression_id": "000b000000cb60b786514342e6afd63bec1a31b72b", "profile": "http://www.citysearch.com/profile/706509510/acworth_ga/kroger_deli.html", "address": {"city": "Acworth", "state": "GA", "street": "3330 Cobb Pkwy NW # 30", "postal_code": "30101"}, "capProviderId": null, "distance": null, "has_offers": false, "name": "Kroger Deli", "longitude": -84.721428, "has_menu": false, "awards": null, "user_review_count": 0}, {"business_operation_status": 1, "rating": null, "neighborhood": null, "image": null, "scorecard": null, "featured": false, "sample_categories": "Restaurants", "public_id": "international-restaurant-management-kennesaw", "id": 806008710, "votes": null, "tagline": null, "has_video": false, "website": null, "offers": null, "latitude": 33.984991, "politanName": "Atlanta, GA Metro ", "phone_number": "7702180369", "tags": [{"primary": true, "id": 1722, "name": "Restaurants"}], "fax_number": null, "expansion": {"count": null, "uri": null}, "impression_id": "000b000000e6355bc2433c40fb8708f8502d987ba7", "profile": "http://www.citysearch.com/profile/806008710/kennesaw_ga/international_restaurant_management.html", "address": {"city": "Kennesaw", "state": "GA", "street": "3409 Paisley Trce NW", "postal_code": "30152"}, "capProviderId": null, "distance": null, "has_offers": false, "name": "International Restaurant Management", "longitude": -84.648405, "has_menu": false, "awards": null, "user_review_count": 0}, {"business_operation_status": 1, "rating": null, "neighborhood": null, "image": null, "scorecard": null, "featured": false, "sample_categories": "Restaurants", "public_id": "georgia-cuisine-bakery-dallas", "id": 806701170, "votes": null, "tagline": null, "has_video": false, "website": null, "offers": null, "latitude": 34.008729, "politanName": "Atlanta, GA Metro ", "phone_number": "7709665204", "tags": [{"primary": true, "id": 1722, "name": "Restaurants"}], "fax_number": null, "expansion": {"count": null, "uri": null}, "impression_id": "000b00000012e86589ebc440e0bc22a0af5d6e4466", "profile": "http://www.citysearch.com/profile/806701170/dallas_ga/georgia_cuisine_bakery.html", "address": {"city": "Dallas", "state": "GA", "street": "8492 Hiram Acworth Hwy", "postal_code": "30157"}, "capProviderId": null, "distance": null, "has_offers": false, "name": "Georgia Cuisine & Bakery", "longitude": -84.752437, "has_menu": false, "awards": null, "user_review_count": 0}, {"business_operation_status": 1, "rating": null, "neighborhood": null, "image": null, "scorecard": null, "featured": false, "sample_categories": "Restaurants", "public_id": "valindas-cozy-kitchen-austell-3", "id": 816818490, "votes": null, "tagline": null, "has_video": false, "website": null, "offers": null, "latitude": 33.812486, "politanName": "Atlanta, GA Metro ", "phone_number": "7709446694", "tags": [{"primary": true, "id": 1722, "name": "Restaurants"}], "fax_number": null, "expansion": {"count": null, "uri": null}, "impression_id": "000b00000036001f1d9b014ff58ff5918f901f6ba8", "profile": "http://www.citysearch.com/profile/816818490/austell_ga/valinda_s_cozy_kitchen.html", "address": {"city": "Austell", "state": "GA", "street": "2795 Veterans Memorial Hwy SW", "postal_code": "30168"}, "capProviderId": null, "distance": null, "has_offers": false, "name": "Valinda's Cozy Kitchen", "longitude": -84.635578, "has_menu": false, "awards": null, "user_review_count": 0}, {"business_operation_status": 1, "rating": 8.0, "neighborhood": null, "image": null, "scorecard": null, "featured": false, "sample_categories": "Restaurants", "public_id": "courtnis-iron-skillet-lithia-spgs", "id": 2948167, "votes": null, "tagline": null, "has_video": false, "website": null, "offers": null, "latitude": 33.774233, "politanName": "Atlanta, GA Metro ", "phone_number": "7708190008", "tags": [{"primary": true, "id": 1722, "name": "Restaurants"}], "fax_number": null, "expansion": {"count": null, "uri": null}, "impression_id": "000b0000009ffd2e69bec947e4af15b219503ffaff", "profile": "http://www.citysearch.com/profile/2948167/lithia_springs_ga/courtnis_iron_skillet.html", "address": {"city": "Lithia Springs", "state": "GA", "street": "7413 Lee Rd", "postal_code": "30122"}, "capProviderId": null, "distance": null, "has_offers": false, "name": "Courtnis Iron Skillet", "longitude": -84.654048, "has_menu": false, "awards": null, "user_review_count": 0}, {"business_operation_status": 1, "rating": null, "neighborhood": null, "image": null, "scorecard": null, "featured": false, "sample_categories": "Restaurants", "public_id": "philly-connection-douglasville", "id": 2952829, "votes": null, "tagline": null, "has_video": false, "website": null, "offers": null, "latitude": 33.724324, "politanName": "Atlanta, GA Metro ", "phone_number": "7709499900", "tags": [{"primary": true, "id": 1722, "name": "Restaurants"}], "fax_number": null, "expansion": {"count": null, "uri": null}, "impression_id": "000b0000007fead54c1f2446d699e57bfb8b41710c", "profile": "http://www.citysearch.com/profile/2952829/douglasville_ga/philly_connection.html", "address": {"city": "Douglasville", "state": "GA", "street": "9478 Highway 5", "postal_code": "30135"}, "capProviderId": null, "distance": null, "has_offers": false, "name": "Philly Connection", "longitude": -84.761103, "has_menu": true, "awards": null, "user_review_count": 0}, {"business_operation_status": 1, "rating": 9.0, "neighborhood": null, "image": null, "scorecard": null, "featured": false, "sample_categories": "Restaurants, Chinese, Food Delivery", "public_id": "chinese-pagoda-douglasville", "id": 2953297, "votes": null, "tagline": null, "has_video": false, "website": null, "offers": null, "latitude": 33.726143, "politanName": "Atlanta, GA Metro ", "phone_number": "7709424783", "tags": [{"primary": false, "id": 11252, "name": "Chinese"}, {"primary": false, "id": 11267, "name": "Food Delivery"}, {"primary": true, "id": 1722, "name": "Restaurants"}], "fax_number": null, "expansion": {"count": null, "uri": null}, "impression_id": "000b00000092fa2969b18c4418b07a34c9ada1e524", "profile": "http://www.citysearch.com/profile/2953297/douglasville_ga/chinese_pagoda.html", "address": {"city": "Douglasville", "state": "GA", "street": "9423 Hwy 5", "postal_code": "30135"}, "capProviderId": null, "distance": null, "has_offers": false, "name": "Chinese Pagoda", "longitude": -84.76384, "has_menu": true, "awards": null, "user_review_count": 6}, {"business_operation_status": 0, "rating": null, "neighborhood": null, "image": null, "scorecard": null, "featured": false, "sample_categories": "Ice Cream Parlors", "public_id": "clearview-ventures-kennesaw", "id": 732172070, "votes": null, "tagline": null, "has_video": false, "website": null, "offers": null, "latitude": 33.976849, "politanName": "Atlanta, GA Metro ", "phone_number": "7706178112", "tags": [{"primary": true, "id": 1730, "name": "Ice Cream Parlors"}], "fax_number": null, "expansion": {"count": null, "uri": null}, "impression_id": "000b0000005c02e35169244a94875f8bfcdc1d97e9", "profile": "http://www.citysearch.com/profile/732172070/kennesaw_ga/clearview_ventures.html", "address": {"city": "Kennesaw", "state": "GA", "street": "985 Frog Leap Trl NW", "postal_code": "30152"}, "capProviderId": null, "distance": null, "has_offers": false, "name": "Clearview Ventures", "longitude": -84.607323, "has_menu": false, "awards": null, "user_review_count": 0}, {"business_operation_status": 1, "rating": null, "neighborhood": null, "image": null, "scorecard": null, "featured": false, "sample_categories": "Restaurants", "public_id": "g-a-mex-marietta", "id": 837455650, "votes": null, "tagline": null, "has_video": false, "website": null, "offers": null, "latitude": 33.954748, "politanName": "Atlanta, GA Metro ", "phone_number": "6783540331", "tags": [{"primary": true, "id": 1722, "name": "Restaurants"}], "fax_number": null, "expansion": {"count": null, "uri": null}, "impression_id": "000b0000008317031a0797486f906fcc886a0e10a0", "profile": "http://www.citysearch.com/profile/837455650/marietta_ga/g_a_mex.html", "address": {"city": "Marietta", "state": "GA", "street": "3636 Dallas Hwy SW", "postal_code": "30064"}, "capProviderId": null, "distance": null, "has_offers": false, "name": "G A Mex", "longitude": -84.657951, "has_menu": false, "awards": null, "user_review_count": 0}, {"business_operation_status": 1, "rating": null, "neighborhood": null, "image": null, "scorecard": null, "featured": false, "sample_categories": "Ice Cream Parlors, Restaurants", "public_id": "milk-shake-douglasville", "id": 764870590, "votes": null, "tagline": null, "has_video": false, "website": null, "offers": null, "latitude": 33.771079, "politanName": "Atlanta, GA Metro ", "phone_number": "6787154327", "tags": [{"primary": false, "id": 1722, "name": "Restaurants"}, {"primary": true, "id": 1730, "name": "Ice Cream Parlors"}], "fax_number": null, "expansion": {"count": null, "uri": null}, "impression_id": "000b000000a2022ba127dd47b2bc90b0b879a6c95a", "profile": "http://www.citysearch.com/profile/764870590/douglasville_ga/milk_shake.html", "address": {"city": "Douglasville", "state": "GA", "street": "3849 Glenlake Dr", "postal_code": "30134"}, "capProviderId": null, "distance": null, "has_offers": false, "name": "Milk Shake", "longitude": -84.697252, "has_menu": false, "awards": null, "user_review_count": 0}, {"business_operation_status": 0, "rating": null, "neighborhood": null, "image": null, "scorecard": null, "featured": false, "sample_categories": "Restaurants", "public_id": "moonwinks-2-inc-douglasville", "id": 632933280, "votes": null, "tagline": null, "has_video": false, "website": null, "offers": null, "latitude": 33.739818, "politanName": "Atlanta, GA Metro ", "phone_number": "7709490682", "tags": [{"primary": true, "id": 1722, "name": "Restaurants"}], "fax_number": null, "expansion": {"count": null, "uri": null}, "impression_id": "000b00000049a6035294fd484bafe472b3aadd6a1b", "profile": "http://www.citysearch.com/profile/632933280/douglasville_ga/moonwinks_2_inc.html", "address": {"city": "Douglasville", "state": "GA", "street": "6743 Creek Valley Way", "postal_code": "30134"}, "capProviderId": null, "distance": null, "has_offers": false, "name": "Moonwinks 2 Inc", "longitude": -84.751389, "has_menu": false, "awards": null, "user_review_count": 0}, {"business_operation_status": 0, "rating": null, "neighborhood": null, "image": null, "scorecard": null, "featured": false, "sample_categories": "Barbecue Restaurants, Restaurants", "public_id": "iron-horse-bbq-douglasville", "id": 647347230, "votes": null, "tagline": null, "has_video": false, "website": null, "offers": null, "latitude": 33.72416, "politanName": "Atlanta, GA Metro ", "phone_number": "7709498699", "tags": [{"primary": false, "id": 1722, "name": "Restaurants"}, {"primary": true, "id": 1724, "name": "Barbecue Restaurants"}], "fax_number": null, "expansion": {"count": null, "uri": null}, "impression_id": "000b00000042882f48efef4de1b26810c507ac701c", "profile": "http://www.citysearch.com/profile/647347230/douglasville_ga/iron_horse_bbq.html", "address": {"city": "Douglasville", "state": "GA", "street": "7436 Douglas Blvd", "postal_code": "30135"}, "capProviderId": null, "distance": null, "has_offers": false, "name": "Iron Horse Bbq", "longitude": -84.7685, "has_menu": false, "awards": null, "user_review_count": 0}, {"business_operation_status": 1, "rating": null, "neighborhood": null, "image": null, "scorecard": null, "featured": false, "sample_categories": "Restaurants, Soul", "public_id": "trinas-soul-kitchen-mableton", "id": 762760900, "votes": null, "tagline": null, "has_video": false, "website": null, "offers": null, "latitude": 33.845849, "politanName": "Atlanta, GA Metro ", "phone_number": "7704853300", "tags": [{"primary": false, "id": 15140, "name": "Soul"}, {"primary": true, "id": 1722, "name": "Restaurants"}], "fax_number": null, "expansion": {"count": null, "uri": null}, "impression_id": "000b000000f41e3a4003b048b69327870b59563eae", "profile": "http://www.citysearch.com/profile/762760900/mableton_ga/trina_s_soul_kitchen.html", "address": {"city": "Mableton", "state": "GA", "street": "4426 Floyd Rd SW # 100", "postal_code": "30126"}, "capProviderId": null, "distance": null, "has_offers": false, "name": "Trina's Soul Kitchen", "longitude": -84.583979, "has_menu": false, "awards": null, "user_review_count": 0}, {"business_operation_status": 1, "rating": null, "neighborhood": null, "image": null, "scorecard": null, "featured": false, "sample_categories": "Restaurants, Barbecue Restaurants", "public_id": "atlanta-wings-lithia", "id": 779667310, "votes": null, "tagline": null, "has_video": false, "website": null, "offers": null, "latitude": 33.789071, "politanName": "Atlanta, GA Metro ", "phone_number": "7707328954", "tags": [{"primary": false, "id": 1724, "name": "Barbecue Restaurants"}, {"primary": true, "id": 1722, "name": "Restaurants"}], "fax_number": null, "expansion": {"count": null, "uri": null}, "impression_id": "000b000000dc11bdcdc11848fda07112396994aed6", "profile": "http://www.citysearch.com/profile/779667310/lithia_springs_ga/atlanta_wings.html", "address": {"city": "Lithia Springs", "state": "GA", "street": "612 Thornton Rd", "postal_code": "30122"}, "capProviderId": null, "distance": null, "has_offers": false, "name": "Atlanta Wings", "longitude": -84.622313, "has_menu": false, "awards": null, "user_review_count": 0}, {"business_operation_status": 1, "rating": null, "neighborhood": null, "image": null, "scorecard": null, "featured": false, "sample_categories": "Restaurants", "public_id": "blue-agave-douglasville", "id": 655818810, "votes": null, "tagline": null, "has_video": false, "website": null, "offers": null, "latitude": 33.723323, "politanName": "Atlanta, GA Metro ", "phone_number": "7709422844", "tags": [{"primary": true, "id": 1722, "name": "Restaurants"}], "fax_number": null, "expansion": {"count": null, "uri": null}, "impression_id": "000b000000a0e4f937f264462a9f293e75f9500407", "profile": "http://www.citysearch.com/profile/655818810/douglasville_ga/blue_agave.html", "address": {"city": "Douglasville", "state": "GA", "street": "3000 Chapel Hill Rd # 105", "postal_code": "30135"}, "capProviderId": null, "distance": null, "has_offers": false, "name": "Blue Agave", "longitude": -84.732263, "has_menu": false, "awards": null, "user_review_count": 0}, {"business_operation_status": 1, "rating": null, "neighborhood": null, "image": null, "scorecard": null, "featured": false, "sample_categories": "Restaurants, Pizza, Carry Out", "public_id": "jets-pizza-marietta", "id": 655911690, "votes": null, "tagline": null, "has_video": false, "website": "http://www.citysearch.com/profile/external/655911690/marietta_ga/jet_s_pizza.html", "offers": null, "latitude": 33.954848, "politanName": "Atlanta, GA Metro ", "phone_number": "7707925700", "tags": [{"primary": false, "id": 1722, "name": "Restaurants"}, {"primary": false, "id": 11247, "name": "Carry Out"}, {"primary": true, "id": 11299, "name": "Pizza"}], "fax_number": null, "expansion": {"count": null, "uri": null}, "impression_id": "000b000000349ed2fa27b24291abaf511746d84ecd", "profile": "http://www.citysearch.com/profile/655911690/marietta_ga/jet_s_pizza.html", "address": {"city": "Marietta", "state": "GA", "street": "3600 Dallas Hwy Sw", "postal_code": "30064"}, "capProviderId": null, "distance": null, "has_offers": false, "name": "Jet's Pizza", "longitude": -84.655682, "has_menu": false, "awards": null, "user_review_count": 0}, {"business_operation_status": 1, "rating": null, "neighborhood": null, "image": null, "scorecard": null, "featured": false, "sample_categories": "Restaurants, Carry Out, Chicken", "public_id": "bojangles-famous-chicken-hiram", "id": 682624460, "votes": null, "tagline": null, "has_video": false, "website": "http://www.citysearch.com/profile/external/682624460/hiram_ga/bojangles_famous_chicken.html", "offers": null, "latitude": 33.890712, "politanName": "Atlanta, GA Metro ", "phone_number": "7702225409", "tags": [{"primary": false, "id": 11247, "name": "Carry Out"}, {"primary": false, "id": 12839, "name": "Chicken"}, {"primary": true, "id": 1722, "name": "Restaurants"}], "fax_number": null, "expansion": {"count": null, "uri": null}, "impression_id": "000b00000062a6202de1b6428ab5822ef167296cdd", "profile": "http://www.citysearch.com/profile/682624460/hiram_ga/bojangles_famous_chicken.html", "address": {"city": "Hiram", "state": "GA", "street": "2017 Lake Rd", "postal_code": "30141"}, "capProviderId": null, "distance": null, "has_offers": false, "name": "Bojangles' Famous Chicken", "longitude": -84.750538, "has_menu": false, "awards": null, "user_review_count": 0}, {"business_operation_status": 1, "rating": null, "neighborhood": null, "image": null, "scorecard": null, "featured": false, "sample_categories": "Restaurants, Carry Out, Hamburgers, American Express, Discover", "public_id": "burger-king-marietta-11", "id": 682637510, "votes": null, "tagline": null, "has_video": false, "website": "http://www.citysearch.com/profile/external/682637510/marietta_ga/burger_king.html", "offers": null, "latitude": 33.945546, "politanName": "Atlanta, GA Metro ", "phone_number": "6783541084", "tags": [{"primary": false, "id": 1722, "name": "Restaurants"}, {"primary": false, "id": 11270, "name": "Hamburgers"}, {"primary": false, "id": 11333, "name": "American Express"}, {"primary": false, "id": 11349, "name": "Discover"}, {"primary": false, "id": 11361, "name": "MasterCard"}, {"primary": false, "id": 11382, "name": "Visa"}, {"primary": true, "id": 11247, "name": "Carry Out"}], "fax_number": null, "expansion": {"count": null, "uri": null}, "impression_id": "000b0000005fac083fd5084c7ebb0beab0617081d0", "profile": "http://www.citysearch.com/profile/682637510/marietta_ga/burger_king.html", "address": {"city": "Marietta", "state": "GA", "street": "2495 Dallas Hwy SW", "postal_code": "30064"}, "capProviderId": null, "distance": null, "has_offers": false, "name": "Burger King", "longitude": -84.624745, "has_menu": true, "awards": null, "user_review_count": 0}, {"business_operation_status": 1, "rating": null, "neighborhood": null, "image": null, "scorecard": null, "featured": false, "sample_categories": "Restaurants", "public_id": "buds-country-cuisine-dallas", "id": 808838510, "votes": null, "tagline": null, "has_video": false, "website": null, "offers": null, "latitude": 33.867267, "politanName": "Atlanta, GA Metro ", "phone_number": "7704436559", "tags": [{"primary": true, "id": 1722, "name": "Restaurants"}], "fax_number": null, "expansion": {"count": null, "uri": null}, "impression_id": "000b0000008debe012af8b47d8b5e6eda24218dfbd", "profile": "http://www.citysearch.com/profile/808838510/dallas_ga/bud_s_country_cuisine.html", "address": {"city": "Dallas", "state": "GA", "street": "220 Paulding Plz", "postal_code": "30132"}, "capProviderId": null, "distance": null, "has_offers": false, "name": "Bud's Country Cuisine", "longitude": -84.85186, "has_menu": false, "awards": null, "user_review_count": 0}, {"business_operation_status": 1, "rating": null, "neighborhood": null, "image": null, "scorecard": null, "featured": false, "sample_categories": "Restaurants, Pizza", "public_id": "pronto-pizza-marietta", "id": 808339910, "votes": null, "tagline": null, "has_video": false, "website": null, "offers": null, "latitude": 33.865697, "politanName": "Atlanta, GA Metro ", "phone_number": "7704330803", "tags": [{"primary": false, "id": 1722, "name": "Restaurants"}, {"primary": true, "id": 11299, "name": "Pizza"}], "fax_number": null, "expansion": {"count": null, "uri": null}, "impression_id": "000b000000439fd4f4536e412b8fc83f4a3ece292f", "profile": "http://www.citysearch.com/profile/808339910/marietta_ga/pronto_pizza.html", "address": {"city": "Marietta", "state": "GA", "street": "3565 Austell Rd SW # 1019", "postal_code": "30008"}, "capProviderId": null, "distance": null, "has_offers": false, "name": "Pronto Pizza", "longitude": -84.592502, "has_menu": true, "awards": null, "user_review_count": 0}, {"business_operation_status": 1, "rating": null, "neighborhood": null, "image": null, "scorecard": null, "featured": false, "sample_categories": "Delis And Delicatessens", "public_id": "main-street-market-hiram", "id": 713527890, "votes": null, "tagline": null, "has_video": false, "website": null, "offers": null, "latitude": 33.875009, "politanName": "Atlanta, GA Metro ", "phone_number": "4048697995", "tags": [{"primary": true, "id": 1727, "name": "Delis And Delicatessens"}], "fax_number": null, "expansion": {"count": null, "uri": null}, "impression_id": "000b000000bb08408e6c54487ea30adf51cb253ecd", "profile": "http://www.citysearch.com/profile/713527890/hiram_ga/main_street_market.html", "address": {"city": "Hiram", "state": "GA", "street": "546 Main St", "postal_code": "30141"}, "capProviderId": null, "distance": null, "has_offers": false, "name": "Main Street Market", "longitude": -84.75464, "has_menu": false, "awards": null, "user_review_count": 0}, {"business_operation_status": 1, "rating": null, "neighborhood": null, "image": null, "scorecard": null, "featured": false, "sample_categories": "Restaurants, Fast Food, Carry Out, Hamburgers, American Express", "public_id": "mc-donalds-acworth", "id": 45560369, "votes": null, "tagline": null, "has_video": false, "website": "http://www.citysearch.com/profile/external/45560369/acworth_ga/mc_donald_s.html", "offers": null, "latitude": 34.000342, "politanName": "Atlanta, GA Metro ", "phone_number": "7702189065", "tags": [{"primary": false, "id": 11199, "name": "Fast Food"}, {"primary": false, "id": 11247, "name": "Carry Out"}, {"primary": false, "id": 11270, "name": "Hamburgers"}, {"primary": false, "id": 11333, "name": "American Express"}, {"primary": false, "id": 11361, "name": "MasterCard"}, {"primary": false, "id": 11382, "name": "Visa"}, {"primary": true, "id": 1722, "name": "Restaurants"}], "fax_number": null, "expansion": {"count": null, "uri": null}, "impression_id": "000b000000c4f7afe0a0fd4dd48f58efbf265192dd", "profile": "http://www.citysearch.com/profile/45560369/acworth_ga/mc_donald_s.html", "address": {"city": "Acworth", "state": "GA", "street": "1855 Mars Hill Rd NW", "postal_code": "30101"}, "capProviderId": null, "distance": null, "has_offers": false, "name": "Mc Donald's", "longitude": -84.708385, "has_menu": true, "awards": null, "user_review_count": 0}, {"business_operation_status": 1, "rating": null, "neighborhood": null, "image": null, "scorecard": null, "featured": false, "sample_categories": "Restaurants", "public_id": "simply-chicken-austell", "id": 823240420, "votes": null, "tagline": null, "has_video": false, "website": null, "offers": null, "latitude": 33.850442, "politanName": "Atlanta, GA Metro ", "phone_number": "6789456144", "tags": [{"primary": true, "id": 1722, "name": "Restaurants"}], "fax_number": null, "expansion": {"count": null, "uri": null}, "impression_id": "000b000000062667e007d7442ca96fb7585d7aa8be", "profile": "http://www.citysearch.com/profile/823240420/austell_ga/simply_chicken.html", "address": {"city": "Austell", "state": "GA", "street": "4228 Floyd Rd", "postal_code": "30106"}, "capProviderId": null, "distance": null, "has_offers": false, "name": "Simply Chicken", "longitude": -84.588525, "has_menu": false, "awards": null, "user_review_count": 0}, {"business_operation_status": 1, "rating": null, "neighborhood": null, "image": null, "scorecard": null, "featured": false, "sample_categories": "Coffeehouses, Coffee & Tea Shops", "public_id": "daily-grind-marietta-3", "id": 601298033, "votes": null, "tagline": null, "has_video": false, "website": "http://www.citysearch.com/profile/external/601298033/marietta_ga/daily_grind.html", "offers": null, "latitude": 33.967672, "politanName": "Atlanta, GA Metro ", "phone_number": "7704229480", "tags": [{"primary": false, "id": 1711, "name": "Coffee & Tea Shops"}, {"primary": true, "id": 1726, "name": "Coffeehouses"}], "fax_number": null, "expansion": {"count": null, "uri": null}, "impression_id": "000b00000025f83bbde3114ade856a91b356ad466b", "profile": "http://www.citysearch.com/profile/601298033/marietta_ga/daily_grind.html", "address": {"city": "Marietta", "state": "GA", "street": "3960 Mary Eliza Trce Nw", "postal_code": "30064"}, "capProviderId": null, "distance": null, "has_offers": false, "name": "Daily Grind", "longitude": -84.667328, "has_menu": true, "awards": null, "user_review_count": 1}, {"business_operation_status": 1, "rating": null, "neighborhood": null, "image": null, "scorecard": null, "featured": false, "sample_categories": "Restaurants", "public_id": "thai-kitchen-douglasville-2", "id": 834671910, "votes": null, "tagline": null, "has_video": false, "website": null, "offers": null, "latitude": 33.728341, "politanName": "Atlanta, GA Metro ", "phone_number": "7709496016", "tags": [{"primary": true, "id": 1722, "name": "Restaurants"}], "fax_number": null, "expansion": {"count": null, "uri": null}, "impression_id": "000b0000006e97c64bdebd4b018c0d5fd5d695a92a", "profile": "http://www.citysearch.com/profile/834671910/douglasville_ga/thai_kitchen.html", "address": {"city": "Douglasville", "state": "GA", "street": "6700 Douglas Blvd", "postal_code": "30135"}, "capProviderId": null, "distance": null, "has_offers": false, "name": "Thai Kitchen", "longitude": -84.74498, "has_menu": true, "awards": null, "user_review_count": 2}, {"business_operation_status": 1, "rating": null, "neighborhood": null, "image": null, "scorecard": null, "featured": false, "sample_categories": "Restaurants, Bars & Clubs, Carry Out, Shop Online", "public_id": "hooters-hiram", "id": 610815944, "votes": null, "tagline": null, "has_video": false, "website": "http://www.citysearch.com/profile/external/610815944/hiram_ga/hooters.html", "offers": null, "latitude": 33.885283, "politanName": "Atlanta, GA Metro ", "phone_number": "7709438896", "tags": [{"primary": false, "id": 164, "name": "Bars & Clubs"}, {"primary": false, "id": 11247, "name": "Carry Out"}, {"primary": false, "id": 11375, "name": "Shop Online"}, {"primary": true, "id": 1722, "name": "Restaurants"}], "fax_number": null, "expansion": {"count": null, "uri": null}, "impression_id": "000b000000bc11a085f2fe4335b95439f57301c76b", "profile": "http://www.citysearch.com/profile/610815944/hiram_ga/hooters.html", "address": {"city": "Hiram", "state": "GA", "street": "5464 Wendy Bagwell Pkwy", "postal_code": "30141"}, "capProviderId": null, "distance": null, "has_offers": false, "name": "Hooters", "longitude": -84.738006, "has_menu": true, "awards": null, "user_review_count": 0}, {"business_operation_status": 1, "rating": null, "neighborhood": null, "image": null, "scorecard": null, "featured": false, "sample_categories": "Restaurants, Carry Out", "public_id": "wendys-international-douglasville", "id": 638802110, "votes": null, "tagline": null, "has_video": false, "website": "http://www.citysearch.com/profile/external/638802110/douglasville_ga/wendys_international.html", "offers": null, "latitude": 33.724957, "politanName": "Atlanta, GA Metro ", "phone_number": "7709494002", "tags": [{"primary": false, "id": 11247, "name": "Carry Out"}, {"primary": true, "id": 1722, "name": "Restaurants"}], "fax_number": null, "expansion": {"count": null, "uri": null}, "impression_id": "000b0000003be3157b567e4a7099bf1b5fe5b4ad18", "profile": "http://www.citysearch.com/profile/638802110/douglasville_ga/wendys_international.html", "address": {"city": "Douglasville", "state": "GA", "street": "9491 Highway 5", "postal_code": "30135"}, "capProviderId": null, "distance": null, "has_offers": false, "name": "Wendys International", "longitude": -84.762258, "has_menu": false, "awards": null, "user_review_count": 0}, {"business_operation_status": 1, "rating": null, "neighborhood": null, "image": null, "scorecard": null, "featured": false, "sample_categories": "Restaurants", "public_id": "big-u-n-s-biscuits-dallas", "id": 790659730, "votes": null, "tagline": null, "has_video": false, "website": null, "offers": null, "latitude": 34.065889, "politanName": "Atlanta, GA Metro ", "phone_number": "6783634880", "tags": [{"primary": true, "id": 1722, "name": "Restaurants"}], "fax_number": null, "expansion": {"count": null, "uri": null}, "impression_id": "000b000000900a19fc709442c3843e9a94cbf913b2", "profile": "http://www.citysearch.com/profile/790659730/dallas_ga/big_u_n_s_biscuits.html", "address": {"city": "Dallas", "state": "GA", "street": "11090 Cartersville Hwy", "postal_code": "30132"}, "capProviderId": null, "distance": null, "has_offers": false, "name": "Big U N S Biscuits", "longitude": -84.825325, "has_menu": false, "awards": null, "user_review_count": 0}, {"business_operation_status": 1, "rating": null, "neighborhood": null, "image": null, "scorecard": null, "featured": false, "sample_categories": "Restaurants, Cajun & Creole, Carry Out, American Express, Discover", "public_id": "folks-southern-kitchen-hiram", "id": 43857805, "votes": null, "tagline": null, "has_video": false, "website": "http://www.citysearch.com/profile/external/43857805/hiram_ga/folks_southern_kitchen.html", "offers": null, "latitude": 33.888179, "politanName": "Atlanta, GA Metro ", "phone_number": "7709435447", "tags": [{"primary": false, "id": 11245, "name": "Cajun & Creole"}, {"primary": false, "id": 11247, "name": "Carry Out"}, {"primary": false, "id": 11333, "name": "American Express"}, {"primary": false, "id": 11349, "name": "Discover"}, {"primary": false, "id": 11361, "name": "MasterCard"}, {"primary": false, "id": 11382, "name": "Visa"}, {"primary": true, "id": 1722, "name": "Restaurants"}], "fax_number": null, "expansion": {"count": null, "uri": null}, "impression_id": "000b000000b46b8ce521464520b738e6c0757e3a55", "profile": "http://www.citysearch.com/profile/43857805/hiram_ga/folks_southern_kitchen.html", "address": {"city": "Hiram", "state": "GA", "street": "5096 Jimmy Lee Smith Pkwy", "postal_code": "30141"}, "capProviderId": null, "distance": null, "has_offers": false, "name": "Folks Southern Kitchen", "longitude": -84.744279, "has_menu": true, "awards": null, "user_review_count": 0}, {"business_operation_status": 0, "rating": null, "neighborhood": null, "image": null, "scorecard": null, "featured": false, "sample_categories": "Restaurants, Delis And Delicatessens, Sandwich Shops, Carry Out", "public_id": "quiznos-hiram", "id": 43859506, "votes": null, "tagline": null, "has_video": false, "website": null, "offers": null, "latitude": 33.885074, "politanName": "Atlanta, GA Metro ", "phone_number": "7709432234", "tags": [{"primary": false, "id": 1727, "name": "Delis And Delicatessens"}, {"primary": false, "id": 1736, "name": "Sandwich Shops"}, {"primary": false, "id": 11247, "name": "Carry Out"}, {"primary": true, "id": 1722, "name": "Restaurants"}], "fax_number": null, "expansion": {"count": null, "uri": null}, "impression_id": "000b000000da02203217904d808340b128f6c79b1e", "profile": "http://www.citysearch.com/profile/43859506/hiram_ga/quiznos.html", "address": {"city": "Hiram", "state": "GA", "street": "5739 Wendy Bagwell Pkwy Ste 109", "postal_code": "30141"}, "capProviderId": null, "distance": null, "has_offers": false, "name": "Quiznos", "longitude": -84.732825, "has_menu": true, "awards": null, "user_review_count": 0}, {"business_operation_status": 1, "rating": null, "neighborhood": null, "image": null, "scorecard": null, "featured": false, "sample_categories": "Restaurants", "public_id": "atlanta-bread-company-hiram", "id": 43863386, "votes": null, "tagline": null, "has_video": false, "website": "http://www.citysearch.com/profile/external/43863386/hiram_ga/atlanta_bread_company.html", "offers": null, "latitude": 33.887089, "politanName": "Atlanta, GA Metro ", "phone_number": "7702227220", "tags": [{"primary": true, "id": 1722, "name": "Restaurants"}], "fax_number": null, "expansion": {"count": null, "uri": null}, "impression_id": "000b000000f0e19f8481434e4abbd17e2469a8cea0", "profile": "http://www.citysearch.com/profile/43863386/hiram_ga/atlanta_bread_company.html", "address": {"city": "Hiram", "state": "GA", "street": "5218 Jimmy Lee Smith Pkwy", "postal_code": "30141"}, "capProviderId": null, "distance": null, "has_offers": false, "name": "Atlanta Bread Company", "longitude": -84.742741, "has_menu": true, "awards": null, "user_review_count": 0}, {"business_operation_status": 1, "rating": null, "neighborhood": null, "image": null, "scorecard": null, "featured": false, "sample_categories": "Restaurants, Delis And Delicatessens, Sandwich Shops, Carry Out, Soups", "public_id": "subway-dallas-37", "id": 43864475, "votes": null, "tagline": null, "has_video": false, "website": "http://www.citysearch.com/profile/external/43864475/dallas_ga/subway.html", "offers": null, "latitude": 33.957866, "politanName": "Atlanta, GA Metro ", "phone_number": "7704457566", "tags": [{"primary": false, "id": 1727, "name": "Delis And Delicatessens"}, {"primary": false, "id": 1736, "name": "Sandwich Shops"}, {"primary": false, "id": 11247, "name": "Carry Out"}, {"primary": false, "id": 11311, "name": "Soups"}, {"primary": false, "id": 11333, "name": "American Express"}, {"primary": false, "id": 11349, "name": "Discover"}, {"primary": false, "id": 11361, "name": "MasterCard"}, {"primary": false, "id": 11382, "name": "Visa"}, {"primary": true, "id": 1722, "name": "Restaurants"}], "fax_number": null, "expansion": {"count": null, "uri": null}, "impression_id": "000b000000ea545062075f462daa7c356a08fc00e9", "profile": "http://www.citysearch.com/profile/43864475/dallas_ga/subway.html", "address": {"city": "Dallas", "state": "GA", "street": "55 E Paulding Dr Ste 116", "postal_code": "30157"}, "capProviderId": null, "distance": null, "has_offers": false, "name": "Subway", "longitude": -84.787071, "has_menu": true, "awards": null, "user_review_count": 0}, {"business_operation_status": 1, "rating": null, "neighborhood": null, "image": null, "scorecard": null, "featured": false, "sample_categories": "Coffeehouses", "public_id": "rebecca-eugenes-coffee-douglasville", "id": 812639160, "votes": null, "tagline": null, "has_video": false, "website": null, "offers": null, "latitude": 33.748667, "politanName": "Atlanta, GA Metro ", "phone_number": "7709478788", "tags": [{"primary": true, "id": 1726, "name": "Coffeehouses"}], "fax_number": null, "expansion": {"count": null, "uri": null}, "impression_id": "000b000000fb91a2c078bf436ab4d4b67067ac6a82", "profile": "http://www.citysearch.com/profile/812639160/douglasville_ga/rebecca_eugene_s_coffee.html", "address": {"city": "Douglasville", "state": "GA", "street": "8514 Hospital Dr", "postal_code": "30134"}, "capProviderId": null, "distance": null, "has_offers": false, "name": "Rebecca & Eugene's Coffee", "longitude": -84.730406, "has_menu": false, "awards": null, "user_review_count": 0}, {"business_operation_status": 1, "rating": null, "neighborhood": null, "image": null, "scorecard": null, "featured": false, "sample_categories": "Restaurants, Pizza", "public_id": "bellas-pizzeria-austell", "id": 44775455, "votes": null, "tagline": null, "has_video": false, "website": null, "offers": null, "latitude": 33.860912, "politanName": "Atlanta, GA Metro ", "phone_number": "7064399555", "tags": [{"primary": false, "id": 11299, "name": "Pizza"}, {"primary": true, "id": 1722, "name": "Restaurants"}], "fax_number": null, "expansion": {"count": null, "uri": null}, "impression_id": "000b000000cf4c9c7ecc074514b15238d2439cf100", "profile": "http://www.citysearch.com/profile/44775455/austell_ga/bellas_pizzeria.html", "address": {"city": "Austell", "state": "GA", "street": "2495 E West Connector", "postal_code": "30106"}, "capProviderId": null, "distance": null, "has_offers": false, "name": "Bellas Pizzeria", "longitude": -84.620637, "has_menu": true, "awards": null, "user_review_count": 0}, {"business_operation_status": 1, "rating": null, "neighborhood": null, "image": null, "scorecard": null, "featured": false, "sample_categories": "Carry Out", "public_id": "jamaican-amer-kitchen-take-austell", "id": 826577100, "votes": null, "tagline": null, "has_video": false, "website": null, "offers": null, "latitude": 33.790432, "politanName": "Atlanta, GA Metro ", "phone_number": "7708190034", "tags": [{"primary": true, "id": 11247, "name": "Carry Out"}], "fax_number": null, "expansion": {"count": null, "uri": null}, "impression_id": "000b000000b82f5dba64e049108eb10366ac6f6abf", "profile": "http://www.citysearch.com/profile/826577100/austell_ga/jamaican_amer_kitchen_take.html", "address": {"city": "Austell", "state": "GA", "street": "530 Thornton Rd # A", "postal_code": "30106"}, "capProviderId": null, "distance": null, "has_offers": false, "name": "Jamaican & Amer Kitchen Take", "longitude": -84.621192, "has_menu": false, "awards": null, "user_review_count": 0}, {"business_operation_status": 1, "rating": null, "neighborhood": null, "image": null, "scorecard": null, "featured": false, "sample_categories": "Restaurants", "public_id": "folks-hiram", "id": 610585294, "votes": null, "tagline": null, "has_video": false, "website": null, "offers": null, "latitude": 33.888135, "politanName": "Atlanta, GA Metro ", "phone_number": "7709435447", "tags": [{"primary": true, "id": 1722, "name": "Restaurants"}], "fax_number": null, "expansion": {"count": null, "uri": null}, "impression_id": "000b0000002f8e7df5da3847c0a3dd8d6bd7ca2cc8", "profile": "http://www.citysearch.com/profile/610585294/hiram_ga/folks.html", "address": {"city": "Hiram", "state": "GA", "street": "5096 Jimmy Lee Smith Pkwy", "postal_code": "30141"}, "capProviderId": null, "distance": null, "has_offers": false, "name": "Folks", "longitude": -84.744836, "has_menu": false, "awards": null, "user_review_count": 0}, {"business_operation_status": 1, "rating": null, "neighborhood": null, "image": null, "scorecard": null, "featured": false, "sample_categories": "Restaurants, Carry Out, American Express, Discover, MasterCard", "public_id": "chickfila-marietta-4", "id": 621935420, "votes": null, "tagline": null, "has_video": false, "website": "http://www.citysearch.com/profile/external/621935420/marietta_ga/chick_fil_a.html", "offers": null, "latitude": 33.904224, "politanName": "Atlanta, GA Metro ", "phone_number": "6783555297", "tags": [{"primary": false, "id": 11247, "name": "Carry Out"}, {"primary": false, "id": 11333, "name": "American Express"}, {"primary": false, "id": 11349, "name": "Discover"}, {"primary": false, "id": 11361, "name": "MasterCard"}, {"primary": false, "id": 11382, "name": "Visa"}, {"primary": false, "id": 12839, "name": "Chicken"}, {"primary": true, "id": 1722, "name": "Restaurants"}], "fax_number": null, "expansion": {"count": null, "uri": null}, "impression_id": "000b000000549cf49083ee47b2a1081af62ed3f1a4", "profile": "http://www.citysearch.com/profile/621935420/marietta_ga/chick_fil_a.html", "address": {"city": "Marietta", "state": "GA", "street": "2005 Macland Rd Sw", "postal_code": "30064"}, "capProviderId": null, "distance": null, "has_offers": false, "name": "Chick-Fil-A", "longitude": -84.610996, "has_menu": true, "awards": null, "user_review_count": 0}, {"business_operation_status": 1, "rating": null, "neighborhood": null, "image": null, "scorecard": null, "featured": false, "sample_categories": "Restaurants, Cafes", "public_id": "cruzin-cafe-hiram", "id": 622168170, "votes": null, "tagline": null, "has_video": false, "website": null, "offers": null, "latitude": 33.875411, "politanName": "Atlanta, GA Metro ", "phone_number": "7706931744", "tags": [{"primary": false, "id": 6190, "name": "Cafes"}, {"primary": true, "id": 1722, "name": "Restaurants"}], "fax_number": null, "expansion": {"count": null, "uri": null}, "impression_id": "000b000000f7fddc1eed204601a7140c8009186ee8", "profile": "http://www.citysearch.com/profile/622168170/hiram_ga/cruzin_cafe.html", "address": {"city": "Hiram", "state": "GA", "street": "276 Main St", "postal_code": "30141"}, "capProviderId": null, "distance": null, "has_offers": false, "name": "Cruzin Cafe", "longitude": -84.759397, "has_menu": false, "awards": null, "user_review_count": 0}, {"business_operation_status": 1, "rating": null, "neighborhood": null, "image": null, "scorecard": null, "featured": false, "sample_categories": "Restaurants", "public_id": "volcano-steak-sushi-acworth", "id": 625813834, "votes": null, "tagline": null, "has_video": false, "website": null, "offers": null, "latitude": 33.99646, "politanName": "Atlanta, GA Metro ", "phone_number": "7704209888", "tags": [{"primary": true, "id": 1722, "name": "Restaurants"}], "fax_number": null, "expansion": {"count": null, "uri": null}, "impression_id": "000b000000761402ef0fe84641a82468dc4ca17ad5", "profile": "http://www.citysearch.com/profile/625813834/acworth_ga/volcano_steak_sushi.html", "address": {"city": "Acworth", "state": "GA", "street": "1720 Mars Hill Rd NW", "postal_code": "30101"}, "capProviderId": null, "distance": null, "has_offers": false, "name": "Volcano Steak & Sushi", "longitude": -84.70439, "has_menu": false, "awards": null, "user_review_count": 0}, {"business_operation_status": 1, "rating": null, "neighborhood": null, "image": null, "scorecard": null, "featured": false, "sample_categories": "Restaurants, Barbecue Restaurants", "public_id": "hubies-buffalo-wings-austell", "id": 622209390, "votes": null, "tagline": null, "has_video": false, "website": "http://www.citysearch.com/profile/external/622209390/austell_ga/hubie_s_buffalo_wings.html", "offers": null, "latitude": 33.812606, "politanName": "Atlanta, GA Metro ", "phone_number": "7704325112", "tags": [{"primary": false, "id": 1724, "name": "Barbecue Restaurants"}, {"primary": true, "id": 1722, "name": "Restaurants"}], "fax_number": null, "expansion": {"count": null, "uri": null}, "impression_id": "000b000000f750f0a1076d4206b487184afc030937", "profile": "http://www.citysearch.com/profile/622209390/austell_ga/hubie_s_buffalo_wings.html", "address": {"city": "Austell", "state": "GA", "street": "1133 E West ConnectorSte 300", "postal_code": "30106"}, "capProviderId": null, "distance": null, "has_offers": false, "name": "Hubie's Buffalo Wings", "longitude": -84.634378, "has_menu": false, "awards": null, "user_review_count": 0}, {"business_operation_status": 1, "rating": null, "neighborhood": null, "image": null, "scorecard": null, "featured": false, "sample_categories": "Restaurants, Hamburgers", "public_id": "cheeseburger-bobbys-intl-llc-kennesaw", "id": 622247370, "votes": null, "tagline": null, "has_video": false, "website": null, "offers": null, "latitude": 34.003763, "politanName": "Atlanta, GA Metro ", "phone_number": "7702189962", "tags": [{"primary": false, "id": 11270, "name": "Hamburgers"}, {"primary": true, "id": 1722, "name": "Restaurants"}], "fax_number": null, "expansion": {"count": null, "uri": null}, "impression_id": "000b000000ba47358f98a04b1c8b56f0545acbd353", "profile": "http://www.citysearch.com/profile/622247370/kennesaw_ga/cheeseburger_bobby_s_intl_llc.html", "address": {"city": "Kennesaw", "state": "GA", "street": "1690 Roberts Blvd Nw # 121", "postal_code": "30144"}, "capProviderId": null, "distance": null, "has_offers": false, "name": "Cheeseburger Bobby's Intl Llc", "longitude": -84.596245, "has_menu": false, "awards": null, "user_review_count": 0}, {"business_operation_status": 1, "rating": null, "neighborhood": null, "image": null, "scorecard": null, "featured": false, "sample_categories": "Restaurants", "public_id": "a-la-carte-market-cafe-marietta", "id": 672919100, "votes": null, "tagline": null, "has_video": false, "website": null, "offers": null, "latitude": 33.967672, "politanName": "Atlanta, GA Metro ", "phone_number": null, "tags": [{"primary": true, "id": 1722, "name": "Restaurants"}], "fax_number": null, "expansion": {"count": null, "uri": null}, "impression_id": "000b000000dcddbec87f244c3d8e9c361c81104b5f", "profile": "http://www.citysearch.com/profile/672919100/marietta_ga/a_la_carte_market_cafe.html", "address": {"city": "Marietta", "state": "GA", "street": "3960 Mary Eliza Trace", "postal_code": "30064"}, "capProviderId": null, "distance": null, "has_offers": false, "name": "A La Carte Market & Cafe", "longitude": -84.667328, "has_menu": false, "awards": null, "user_review_count": 0}, {"business_operation_status": 1, "rating": null, "neighborhood": null, "image": null, "scorecard": null, "featured": false, "sample_categories": "Restaurants", "public_id": "wing-it-cafe-marietta", "id": 610478634, "votes": null, "tagline": null, "has_video": false, "website": null, "offers": null, "latitude": 33.883197, "politanName": "Atlanta, GA Metro ", "phone_number": "7702189100", "tags": [{"primary": true, "id": 1722, "name": "Restaurants"}], "fax_number": null, "expansion": {"count": null, "uri": null}, "impression_id": "000b000000174c3425fd9d4e54b8e3ae8797177d7c", "profile": "http://www.citysearch.com/profile/610478634/marietta_ga/wing_it_cafe.html", "address": {"city": "Marietta", "state": "GA", "street": "2200 Powder Springs Rd SW", "postal_code": "30064"}, "capProviderId": null, "distance": null, "has_offers": false, "name": "Wing It Cafe", "longitude": -84.61985, "has_menu": false, "awards": null, "user_review_count": 0}, {"business_operation_status": 1, "rating": null, "neighborhood": null, "image": null, "scorecard": null, "featured": false, "sample_categories": "Restaurants, Fast Food, Carry Out, Hamburgers, American Express", "public_id": "mc-donalds-austell-2", "id": 37648233, "votes": null, "tagline": null, "has_video": false, "website": "http://www.citysearch.com/profile/external/37648233/austell_ga/mc_donald_s.html", "offers": null, "latitude": 33.856577, "politanName": "Atlanta, GA Metro ", "phone_number": "7704344002", "tags": [{"primary": false, "id": 11199, "name": "Fast Food"}, {"primary": false, "id": 11247, "name": "Carry Out"}, {"primary": false, "id": 11270, "name": "Hamburgers"}, {"primary": false, "id": 11333, "name": "American Express"}, {"primary": false, "id": 11349, "name": "Discover"}, {"primary": false, "id": 11361, "name": "MasterCard"}, {"primary": false, "id": 11382, "name": "Visa"}, {"primary": true, "id": 1722, "name": "Restaurants"}], "fax_number": null, "expansion": {"count": null, "uri": null}, "impression_id": "000b0000000e6892704144409381b85a070cbc3ba8", "profile": "http://www.citysearch.com/profile/37648233/austell_ga/mc_donald_s.html", "address": {"city": "Austell", "state": "GA", "street": "1133 E West Connector", "postal_code": "30106"}, "capProviderId": null, "distance": null, "has_offers": false, "name": "Mc Donald's", "longitude": -84.58945, "has_menu": true, "awards": null, "user_review_count": 0}, {"business_operation_status": 1, "rating": null, "neighborhood": null, "image": null, "scorecard": null, "featured": false, "sample_categories": "Restaurants", "public_id": "upshaws-iron-skillet-inc-douglasville", "id": 819271010, "votes": null, "tagline": null, "has_video": false, "website": null, "offers": null, "latitude": 33.751497, "politanName": "Atlanta, GA Metro ", "phone_number": "7705775913", "tags": [{"primary": true, "id": 1722, "name": "Restaurants"}], "fax_number": null, "expansion": {"count": null, "uri": null}, "impression_id": "000b0000009f8f2b6b640d4f4f9f529bd34632db85", "profile": "http://www.citysearch.com/profile/819271010/douglasville_ga/upshaws_iron_skillet_inc.html", "address": {"city": "Douglasville", "state": "GA", "street": "4055 Big Rub Trl", "postal_code": "30135"}, "capProviderId": null, "distance": null, "has_offers": false, "name": "Upshaws Iron Skillet Inc", "longitude": -84.747714, "has_menu": false, "awards": null, "user_review_count": 0}, {"business_operation_status": 1, "rating": null, "neighborhood": null, "image": null, "scorecard": null, "featured": false, "sample_categories": "Coffeehouses, Restaurants", "public_id": "higher-grounds-coffee-cafe-incorporated-dallas", "id": 37649206, "votes": null, "tagline": null, "has_video": false, "website": null, "offers": null, "latitude": 33.935326, "politanName": "Atlanta, GA Metro ", "phone_number": "7705055051", "tags": [{"primary": false, "id": 1722, "name": "Restaurants"}, {"primary": true, "id": 1726, "name": "Coffeehouses"}], "fax_number": null, "expansion": {"count": null, "uri": null}, "impression_id": "000b000000b377e30250e74db485dc2dcb15afc906", "profile": "http://www.citysearch.com/profile/37649206/dallas_ga/higher_grounds_coffee_cafe_incorporated.html", "address": {"city": "Dallas", "state": "GA", "street": "4075 Charles Hardy Pkwy", "postal_code": "30157"}, "capProviderId": null, "distance": null, "has_offers": false, "name": "Higher Grounds Coffee Cafe Incorporated", "longitude": -84.725993, "has_menu": false, "awards": null, "user_review_count": 0}, {"business_operation_status": 1, "rating": null, "neighborhood": null, "image": null, "scorecard": null, "featured": false, "sample_categories": "Restaurants", "public_id": "slate-grill-marietta-2", "id": 820825960, "votes": null, "tagline": null, "has_video": false, "website": null, "offers": null, "latitude": 33.953111, "politanName": "Atlanta, GA Metro ", "phone_number": "7704269777", "tags": [{"primary": true, "id": 1722, "name": "Restaurants"}], "fax_number": null, "expansion": {"count": null, "uri": null}, "impression_id": "000b0000000c5b5637da134efa840a6bda423d270f", "profile": "http://www.citysearch.com/profile/820825960/marietta_ga/slate_grill.html", "address": {"city": "Marietta", "state": "GA", "street": "1000 Whitlock Ave NW # 410", "postal_code": "30064"}, "capProviderId": null, "distance": null, "has_offers": false, "name": "Slate Grill", "longitude": -84.581272, "has_menu": true, "awards": null, "user_review_count": 0}, {"business_operation_status": 1, "rating": null, "neighborhood": null, "image": null, "scorecard": null, "featured": false, "sample_categories": "Restaurants, Chinese", "public_id": "top-china-buffet-hiram", "id": 37648651, "votes": null, "tagline": null, "has_video": false, "website": null, "offers": null, "latitude": 33.889968, "politanName": "Atlanta, GA Metro ", "phone_number": "6785672968", "tags": [{"primary": false, "id": 11252, "name": "Chinese"}, {"primary": true, "id": 1722, "name": "Restaurants"}], "fax_number": null, "expansion": {"count": null, "uri": null}, "impression_id": "000b0000000bde26b9850d4c81a1a8b367472abe0f", "profile": "http://www.citysearch.com/profile/37648651/hiram_ga/top_china_buffet.html", "address": {"city": "Hiram", "state": "GA", "street": "5025 Jimmy Lee Smith Pkwy", "postal_code": "30141"}, "capProviderId": null, "distance": null, "has_offers": false, "name": "Top China Buffet", "longitude": -84.749839, "has_menu": true, "awards": null, "user_review_count": 0}, {"business_operation_status": 1, "rating": 8.0, "neighborhood": null, "image": null, "scorecard": null, "featured": false, "sample_categories": "Restaurants, Traditional American, Steakhouse, American Express, Discover", "public_id": "beefobradys-marietta", "id": 45008875, "votes": null, "tagline": null, "has_video": false, "website": "http://www.citysearch.com/profile/external/45008875/marietta_ga/beef_o_brady_s.html", "offers": null, "latitude": 33.953523, "politanName": "Atlanta, GA Metro ", "phone_number": "7704243001", "tags": [{"primary": false, "id": 11190, "name": "Traditional American"}, {"primary": false, "id": 11316, "name": "Steakhouse"}, {"primary": false, "id": 11333, "name": "American Express"}, {"primary": false, "id": 11349, "name": "Discover"}, {"primary": false, "id": 11361, "name": "MasterCard"}, {"primary": false, "id": 11382, "name": "Visa"}, {"primary": true, "id": 1722, "name": "Restaurants"}], "fax_number": null, "expansion": {"count": null, "uri": null}, "impression_id": "000b00000054a6372ab3b544fd906b47f7f62d8312", "profile": "http://www.citysearch.com/profile/45008875/marietta_ga/beef_o_brady_s.html", "address": {"city": "Marietta", "state": "GA", "street": "3718 Dallas Hwy SW 6", "postal_code": "30064"}, "capProviderId": null, "distance": null, "has_offers": false, "name": "Beef'o'brady's", "longitude": -84.661012, "has_menu": true, "awards": null, "user_review_count": 3}], "histograms": [], "tag_ids": [1722], "uri": "http://api.citygridmedia.com:8080/search/places/v2/search/where?has_offers=false&type=restaurant&format=json&page=20&where=30127&rpp=50&histograms=false&publisher=10000009598&region_type=circle", "did_you_mean": "", "regions": [{"latitude": 33.880952, "default_radius": 7.3, "type": "postal_code", "name": "30127", "longitude": -84.695289}], "call_id": "000b0000004c5ee4dfbabe4c41a50ffb2c0f5355ac", "first_hit": 951, "total_hits": 1066, "geo_ids": [26302], "page": 20, "last_hit": 1000}}