{"results": {"rpp": 50, "locations": [{"business_operation_status": 1, "rating": null, "neighborhood": null, "image": null, "scorecard": null, "featured": false, "sample_categories": "Restaurants, Pizza, Carry Out", "public_id": "little-caesars-pizza-marietta-2", "id": 653582070, "votes": null, "tagline": null, "has_video": false, "website": "http://www.citysearch.com/profile/external/653582070/marietta_ga/little_caesars_pizza.html", "offers": null, "latitude": 33.952972, "politanName": "Atlanta, GA Metro ", "phone_number": "6784014181", "tags": [{"primary": false, "id": 1722, "name": "Restaurants"}, {"primary": false, "id": 11247, "name": "Carry Out"}, {"primary": true, "id": 11299, "name": "Pizza"}], "fax_number": null, "expansion": {"count": null, "uri": null}, "impression_id": "000b000000d822e936466a4daea38a315c186eac30", "profile": "http://www.citysearch.com/profile/653582070/marietta_ga/little_caesars_pizza.html", "address": {"city": "Marietta", "state": "GA", "street": "3405 Dallas Hwy Sw", "postal_code": "30064"}, "capProviderId": null, "distance": null, "has_offers": false, "name": "Little Caesars Pizza", "longitude": -84.651096, "has_menu": false, "awards": null, "user_review_count": 0}, {"business_operation_status": 1, "rating": null, "neighborhood": null, "image": null, "scorecard": null, "featured": false, "sample_categories": "Restaurants", "public_id": "mcdonalds-powder-spgs", "id": 672512120, "votes": null, "tagline": null, "has_video": false, "website": null, "offers": null, "latitude": 33.859152, "politanName": "Atlanta, GA Metro ", "phone_number": "7704210722", "tags": [{"primary": true, "id": 1722, "name": "Restaurants"}], "fax_number": null, "expansion": {"count": null, "uri": null}, "impression_id": "000b0000001d44dfc826bf447d92d567f98cf6229e", "profile": "http://www.citysearch.com/profile/672512120/powder_springs_ga/mcdonald_s.html", "address": {"city": "Powder Springs", "state": "GA", "street": "1195 Powder Springs Rd Southwest", "postal_code": "30127"}, "capProviderId": null, "distance": null, "has_offers": false, "name": "McDonald's", "longitude": -84.672873, "has_menu": false, "awards": null, "user_review_count": 0}, {"business_operation_status": 1, "rating": null, "neighborhood": null, "image": null, "scorecard": null, "featured": false, "sample_categories": "Restaurants", "public_id": "hunts-restaurant-powder", "id": 817353960, "votes": null, "tagline": null, "has_video": false, "website": null, "offers": null, "latitude": 33.859549, "politanName": "Atlanta, GA Metro ", "phone_number": "6785679575", "tags": [{"primary": true, "id": 1722, "name": "Restaurants"}], "fax_number": null, "expansion": {"count": null, "uri": null}, "impression_id": "000b00000018524988600945a3b487429db1e1c618", "profile": "http://www.citysearch.com/profile/817353960/powder_springs_ga/hunt_s_restaurant.html", "address": {"city": "Powder Springs", "state": "GA", "street": "3934 Austell Powder Springs Rd", "postal_code": "30127"}, "capProviderId": null, "distance": null, "has_offers": false, "name": "Hunt's Restaurant", "longitude": -84.683824, "has_menu": false, "awards": null, "user_review_count": 3}, {"business_operation_status": 1, "rating": null, "neighborhood": null, "image": null, "scorecard": null, "featured": false, "sample_categories": "Restaurants", "public_id": "baileys-family-restaurant-powder", "id": 828137130, "votes": null, "tagline": null, "has_video": false, "website": null, "offers": null, "latitude": 33.856981, "politanName": "Atlanta, GA Metro ", "phone_number": "7704391123", "tags": [{"primary": true, "id": 1722, "name": "Restaurants"}], "fax_number": null, "expansion": {"count": null, "uri": null}, "impression_id": "000b000000ebf914350d9f46f7912f46f529562265", "profile": "http://www.citysearch.com/profile/828137130/powder_springs_ga/bailey_s_family_restaurant.html", "address": {"city": "Powder Springs", "state": "GA", "street": "4041 Atlanta St", "postal_code": "30127"}, "capProviderId": null, "distance": null, "has_offers": false, "name": "Bailey's Family Restaurant", "longitude": -84.672069, "has_menu": false, "awards": null, "user_review_count": 4}, {"business_operation_status": 0, "rating": null, "neighborhood": null, "image": null, "scorecard": null, "featured": false, "sample_categories": "Restaurants, Barbecue Restaurants", "public_id": "wingz-n-thingz-powder-spgs", "id": 647346910, "votes": null, "tagline": null, "has_video": false, "website": null, "offers": null, "latitude": 33.80062, "politanName": "Atlanta, GA Metro ", "phone_number": "7706272889", "tags": [{"primary": false, "id": 1724, "name": "Barbecue Restaurants"}, {"primary": true, "id": 1722, "name": "Restaurants"}], "fax_number": null, "expansion": {"count": null, "uri": null}, "impression_id": "000b000000e77d5759104744a687fc575a43c68eab", "profile": "http://www.citysearch.com/profile/647346910/powder_springs_ga/wingz_n_thingz.html", "address": {"city": "Powder Springs", "state": "GA", "street": "105 Brownsville Rd", "postal_code": "30127"}, "capProviderId": null, "distance": null, "has_offers": false, "name": "Wingz N Thingz", "longitude": -84.75614, "has_menu": false, "awards": null, "user_review_count": 0}, {"business_operation_status": 1, "rating": null, "neighborhood": null, "image": null, "scorecard": null, "featured": false, "sample_categories": "Ice Cream Parlors", "public_id": "thai-corner-powder", "id": 817977880, "votes": null, "tagline": null, "has_video": false, "website": null, "offers": null, "latitude": 33.859511, "politanName": "Atlanta, GA Metro ", "phone_number": "7704396889", "tags": [{"primary": true, "id": 1730, "name": "Ice Cream Parlors"}], "fax_number": null, "expansion": {"count": null, "uri": null}, "impression_id": "000b0000008fa69cbe204e40479a03b7045726c5f8", "profile": "http://www.citysearch.com/profile/817977880/powder_springs_ga/thai_corner.html", "address": {"city": "Powder Springs", "state": "GA", "street": "4469 Marietta St", "postal_code": "30127"}, "capProviderId": null, "distance": null, "has_offers": false, "name": "Thai Corner", "longitude": -84.68447, "has_menu": false, "awards": null, "user_review_count": 0}, {"business_operation_status": 1, "rating": null, "neighborhood": null, "image": null, "scorecard": null, "featured": false, "sample_categories": "Restaurants, Seafood", "public_id": "b-b-fish-wing-powder", "id": 764896700, "votes": null, "tagline": null, "has_video": false, "website": null, "offers": null, "latitude": 33.846609, "politanName": "Atlanta, GA Metro ", "phone_number": "7702222740", "tags": [{"primary": false, "id": 11228, "name": "Seafood"}, {"primary": true, "id": 1722, "name": "Restaurants"}], "fax_number": null, "expansion": {"count": null, "uri": null}, "impression_id": "000b000000a1993cb07018449b96906c18ade778db", "profile": "http://www.citysearch.com/profile/764896700/powder_springs_ga/b_b_fish_wing.html", "address": {"city": "Powder Springs", "state": "GA", "street": "4400 Brownsville Rd", "postal_code": "30127"}, "capProviderId": null, "distance": null, "has_offers": false, "name": "B & B Fish & Wing", "longitude": -84.699113, "has_menu": false, "awards": null, "user_review_count": 0}, {"business_operation_status": 1, "rating": null, "neighborhood": null, "image": null, "scorecard": null, "featured": false, "sample_categories": "Restaurants", "public_id": "sparkmans-powder", "id": 827802510, "votes": null, "tagline": null, "has_video": false, "website": null, "offers": null, "latitude": 33.859155, "politanName": "Atlanta, GA Metro ", "phone_number": "7704394588", "tags": [{"primary": true, "id": 1722, "name": "Restaurants"}], "fax_number": null, "expansion": {"count": null, "uri": null}, "impression_id": "000b0000009be8d05f15b84322b2755d2b621219f9", "profile": "http://www.citysearch.com/profile/827802510/powder_springs_ga/sparkman_s.html", "address": {"city": "Powder Springs", "state": "GA", "street": "4136 Austell Powder Springs Rd", "postal_code": "30127"}, "capProviderId": null, "distance": null, "has_offers": false, "name": "Sparkman's", "longitude": -84.65957, "has_menu": false, "awards": null, "user_review_count": 0}, {"business_operation_status": 1, "rating": null, "neighborhood": null, "image": null, "scorecard": null, "featured": false, "sample_categories": "Restaurants", "public_id": "car-checkers-powder-spgs", "id": 2950697, "votes": null, "tagline": null, "has_video": false, "website": null, "offers": null, "latitude": 33.935913, "politanName": "Atlanta, GA Metro ", "phone_number": "7705148100", "tags": [{"primary": true, "id": 1722, "name": "Restaurants"}], "fax_number": null, "expansion": {"count": null, "uri": null}, "impression_id": "000b0000006ceeeda4e02c486d86d7cd113f1efc16", "profile": "http://www.citysearch.com/profile/2950697/powder_springs_ga/car_checkers.html", "address": {"city": "Powder Springs", "state": "GA", "street": "591 Leah Dr", "postal_code": "30127"}, "capProviderId": null, "distance": null, "has_offers": false, "name": "Car Checkers", "longitude": -84.663484, "has_menu": false, "awards": null, "user_review_count": 0}, {"business_operation_status": 1, "rating": null, "neighborhood": null, "image": null, "scorecard": null, "featured": false, "sample_categories": "Restaurants", "public_id": "baileys-diner-powder", "id": 823022250, "votes": null, "tagline": null, "has_video": false, "website": null, "offers": null, "latitude": 33.85832, "politanName": "Atlanta, GA Metro ", "phone_number": "6783841220", "tags": [{"primary": true, "id": 1722, "name": "Restaurants"}], "fax_number": null, "expansion": {"count": null, "uri": null}, "impression_id": "000b00000034be3119deac48a685dd10318b753d11", "profile": "http://www.citysearch.com/profile/823022250/powder_springs_ga/bailey_s_diner.html", "address": {"city": "Powder Springs", "state": "GA", "street": "4093 Marietta St", "postal_code": "30127"}, "capProviderId": null, "distance": null, "has_offers": false, "name": "Bailey's Diner", "longitude": -84.67366, "has_menu": false, "awards": null, "user_review_count": 0}, {"business_operation_status": 1, "rating": null, "neighborhood": null, "image": null, "scorecard": null, "featured": false, "sample_categories": "Restaurants", "public_id": "kds-cafe-inc-powder", "id": 828806350, "votes": null, "tagline": null, "has_video": false, "website": null, "offers": null, "latitude": 33.842913, "politanName": "Atlanta, GA Metro ", "phone_number": "7709434912", "tags": [{"primary": true, "id": 1722, "name": "Restaurants"}], "fax_number": null, "expansion": {"count": null, "uri": null}, "impression_id": "000b000000ede2e96913bb44c6ab69b0a9f8d6a776", "profile": "http://www.citysearch.com/profile/828806350/powder_springs_ga/kds_cafe_inc.html", "address": {"city": "Powder Springs", "state": "GA", "street": "4565 Ridgeview Dr", "postal_code": "30127"}, "capProviderId": null, "distance": null, "has_offers": false, "name": "Kds Cafe Inc", "longitude": -84.721382, "has_menu": false, "awards": null, "user_review_count": 0}, {"business_operation_status": 1, "rating": null, "neighborhood": null, "image": null, "scorecard": null, "featured": false, "sample_categories": "Restaurants", "public_id": "pegasus-foods-inc-powder", "id": 732186320, "votes": null, "tagline": null, "has_video": false, "website": null, "offers": null, "latitude": 33.906794, "politanName": "Atlanta, GA Metro ", "phone_number": "7704391489", "tags": [{"primary": true, "id": 1722, "name": "Restaurants"}], "fax_number": null, "expansion": {"count": null, "uri": null}, "impression_id": "000b0000003715def728974ef69ee7cdc7b3fec0f1", "profile": "http://www.citysearch.com/profile/732186320/powder_springs_ga/pegasus_foods_inc.html", "address": {"city": "Powder Springs", "state": "GA", "street": "3640 Velma Dr", "postal_code": "30127"}, "capProviderId": null, "distance": null, "has_offers": false, "name": "Pegasus Foods Inc", "longitude": -84.660285, "has_menu": false, "awards": null, "user_review_count": 0}, {"business_operation_status": 1, "rating": null, "neighborhood": null, "image": null, "scorecard": null, "featured": false, "sample_categories": "Ice Cream Parlors", "public_id": "brusters-real-ice-cream-powder", "id": 777624710, "votes": null, "tagline": null, "has_video": false, "website": null, "offers": null, "latitude": 33.859024, "politanName": "Atlanta, GA Metro ", "phone_number": "7702227558", "tags": [{"primary": true, "id": 1730, "name": "Ice Cream Parlors"}], "fax_number": null, "expansion": {"count": null, "uri": null}, "impression_id": "000b0000000e4ab72db53242189028056336c8ba44", "profile": "http://www.citysearch.com/profile/777624710/powder_springs_ga/bruster_s_real_ice_cream.html", "address": {"city": "Powder Springs", "state": "GA", "street": "3861 Siniard St", "postal_code": "30127"}, "capProviderId": null, "distance": null, "has_offers": false, "name": "Bruster's Real Ice Cream", "longitude": -84.672325, "has_menu": false, "awards": null, "user_review_count": 0}, {"business_operation_status": 0, "rating": null, "neighborhood": null, "image": null, "scorecard": null, "featured": false, "sample_categories": "Restaurants, Pizza, Food Delivery", "public_id": "aljanos-powder", "id": 777637040, "votes": null, "tagline": null, "has_video": false, "website": null, "offers": null, "latitude": 33.846609, "politanName": "Atlanta, GA Metro ", "phone_number": "7709430023", "tags": [{"primary": false, "id": 1722, "name": "Restaurants"}, {"primary": false, "id": 11267, "name": "Food Delivery"}, {"primary": true, "id": 11299, "name": "Pizza"}], "fax_number": null, "expansion": {"count": null, "uri": null}, "impression_id": "000b00000036dfa8260660466ca980d6db241d05a6", "profile": "http://www.citysearch.com/profile/777637040/powder_springs_ga/aljanos.html", "address": {"city": "Powder Springs", "state": "GA", "street": "4400 Brownsville Rd # 108", "postal_code": "30127"}, "capProviderId": null, "distance": null, "has_offers": false, "name": "Aljanos", "longitude": -84.699113, "has_menu": false, "awards": null, "user_review_count": 1}, {"business_operation_status": 1, "rating": null, "neighborhood": null, "image": null, "scorecard": null, "featured": false, "sample_categories": "Restaurants", "public_id": "rahims-seafood-inc-powder", "id": 806264920, "votes": null, "tagline": null, "has_video": false, "website": null, "offers": null, "latitude": 33.822061, "politanName": "Atlanta, GA Metro ", "phone_number": "7709435544", "tags": [{"primary": true, "id": 1722, "name": "Restaurants"}], "fax_number": null, "expansion": {"count": null, "uri": null}, "impression_id": "000b0000009b536dfe92a543b9b26533d32ffb6cf0", "profile": "http://www.citysearch.com/profile/806264920/powder_springs_ga/rahim_s_seafood_inc.html", "address": {"city": "Powder Springs", "state": "GA", "street": "4123 Sweetsprings Ter SW", "postal_code": "30127"}, "capProviderId": null, "distance": null, "has_offers": false, "name": "Rahim's Seafood Inc", "longitude": -84.676431, "has_menu": false, "awards": null, "user_review_count": 0}, {"business_operation_status": 1, "rating": null, "neighborhood": null, "image": null, "scorecard": null, "featured": false, "sample_categories": "Restaurants, Traditional American, Carry Out", "public_id": "checkers-drivein-restaurant-powder", "id": 728077860, "votes": null, "tagline": null, "has_video": false, "website": "http://www.citysearch.com/profile/external/728077860/powder_springs_ga/checkers_drive_in_restaurant.html", "offers": null, "latitude": 33.890763, "politanName": "Atlanta, GA Metro ", "phone_number": "7709436474", "tags": [{"primary": false, "id": 11190, "name": "Traditional American"}, {"primary": false, "id": 11247, "name": "Carry Out"}, {"primary": true, "id": 1722, "name": "Restaurants"}], "fax_number": null, "expansion": {"count": null, "uri": null}, "impression_id": "000b0000001924978c222f4a2bae03925e0bf8dfa5", "profile": "http://www.citysearch.com/profile/728077860/powder_springs_ga/checkers_drive_in_restaurant.html", "address": {"city": "Powder Springs", "state": "GA", "street": "4113 Jimmy Lee Smith Pkwy", "postal_code": "30127"}, "capProviderId": null, "distance": null, "has_offers": false, "name": "Checkers Drive-In Restaurant", "longitude": -84.752276, "has_menu": false, "awards": null, "user_review_count": 0}, {"business_operation_status": 1, "rating": null, "neighborhood": null, "image": null, "scorecard": null, "featured": false, "sample_categories": "Restaurants", "public_id": "no-way-jose-mexican-bar-grll-powder", "id": 617610074, "votes": null, "tagline": null, "has_video": false, "website": null, "offers": null, "latitude": 33.846609, "politanName": "Atlanta, GA Metro ", "phone_number": "7709435454", "tags": [{"primary": true, "id": 1722, "name": "Restaurants"}], "fax_number": null, "expansion": {"count": null, "uri": null}, "impression_id": "000b000000a3ebf54f2c684810b33f1f2a7c497f6a", "profile": "http://www.citysearch.com/profile/617610074/powder_springs_ga/no_way_jose_mexican_bar_grll.html", "address": {"city": "Powder Springs", "state": "GA", "street": "4400 Brownsville Rd", "postal_code": "30127"}, "capProviderId": null, "distance": null, "has_offers": false, "name": "No Way Jose Mexican Bar & Grll", "longitude": -84.699113, "has_menu": false, "awards": null, "user_review_count": 0}, {"business_operation_status": 1, "rating": null, "neighborhood": null, "image": null, "scorecard": null, "featured": false, "sample_categories": "Restaurants, Barbecue Restaurants, Carry Out, Chicken", "public_id": "wing-street-powder-spgs", "id": 45993765, "votes": null, "tagline": null, "has_video": false, "website": "http://www.citysearch.com/profile/external/45993765/powder_springs_ga/wing_street.html", "offers": null, "latitude": 33.872769, "politanName": "Atlanta, GA Metro ", "phone_number": "7704395538", "tags": [{"primary": false, "id": 1724, "name": "Barbecue Restaurants"}, {"primary": false, "id": 11247, "name": "Carry Out"}, {"primary": false, "id": 12839, "name": "Chicken"}, {"primary": true, "id": 1722, "name": "Restaurants"}], "fax_number": null, "expansion": {"count": null, "uri": null}, "impression_id": "000b0000002643a1ecabf84eb08eed18bfd4a47a29", "profile": "http://www.citysearch.com/profile/45993765/powder_springs_ga/wing_street.html", "address": {"city": "Powder Springs", "state": "GA", "street": "3309 New Macland Rd", "postal_code": "30127"}, "capProviderId": null, "distance": null, "has_offers": false, "name": "Wing Street", "longitude": -84.676147, "has_menu": false, "awards": null, "user_review_count": 0}, {"business_operation_status": 1, "rating": null, "neighborhood": null, "image": null, "scorecard": null, "featured": false, "sample_categories": "Restaurants, Barbecue Restaurants", "public_id": "slab-masters-powder", "id": 764829790, "votes": null, "tagline": null, "has_video": false, "website": null, "offers": null, "latitude": 33.875076, "politanName": "Atlanta, GA Metro ", "phone_number": "7702227200", "tags": [{"primary": false, "id": 1724, "name": "Barbecue Restaurants"}, {"primary": true, "id": 1722, "name": "Restaurants"}], "fax_number": null, "expansion": {"count": null, "uri": null}, "impression_id": "000b000000bff485ec03824772b6aa31ea3db7730e", "profile": "http://www.citysearch.com/profile/764829790/powder_springs_ga/slab_masters.html", "address": {"city": "Powder Springs", "state": "GA", "street": "3217 New Macland Rd", "postal_code": "30127"}, "capProviderId": null, "distance": null, "has_offers": false, "name": "Slab Masters", "longitude": -84.676232, "has_menu": false, "awards": null, "user_review_count": 0}, {"business_operation_status": 1, "rating": null, "neighborhood": null, "image": null, "scorecard": null, "featured": false, "sample_categories": "Restaurants", "public_id": "atlanta-leftovers-inc-powder", "id": 732147950, "votes": null, "tagline": null, "has_video": false, "website": null, "offers": null, "latitude": 33.814495, "politanName": "Atlanta, GA Metro ", "phone_number": "6786137741", "tags": [{"primary": true, "id": 1722, "name": "Restaurants"}], "fax_number": null, "expansion": {"count": null, "uri": null}, "impression_id": "000b000000619f59a0c19e4cd99f84aa795562afd1", "profile": "http://www.citysearch.com/profile/732147950/powder_springs_ga/atlanta_leftovers_inc.html", "address": {"city": "Powder Springs", "state": "GA", "street": "5430 Beaver Lake Dr", "postal_code": "30127"}, "capProviderId": null, "distance": null, "has_offers": false, "name": "Atlanta Leftovers Inc", "longitude": -84.715276, "has_menu": false, "awards": null, "user_review_count": 0}, {"business_operation_status": 1, "rating": null, "neighborhood": null, "image": null, "scorecard": null, "featured": false, "sample_categories": "Delis And Delicatessens", "public_id": "kroger-deli-powder-spg-2", "id": 694161420, "votes": null, "tagline": null, "has_video": false, "website": null, "offers": null, "latitude": 33.903473, "politanName": "Atlanta, GA Metro ", "phone_number": "7702225180", "tags": [{"primary": true, "id": 1727, "name": "Delis And Delicatessens"}], "fax_number": null, "expansion": {"count": null, "uri": null}, "impression_id": "000b000000214095124d2845baa09531d518508a6e", "profile": "http://www.citysearch.com/profile/694161420/powder_springs_ga/kroger_deli.html", "address": {"city": "Powder Springs", "state": "GA", "street": "4150 Macland Rd", "postal_code": "30127"}, "capProviderId": null, "distance": null, "has_offers": false, "name": "Kroger Deli", "longitude": -84.67471, "has_menu": false, "awards": null, "user_review_count": 0}, {"business_operation_status": 1, "rating": null, "neighborhood": null, "image": null, "scorecard": null, "featured": false, "sample_categories": "Restaurants", "public_id": "fletchers-a-taste-of-country-powder-spgs", "id": 33652244, "votes": null, "tagline": null, "has_video": false, "website": null, "offers": null, "latitude": 33.838943, "politanName": "Atlanta, GA Metro ", "phone_number": "7709438067", "tags": [{"primary": true, "id": 1722, "name": "Restaurants"}], "fax_number": null, "expansion": {"count": null, "uri": null}, "impression_id": "000b000000841221c5000d4975b7e4787a1a2d8524", "profile": "http://www.citysearch.com/profile/33652244/powder_springs_ga/fletcher_s_a_taste_of_country.html", "address": {"city": "Powder Springs", "state": "GA", "street": "1948 Douglasville Hwy", "postal_code": "30127"}, "capProviderId": null, "distance": null, "has_offers": false, "name": "Fletcher's A Taste Of Country", "longitude": -84.758449, "has_menu": false, "awards": null, "user_review_count": 0}, {"business_operation_status": 1, "rating": null, "neighborhood": null, "image": null, "scorecard": null, "featured": false, "sample_categories": "Restaurants, Delis And Delicatessens, Sandwich Shops, Carry Out", "public_id": "subway-powder", "id": 713516600, "votes": null, "tagline": null, "has_video": false, "website": "http://www.citysearch.com/profile/external/713516600/powder_springs_ga/subway.html", "offers": null, "latitude": 33.903473, "politanName": "Atlanta, GA Metro ", "phone_number": "7702222710", "tags": [{"primary": false, "id": 1727, "name": "Delis And Delicatessens"}, {"primary": false, "id": 1736, "name": "Sandwich Shops"}, {"primary": false, "id": 11247, "name": "Carry Out"}, {"primary": true, "id": 1722, "name": "Restaurants"}], "fax_number": null, "expansion": {"count": null, "uri": null}, "impression_id": "000b00000018a994dff010406cacd1aba76df1aa2d", "profile": "http://www.citysearch.com/profile/713516600/powder_springs_ga/subway.html", "address": {"city": "Powder Springs", "state": "GA", "street": "4150 Macland Rd", "postal_code": "30127"}, "capProviderId": null, "distance": null, "has_offers": false, "name": "SUBWAY", "longitude": -84.67471, "has_menu": true, "awards": null, "user_review_count": 0}, {"business_operation_status": 1, "rating": null, "neighborhood": null, "image": null, "scorecard": null, "featured": false, "sample_categories": "Delis And Delicatessens", "public_id": "holy-smokes-powder", "id": 713521490, "votes": null, "tagline": null, "has_video": false, "website": null, "offers": null, "latitude": 33.861418, "politanName": "Atlanta, GA Metro ", "phone_number": "7709122104", "tags": [{"primary": true, "id": 1727, "name": "Delis And Delicatessens"}], "fax_number": null, "expansion": {"count": null, "uri": null}, "impression_id": "000b000000dd7d63d4e8334d3ca137140b883dfea4", "profile": "http://www.citysearch.com/profile/713521490/powder_springs_ga/holy_smokes.html", "address": {"city": "Powder Springs", "state": "GA", "street": "2991 Powder Springs Rd", "postal_code": "30127"}, "capProviderId": null, "distance": null, "has_offers": false, "name": "Holy Smokes", "longitude": -84.642139, "has_menu": false, "awards": null, "user_review_count": 0}, {"business_operation_status": 1, "rating": null, "neighborhood": null, "image": null, "scorecard": null, "featured": false, "sample_categories": "Restaurants", "public_id": "ksun-llc-powder", "id": 768794220, "votes": null, "tagline": null, "has_video": false, "website": null, "offers": null, "latitude": 33.866955, "politanName": "Atlanta, GA Metro ", "phone_number": "7709439399", "tags": [{"primary": true, "id": 1722, "name": "Restaurants"}], "fax_number": null, "expansion": {"count": null, "uri": null}, "impression_id": "000b0000006b254998c3b84696a02fc28ad8b0094b", "profile": "http://www.citysearch.com/profile/768794220/powder_springs_ga/ksun_llc.html", "address": {"city": "Powder Springs", "state": "GA", "street": "2860 East-West Connector SW", "postal_code": "30127"}, "capProviderId": null, "distance": null, "has_offers": false, "name": "Ksun Llc", "longitude": -84.626974, "has_menu": false, "awards": null, "user_review_count": 0}, {"business_operation_status": 1, "rating": null, "neighborhood": null, "image": null, "scorecard": null, "featured": false, "sample_categories": "Restaurants", "public_id": "kittys-wings-grill-powder", "id": 823673740, "votes": null, "tagline": null, "has_video": false, "website": null, "offers": null, "latitude": 33.875122, "politanName": "Atlanta, GA Metro ", "phone_number": "6785670606", "tags": [{"primary": true, "id": 1722, "name": "Restaurants"}], "fax_number": null, "expansion": {"count": null, "uri": null}, "impression_id": "000b0000009a32ea10610949138457a513d02396a8", "profile": "http://www.citysearch.com/profile/823673740/powder_springs_ga/kitty_s_wings_grill.html", "address": {"city": "Powder Springs", "state": "GA", "street": "3200 Hopeland Indstrl Bl # 700", "postal_code": "30127"}, "capProviderId": null, "distance": null, "has_offers": false, "name": "Kitty's Wings & Grill", "longitude": -84.702187, "has_menu": false, "awards": null, "user_review_count": 0}, {"business_operation_status": 1, "rating": null, "neighborhood": null, "image": null, "scorecard": null, "featured": false, "sample_categories": "Restaurants, Barbecue Restaurants", "public_id": "ruchda-wings-powder-spg", "id": 682329700, "votes": null, "tagline": null, "has_video": false, "website": null, "offers": null, "latitude": 33.867624, "politanName": "Atlanta, GA Metro ", "phone_number": "7709439399", "tags": [{"primary": false, "id": 1724, "name": "Barbecue Restaurants"}, {"primary": true, "id": 1722, "name": "Restaurants"}], "fax_number": null, "expansion": {"count": null, "uri": null}, "impression_id": "000b00000054c8744c1c4d44d0abe2e7abf4376f22", "profile": "http://www.citysearch.com/profile/682329700/powder_springs_ga/ruchda_wings.html", "address": {"city": "Powder Springs", "state": "GA", "street": "2860 East W Connector Sw", "postal_code": "30127"}, "capProviderId": null, "distance": null, "has_offers": false, "name": "Ruchda Wings", "longitude": -84.631069, "has_menu": false, "awards": null, "user_review_count": 0}, {"business_operation_status": 1, "rating": null, "neighborhood": null, "image": null, "scorecard": null, "featured": false, "sample_categories": "Carry Out", "public_id": "dakota-enterprises-inc-powder", "id": 839779460, "votes": null, "tagline": null, "has_video": false, "website": null, "offers": null, "latitude": 33.846609, "politanName": "Atlanta, GA Metro ", "phone_number": "6785045985", "tags": [{"primary": true, "id": 11247, "name": "Carry Out"}], "fax_number": null, "expansion": {"count": null, "uri": null}, "impression_id": "000b000000cb3f2722e1e843659627bed93044eb11", "profile": "http://www.citysearch.com/profile/839779460/powder_springs_ga/dakota_enterprises_inc.html", "address": {"city": "Powder Springs", "state": "GA", "street": "4400 Brownsville Rd", "postal_code": "30127"}, "capProviderId": null, "distance": null, "has_offers": false, "name": "Dakota Enterprises Inc", "longitude": -84.699113, "has_menu": false, "awards": null, "user_review_count": 0}, {"business_operation_status": 1, "rating": null, "neighborhood": null, "image": null, "scorecard": null, "featured": false, "sample_categories": "Restaurants, Delis And Delicatessens, Sandwich Shops, Carry Out", "public_id": "subway-powder-2", "id": 614260894, "votes": null, "tagline": null, "has_video": false, "website": "http://www.citysearch.com/profile/external/614260894/powder_springs_ga/subway.html", "offers": null, "latitude": 33.846609, "politanName": "Atlanta, GA Metro ", "phone_number": "6785045985", "tags": [{"primary": false, "id": 1727, "name": "Delis And Delicatessens"}, {"primary": false, "id": 1736, "name": "Sandwich Shops"}, {"primary": false, "id": 11247, "name": "Carry Out"}, {"primary": true, "id": 1722, "name": "Restaurants"}], "fax_number": null, "expansion": {"count": null, "uri": null}, "impression_id": "000b000000d5caf0ac74124cebb7ceb7aae41af582", "profile": "http://www.citysearch.com/profile/614260894/powder_springs_ga/subway.html", "address": {"city": "Powder Springs", "state": "GA", "street": "4400 Brownsville Rd # 102", "postal_code": "30127"}, "capProviderId": null, "distance": null, "has_offers": false, "name": "Subway", "longitude": -84.699113, "has_menu": false, "awards": null, "user_review_count": 0}, {"business_operation_status": 1, "rating": null, "neighborhood": null, "image": null, "scorecard": null, "featured": false, "sample_categories": "Restaurants", "public_id": "butler-creek-powder", "id": 732131820, "votes": null, "tagline": null, "has_video": false, "website": null, "offers": null, "latitude": 33.916043, "politanName": "Atlanta, GA Metro ", "phone_number": "7709436777", "tags": [{"primary": true, "id": 1722, "name": "Restaurants"}], "fax_number": null, "expansion": {"count": null, "uri": null}, "impression_id": "000b0000000c3a689925544761b34195eb7b1d9838", "profile": "http://www.citysearch.com/profile/732131820/powder_springs_ga/butler_creek.html", "address": {"city": "Powder Springs", "state": "GA", "street": "1518 Haven Crest Dr", "postal_code": "30127"}, "capProviderId": null, "distance": null, "has_offers": false, "name": "Butler Creek", "longitude": -84.707895, "has_menu": false, "awards": null, "user_review_count": 0}, {"business_operation_status": 1, "rating": null, "neighborhood": null, "image": null, "scorecard": null, "featured": false, "sample_categories": "Restaurants, Pizza, Carry Out, American Express, Discover", "public_id": "papa-johns-pizza-powder-2", "id": 707383910, "votes": null, "tagline": null, "has_video": false, "website": null, "offers": null, "latitude": 33.940822, "politanName": "Atlanta, GA Metro ", "phone_number": "7705141444", "tags": [{"primary": false, "id": 1722, "name": "Restaurants"}, {"primary": false, "id": 11247, "name": "Carry Out"}, {"primary": false, "id": 11333, "name": "American Express"}, {"primary": false, "id": 11349, "name": "Discover"}, {"primary": false, "id": 11361, "name": "MasterCard"}, {"primary": false, "id": 11382, "name": "Visa"}, {"primary": true, "id": 11299, "name": "Pizza"}], "fax_number": null, "expansion": {"count": null, "uri": null}, "impression_id": "000b000000a0474628798a42f1801a8f8f5af44ed2", "profile": "http://www.citysearch.com/profile/707383910/powder_springs_ga/papa_john_s_pizza.html", "address": {"city": "Powder Springs", "state": "GA", "street": "5100 Dallas Hwy Ste 330", "postal_code": "30127"}, "capProviderId": null, "distance": null, "has_offers": false, "name": "Papa John's Pizza", "longitude": -84.703029, "has_menu": false, "awards": null, "user_review_count": 0}, {"business_operation_status": 0, "rating": null, "neighborhood": null, "image": null, "scorecard": null, "featured": false, "sample_categories": "Restaurants, Seafood", "public_id": "love-seafood-restaurant-powder", "id": 622042860, "votes": null, "tagline": null, "has_video": false, "website": null, "offers": null, "latitude": 33.800362, "politanName": "Atlanta, GA Metro ", "phone_number": "7706930672", "tags": [{"primary": false, "id": 11228, "name": "Seafood"}, {"primary": true, "id": 1722, "name": "Restaurants"}], "fax_number": null, "expansion": {"count": null, "uri": null}, "impression_id": "000b0000000e83c67ce43d4e6b9140bd34eb1f74b7", "profile": "http://www.citysearch.com/profile/622042860/powder_springs_ga/love_seafood_restaurant.html", "address": {"city": "Powder Springs", "state": "GA", "street": "105 Brownsville Rd", "postal_code": "30127"}, "capProviderId": null, "distance": null, "has_offers": false, "name": "Love Seafood Restaurant", "longitude": -84.755514, "has_menu": false, "awards": null, "user_review_count": 0}, {"business_operation_status": 1, "rating": null, "neighborhood": null, "image": null, "scorecard": null, "featured": false, "sample_categories": "Delis And Delicatessens", "public_id": "kroger-deli-powder-spg", "id": 694161410, "votes": null, "tagline": null, "has_video": false, "website": null, "offers": null, "latitude": 33.846609, "politanName": "Atlanta, GA Metro ", "phone_number": "7702224200", "tags": [{"primary": true, "id": 1727, "name": "Delis And Delicatessens"}], "fax_number": null, "expansion": {"count": null, "uri": null}, "impression_id": "000b000000f761407f7f5c41a6a654df5122d79af0", "profile": "http://www.citysearch.com/profile/694161410/powder_springs_ga/kroger_deli.html", "address": {"city": "Powder Springs", "state": "GA", "street": "4400 Brownsville Rd", "postal_code": "30127"}, "capProviderId": null, "distance": null, "has_offers": false, "name": "Kroger Deli", "longitude": -84.699113, "has_menu": false, "awards": null, "user_review_count": 0}, {"business_operation_status": 1, "rating": null, "neighborhood": null, "image": null, "scorecard": null, "featured": false, "sample_categories": "Restaurants", "public_id": "pomarico-brothers-llc-powder", "id": 773421610, "votes": null, "tagline": null, "has_video": false, "website": null, "offers": null, "latitude": 33.864726, "politanName": "Atlanta, GA Metro ", "phone_number": "6785672626", "tags": [{"primary": true, "id": 1722, "name": "Restaurants"}], "fax_number": null, "expansion": {"count": null, "uri": null}, "impression_id": "000b000000f2693d39c68740008b05168b6b6c1a4d", "profile": "http://www.citysearch.com/profile/773421610/powder_springs_ga/pomarico_brothers_llc.html", "address": {"city": "Powder Springs", "state": "GA", "street": "1050 Richard D Sailors Pkwy", "postal_code": "30127"}, "capProviderId": null, "distance": null, "has_offers": false, "name": "Pomarico Brothers LLC", "longitude": -84.680179, "has_menu": false, "awards": null, "user_review_count": 0}, {"business_operation_status": 0, "rating": null, "neighborhood": null, "image": null, "scorecard": null, "featured": false, "sample_categories": "Restaurants", "public_id": "aspen-west-cobb-marietta", "id": 41283282, "votes": null, "tagline": null, "has_video": false, "website": "http://www.citysearch.com/profile/external/41283282/marietta_ga/aspens.html", "offers": null, "latitude": 33.952164, "politanName": "Atlanta, GA Metro ", "phone_number": "7704191744", "tags": [{"primary": true, "id": 1722, "name": "Restaurants"}], "fax_number": null, "expansion": {"count": null, "uri": null}, "impression_id": "000b0000005623f0f90163456888f3bb3208111b7c", "profile": "http://www.citysearch.com/profile/41283282/marietta_ga/aspens.html", "address": {"city": "Marietta", "state": "GA", "street": "3625 Dallas Hwy SW Ste 715", "postal_code": "30064"}, "capProviderId": null, "distance": null, "has_offers": false, "name": "Aspens", "longitude": -84.657799, "has_menu": false, "awards": null, "user_review_count": 1}, {"business_operation_status": 1, "rating": null, "neighborhood": null, "image": null, "scorecard": null, "featured": false, "sample_categories": "Restaurants, Barbecue Restaurants, American Express, Discover, MasterCard", "public_id": "mac-land-wings-more-powder-spgs", "id": 43857803, "votes": null, "tagline": null, "has_video": false, "website": "http://www.citysearch.com/profile/external/43857803/powder_springs_ga/mac_land_wings_more.html", "offers": null, "latitude": 33.85841, "politanName": "Atlanta, GA Metro ", "phone_number": "7709433552", "tags": [{"primary": false, "id": 1724, "name": "Barbecue Restaurants"}, {"primary": false, "id": 11333, "name": "American Express"}, {"primary": false, "id": 11349, "name": "Discover"}, {"primary": false, "id": 11361, "name": "MasterCard"}, {"primary": false, "id": 11382, "name": "Visa"}, {"primary": true, "id": 1722, "name": "Restaurants"}], "fax_number": null, "expansion": {"count": null, "uri": null}, "impression_id": "000b000000f5c5564506274ca1a1846ecd28e058a8", "profile": "http://www.citysearch.com/profile/43857803/powder_springs_ga/mac_land_wings_more.html", "address": {"city": "Powder Springs", "state": "GA", "street": "4181 Marietta St", "postal_code": "30127"}, "capProviderId": null, "distance": null, "has_offers": false, "name": "Mac Land Wings & More", "longitude": -84.675151, "has_menu": false, "awards": null, "user_review_count": 1}, {"business_operation_status": 0, "rating": null, "neighborhood": null, "image": null, "scorecard": null, "featured": false, "sample_categories": "Restaurants", "public_id": "baileys-family-restaurant-powder-spgs", "id": 622016560, "votes": null, "tagline": null, "has_video": false, "website": null, "offers": null, "latitude": 33.85832, "politanName": "Atlanta, GA Metro ", "phone_number": "7704390336", "tags": [{"primary": true, "id": 1722, "name": "Restaurants"}], "fax_number": null, "expansion": {"count": null, "uri": null}, "impression_id": "000b00000090cc076dc85c4aa3834ccf22a363a45d", "profile": "http://www.citysearch.com/profile/622016560/powder_springs_ga/bailey_s_family_restaurant.html", "address": {"city": "Powder Springs", "state": "GA", "street": "4093 Marietta St", "postal_code": "30127"}, "capProviderId": null, "distance": null, "has_offers": false, "name": "Bailey's Family Restaurant", "longitude": -84.67366, "has_menu": false, "awards": null, "user_review_count": 1}, {"business_operation_status": 1, "rating": null, "neighborhood": null, "image": null, "scorecard": null, "featured": false, "sample_categories": "Restaurants, Carry Out", "public_id": "burger-king-powder", "id": 764855980, "votes": null, "tagline": null, "has_video": false, "website": null, "offers": null, "latitude": 33.906794, "politanName": "Atlanta, GA Metro ", "phone_number": "7704391489", "tags": [{"primary": false, "id": 11247, "name": "Carry Out"}, {"primary": true, "id": 1722, "name": "Restaurants"}], "fax_number": null, "expansion": {"count": null, "uri": null}, "impression_id": "000b000000fa31eb2f238a4a3593a309b4ce7526bb", "profile": "http://www.citysearch.com/profile/764855980/powder_springs_ga/burger_king.html", "address": {"city": "Powder Springs", "state": "GA", "street": "3640 Velma Dr", "postal_code": "30127"}, "capProviderId": null, "distance": null, "has_offers": false, "name": "Burger King", "longitude": -84.660285, "has_menu": false, "awards": null, "user_review_count": 0}, {"business_operation_status": 1, "rating": null, "neighborhood": null, "image": null, "scorecard": null, "featured": false, "sample_categories": "Food Delivery", "public_id": "hungry-gorilla-incorporated-powder-spgs", "id": 36287066, "votes": null, "tagline": null, "has_video": false, "website": null, "offers": null, "latitude": 33.820457, "politanName": "Atlanta, GA Metro ", "phone_number": "7707453400", "tags": [{"primary": true, "id": 11267, "name": "Food Delivery"}], "fax_number": null, "expansion": {"count": null, "uri": null}, "impression_id": "000b000000338037d3e45f4a5c824fcbc83b22369f", "profile": "http://www.citysearch.com/profile/36287066/powder_springs_ga/hungry_gorilla_incorporated.html", "address": {"city": "Powder Springs", "state": "GA", "street": "5450 Sweetsprings Dr SW", "postal_code": "30127"}, "capProviderId": null, "distance": null, "has_offers": false, "name": "Hungry Gorilla Incorporated", "longitude": -84.678464, "has_menu": false, "awards": null, "user_review_count": 0}, {"business_operation_status": 1, "rating": null, "neighborhood": null, "image": null, "scorecard": null, "featured": false, "sample_categories": "Restaurants", "public_id": "steakhouse-distributing-powder", "id": 807060300, "votes": null, "tagline": null, "has_video": false, "website": null, "offers": null, "latitude": 33.877933, "politanName": "Atlanta, GA Metro ", "phone_number": "7704288482", "tags": [{"primary": true, "id": 1722, "name": "Restaurants"}], "fax_number": null, "expansion": {"count": null, "uri": null}, "impression_id": "000b000000d623aeb0727f407eb0f97f0faeadfc6f", "profile": "http://www.citysearch.com/profile/807060300/powder_springs_ga/steakhouse_distributing.html", "address": {"city": "Powder Springs", "state": "GA", "street": "4000 Fambrough Dr", "postal_code": "30127"}, "capProviderId": null, "distance": null, "has_offers": false, "name": "Steakhouse Distributing", "longitude": -84.704289, "has_menu": false, "awards": null, "user_review_count": 0}, {"business_operation_status": 1, "rating": 9.0, "neighborhood": null, "image": "http://images.citysearch.net/assets/imgdb/merchant/2015/3/18/0/zKAXTjbf208.jpeg", "scorecard": null, "featured": true, "sample_categories": "Restaurants, New American, Traditional American, Seafood, $$", "public_id": "longhorn-steakhouse-douglasville", "id": 2951698, "votes": null, "tagline": "Come in today & enjoy what we call a \"cut-above\" experience", "has_video": false, "website": "http://www.citysearch.com/profile/external/2951698/douglasville_ga/longhorn_steakhouse.html", "offers": null, "latitude": 33.750663, "politanName": "Atlanta, GA Metro ", "phone_number": "4047504291", "tags": [{"primary": false, "id": 11189, "name": "New American"}, {"primary": false, "id": 11190, "name": "Traditional American"}, {"primary": false, "id": 11228, "name": "Seafood"}, {"primary": false, "id": 11232, "name": "$$"}, {"primary": false, "id": 11247, "name": "Carry Out"}, {"primary": false, "id": 11258, "name": "Dine At The Bar"}, {"primary": false, "id": 11263, "name": "Family-Friendly Dining"}, {"primary": false, "id": 11267, "name": "Food Delivery"}, {"primary": false, "id": 11269, "name": "Group Dining"}, {"primary": false, "id": 11316, "name": "Steakhouse"}, {"primary": false, "id": 11333, "name": "American Express"}, {"primary": false, "id": 11349, "name": "Discover"}, {"primary": false, "id": 11361, "name": "MasterCard"}, {"primary": false, "id": 11382, "name": "Visa"}, {"primary": true, "id": 1722, "name": "Restaurants"}], "fax_number": null, "expansion": {"count": null, "uri": null}, "impression_id": "000b000000479efe661f6b465890569daac8f5f702", "profile": "http://www.citysearch.com/profile/2951698/douglasville_ga/longhorn_steakhouse.html", "address": {"city": "Douglasville", "state": "GA", "street": "8471 Hospital Drive", "postal_code": "30134"}, "capProviderId": 1, "distance": null, "has_offers": false, "name": "LongHorn Steakhouse", "longitude": -84.732107, "has_menu": true, "awards": null, "user_review_count": 2}, {"business_operation_status": 1, "rating": 8.0, "neighborhood": null, "image": "http://images.citysearch.net/assets/imgdb/merchant/2015/3/18/0/zKAXTjbf208.jpeg", "scorecard": null, "featured": true, "sample_categories": "Restaurants, New American, Traditional American, Seafood, $$", "public_id": "longhorn-steakhouse-marietta-2", "id": 2906120, "votes": null, "tagline": "Come in today & enjoy what we call a \"cut-above\" experience", "has_video": false, "website": "http://www.citysearch.com/profile/external/2906120/marietta_ga/longhorn_steakhouse.html", "offers": null, "latitude": 33.947061, "politanName": "Atlanta, GA Metro ", "phone_number": "6787019006", "tags": [{"primary": false, "id": 11189, "name": "New American"}, {"primary": false, "id": 11190, "name": "Traditional American"}, {"primary": false, "id": 11228, "name": "Seafood"}, {"primary": false, "id": 11232, "name": "$$"}, {"primary": false, "id": 11247, "name": "Carry Out"}, {"primary": false, "id": 11258, "name": "Dine At The Bar"}, {"primary": false, "id": 11263, "name": "Family-Friendly Dining"}, {"primary": false, "id": 11269, "name": "Group Dining"}, {"primary": false, "id": 11316, "name": "Steakhouse"}, {"primary": false, "id": 11333, "name": "American Express"}, {"primary": false, "id": 11349, "name": "Discover"}, {"primary": false, "id": 11361, "name": "MasterCard"}, {"primary": false, "id": 11382, "name": "Visa"}, {"primary": true, "id": 1722, "name": "Restaurants"}], "fax_number": null, "expansion": {"count": null, "uri": null}, "impression_id": "000b000000ccc696f451d2467b9f39953d100b8091", "profile": "http://www.citysearch.com/profile/2906120/marietta_ga/longhorn_steakhouse.html", "address": {"city": "Marietta", "state": "GA", "street": "2636 Dallas Hwy. SW", "postal_code": "30064"}, "capProviderId": 1, "distance": null, "has_offers": false, "name": "LongHorn Steakhouse", "longitude": -84.628665, "has_menu": true, "awards": null, "user_review_count": 2}, {"business_operation_status": 1, "rating": 9.0, "neighborhood": null, "image": "http://images.citysearch.net/assets/imgdb/merchant/2015/3/3/0/XbDaJnPm123.jpeg", "scorecard": null, "featured": true, "sample_categories": "Restaurants, New American, Carry Out, Family Style Dining, Family-Friendly Dining", "public_id": "olive-garden-douglasville", "id": 33652183, "votes": null, "tagline": "Buy One Take One is Back! Starting at $12.99", "has_video": false, "website": "http://www.citysearch.com/profile/external/33652183/douglasville_ga/olive_garden.html", "offers": null, "latitude": 33.7294, "politanName": "Atlanta, GA Metro ", "phone_number": "7705775858", "tags": [{"primary": false, "id": 11189, "name": "New American"}, {"primary": false, "id": 11247, "name": "Carry Out"}, {"primary": false, "id": 11262, "name": "Family Style Dining"}, {"primary": false, "id": 11263, "name": "Family-Friendly Dining"}, {"primary": false, "id": 11279, "name": "Italian"}, {"primary": false, "id": 11286, "name": "Lunch Spot"}, {"primary": false, "id": 11333, "name": "American Express"}, {"primary": false, "id": 11349, "name": "Discover"}, {"primary": false, "id": 11361, "name": "MasterCard"}, {"primary": false, "id": 11382, "name": "Visa"}, {"primary": true, "id": 1722, "name": "Restaurants"}], "fax_number": null, "expansion": {"count": null, "uri": null}, "impression_id": "000b000000ffbb73d72ab24d3b9d984386783ecb74", "profile": "http://www.citysearch.com/profile/33652183/douglasville_ga/olive_garden.html", "address": {"city": "Douglasville", "state": "GA", "street": "6710 Douglas Blvd", "postal_code": "30135"}, "capProviderId": 1, "distance": null, "has_offers": false, "name": "Olive Garden", "longitude": -84.74991, "has_menu": true, "awards": null, "user_review_count": 3}, {"business_operation_status": 1, "rating": null, "neighborhood": null, "image": "http://images.citysearch.net/assets/imgdb/merchant/2015/3/18/0/zKAXTjbf208.jpeg", "scorecard": null, "featured": true, "sample_categories": "Restaurants, New American, Seafood, Carry Out, Steakhouse", "public_id": "longhorn-steakhouse-hiram", "id": 670884790, "votes": null, "tagline": "Come in today & enjoy what we call a \"cut-above\" experience", "has_video": false, "website": "http://www.citysearch.com/profile/external/670884790/hiram_ga/longhorn_steakhouse.html", "offers": null, "latitude": 33.888723, "politanName": "Atlanta, GA Metro ", "phone_number": "4702391415", "tags": [{"primary": false, "id": 11189, "name": "New American"}, {"primary": false, "id": 11228, "name": "Seafood"}, {"primary": false, "id": 11247, "name": "Carry Out"}, {"primary": false, "id": 11316, "name": "Steakhouse"}, {"primary": false, "id": 11333, "name": "American Express"}, {"primary": false, "id": 11347, "name": "Debit Card"}, {"primary": false, "id": 11349, "name": "Discover"}, {"primary": false, "id": 11361, "name": "MasterCard"}, {"primary": false, "id": 11382, "name": "Visa"}, {"primary": true, "id": 1722, "name": "Restaurants"}], "fax_number": null, "expansion": {"count": null, "uri": null}, "impression_id": "000b000000adead928b8434893976c7ff4427b24a8", "profile": "http://www.citysearch.com/profile/670884790/hiram_ga/longhorn_steakhouse.html", "address": {"city": "Hiram", "state": "GA", "street": "4800 Jimmy Lee Smith Pkwy", "postal_code": "30141"}, "capProviderId": 1, "distance": null, "has_offers": false, "name": "LongHorn Steakhouse", "longitude": -84.748249, "has_menu": true, "awards": null, "user_review_count": 0}, {"business_operation_status": 1, "rating": 9.0, "neighborhood": null, "image": "http://i1.ypcdn.com/newdisplay_distr/sbc/WallaceBarbecu_2093269_BB.gif", "scorecard": null, "featured": true, "sample_categories": "Restaurants, Catering, Barbecue Restaurants, Brunch, Carry Out", "public_id": "wallace-barbecue-restaurant-austell", "id": 2961767, "votes": null, "tagline": null, "has_video": false, "website": "http://www.citysearch.com/profile/external/2961767/austell_ga/wallace_barbecue_restaurant.html", "offers": null, "latitude": 33.805297, "politanName": "Atlanta, GA Metro ", "phone_number": "7705046174", "tags": [{"primary": false, "id": 1705, "name": "Catering"}, {"primary": false, "id": 1724, "name": "Barbecue Restaurants"}, {"primary": false, "id": 11240, "name": "Brunch"}, {"primary": false, "id": 11247, "name": "Carry Out"}, {"primary": false, "id": 11333, "name": "American Express"}, {"primary": false, "id": 11349, "name": "Discover"}, {"primary": false, "id": 11361, "name": "MasterCard"}, {"primary": false, "id": 11382, "name": "Visa"}, {"primary": true, "id": 1722, "name": "Restaurants"}], "fax_number": null, "expansion": {"count": null, "uri": null}, "impression_id": "000b000000c699d18044de4105a9cb30e68e34cb54", "profile": "http://www.citysearch.com/profile/2961767/austell_ga/wallace_barbecue_restaurant.html", "address": {"city": "Austell", "state": "GA", "street": "3035 Veterans Memorial Hwy", "postal_code": "30168"}, "capProviderId": 11, "distance": null, "has_offers": false, "name": "Wallace Barbecue Restaurant", "longitude": -84.63619, "has_menu": true, "awards": null, "user_review_count": 14}, {"business_operation_status": 1, "rating": 9.0, "neighborhood": null, "image": "http://o3.aolcdn.com/dims-shared/dims3/PATCH/resize/600x450/http://hss-prod.hss.aol.com/hss/storage/patch/e86137254c4247e4ca79b2ad9f3cd25d", "scorecard": null, "featured": false, "sample_categories": "Restaurants, Bars & Clubs, Bars & Pubs, Traditional American, Seafood", "public_id": "whitlocks-grill-marietta", "id": 2906507, "votes": null, "tagline": "Voted \"Amazing Food!\"", "has_video": false, "website": "http://www.citysearch.com/profile/external/2906507/marietta_ga/whitlock_s_grill.html", "offers": null, "latitude": 33.952132, "politanName": "Atlanta, GA Metro ", "phone_number": "7705901500", "tags": [{"primary": false, "id": 164, "name": "Bars & Clubs"}, {"primary": false, "id": 1686, "name": "Bars & Pubs"}, {"primary": false, "id": 11190, "name": "Traditional American"}, {"primary": false, "id": 11228, "name": "Seafood"}, {"primary": false, "id": 11265, "name": "Fine Dining"}, {"primary": false, "id": 11316, "name": "Steakhouse"}, {"primary": false, "id": 11333, "name": "American Express"}, {"primary": false, "id": 11348, "name": "Diners Club"}, {"primary": false, "id": 11349, "name": "Discover"}, {"primary": false, "id": 11361, "name": "MasterCard"}, {"primary": false, "id": 11382, "name": "Visa"}, {"primary": true, "id": 1722, "name": "Restaurants"}], "fax_number": null, "expansion": {"count": null, "uri": null}, "impression_id": "000b000000e7dd1068f61a4abea304b98230dd47e0", "profile": "http://www.citysearch.com/profile/2906507/marietta_ga/whitlock_s_grill.html", "address": {"city": "Marietta", "state": "GA", "street": "990 Whitlock Ave NW", "postal_code": "30064"}, "capProviderId": null, "distance": null, "has_offers": false, "name": "Whitlock's Grill", "longitude": -84.578568, "has_menu": false, "awards": null, "user_review_count": 13}, {"business_operation_status": 1, "rating": 9.0, "neighborhood": null, "image": "http://images.citysearch.net/assets/imgdb/70/a5/fb/f1/51/7a/42/cd/88/61/1b/64/6c/1f/6c/77.JPG", "scorecard": null, "featured": false, "sample_categories": "Neighborhood Bars, Restaurants, After Work, Notable Beer List, Mexican", "public_id": "taco-mac-douglasville-douglasville", "id": 602949612, "votes": null, "tagline": "Atlanta's original Buffalo wings & largest draught selection in town!", "has_video": false, "website": "http://www.citysearch.com/profile/external/602949612/douglasville_ga/taco_mac_douglasville.html", "offers": null, "latitude": 33.724819, "politanName": "Atlanta, GA Metro ", "phone_number": "7709420499", "tags": [{"primary": false, "id": 1722, "name": "Restaurants"}, {"primary": false, "id": 10015, "name": "After Work"}, {"primary": false, "id": 11102, "name": "Notable Beer List"}, {"primary": false, "id": 11208, "name": "Mexican"}, {"primary": false, "id": 11237, "name": "Bar Menu"}, {"primary": false, "id": 11238, "name": "Bar Scene"}, {"primary": false, "id": 11258, "name": "Dine At The Bar"}, {"primary": false, "id": 11263, "name": "Family-Friendly Dining"}, {"primary": false, "id": 11292, "name": "Notable Beer List"}, {"primary": false, "id": 11313, "name": "Southwestern"}, {"primary": false, "id": 11333, "name": "American Express"}, {"primary": false, "id": 11361, "name": "MasterCard"}, {"primary": false, "id": 11382, "name": "Visa"}, {"primary": false, "id": 12821, "name": "Casual Date Spot"}, {"primary": true, "id": 1698, "name": "Neighborhood Bars"}], "fax_number": null, "expansion": {"count": null, "uri": null}, "impression_id": "000b00000072d572444967427e8d2cba2ec242c831", "profile": "http://www.citysearch.com/profile/602949612/douglasville_ga/taco_mac_douglasville.html", "address": {"city": "Douglasville", "state": "GA", "street": "7397 Douglas Blvd.", "postal_code": "30135"}, "capProviderId": null, "distance": null, "has_offers": false, "name": "Taco Mac Douglasville", "longitude": -84.765251, "has_menu": true, "awards": null, "user_review_count": 5}, {"business_operation_status": 1, "rating": null, "neighborhood": null, "image": "http://images.citysearch.net/assets/imgdb/merchant/2010/12/23/0/PJvPGMvM24.jpeg", "scorecard": null, "featured": false, "sample_categories": "Restaurants, Chicken Wings, Neighborhood Bars, Sports Bars, Catering", "public_id": "otters-chicken-sports-bar-grill-marietta", "id": 604423012, "votes": null, "tagline": "Otter's Chicken Sports Bar & Grill, Marrietta | If The Kernel Had Our Chicken, He'd Be A General By Now", "has_video": false, "website": "http://www.citysearch.com/profile/external/604423012/marietta_ga/otter_s_chicken_sports_bar_grill.html", "offers": "$2 Draft Beer Specials", "latitude": 33.952164, "politanName": "Atlanta, GA Metro ", "phone_number": "7704288333", "tags": [{"primary": false, "id": 13700, "name": "Chicken Wings"}, {"primary": false, "id": 1698, "name": "Neighborhood Bars"}, {"primary": false, "id": 1701, "name": "Sports Bars"}, {"primary": false, "id": 1705, "name": "Catering"}, {"primary": false, "id": 11085, "name": "Draft Beer"}, {"primary": false, "id": 11190, "name": "Traditional American"}, {"primary": false, "id": 11231, "name": "$"}, {"primary": false, "id": 11237, "name": "Bar Menu"}, {"primary": false, "id": 11245, "name": "Cajun & Creole"}, {"primary": false, "id": 11247, "name": "Carry Out"}, {"primary": false, "id": 11263, "name": "Family-Friendly Dining"}, {"primary": false, "id": 11284, "name": "Local Favorite"}, {"primary": false, "id": 11286, "name": "Lunch Spot"}, {"primary": false, "id": 11292, "name": "Notable Beer List"}, {"primary": false, "id": 11296, "name": "Outdoor Dining"}, {"primary": false, "id": 11333, "name": "American Express"}, {"primary": false, "id": 11339, "name": "Cash"}, {"primary": false, "id": 11340, "name": "Casual"}, {"primary": false, "id": 11361, "name": "MasterCard"}, {"primary": false, "id": 11369, "name": "Parking Lot"}, {"primary": false, "id": 11382, "name": "Visa"}, {"primary": false, "id": 12821, "name": "Casual Date Spot"}, {"primary": false, "id": 12839, "name": "Chicken"}, {"primary": true, "id": 1722, "name": "Restaurants"}], "fax_number": null, "expansion": {"count": null, "uri": null}, "impression_id": "000b00000056a0e95cb9574d1cb5eff091f5bb0602", "profile": "http://www.citysearch.com/profile/604423012/marietta_ga/otter_s_chicken_sports_bar_grill.html", "address": {"city": "Marietta", "state": "GA", "street": "3625 Dallas Hwy SW Ste 690", "postal_code": "30064"}, "capProviderId": null, "distance": null, "has_offers": true, "name": "Otter's Chicken Sports Bar & Grill", "longitude": -84.657799, "has_menu": false, "awards": null, "user_review_count": 0}, {"business_operation_status": 1, "rating": 10.0, "neighborhood": null, "image": "http://images.citysearch.net/assets/imgdb/d1/cd/62/36/3a/75/47/31/95/e4/a5/d2/2d/aa/8a/ba.jpg", "scorecard": null, "featured": false, "sample_categories": "Restaurants, Bars & Clubs, Bars & Pubs, Barbecue Restaurants, Traditional American", "public_id": "buffalo-wild-wings-hiram", "id": 41655395, "votes": null, "tagline": "Enjoy award-winning wings and 14 signature sauces at Buffalo Wild Wings", "has_video": false, "website": "http://www.citysearch.com/profile/external/41655395/hiram_ga/buffalo_wild_wings.html", "offers": null, "latitude": 33.888047, "politanName": "Atlanta, GA Metro ", "phone_number": "7704393744", "tags": [{"primary": false, "id": 164, "name": "Bars & Clubs"}, {"primary": false, "id": 1686, "name": "Bars & Pubs"}, {"primary": false, "id": 1724, "name": "Barbecue Restaurants"}, {"primary": false, "id": 11190, "name": "Traditional American"}, {"primary": false, "id": 11231, "name": "$"}, {"primary": false, "id": 11247, "name": "Carry Out"}, {"primary": false, "id": 11263, "name": "Family-Friendly Dining"}, {"primary": false, "id": 11269, "name": "Group Dining"}, {"primary": false, "id": 11271, "name": "Happy Hour"}, {"primary": false, "id": 11349, "name": "Discover"}, {"primary": false, "id": 11361, "name": "MasterCard"}, {"primary": false, "id": 11382, "name": "Visa"}, {"primary": true, "id": 1722, "name": "Restaurants"}], "fax_number": null, "expansion": {"count": null, "uri": null}, "impression_id": "000b0000009238298b68674615b6d7b7050eaf836d", "profile": "http://www.citysearch.com/profile/41655395/hiram_ga/buffalo_wild_wings.html", "address": {"city": "Hiram", "state": "GA", "street": "5000 Jimmy Lee Smith Parkway", "postal_code": "30141"}, "capProviderId": null, "distance": null, "has_offers": false, "name": "Buffalo Wild Wings", "longitude": -84.745999, "has_menu": true, "awards": null, "user_review_count": 1}, {"business_operation_status": 1, "rating": null, "neighborhood": null, "image": "http://images.citysearch.net/assets/imgdb/merchant/2010/1/19/0/VXzuaHXn26.jpeg", "scorecard": null, "featured": false, "sample_categories": "Catering, Restaurants, Pizza, Carry Out, Food Delivery", "public_id": "pizza-hut-lithia-spgs", "id": 2947852, "votes": null, "tagline": "Order From Pizza Hut Online Today! Choose Real Taste, and So Much More", "has_video": false, "website": "http://www.citysearch.com/profile/external/2947852/lithia_springs_ga/pizza_hut.html", "offers": null, "latitude": 33.785657, "politanName": "Atlanta, GA Metro ", "phone_number": "7707321000", "tags": [{"primary": false, "id": 1705, "name": "Catering"}, {"primary": false, "id": 11299, "name": "Pizza"}, {"primary": false, "id": 11247, "name": "Carry Out"}, {"primary": false, "id": 11267, "name": "Food Delivery"}, {"primary": false, "id": 11333, "name": "American Express"}, {"primary": false, "id": 11349, "name": "Discover"}, {"primary": false, "id": 11361, "name": "MasterCard"}, {"primary": false, "id": 11382, "name": "Visa"}, {"primary": true, "id": 1722, "name": "Restaurants"}], "fax_number": null, "expansion": {"count": null, "uri": null}, "impression_id": "000b000000780567e29f10467c9af4242d3a59afb6", "profile": "http://www.citysearch.com/profile/2947852/lithia_springs_ga/pizza_hut.html", "address": {"city": "Lithia Springs", "state": "GA", "street": "6951 S Sweetwater Rd", "postal_code": "30122"}, "capProviderId": null, "distance": null, "has_offers": false, "name": "Pizza Hut", "longitude": -84.656656, "has_menu": true, "awards": null, "user_review_count": 0}], "histograms": [], "tag_ids": [1722], "uri": "http://api.citygridmedia.com:8080/search/places/v2/search/where?has_offers=false&type=restaurant&format=json&page=2&where=30127&rpp=50&histograms=false&publisher=10000009598&region_type=circle", "did_you_mean": "", "regions": [{"latitude": 33.880952, "default_radius": 7.3, "type": "postal_code", "name": "30127", "longitude": -84.695289}], "call_id": "000b00000074e88b60c26c490cbbdcc08e770ca522", "first_hit": 51, "total_hits": 1066, "geo_ids": [26302], "page": 2, "last_hit": 100}}