{"results": {"rpp": 50, "locations": [{"business_operation_status": 1, "rating": null, "neighborhood": null, "image": null, "scorecard": null, "featured": false, "sample_categories": "Restaurants", "public_id": "volcano-steak-sushi-acworth", "id": 625431904, "votes": null, "tagline": null, "has_video": false, "website": null, "offers": null, "latitude": 33.99646, "politanName": "Atlanta, GA Metro ", "phone_number": "7704209888", "tags": [{"primary": true, "id": 1722, "name": "Restaurants"}], "fax_number": null, "expansion": {"count": null, "uri": null}, "impression_id": "000b0000005aeb4378f4a94e929decdd040feb010b", "profile": "http://www.citysearch.com/profile/625431904/acworth_ga/volcano_steak_sushi.html", "address": {"city": "Acworth", "state": "GA", "street": "1720 Mars Hill Rd NW", "postal_code": "30101"}, "capProviderId": null, "distance": null, "has_offers": false, "name": "Volcano Steak & Sushi", "longitude": -84.70439, "has_menu": false, "awards": null, "user_review_count": 0}, {"business_operation_status": 1, "rating": null, "neighborhood": null, "image": null, "scorecard": null, "featured": false, "sample_categories": "Restaurants", "public_id": "mythos-pizzeria-marietta", "id": 627338904, "votes": null, "tagline": null, "has_video": false, "website": null, "offers": null, "latitude": 33.953414, "politanName": "Atlanta, GA Metro ", "phone_number": "7704255100", "tags": [{"primary": true, "id": 1722, "name": "Restaurants"}], "fax_number": null, "expansion": {"count": null, "uri": null}, "impression_id": "000b00000008f2cbff3b1f4659a84ea35713c6bf08", "profile": "http://www.citysearch.com/profile/627338904/marietta_ga/mythos_pizzeria.html", "address": {"city": "Marietta", "state": "GA", "street": "1000 Whitlock Ave NW", "postal_code": "30064"}, "capProviderId": null, "distance": null, "has_offers": false, "name": "Mythos Pizzeria", "longitude": -84.581304, "has_menu": false, "awards": null, "user_review_count": 0}, {"business_operation_status": 1, "rating": null, "neighborhood": null, "image": null, "scorecard": null, "featured": false, "sample_categories": "Restaurants, Fast Food, Carry Out, Hamburgers, American Express", "public_id": "mc-donalds-mableton-2", "id": 601310556, "votes": null, "tagline": null, "has_video": false, "website": "http://www.citysearch.com/profile/external/601310556/mableton_ga/mcdonald_s.html", "offers": null, "latitude": 33.835672, "politanName": "Atlanta, GA Metro ", "phone_number": "7709444853", "tags": [{"primary": false, "id": 11199, "name": "Fast Food"}, {"primary": false, "id": 11247, "name": "Carry Out"}, {"primary": false, "id": 11270, "name": "Hamburgers"}, {"primary": false, "id": 11333, "name": "American Express"}, {"primary": false, "id": 11349, "name": "Discover"}, {"primary": false, "id": 11361, "name": "MasterCard"}, {"primary": false, "id": 11382, "name": "Visa"}, {"primary": true, "id": 1722, "name": "Restaurants"}], "fax_number": null, "expansion": {"count": null, "uri": null}, "impression_id": "000b000000e100369af6df47c4b292c1a424ac3edd", "profile": "http://www.citysearch.com/profile/601310556/mableton_ga/mcdonald_s.html", "address": {"city": "Mableton", "state": "GA", "street": "4860 Floyd Rd Sw", "postal_code": "30126"}, "capProviderId": null, "distance": null, "has_offers": false, "name": "McDonald's", "longitude": -84.576914, "has_menu": false, "awards": null, "user_review_count": 0}, {"business_operation_status": 1, "rating": null, "neighborhood": null, "image": null, "scorecard": null, "featured": false, "sample_categories": "Restaurants", "public_id": "vaqueros-marietta", "id": 672714020, "votes": null, "tagline": null, "has_video": false, "website": null, "offers": null, "latitude": 33.953033, "politanName": "Atlanta, GA Metro ", "phone_number": "6787385431", "tags": [{"primary": true, "id": 1722, "name": "Restaurants"}], "fax_number": null, "expansion": {"count": null, "uri": null}, "impression_id": "000b00000056dd678b9f5e45a6975848d8709e4062", "profile": "http://www.citysearch.com/profile/672714020/marietta_ga/vaqueros.html", "address": {"city": "Marietta", "state": "GA", "street": "1000 Whitlock Ave. #400", "postal_code": "30064"}, "capProviderId": null, "distance": null, "has_offers": false, "name": "Vaqueros", "longitude": -84.581202, "has_menu": false, "awards": null, "user_review_count": 0}, {"business_operation_status": 1, "rating": null, "neighborhood": null, "image": null, "scorecard": null, "featured": false, "sample_categories": "Restaurants", "public_id": "the-olive-tree-lithia-spgs", "id": 673007600, "votes": null, "tagline": null, "has_video": false, "website": "http://www.citysearch.com/profile/external/673007600/lithia_springs_ga/the_olive_tree.html", "offers": null, "latitude": 33.784778, "politanName": "Atlanta, GA Metro ", "phone_number": "7709481288", "tags": [{"primary": true, "id": 1722, "name": "Restaurants"}], "fax_number": null, "expansion": {"count": null, "uri": null}, "impression_id": "000b000000be805bf102a248eca7e3e892463b3567", "profile": "http://www.citysearch.com/profile/673007600/lithia_springs_ga/the_olive_tree.html", "address": {"city": "Lithia Springs", "state": "GA", "street": "849 Thornton Rd", "postal_code": "30122"}, "capProviderId": null, "distance": null, "has_offers": false, "name": "The Olive Tree", "longitude": -84.612367, "has_menu": false, "awards": null, "user_review_count": 0}, {"business_operation_status": 1, "rating": null, "neighborhood": null, "image": null, "scorecard": null, "featured": false, "sample_categories": "Restaurants", "public_id": "elite-kitchen-couture-kennesaw", "id": 632940880, "votes": null, "tagline": null, "has_video": false, "website": null, "offers": null, "latitude": 33.983459, "politanName": "Atlanta, GA Metro ", "phone_number": "7704218807", "tags": [{"primary": true, "id": 1722, "name": "Restaurants"}], "fax_number": null, "expansion": {"count": null, "uri": null}, "impression_id": "000b00000033a56571b7904b0393b9ee7d468f43bf", "profile": "http://www.citysearch.com/profile/632940880/kennesaw_ga/elite_kitchen_couture.html", "address": {"city": "Kennesaw", "state": "GA", "street": "2004 Ector Ct Nw", "postal_code": "30152"}, "capProviderId": null, "distance": null, "has_offers": false, "name": "Elite Kitchen Couture", "longitude": -84.613208, "has_menu": false, "awards": null, "user_review_count": 0}, {"business_operation_status": 1, "rating": null, "neighborhood": null, "image": null, "scorecard": null, "featured": false, "sample_categories": "Delis And Delicatessens", "public_id": "kroger-deli-douglasville-4", "id": 706880660, "votes": null, "tagline": null, "has_video": false, "website": null, "offers": null, "latitude": 33.699445, "politanName": "Atlanta, GA Metro ", "phone_number": "7709477144", "tags": [{"primary": true, "id": 1727, "name": "Delis And Delicatessens"}], "fax_number": null, "expansion": {"count": null, "uri": null}, "impression_id": "000b000000c13d210ca9ac42e796d39be857c24f81", "profile": "http://www.citysearch.com/profile/706880660/douglasville_ga/kroger_deli.html", "address": {"city": "Douglasville", "state": "GA", "street": "3875 Chapel Hill Rd", "postal_code": "30135"}, "capProviderId": null, "distance": null, "has_offers": false, "name": "Kroger Deli", "longitude": -84.718495, "has_menu": false, "awards": null, "user_review_count": 0}, {"business_operation_status": 1, "rating": null, "neighborhood": null, "image": null, "scorecard": null, "featured": false, "sample_categories": "Restaurants", "public_id": "niks-place-marietta", "id": 618038054, "votes": null, "tagline": null, "has_video": false, "website": "http://www.citysearch.com/profile/external/618038054/marietta_ga/niks_place.html", "offers": null, "latitude": 33.952096, "politanName": "Atlanta, GA Metro ", "phone_number": "7707926666", "tags": [{"primary": true, "id": 1722, "name": "Restaurants"}], "fax_number": null, "expansion": {"count": null, "uri": null}, "impression_id": "000b000000305d722d773641f9b4aa9577a9f2a4f6", "profile": "http://www.citysearch.com/profile/618038054/marietta_ga/niks_place.html", "address": {"city": "Marietta", "state": "GA", "street": "Whitlock Ave NW", "postal_code": "30064"}, "capProviderId": null, "distance": null, "has_offers": false, "name": "Niks Place", "longitude": -84.576903, "has_menu": true, "awards": null, "user_review_count": 0}, {"business_operation_status": 1, "rating": null, "neighborhood": null, "image": null, "scorecard": null, "featured": false, "sample_categories": "Delis And Delicatessens", "public_id": "kroger-deli-douglasville-2", "id": 695232160, "votes": null, "tagline": null, "has_video": false, "website": null, "offers": null, "latitude": 33.818595, "politanName": "Atlanta, GA Metro ", "phone_number": "7709491652", "tags": [{"primary": true, "id": 1727, "name": "Delis And Delicatessens"}], "fax_number": null, "expansion": {"count": null, "uri": null}, "impression_id": "000b0000008c8953642b24428798dd459f7b10474e", "profile": "http://www.citysearch.com/profile/695232160/douglasville_ga/kroger_deli.html", "address": {"city": "Douglasville", "state": "GA", "street": "4815 Ridge Rd # 101", "postal_code": "30134"}, "capProviderId": null, "distance": null, "has_offers": false, "name": "Kroger Deli", "longitude": -84.811782, "has_menu": false, "awards": null, "user_review_count": 0}, {"business_operation_status": 1, "rating": null, "neighborhood": null, "image": null, "scorecard": null, "featured": false, "sample_categories": "Restaurants", "public_id": "winstons-food-spirits-austell-2", "id": 699576350, "votes": null, "tagline": null, "has_video": false, "website": null, "offers": null, "latitude": 33.812606, "politanName": "Atlanta, GA Metro ", "phone_number": "7707391130", "tags": [{"primary": true, "id": 1722, "name": "Restaurants"}], "fax_number": null, "expansion": {"count": null, "uri": null}, "impression_id": "000b00000038a71ac17bfd4366b8bd4da273b2af5b", "profile": "http://www.citysearch.com/profile/699576350/austell_ga/winston_s_food_spirits.html", "address": {"city": "Austell", "state": "GA", "street": "Sandy Plain Rd", "postal_code": "30106"}, "capProviderId": null, "distance": null, "has_offers": false, "name": "Winston's Food & Spirits", "longitude": -84.634378, "has_menu": false, "awards": null, "user_review_count": 0}, {"business_operation_status": 1, "rating": null, "neighborhood": null, "image": null, "scorecard": null, "featured": false, "sample_categories": "Restaurants, Carry Out, Hamburgers", "public_id": "mc-donalds-douglasville-4", "id": 622142080, "votes": null, "tagline": null, "has_video": false, "website": "http://www.citysearch.com/profile/external/622142080/douglasville_ga/mc_donald_s.html", "offers": null, "latitude": 33.731538, "politanName": "Atlanta, GA Metro ", "phone_number": "7709475224", "tags": [{"primary": false, "id": 11247, "name": "Carry Out"}, {"primary": false, "id": 11270, "name": "Hamburgers"}, {"primary": true, "id": 1722, "name": "Restaurants"}], "fax_number": null, "expansion": {"count": null, "uri": null}, "impression_id": "000b0000003b46be4be2f14b0a83ad33d83fda2be6", "profile": "http://www.citysearch.com/profile/622142080/douglasville_ga/mc_donald_s.html", "address": {"city": "Douglasville", "state": "GA", "street": "2726 Chapel Hill Rd", "postal_code": "30135"}, "capProviderId": null, "distance": null, "has_offers": false, "name": "Mc Donald's", "longitude": -84.737166, "has_menu": true, "awards": null, "user_review_count": 0}, {"business_operation_status": 1, "rating": null, "neighborhood": null, "image": null, "scorecard": null, "featured": false, "sample_categories": "Restaurants", "public_id": "el-barco-mexican-restaurant-marietta-2", "id": 813626580, "votes": null, "tagline": null, "has_video": false, "website": null, "offers": null, "latitude": 33.903309, "politanName": "Atlanta, GA Metro ", "phone_number": "6783555007", "tags": [{"primary": true, "id": 1722, "name": "Restaurants"}], "fax_number": null, "expansion": {"count": null, "uri": null}, "impression_id": "000b000000268a404dc3134a54a84ce2e9949610a0", "profile": "http://www.citysearch.com/profile/813626580/marietta_ga/el_barco_mexican_restaurant.html", "address": {"city": "Marietta", "state": "GA", "street": "Arbor Spring CT SW", "postal_code": "30064"}, "capProviderId": null, "distance": null, "has_offers": false, "name": "El Barco Mexican Restaurant", "longitude": -84.629546, "has_menu": false, "awards": null, "user_review_count": 0}, {"business_operation_status": 1, "rating": null, "neighborhood": null, "image": null, "scorecard": null, "featured": false, "sample_categories": "Restaurants", "public_id": "chapel-hills-landing-rstrnt-douglasville", "id": 815369780, "votes": null, "tagline": null, "has_video": false, "website": null, "offers": null, "latitude": 33.720485, "politanName": "Atlanta, GA Metro ", "phone_number": "6788383838", "tags": [{"primary": true, "id": 1722, "name": "Restaurants"}], "fax_number": null, "expansion": {"count": null, "uri": null}, "impression_id": "000b000000d3fd4440c0eb47cf9bf9bc607de501e8", "profile": "http://www.citysearch.com/profile/815369780/douglasville_ga/chapel_hills_landing_rstrnt.html", "address": {"city": "Douglasville", "state": "GA", "street": "3133 Golf Ridge Blvd # 305", "postal_code": "30135"}, "capProviderId": null, "distance": null, "has_offers": false, "name": "Chapel Hills Landing Rstrnt", "longitude": -84.724364, "has_menu": false, "awards": null, "user_review_count": 0}, {"business_operation_status": 1, "rating": 6.0, "neighborhood": null, "image": null, "scorecard": null, "featured": false, "sample_categories": "Restaurants", "public_id": "back-porch-of-marietta-marietta", "id": 37646043, "votes": null, "tagline": null, "has_video": false, "website": "http://www.citysearch.com/profile/external/37646043/marietta_ga/back_porch_of_marietta.html", "offers": null, "latitude": 33.951281, "politanName": "Atlanta, GA Metro ", "phone_number": "7707926666", "tags": [{"primary": true, "id": 1722, "name": "Restaurants"}], "fax_number": null, "expansion": {"count": null, "uri": null}, "impression_id": "000b000000cc9a63c841bc4dfe92d51246ada596a6", "profile": "http://www.citysearch.com/profile/37646043/marietta_ga/back_porch_of_marietta.html", "address": {"city": "Marietta", "state": "GA", "street": "645 Whitlock Ave SW", "postal_code": "30064"}, "capProviderId": null, "distance": null, "has_offers": false, "name": "Back Porch Of Marietta", "longitude": -84.571275, "has_menu": false, "awards": null, "user_review_count": 1}, {"business_operation_status": 1, "rating": null, "neighborhood": null, "image": null, "scorecard": null, "featured": false, "sample_categories": "Restaurants", "public_id": "lavals-cuisine-seafood-douglasville", "id": 820536490, "votes": null, "tagline": null, "has_video": false, "website": null, "offers": null, "latitude": 33.730531, "politanName": "Atlanta, GA Metro ", "phone_number": "7709499050", "tags": [{"primary": true, "id": 1722, "name": "Restaurants"}], "fax_number": null, "expansion": {"count": null, "uri": null}, "impression_id": "000b000000e384eb3e28e24835b4ae14e9b4bbb7fc", "profile": "http://www.citysearch.com/profile/820536490/douglasville_ga/laval_s_cuisine_seafood.html", "address": {"city": "Douglasville", "state": "GA", "street": "5643 Shamrock Ln", "postal_code": "30135"}, "capProviderId": null, "distance": null, "has_offers": false, "name": "Laval's Cuisine & Seafood", "longitude": -84.717003, "has_menu": false, "awards": null, "user_review_count": 0}, {"business_operation_status": 0, "rating": null, "neighborhood": null, "image": null, "scorecard": null, "featured": false, "sample_categories": "Restaurants, Delis And Delicatessens, Sandwich Shops, Carry Out", "public_id": "blimpie-subs-salads-mableton", "id": 764922590, "votes": null, "tagline": null, "has_video": false, "website": "http://www.citysearch.com/profile/external/764922590/mableton_ga/blimpie_subs_salads.html", "offers": null, "latitude": 33.816948, "politanName": "Atlanta, GA Metro ", "phone_number": "7709443663", "tags": [{"primary": false, "id": 1727, "name": "Delis And Delicatessens"}, {"primary": false, "id": 1736, "name": "Sandwich Shops"}, {"primary": false, "id": 11247, "name": "Carry Out"}, {"primary": true, "id": 1722, "name": "Restaurants"}], "fax_number": null, "expansion": {"count": null, "uri": null}, "impression_id": "000b000000a0acc011a0df4674b155ff4ea481dd6f", "profile": "http://www.citysearch.com/profile/764922590/mableton_ga/blimpie_subs_salads.html", "address": {"city": "Mableton", "state": "GA", "street": "5624 Mableton Pkwy SW", "postal_code": "30126"}, "capProviderId": null, "distance": null, "has_offers": false, "name": "Blimpie Subs & Salads", "longitude": -84.575419, "has_menu": true, "awards": null, "user_review_count": 0}, {"business_operation_status": 0, "rating": null, "neighborhood": null, "image": null, "scorecard": null, "featured": false, "sample_categories": "Restaurants, Carry Out", "public_id": "arbys-douglasville-5", "id": 764907560, "votes": null, "tagline": null, "has_video": false, "website": "http://www.citysearch.com/profile/external/764907560/douglasville_ga/arby_s.html", "offers": null, "latitude": 33.751154, "politanName": "Atlanta, GA Metro ", "phone_number": "7709496002", "tags": [{"primary": false, "id": 11247, "name": "Carry Out"}, {"primary": true, "id": 1722, "name": "Restaurants"}], "fax_number": null, "expansion": {"count": null, "uri": null}, "impression_id": "000b0000009e532960a52f4b40b05666f31b1370af", "profile": "http://www.citysearch.com/profile/764907560/douglasville_ga/arby_s.html", "address": {"city": "Douglasville", "state": "GA", "street": "5973 Fairburn Rd", "postal_code": "30134"}, "capProviderId": null, "distance": null, "has_offers": false, "name": "Arby's", "longitude": -84.728901, "has_menu": false, "awards": null, "user_review_count": 0}, {"business_operation_status": 1, "rating": null, "neighborhood": null, "image": null, "scorecard": null, "featured": false, "sample_categories": "Restaurants", "public_id": "crawdaddys-cajun-station-austell", "id": 828702840, "votes": null, "tagline": null, "has_video": false, "website": null, "offers": null, "latitude": 33.812606, "politanName": "Atlanta, GA Metro ", "phone_number": "6785742377", "tags": [{"primary": true, "id": 1722, "name": "Restaurants"}], "fax_number": null, "expansion": {"count": null, "uri": null}, "impression_id": "000b000000998fdd23197d468994a5e1f32b06e86d", "profile": "http://www.citysearch.com/profile/828702840/austell_ga/crawdaddy_s_cajun_station.html", "address": {"city": "Austell", "state": "GA", "street": "5000 Aus Pdr Spg Rd # 365", "postal_code": "30106"}, "capProviderId": null, "distance": null, "has_offers": false, "name": "Crawdaddy's Cajun Station", "longitude": -84.634378, "has_menu": false, "awards": null, "user_review_count": 0}, {"business_operation_status": 1, "rating": null, "neighborhood": null, "image": null, "scorecard": null, "featured": false, "sample_categories": "Restaurants", "public_id": "a-t-l-best-wings-mableton", "id": 802512510, "votes": null, "tagline": null, "has_video": false, "website": null, "offers": null, "latitude": 33.833318, "politanName": "Atlanta, GA Metro ", "phone_number": "7709418700", "tags": [{"primary": true, "id": 1722, "name": "Restaurants"}], "fax_number": null, "expansion": {"count": null, "uri": null}, "impression_id": "000b000000821b0bc383804274b3e0eb369fdcb323", "profile": "http://www.citysearch.com/profile/802512510/mableton_ga/a_t_l_best_wings.html", "address": {"city": "Mableton", "state": "GA", "street": "5005 Floyd Rd Sw", "postal_code": "30126"}, "capProviderId": null, "distance": null, "has_offers": false, "name": "A T L Best Wings", "longitude": -84.575479, "has_menu": false, "awards": null, "user_review_count": 0}, {"business_operation_status": 1, "rating": null, "neighborhood": null, "image": null, "scorecard": null, "featured": false, "sample_categories": "Restaurants, Carry Out, Hamburgers, American Express, Discover", "public_id": "krystal-marietta-3", "id": 43852561, "votes": null, "tagline": null, "has_video": false, "website": "http://www.citysearch.com/profile/external/43852561/marietta_ga/krystal.html", "offers": null, "latitude": 33.944405, "politanName": "Atlanta, GA Metro ", "phone_number": "7707929020", "tags": [{"primary": false, "id": 11247, "name": "Carry Out"}, {"primary": false, "id": 11270, "name": "Hamburgers"}, {"primary": false, "id": 11333, "name": "American Express"}, {"primary": false, "id": 11349, "name": "Discover"}, {"primary": false, "id": 11361, "name": "MasterCard"}, {"primary": false, "id": 11382, "name": "Visa"}, {"primary": true, "id": 1722, "name": "Restaurants"}], "fax_number": null, "expansion": {"count": null, "uri": null}, "impression_id": "000b000000d29b95c8ffc044218127d1e8756b0aaa", "profile": "http://www.citysearch.com/profile/43852561/marietta_ga/krystal.html", "address": {"city": "Marietta", "state": "GA", "street": "3520 Ernest W Barrett Pkwy SW", "postal_code": "30064"}, "capProviderId": null, "distance": null, "has_offers": false, "name": "Krystal", "longitude": -84.624735, "has_menu": true, "awards": null, "user_review_count": 0}, {"business_operation_status": 1, "rating": null, "neighborhood": null, "image": null, "scorecard": null, "featured": false, "sample_categories": "Restaurants", "public_id": "vito-goldbergs-marietta", "id": 814374650, "votes": null, "tagline": null, "has_video": false, "website": "http://www.citysearch.com/profile/external/814374650/marietta_ga/vito_goldberg_s.html", "offers": null, "latitude": 33.951001, "politanName": "Atlanta, GA Metro ", "phone_number": "7707958631", "tags": [{"primary": true, "id": 1722, "name": "Restaurants"}], "fax_number": null, "expansion": {"count": null, "uri": null}, "impression_id": "000b000000a2a0ef3c249e43faa984a81e28299632", "profile": "http://www.citysearch.com/profile/814374650/marietta_ga/vito_goldberg_s.html", "address": {"city": "Marietta", "state": "GA", "street": "999 Whitlock Ave SW", "postal_code": "30064"}, "capProviderId": null, "distance": null, "has_offers": false, "name": "Vito Goldberg's", "longitude": -84.57917, "has_menu": false, "awards": null, "user_review_count": 0}, {"business_operation_status": 1, "rating": null, "neighborhood": null, "image": null, "scorecard": null, "featured": false, "sample_categories": "Catering, Restaurants, Sandwich Shops, Ham, Pork", "public_id": "honeybaked-ham-marietta-2", "id": 45112957, "votes": null, "tagline": null, "has_video": false, "website": "http://www.citysearch.com/profile/external/45112957/marietta_ga/honeybaked_ham.html", "offers": null, "latitude": 33.944997, "politanName": "Atlanta, GA Metro ", "phone_number": "7707950196", "tags": [{"primary": false, "id": 1705, "name": "Catering"}, {"primary": false, "id": 1722, "name": "Restaurants"}, {"primary": false, "id": 1736, "name": "Sandwich Shops"}, {"primary": false, "id": 11125, "name": "Pork"}, {"primary": false, "id": 11333, "name": "American Express"}, {"primary": false, "id": 11347, "name": "Debit Card"}, {"primary": false, "id": 11349, "name": "Discover"}, {"primary": false, "id": 11361, "name": "MasterCard"}, {"primary": false, "id": 11382, "name": "Visa"}, {"primary": true, "id": 11124, "name": "Ham"}], "fax_number": null, "expansion": {"count": null, "uri": null}, "impression_id": "000b000000c5a05509333a4bb9a80b5db0304f8ef1", "profile": "http://www.citysearch.com/profile/45112957/marietta_ga/honeybaked_ham.html", "address": {"city": "Marietta", "state": "GA", "street": "3405 Dallas Hwy SW 408", "postal_code": "30064"}, "capProviderId": null, "distance": null, "has_offers": false, "name": "Honeybaked Ham", "longitude": -84.623325, "has_menu": true, "awards": null, "user_review_count": 0}, {"business_operation_status": 1, "rating": null, "neighborhood": null, "image": null, "scorecard": null, "featured": false, "sample_categories": "Restaurants", "public_id": "ernies-steakhouse-acworth", "id": 823081000, "votes": null, "tagline": null, "has_video": false, "website": null, "offers": null, "latitude": 34.03595, "politanName": "Atlanta, GA Metro ", "phone_number": "7709746186", "tags": [{"primary": true, "id": 1722, "name": "Restaurants"}], "fax_number": null, "expansion": {"count": null, "uri": null}, "impression_id": "000b000000339c267df6ce41d28839c1404b9074f9", "profile": "http://www.citysearch.com/profile/823081000/acworth_ga/ernies_steakhouse.html", "address": {"city": "Acworth", "state": "GA", "street": "3330 Cobb Pkwy NW # 100", "postal_code": "30101"}, "capProviderId": null, "distance": null, "has_offers": false, "name": "Ernies Steakhouse", "longitude": -84.676991, "has_menu": false, "awards": null, "user_review_count": 0}, {"business_operation_status": 1, "rating": null, "neighborhood": null, "image": null, "scorecard": null, "featured": false, "sample_categories": "Restaurants", "public_id": "quaker-steak-and-lube-douglasville", "id": 814920930, "votes": null, "tagline": null, "has_video": false, "website": null, "offers": null, "latitude": 33.728341, "politanName": "Atlanta, GA Metro ", "phone_number": "7709479464", "tags": [{"primary": true, "id": 1722, "name": "Restaurants"}], "fax_number": null, "expansion": {"count": null, "uri": null}, "impression_id": "000b0000004b2b2455693e40be891d3d5de9db7aef", "profile": "http://www.citysearch.com/profile/814920930/douglasville_ga/quaker_steak_and_lube.html", "address": {"city": "Douglasville", "state": "GA", "street": "6700 Douglas Blvd", "postal_code": "30135"}, "capProviderId": null, "distance": null, "has_offers": false, "name": "Quaker Steak And Lube", "longitude": -84.74498, "has_menu": true, "awards": null, "user_review_count": 0}, {"business_operation_status": 1, "rating": null, "neighborhood": null, "image": null, "scorecard": null, "featured": false, "sample_categories": "Restaurants", "public_id": "fire-mountain-douglasville", "id": 815853950, "votes": null, "tagline": null, "has_video": false, "website": "http://www.citysearch.com/profile/external/815853950/douglasville_ga/fire_mountain.html", "offers": null, "latitude": 33.729492, "politanName": "Atlanta, GA Metro ", "phone_number": "7709471132", "tags": [{"primary": true, "id": 1722, "name": "Restaurants"}], "fax_number": null, "expansion": {"count": null, "uri": null}, "impression_id": "000b000000afb1e869199240dd978a3ab99d400aa7", "profile": "http://www.citysearch.com/profile/815853950/douglasville_ga/fire_mountain.html", "address": {"city": "Douglasville", "state": "GA", "street": "7090 Concourse Pkwy", "postal_code": "30134"}, "capProviderId": null, "distance": null, "has_offers": false, "name": "Fire Mountain", "longitude": -84.760507, "has_menu": true, "awards": null, "user_review_count": 0}, {"business_operation_status": 1, "rating": null, "neighborhood": null, "image": null, "scorecard": null, "featured": false, "sample_categories": "Restaurants, Sandwich Shops, Gourmet Foods, Organic Foods, Hamburgers", "public_id": "yumm-burger-marietta", "id": 793386180, "votes": null, "tagline": null, "has_video": false, "website": "http://www.citysearch.com/profile/external/793386180/marietta_ga/yumm_burger.html", "offers": null, "latitude": 33.967001, "politanName": "Atlanta, GA Metro ", "phone_number": "7704855681", "tags": [{"primary": false, "id": 1736, "name": "Sandwich Shops"}, {"primary": false, "id": 11169, "name": "Gourmet Foods"}, {"primary": false, "id": 11173, "name": "Organic Foods"}, {"primary": false, "id": 11270, "name": "Hamburgers"}, {"primary": true, "id": 1722, "name": "Restaurants"}], "fax_number": null, "expansion": {"count": null, "uri": null}, "impression_id": "000b000000bd82d69a8ac54daa8a0e0151dedde75a", "profile": "http://www.citysearch.com/profile/793386180/marietta_ga/yumm_burger.html", "address": {"city": "Marietta", "state": "GA", "street": "3901 Mary Eliza Trce NW 120", "postal_code": "30064"}, "capProviderId": null, "distance": null, "has_offers": false, "name": "Yumm Burger", "longitude": -84.665447, "has_menu": false, "awards": null, "user_review_count": 0}, {"business_operation_status": 1, "rating": null, "neighborhood": null, "image": null, "scorecard": null, "featured": false, "sample_categories": "Restaurants, Barbecue Restaurants", "public_id": "wings-to-go-douglasville", "id": 45994332, "votes": null, "tagline": null, "has_video": false, "website": null, "offers": null, "latitude": 33.72572, "politanName": "Atlanta, GA Metro ", "phone_number": "7709475700", "tags": [{"primary": false, "id": 1724, "name": "Barbecue Restaurants"}, {"primary": true, "id": 1722, "name": "Restaurants"}], "fax_number": null, "expansion": {"count": null, "uri": null}, "impression_id": "000b0000008aa8325f4ebe4b2282ab90fe0d527273", "profile": "http://www.citysearch.com/profile/45994332/douglasville_ga/wings_to_go.html", "address": {"city": "Douglasville", "state": "GA", "street": "6920 Douglas Blvd", "postal_code": "30135"}, "capProviderId": null, "distance": null, "has_offers": false, "name": "Wings to Go", "longitude": -84.756697, "has_menu": false, "awards": null, "user_review_count": 0}, {"business_operation_status": 1, "rating": null, "neighborhood": null, "image": null, "scorecard": null, "featured": false, "sample_categories": "Restaurants, Pizza, Carry Out", "public_id": "little-caesars-pizza-kennesaw-2", "id": 622110480, "votes": null, "tagline": null, "has_video": false, "website": "http://www.citysearch.com/profile/external/622110480/kennesaw_ga/little_caesars_pizza.html", "offers": null, "latitude": 33.992719, "politanName": "Atlanta, GA Metro ", "phone_number": "7707944633", "tags": [{"primary": false, "id": 1722, "name": "Restaurants"}, {"primary": false, "id": 11247, "name": "Carry Out"}, {"primary": true, "id": 11299, "name": "Pizza"}], "fax_number": null, "expansion": {"count": null, "uri": null}, "impression_id": "000b000000c3566129fd8c4a8f9ec06e41f27c3b71", "profile": "http://www.citysearch.com/profile/622110480/kennesaw_ga/little_caesars_pizza.html", "address": {"city": "Kennesaw", "state": "GA", "street": "1600 Kennesaw Due West Rd Nw", "postal_code": "30152"}, "capProviderId": null, "distance": null, "has_offers": false, "name": "Little Caesars Pizza", "longitude": -84.627117, "has_menu": true, "awards": null, "user_review_count": 0}, {"business_operation_status": 1, "rating": null, "neighborhood": null, "image": null, "scorecard": null, "featured": false, "sample_categories": "Restaurants, Bars & Clubs, Bars & Pubs, Carry Out", "public_id": "chilis-grill-bar-douglasville", "id": 764883830, "votes": null, "tagline": null, "has_video": false, "website": null, "offers": null, "latitude": 33.721628, "politanName": "Atlanta, GA Metro ", "phone_number": "7704895553", "tags": [{"primary": false, "id": 164, "name": "Bars & Clubs"}, {"primary": false, "id": 1686, "name": "Bars & Pubs"}, {"primary": false, "id": 11247, "name": "Carry Out"}, {"primary": true, "id": 1722, "name": "Restaurants"}], "fax_number": null, "expansion": {"count": null, "uri": null}, "impression_id": "000b0000005b0b72828472439385813fa21de2a829", "profile": "http://www.citysearch.com/profile/764883830/douglasville_ga/chili_s_grill_bar.html", "address": {"city": "Douglasville", "state": "GA", "street": "9610 Highway 5", "postal_code": "30135"}, "capProviderId": null, "distance": null, "has_offers": false, "name": "Chili's Grill & Bar", "longitude": -84.763057, "has_menu": false, "awards": null, "user_review_count": 0}, {"business_operation_status": 1, "rating": null, "neighborhood": null, "image": null, "scorecard": null, "featured": false, "sample_categories": "Restaurants, Sandwich Shops, Hot Dogs", "public_id": "roys-royal-dogs-acworth", "id": 840479240, "votes": null, "tagline": null, "has_video": false, "website": "http://www.citysearch.com/profile/external/840479240/acworth_ga/roy_s_royal_dogs.html", "offers": null, "latitude": 34.036201, "politanName": "Atlanta, GA Metro ", "phone_number": "6783836294", "tags": [{"primary": false, "id": 1736, "name": "Sandwich Shops"}, {"primary": false, "id": 11274, "name": "Hot Dogs"}, {"primary": true, "id": 1722, "name": "Restaurants"}], "fax_number": null, "expansion": {"count": null, "uri": null}, "impression_id": "000b00000065a4fc140d9e4db08ef1e00dc0ce3e8b", "profile": "http://www.citysearch.com/profile/840479240/acworth_ga/roy_s_royal_dogs.html", "address": {"city": "Acworth", "state": "GA", "street": "3330 Cobb Pkwy NW 308", "postal_code": "30101"}, "capProviderId": null, "distance": null, "has_offers": false, "name": "Roy's Royal Dogs", "longitude": -84.67689, "has_menu": false, "awards": null, "user_review_count": 0}, {"business_operation_status": 1, "rating": null, "neighborhood": null, "image": null, "scorecard": null, "featured": false, "sample_categories": "Restaurants, Hamburgers", "public_id": "juniors-cheeseburgers-marietta", "id": 793366980, "votes": null, "tagline": null, "has_video": false, "website": null, "offers": null, "latitude": 33.881461, "politanName": "Atlanta, GA Metro ", "phone_number": "6783543333", "tags": [{"primary": false, "id": 11270, "name": "Hamburgers"}, {"primary": true, "id": 1722, "name": "Restaurants"}], "fax_number": null, "expansion": {"count": null, "uri": null}, "impression_id": "000b0000001c1200b234d349bead795ab5b8a78917", "profile": "http://www.citysearch.com/profile/793366980/marietta_ga/juniors_cheeseburgers.html", "address": {"city": "Marietta", "state": "GA", "street": "2325 Powder Springs Rd Sw", "postal_code": "30064"}, "capProviderId": null, "distance": null, "has_offers": false, "name": "Juniors Cheeseburgers", "longitude": -84.619677, "has_menu": false, "awards": null, "user_review_count": 0}, {"business_operation_status": 1, "rating": null, "neighborhood": null, "image": null, "scorecard": null, "featured": false, "sample_categories": "Restaurants", "public_id": "harmons-restaurant-dallas", "id": 806059430, "votes": null, "tagline": null, "has_video": false, "website": null, "offers": null, "latitude": 33.814559, "politanName": "Atlanta, GA Metro ", "phone_number": "6783637224", "tags": [{"primary": true, "id": 1722, "name": "Restaurants"}], "fax_number": null, "expansion": {"count": null, "uri": null}, "impression_id": "000b00000088619d65323447758844c0cc28d8b49d", "profile": "http://www.citysearch.com/profile/806059430/dallas_ga/harmons_restaurant.html", "address": {"city": "Dallas", "state": "GA", "street": "3057 Marshall Fuller Rd", "postal_code": "30157"}, "capProviderId": null, "distance": null, "has_offers": false, "name": "Harmons Restaurant", "longitude": -84.894381, "has_menu": false, "awards": null, "user_review_count": 0}, {"business_operation_status": 1, "rating": null, "neighborhood": null, "image": null, "scorecard": null, "featured": false, "sample_categories": "Restaurants, Fast Food, Carry Out, Hamburgers, American Express", "public_id": "mc-donalds-dallas-16", "id": 43860826, "votes": null, "tagline": null, "has_video": false, "website": "http://www.citysearch.com/profile/external/43860826/dallas_ga/mc_donald_s.html", "offers": null, "latitude": 33.985034, "politanName": "Atlanta, GA Metro ", "phone_number": "7709757395", "tags": [{"primary": false, "id": 11199, "name": "Fast Food"}, {"primary": false, "id": 11247, "name": "Carry Out"}, {"primary": false, "id": 11270, "name": "Hamburgers"}, {"primary": false, "id": 11333, "name": "American Express"}, {"primary": false, "id": 11349, "name": "Discover"}, {"primary": false, "id": 11361, "name": "MasterCard"}, {"primary": false, "id": 11382, "name": "Visa"}, {"primary": true, "id": 1722, "name": "Restaurants"}], "fax_number": null, "expansion": {"count": null, "uri": null}, "impression_id": "000b0000005cd0958758144ebc937a6281e52814ba", "profile": "http://www.citysearch.com/profile/43860826/dallas_ga/mc_donald_s.html", "address": {"city": "Dallas", "state": "GA", "street": "8872 Dallas Acworth Hwy", "postal_code": "30132"}, "capProviderId": null, "distance": null, "has_offers": false, "name": "Mc Donald's", "longitude": -84.771736, "has_menu": true, "awards": null, "user_review_count": 0}, {"business_operation_status": 1, "rating": null, "neighborhood": null, "image": null, "scorecard": null, "featured": false, "sample_categories": "Bakeries, Restaurants", "public_id": "back-2-basics-bakery-lithia-spgs", "id": 43861078, "votes": null, "tagline": null, "has_video": false, "website": null, "offers": null, "latitude": 33.781495, "politanName": "Atlanta, GA Metro ", "phone_number": "7709417851", "tags": [{"primary": false, "id": 1722, "name": "Restaurants"}, {"primary": true, "id": 1685, "name": "Bakeries"}], "fax_number": null, "expansion": {"count": null, "uri": null}, "impression_id": "000b00000062e9b6f85b434eceabcc1b83c5a0c744", "profile": "http://www.citysearch.com/profile/43861078/lithia_springs_ga/back_2_basics_bakery.html", "address": {"city": "Lithia Springs", "state": "GA", "street": "2970 Skyview Dr Lot 94", "postal_code": "30122"}, "capProviderId": null, "distance": null, "has_offers": false, "name": "Back 2 Basics Bakery", "longitude": -84.643902, "has_menu": false, "awards": null, "user_review_count": 0}, {"business_operation_status": 1, "rating": null, "neighborhood": null, "image": null, "scorecard": null, "featured": false, "sample_categories": "Restaurants", "public_id": "jalapeno-joes-lithia", "id": 814946090, "votes": null, "tagline": null, "has_video": false, "website": null, "offers": null, "latitude": 33.784776, "politanName": "Atlanta, GA Metro ", "phone_number": "7707391906", "tags": [{"primary": true, "id": 1722, "name": "Restaurants"}], "fax_number": null, "expansion": {"count": null, "uri": null}, "impression_id": "000b000000cd09e32366ca45138f6e9037fc489f8c", "profile": "http://www.citysearch.com/profile/814946090/lithia_springs_ga/jalapeno_joe_s.html", "address": {"city": "Lithia Springs", "state": "GA", "street": "853 Thornton Rd", "postal_code": "30122"}, "capProviderId": null, "distance": null, "has_offers": false, "name": "Jalapeno Joe's", "longitude": -84.612385, "has_menu": false, "awards": null, "user_review_count": 1}, {"business_operation_status": 1, "rating": null, "neighborhood": null, "image": null, "scorecard": null, "featured": false, "sample_categories": "Restaurants", "public_id": "moore-moore-investments-inc-dallas", "id": 601315709, "votes": null, "tagline": null, "has_video": false, "website": null, "offers": null, "latitude": 33.935025, "politanName": "Atlanta, GA Metro ", "phone_number": "7704432856", "tags": [{"primary": true, "id": 1722, "name": "Restaurants"}], "fax_number": null, "expansion": {"count": null, "uri": null}, "impression_id": "000b0000007cef35ea0bd64e168de6568d56cc57f0", "profile": "http://www.citysearch.com/profile/601315709/dallas_ga/moore_moore_investments_inc.html", "address": {"city": "Dallas", "state": "GA", "street": "3615 Marietta Hwy", "postal_code": "30157"}, "capProviderId": null, "distance": null, "has_offers": false, "name": "Moore & Moore Investments Inc", "longitude": -84.73087, "has_menu": false, "awards": null, "user_review_count": 0}, {"business_operation_status": 1, "rating": null, "neighborhood": null, "image": null, "scorecard": null, "featured": false, "sample_categories": "Restaurants", "public_id": "la-salsa-austell", "id": 608331014, "votes": null, "tagline": null, "has_video": false, "website": null, "offers": null, "latitude": 33.810497, "politanName": "Atlanta, GA Metro ", "phone_number": "7707394666", "tags": [{"primary": true, "id": 1722, "name": "Restaurants"}], "fax_number": null, "expansion": {"count": null, "uri": null}, "impression_id": "000b000000155e537d87a94f9a94cda28625d5e38a", "profile": "http://www.citysearch.com/profile/608331014/austell_ga/la_salsa.html", "address": {"city": "Austell", "state": "GA", "street": "2856 Vetbrans Hwy", "postal_code": "30168"}, "capProviderId": null, "distance": null, "has_offers": false, "name": "La Salsa", "longitude": -84.636764, "has_menu": false, "awards": null, "user_review_count": 0}, {"business_operation_status": 1, "rating": null, "neighborhood": null, "image": null, "scorecard": null, "featured": false, "sample_categories": "Restaurants", "public_id": "scotts-eats-sweets-mableton", "id": 608948894, "votes": null, "tagline": null, "has_video": false, "website": null, "offers": null, "latitude": 33.817787, "politanName": "Atlanta, GA Metro ", "phone_number": "4045145322", "tags": [{"primary": true, "id": 1722, "name": "Restaurants"}], "fax_number": null, "expansion": {"count": null, "uri": null}, "impression_id": "000b00000070daec7e75eb433c8ac197bc387dfcf3", "profile": "http://www.citysearch.com/profile/608948894/mableton_ga/scott_s_eats_sweets.html", "address": {"city": "Mableton", "state": "GA", "street": "1150 Veterans Memorial Hwy SW", "postal_code": "30126"}, "capProviderId": null, "distance": null, "has_offers": false, "name": "Scott's Eats & Sweets", "longitude": -84.587972, "has_menu": false, "awards": null, "user_review_count": 0}, {"business_operation_status": 1, "rating": null, "neighborhood": null, "image": null, "scorecard": null, "featured": false, "sample_categories": "Delis And Delicatessens, Restaurants", "public_id": "deli-dellghts-marietta", "id": 764838340, "votes": null, "tagline": null, "has_video": false, "website": null, "offers": null, "latitude": 33.952594, "politanName": "Atlanta, GA Metro ", "phone_number": "6784016001", "tags": [{"primary": false, "id": 1722, "name": "Restaurants"}, {"primary": true, "id": 1727, "name": "Delis And Delicatessens"}], "fax_number": null, "expansion": {"count": null, "uri": null}, "impression_id": "000b00000061d8213b7cea4e87b649f6febf14b675", "profile": "http://www.citysearch.com/profile/764838340/marietta_ga/deli_dellghts.html", "address": {"city": "Marietta", "state": "GA", "street": "800 Whitlock Ave NW", "postal_code": "30064"}, "capProviderId": null, "distance": null, "has_offers": false, "name": "Deli Dellghts", "longitude": -84.575881, "has_menu": false, "awards": null, "user_review_count": 0}, {"business_operation_status": 1, "rating": null, "neighborhood": null, "image": null, "scorecard": null, "featured": false, "sample_categories": "Restaurants", "public_id": "culture-lab-marietta", "id": 764843290, "votes": null, "tagline": null, "has_video": false, "website": null, "offers": null, "latitude": 33.883313, "politanName": "Atlanta, GA Metro ", "phone_number": "7705750926", "tags": [{"primary": true, "id": 1722, "name": "Restaurants"}], "fax_number": null, "expansion": {"count": null, "uri": null}, "impression_id": "000b000000c72394afb401461db9a025b7fe2bd668", "profile": "http://www.citysearch.com/profile/764843290/marietta_ga/culture_lab.html", "address": {"city": "Marietta", "state": "GA", "street": "2200 Powder Springs Rd SW", "postal_code": "30064"}, "capProviderId": null, "distance": null, "has_offers": false, "name": "Culture Lab", "longitude": -84.620092, "has_menu": false, "awards": null, "user_review_count": 0}, {"business_operation_status": 1, "rating": null, "neighborhood": null, "image": null, "scorecard": null, "featured": false, "sample_categories": "Restaurants, Carry Out, Pizza", "public_id": "papa-johns-pizza-marietta-17", "id": 764880820, "votes": null, "tagline": null, "has_video": false, "website": null, "offers": null, "latitude": 33.865697, "politanName": "Atlanta, GA Metro ", "phone_number": "4043330301", "tags": [{"primary": false, "id": 11247, "name": "Carry Out"}, {"primary": false, "id": 11299, "name": "Pizza"}, {"primary": true, "id": 1722, "name": "Restaurants"}], "fax_number": null, "expansion": {"count": null, "uri": null}, "impression_id": "000b00000058c05c1a35ee4ae68275c5470faa5198", "profile": "http://www.citysearch.com/profile/764880820/marietta_ga/papa_john_s_pizza.html", "address": {"city": "Marietta", "state": "GA", "street": "3565 Austell Rd SW # 1019", "postal_code": "30008"}, "capProviderId": null, "distance": null, "has_offers": false, "name": "Papa John's Pizza", "longitude": -84.592502, "has_menu": false, "awards": null, "user_review_count": 0}, {"business_operation_status": 1, "rating": null, "neighborhood": null, "image": null, "scorecard": null, "featured": false, "sample_categories": "Restaurants, Barbecue Restaurants", "public_id": "shanes-rib-shack-douglasville", "id": 764914930, "votes": null, "tagline": null, "has_video": false, "website": "http://www.citysearch.com/profile/external/764914930/douglasville_ga/shane_s_rib_shack.html", "offers": null, "latitude": 33.730907, "politanName": "Atlanta, GA Metro ", "phone_number": "7709474105", "tags": [{"primary": false, "id": 1724, "name": "Barbecue Restaurants"}, {"primary": true, "id": 1722, "name": "Restaurants"}], "fax_number": null, "expansion": {"count": null, "uri": null}, "impression_id": "000b0000009b8ce59683274a958503d41818ce23cf", "profile": "http://www.citysearch.com/profile/764914930/douglasville_ga/shane_s_rib_shack.html", "address": {"city": "Douglasville", "state": "GA", "street": "2750 Chapel Hill Rd", "postal_code": "30135"}, "capProviderId": null, "distance": null, "has_offers": false, "name": "Shane's Rib Shack", "longitude": -84.736347, "has_menu": false, "awards": null, "user_review_count": 0}, {"business_operation_status": 1, "rating": null, "neighborhood": null, "image": null, "scorecard": null, "featured": false, "sample_categories": "Restaurants, Carry Out, Hamburgers", "public_id": "mc-donalds-acworth-5", "id": 766781880, "votes": null, "tagline": null, "has_video": false, "website": null, "offers": null, "latitude": 34.058363, "politanName": "Atlanta, GA Metro ", "phone_number": "7709174645", "tags": [{"primary": false, "id": 11247, "name": "Carry Out"}, {"primary": false, "id": 11270, "name": "Hamburgers"}, {"primary": true, "id": 1722, "name": "Restaurants"}], "fax_number": null, "expansion": {"count": null, "uri": null}, "impression_id": "000b000000d43afb064e5b41139f17d28246ba0745", "profile": "http://www.citysearch.com/profile/766781880/acworth_ga/mc_donald_s.html", "address": {"city": "Acworth", "state": "GA", "street": "4381 Acworth Dallas Rd NW", "postal_code": "30101"}, "capProviderId": null, "distance": null, "has_offers": false, "name": "Mc Donald's", "longitude": -84.723405, "has_menu": false, "awards": null, "user_review_count": 0}, {"business_operation_status": 1, "rating": null, "neighborhood": null, "image": null, "scorecard": null, "featured": false, "sample_categories": "Restaurants, Bars & Clubs", "public_id": "island-bar-grill-douglasville", "id": 768797780, "votes": null, "tagline": null, "has_video": false, "website": null, "offers": null, "latitude": 33.751592, "politanName": "Atlanta, GA Metro ", "phone_number": "6782658141", "tags": [{"primary": false, "id": 164, "name": "Bars & Clubs"}, {"primary": true, "id": 1722, "name": "Restaurants"}], "fax_number": null, "expansion": {"count": null, "uri": null}, "impression_id": "000b0000003c6a9c557e8c4578b1578d736a8732f0", "profile": "http://www.citysearch.com/profile/768797780/douglasville_ga/island_bar_grill.html", "address": {"city": "Douglasville", "state": "GA", "street": "6650 Broad St", "postal_code": "30134"}, "capProviderId": null, "distance": null, "has_offers": false, "name": "Island Bar & Grill", "longitude": -84.747613, "has_menu": false, "awards": null, "user_review_count": 0}, {"business_operation_status": 1, "rating": null, "neighborhood": null, "image": null, "scorecard": null, "featured": false, "sample_categories": "Restaurants, Pizza", "public_id": "marcos-pizza-douglasville-2", "id": 628012574, "votes": null, "tagline": null, "has_video": false, "website": "http://www.citysearch.com/profile/external/628012574/douglasville_ga/marco_s_pizza.html", "offers": null, "latitude": 33.813894, "politanName": "Atlanta, GA Metro ", "phone_number": "6788384888", "tags": [{"primary": false, "id": 1722, "name": "Restaurants"}, {"primary": true, "id": 11299, "name": "Pizza"}], "fax_number": null, "expansion": {"count": null, "uri": null}, "impression_id": "000b00000069484d238d5941a5bea37967602a0c64", "profile": "http://www.citysearch.com/profile/628012574/douglasville_ga/marco_s_pizza.html", "address": {"city": "Douglasville", "state": "GA", "street": "4336 Ridge Rd", "postal_code": "30134"}, "capProviderId": null, "distance": null, "has_offers": false, "name": "Marco's Pizza", "longitude": -84.819131, "has_menu": false, "awards": null, "user_review_count": 0}, {"business_operation_status": 1, "rating": null, "neighborhood": null, "image": null, "scorecard": null, "featured": false, "sample_categories": "Restaurants, Traditional American, Carry Out", "public_id": "mr-philly-marietta", "id": 764893230, "votes": null, "tagline": null, "has_video": false, "website": null, "offers": null, "latitude": 33.953033, "politanName": "Atlanta, GA Metro ", "phone_number": "7705750615", "tags": [{"primary": false, "id": 11190, "name": "Traditional American"}, {"primary": false, "id": 11247, "name": "Carry Out"}, {"primary": true, "id": 1722, "name": "Restaurants"}], "fax_number": null, "expansion": {"count": null, "uri": null}, "impression_id": "000b00000068d56e2b38b540899574a707ba17877b", "profile": "http://www.citysearch.com/profile/764893230/marietta_ga/mr_philly.html", "address": {"city": "Marietta", "state": "GA", "street": "1000 Whitlock Ave NW # 110", "postal_code": "30064"}, "capProviderId": null, "distance": null, "has_offers": false, "name": "Mr Philly", "longitude": -84.581202, "has_menu": false, "awards": null, "user_review_count": 0}, {"business_operation_status": 1, "rating": null, "neighborhood": null, "image": null, "scorecard": null, "featured": false, "sample_categories": "Restaurants, Carry Out, Chicken", "public_id": "popeyes-chicken-biscuits-marietta-3", "id": 764903940, "votes": null, "tagline": null, "has_video": false, "website": null, "offers": null, "latitude": 33.922747, "politanName": "Atlanta, GA Metro ", "phone_number": "7707947031", "tags": [{"primary": false, "id": 11247, "name": "Carry Out"}, {"primary": false, "id": 12839, "name": "Chicken"}, {"primary": true, "id": 1722, "name": "Restaurants"}], "fax_number": null, "expansion": {"count": null, "uri": null}, "impression_id": "000b0000007b43d66a5e004603bfd7f22e7143588d", "profile": "http://www.citysearch.com/profile/764903940/marietta_ga/popeye_s_chicken_biscuits.html", "address": {"city": "Marietta", "state": "GA", "street": "1444 Livingston Dr SW", "postal_code": "30064"}, "capProviderId": null, "distance": null, "has_offers": false, "name": "Popeye's Chicken & Biscuits", "longitude": -84.596038, "has_menu": false, "awards": null, "user_review_count": 0}, {"business_operation_status": 0, "rating": null, "neighborhood": null, "image": null, "scorecard": null, "featured": false, "sample_categories": "Restaurants, Pizza", "public_id": "brooklyn-pizza-department-austell", "id": 764860920, "votes": null, "tagline": null, "has_video": false, "website": null, "offers": null, "latitude": 33.860912, "politanName": "Atlanta, GA Metro ", "phone_number": "6783840980", "tags": [{"primary": false, "id": 11299, "name": "Pizza"}, {"primary": true, "id": 1722, "name": "Restaurants"}], "fax_number": null, "expansion": {"count": null, "uri": null}, "impression_id": "000b0000008ace5451b09943bab786aa616b56a32f", "profile": "http://www.citysearch.com/profile/764860920/austell_ga/brooklyn_pizza_department.html", "address": {"city": "Austell", "state": "GA", "street": "2495 E West Connector", "postal_code": "30106"}, "capProviderId": null, "distance": null, "has_offers": false, "name": "Brooklyn Pizza Department", "longitude": -84.620637, "has_menu": false, "awards": null, "user_review_count": 2}, {"business_operation_status": 1, "rating": 10.0, "neighborhood": null, "image": null, "scorecard": null, "featured": false, "sample_categories": "Restaurants, Food Delivery, Traditional American, Carry Out", "public_id": "jolly-joes-cafe-mableton", "id": 2949724, "votes": null, "tagline": null, "has_video": false, "website": null, "offers": null, "latitude": 33.81733, "politanName": "Atlanta, GA Metro ", "phone_number": "7709410484", "tags": [{"primary": false, "id": 1722, "name": "Restaurants"}, {"primary": false, "id": 11190, "name": "Traditional American"}, {"primary": false, "id": 11247, "name": "Carry Out"}, {"primary": true, "id": 11267, "name": "Food Delivery"}], "fax_number": null, "expansion": {"count": null, "uri": null}, "impression_id": "000b0000008e5786a639ef4e749eb6a55eafbded5b", "profile": "http://www.citysearch.com/profile/2949724/mableton_ga/jolly_joes_cafe.html", "address": {"city": "Mableton", "state": "GA", "street": "1153 Veterans Memorial Hwy SW", "postal_code": "30126"}, "capProviderId": null, "distance": null, "has_offers": false, "name": "Jolly Joes Cafe", "longitude": -84.588134, "has_menu": false, "awards": null, "user_review_count": 2}, {"business_operation_status": 0, "rating": 8.0, "neighborhood": null, "image": null, "scorecard": null, "featured": false, "sample_categories": "Restaurants, Pizza, Italian", "public_id": "capalbos-italian-cafe-hiram", "id": 2954098, "votes": null, "tagline": null, "has_video": false, "website": null, "offers": null, "latitude": 33.892558, "politanName": "Atlanta, GA Metro ", "phone_number": "7704392227", "tags": [{"primary": false, "id": 1722, "name": "Restaurants"}, {"primary": false, "id": 11279, "name": "Italian"}, {"primary": true, "id": 11299, "name": "Pizza"}], "fax_number": null, "expansion": {"count": null, "uri": null}, "impression_id": "000b000000b9c82c77d2884336a20a89f995235aed", "profile": "http://www.citysearch.com/profile/2954098/hiram_ga/capalbo_s_italian_cafe.html", "address": {"city": "Hiram", "state": "GA", "street": "4471 Jimmy Lee Smith Pkwy", "postal_code": "30141"}, "capProviderId": null, "distance": null, "has_offers": false, "name": "Capalbo's Italian Cafe", "longitude": -84.75317, "has_menu": false, "awards": null, "user_review_count": 2}], "histograms": [], "tag_ids": [1722], "uri": "http://api.citygridmedia.com:8080/search/places/v2/search/where?has_offers=false&type=restaurant&format=json&page=14&where=30127&rpp=50&histograms=false&publisher=10000009598&region_type=circle", "did_you_mean": "", "regions": [{"latitude": 33.880952, "default_radius": 7.3, "type": "postal_code", "name": "30127", "longitude": -84.695289}], "call_id": "000b00000071b806e550e04908be6e293043326c40", "first_hit": 651, "total_hits": 1066, "geo_ids": [26302], "page": 14, "last_hit": 700}}