{"results": {"rpp": 50, "locations": [{"business_operation_status": 1, "rating": null, "neighborhood": null, "image": null, "scorecard": null, "featured": false, "sample_categories": "Restaurants, Mexican", "public_id": "margaritas-mexican-restaurant-austell", "id": 622275370, "votes": null, "tagline": null, "has_video": false, "website": null, "offers": null, "latitude": 33.810497, "politanName": "Atlanta, GA Metro ", "phone_number": "7704854550", "tags": [{"primary": false, "id": 11208, "name": "Mexican"}, {"primary": true, "id": 1722, "name": "Restaurants"}], "fax_number": null, "expansion": {"count": null, "uri": null}, "impression_id": "000b000000d1018ca4463843e5b25b17643b7b7b72", "profile": "http://www.citysearch.com/profile/622275370/austell_ga/margarita_s_mexican_restaurant.html", "address": {"city": "Austell", "state": "GA", "street": "2856 Veterans Memorial Hwy", "postal_code": "30168"}, "capProviderId": null, "distance": null, "has_offers": false, "name": "Margarita's Mexican Restaurant", "longitude": -84.636764, "has_menu": true, "awards": null, "user_review_count": 3}, {"business_operation_status": 1, "rating": null, "neighborhood": null, "image": null, "scorecard": null, "featured": false, "sample_categories": "Restaurants", "public_id": "iron-horse-bbq-villa-rica", "id": 682402950, "votes": null, "tagline": null, "has_video": false, "website": null, "offers": null, "latitude": 33.728878, "politanName": "Atlanta, GA Metro ", "phone_number": "7704569037", "tags": [{"primary": true, "id": 1722, "name": "Restaurants"}], "fax_number": null, "expansion": {"count": null, "uri": null}, "impression_id": "000b000000ead4d31056344345896a388299d51108", "profile": "http://www.citysearch.com/profile/682402950/villa_rica_ga/iron_horse_bbq.html", "address": {"city": "Villa Rica", "state": "GA", "street": "9366 E Bankhead Hwy", "postal_code": "30180"}, "capProviderId": null, "distance": null, "has_offers": false, "name": "Iron Horse BBQ", "longitude": -84.881508, "has_menu": false, "awards": null, "user_review_count": 3}, {"business_operation_status": 1, "rating": null, "neighborhood": null, "image": "http://o3.aolcdn.com/dims-shared/dims3/PATCH/resize/600x450/http://hss-prod.hss.aol.com/hss/storage/patch/77d03b4fd1a512b3be3324f8bf3cc9f", "scorecard": null, "featured": false, "sample_categories": "Restaurants, Restaurant Management", "public_id": "toco-bell-marietta", "id": 2906074, "votes": null, "tagline": null, "has_video": false, "website": "http://www.citysearch.com/profile/external/2906074/marietta_ga/toco_bell.html", "offers": null, "latitude": 33.924583, "politanName": "Atlanta, GA Metro ", "phone_number": "7704198081", "tags": [{"primary": false, "id": 1722, "name": "Restaurants"}, {"primary": false, "id": 11122, "name": "Restaurant Management"}], "fax_number": null, "expansion": {"count": null, "uri": null}, "impression_id": "000b0000002c6a30bd037e41b89488b50fa272f015", "profile": "http://www.citysearch.com/profile/2906074/marietta_ga/toco_bell.html", "address": {"city": "Marietta", "state": "GA", "street": "1180 Powder Springs St", "postal_code": "30064"}, "capProviderId": null, "distance": null, "has_offers": false, "name": "Toco Bell", "longitude": -84.575231, "has_menu": true, "awards": null, "user_review_count": 0}, {"business_operation_status": 1, "rating": null, "neighborhood": null, "image": "http://o2.aolcdn.com/dims-shared/dims3/PATCH/resize/600x450/http://hss-prod.hss.aol.com/hss/storage/patch/2e4491392642f0de3fa29df8313b5f3", "scorecard": null, "featured": false, "sample_categories": "Restaurants, Sandwich Shops, Pizza, Carry Out, Food Delivery", "public_id": "dominos-pizza-lithia-spgs", "id": 43858143, "votes": null, "tagline": null, "has_video": false, "website": "http://www.citysearch.com/profile/external/43858143/lithia_springs_ga/domino_s_pizza.html", "offers": null, "latitude": 33.78703, "politanName": "Atlanta, GA Metro ", "phone_number": "6789453990", "tags": [{"primary": false, "id": 1722, "name": "Restaurants"}, {"primary": false, "id": 1736, "name": "Sandwich Shops"}, {"primary": false, "id": 11247, "name": "Carry Out"}, {"primary": false, "id": 11267, "name": "Food Delivery"}, {"primary": false, "id": 11361, "name": "MasterCard"}, {"primary": false, "id": 11375, "name": "Shop Online"}, {"primary": false, "id": 11382, "name": "Visa"}, {"primary": true, "id": 11299, "name": "Pizza"}], "fax_number": null, "expansion": {"count": null, "uri": null}, "impression_id": "000b000000f46b4689801f42b5b5c749f5e15957f0", "profile": "http://www.citysearch.com/profile/43858143/lithia_springs_ga/domino_s_pizza.html", "address": {"city": "Lithia Springs", "state": "GA", "street": "639 Thornton Rd 104", "postal_code": "30122"}, "capProviderId": null, "distance": null, "has_offers": false, "name": "Domino's Pizza", "longitude": -84.619446, "has_menu": true, "awards": null, "user_review_count": 0}, {"business_operation_status": 1, "rating": null, "neighborhood": null, "image": "http://o3.aolcdn.com/dims-shared/dims3/PATCH/resize/600x450/http://hss-prod.hss.aol.com/hss/storage/patch/d36f9244e7aef6cd50b66cb56f9e11d3", "scorecard": null, "featured": false, "sample_categories": "Restaurants, Chinese, Discover, MasterCard, Visa", "public_id": "china-star-buffet-douglasville", "id": 43861625, "votes": null, "tagline": null, "has_video": false, "website": null, "offers": null, "latitude": 33.746625, "politanName": "Atlanta, GA Metro ", "phone_number": "7704892778", "tags": [{"primary": false, "id": 11252, "name": "Chinese"}, {"primary": false, "id": 11349, "name": "Discover"}, {"primary": false, "id": 11361, "name": "MasterCard"}, {"primary": false, "id": 11382, "name": "Visa"}, {"primary": true, "id": 1722, "name": "Restaurants"}], "fax_number": null, "expansion": {"count": null, "uri": null}, "impression_id": "000b000000a19408e98393451c82860685c36764f5", "profile": "http://www.citysearch.com/profile/43861625/douglasville_ga/china_star_buffet.html", "address": {"city": "Douglasville", "state": "GA", "street": "2167 Fairburn Rd", "postal_code": "30135"}, "capProviderId": null, "distance": null, "has_offers": false, "name": "China Star Buffet", "longitude": -84.697248, "has_menu": true, "awards": null, "user_review_count": 0}, {"business_operation_status": 1, "rating": null, "neighborhood": null, "image": "http://images.citysearch.net/assets/imgdb2/reinvent/profile/2012/8/4/9/htqukdoN.jpg", "scorecard": null, "featured": false, "sample_categories": "Restaurants", "public_id": "wills-wok-douglasville", "id": 625465874, "votes": null, "tagline": null, "has_video": false, "website": null, "offers": null, "latitude": 33.818766, "politanName": "Atlanta, GA Metro ", "phone_number": "6783918838", "tags": [{"primary": true, "id": 1722, "name": "Restaurants"}], "fax_number": null, "expansion": {"count": null, "uri": null}, "impression_id": "000b000000521a4224986f427ba1bf43822701f26c", "profile": "http://www.citysearch.com/profile/625465874/douglasville_ga/will_s_wok.html", "address": {"city": "Douglasville", "state": "GA", "street": "4813 Ridge Rd", "postal_code": "30134"}, "capProviderId": null, "distance": null, "has_offers": false, "name": "Will's Wok", "longitude": -84.813715, "has_menu": false, "awards": null, "user_review_count": 0}, {"business_operation_status": 1, "rating": null, "neighborhood": null, "image": "http://images.citysearch.net/assets/imgdb2/reinvent/profile/2012/8/4/9/htqukdoN.jpg", "scorecard": null, "featured": false, "sample_categories": "Restaurants", "public_id": "wills-wok-douglasville", "id": 625087184, "votes": null, "tagline": null, "has_video": false, "website": null, "offers": null, "latitude": 33.818766, "politanName": "Atlanta, GA Metro ", "phone_number": "6783918838", "tags": [{"primary": true, "id": 1722, "name": "Restaurants"}], "fax_number": null, "expansion": {"count": null, "uri": null}, "impression_id": "000b00000042c70ad4014c438e974bcdc5e8ac3e04", "profile": "http://www.citysearch.com/profile/625087184/douglasville_ga/will_s_wok.html", "address": {"city": "Douglasville", "state": "GA", "street": "4813 Ridge Rd", "postal_code": "30134"}, "capProviderId": null, "distance": null, "has_offers": false, "name": "Will's Wok", "longitude": -84.813715, "has_menu": false, "awards": null, "user_review_count": 0}, {"business_operation_status": 1, "rating": 10.0, "neighborhood": null, "image": "http://images.citysearch.net/assets/imgdb2/reinvent/profile/2012/7/26/18/vRmIjMPl.jpg", "scorecard": null, "featured": false, "sample_categories": "Restaurants, Delis And Delicatessens, Second Hand Goods, Consignment Shops", "public_id": "second-chance-consignments-dallas", "id": 45559809, "votes": null, "tagline": null, "has_video": false, "website": null, "offers": null, "latitude": 33.956809, "politanName": "Atlanta, GA Metro ", "phone_number": "6782340397", "tags": [{"primary": false, "id": 1722, "name": "Restaurants"}, {"primary": false, "id": 1727, "name": "Delis And Delicatessens"}, {"primary": false, "id": 3954, "name": "Second Hand Goods"}, {"primary": true, "id": 3955, "name": "Consignment Shops"}], "fax_number": null, "expansion": {"count": null, "uri": null}, "impression_id": "000b000000cc59720e6beb41c68f67a7f5b43cd8fe", "profile": "http://www.citysearch.com/profile/45559809/dallas_ga/second_chance_consignments.html", "address": {"city": "Dallas", "state": "GA", "street": "4201 Dallas Acworth Hwy", "postal_code": "30132"}, "capProviderId": null, "distance": null, "has_offers": false, "name": "Second Chance Consignments", "longitude": -84.791704, "has_menu": false, "awards": null, "user_review_count": 1}, {"business_operation_status": 1, "rating": null, "neighborhood": null, "image": "http://images.citysearch.net/assets/imgdb2/reinvent/profile/2012/8/4/9/htqukdoN.jpg", "scorecard": null, "featured": false, "sample_categories": "Restaurants", "public_id": "wills-wok-douglasville", "id": 625846874, "votes": null, "tagline": null, "has_video": false, "website": null, "offers": null, "latitude": 33.818766, "politanName": "Atlanta, GA Metro ", "phone_number": "6783918838", "tags": [{"primary": true, "id": 1722, "name": "Restaurants"}], "fax_number": null, "expansion": {"count": null, "uri": null}, "impression_id": "000b000000282676b79907469b91ac8a64f77901de", "profile": "http://www.citysearch.com/profile/625846874/douglasville_ga/will_s_wok.html", "address": {"city": "Douglasville", "state": "GA", "street": "4813 Ridge Rd", "postal_code": "30134"}, "capProviderId": null, "distance": null, "has_offers": false, "name": "Will's Wok", "longitude": -84.813715, "has_menu": false, "awards": null, "user_review_count": 0}, {"business_operation_status": 1, "rating": null, "neighborhood": null, "image": "http://images.citysearch.net/assets/imgdb/merchant/2012/3/29/0/DWvAqYgw115.jpeg", "scorecard": null, "featured": false, "sample_categories": "Sandwich Shops, Delis And Delicatessens", "public_id": "deli-delights-marietta-2", "id": 605563072, "votes": null, "tagline": null, "has_video": false, "website": null, "offers": null, "latitude": 33.952594, "politanName": "Atlanta, GA Metro ", "phone_number": "6784016001", "tags": [{"primary": false, "id": 1727, "name": "Delis And Delicatessens"}, {"primary": true, "id": 1736, "name": "Sandwich Shops"}], "fax_number": null, "expansion": {"count": null, "uri": null}, "impression_id": "000b0000007bfb3f4687fd40c8ace4396c5c6b25f9", "profile": "http://www.citysearch.com/profile/605563072/marietta_ga/deli_delights.html", "address": {"city": "Marietta", "state": "GA", "street": "800 Whitlock Ave NW", "postal_code": "30064"}, "capProviderId": null, "distance": null, "has_offers": false, "name": "Deli Delights", "longitude": -84.575881, "has_menu": false, "awards": null, "user_review_count": 0}, {"business_operation_status": 1, "rating": null, "neighborhood": null, "image": null, "scorecard": null, "featured": false, "sample_categories": "Delis And Delicatessens", "public_id": "bagels-plus-hotlanta-lithia-spgs", "id": 36286815, "votes": null, "tagline": null, "has_video": false, "website": null, "offers": null, "latitude": 33.796768, "politanName": "Atlanta, GA Metro ", "phone_number": "6789459042", "tags": [{"primary": true, "id": 1727, "name": "Delis And Delicatessens"}], "fax_number": null, "expansion": {"count": null, "uri": null}, "impression_id": "000b000000a3f7907756d94cd2b37285eb6d3aabcd", "profile": "http://www.citysearch.com/profile/36286815/lithia_springs_ga/bagels_plus_hotlanta.html", "address": {"city": "Lithia Springs", "state": "GA", "street": "639 Thornton Rd", "postal_code": "30122"}, "capProviderId": null, "distance": null, "has_offers": false, "name": "Bagels Plus Hotlanta", "longitude": -84.642062, "has_menu": false, "awards": null, "user_review_count": 0}, {"business_operation_status": 1, "rating": null, "neighborhood": null, "image": null, "scorecard": null, "featured": false, "sample_categories": "Restaurants, Barbecue Restaurants", "public_id": "j-js-wings-4-you-lithia-spgs", "id": 36286735, "votes": null, "tagline": null, "has_video": false, "website": null, "offers": null, "latitude": 33.793676, "politanName": "Atlanta, GA Metro ", "phone_number": "7709482668", "tags": [{"primary": false, "id": 1724, "name": "Barbecue Restaurants"}, {"primary": true, "id": 1722, "name": "Restaurants"}], "fax_number": null, "expansion": {"count": null, "uri": null}, "impression_id": "000b00000016231f5dc9fe4f27a1b0e0d24d0f6cb4", "profile": "http://www.citysearch.com/profile/36286735/lithia_springs_ga/j_j_s_wings_4_you.html", "address": {"city": "Lithia Springs", "state": "GA", "street": "3750 Veterans Memorial Hwy", "postal_code": "30122"}, "capProviderId": null, "distance": null, "has_offers": false, "name": "J J's Wings 4 You", "longitude": -84.663423, "has_menu": false, "awards": null, "user_review_count": 1}, {"business_operation_status": 1, "rating": 10.0, "neighborhood": null, "image": null, "scorecard": null, "featured": false, "sample_categories": "Ice Cream Parlors, Restaurants, Dessert Shops", "public_id": "brusters-real-ice-cream-hiram", "id": 36287580, "votes": null, "tagline": null, "has_video": false, "website": "http://www.citysearch.com/profile/external/36287580/hiram_ga/bruster_s_real_ice_cream.html", "offers": null, "latitude": 33.886543, "politanName": "Atlanta, GA Metro ", "phone_number": "7709430141", "tags": [{"primary": false, "id": 1722, "name": "Restaurants"}, {"primary": false, "id": 1728, "name": "Dessert Shops"}, {"primary": true, "id": 1730, "name": "Ice Cream Parlors"}], "fax_number": null, "expansion": {"count": null, "uri": null}, "impression_id": "000b0000009b15af11e7114fa8b834c485df2f8f4d", "profile": "http://www.citysearch.com/profile/36287580/hiram_ga/bruster_s_real_ice_cream.html", "address": {"city": "Hiram", "state": "GA", "street": "5425 Wendy Bagwell Pkwy # 770", "postal_code": "30141"}, "capProviderId": null, "distance": null, "has_offers": false, "name": "Bruster's Real Ice Cream", "longitude": -84.737763, "has_menu": true, "awards": null, "user_review_count": 2}, {"business_operation_status": 0, "rating": null, "neighborhood": null, "image": null, "scorecard": null, "featured": false, "sample_categories": "Restaurants", "public_id": "philly-connection-lithia-spgs", "id": 36286817, "votes": null, "tagline": null, "has_video": false, "website": "http://www.citysearch.com/profile/external/36286817/lithia_springs_ga/philly_connection.html", "offers": null, "latitude": 33.796768, "politanName": "Atlanta, GA Metro ", "phone_number": "6789450520", "tags": [{"primary": true, "id": 1722, "name": "Restaurants"}], "fax_number": null, "expansion": {"count": null, "uri": null}, "impression_id": "000b0000002278c888e9bb43f39e2822e65aefeb48", "profile": "http://www.citysearch.com/profile/36286817/lithia_springs_ga/philly_connection.html", "address": {"city": "Lithia Springs", "state": "GA", "street": "639 Thornton Rd", "postal_code": "30122"}, "capProviderId": null, "distance": null, "has_offers": false, "name": "Philly Connection", "longitude": -84.642062, "has_menu": true, "awards": null, "user_review_count": 0}, {"business_operation_status": 1, "rating": null, "neighborhood": null, "image": null, "scorecard": null, "featured": false, "sample_categories": "Restaurants, Fast Food, Carry Out, Hamburgers, American Express", "public_id": "mc-donalds-douglasville", "id": 39888651, "votes": null, "tagline": null, "has_video": false, "website": "http://www.citysearch.com/profile/external/39888651/douglasville_ga/mc_donald_s.html", "offers": null, "latitude": 33.732547, "politanName": "Atlanta, GA Metro ", "phone_number": "7705778189", "tags": [{"primary": false, "id": 11199, "name": "Fast Food"}, {"primary": false, "id": 11247, "name": "Carry Out"}, {"primary": false, "id": 11270, "name": "Hamburgers"}, {"primary": false, "id": 11333, "name": "American Express"}, {"primary": false, "id": 11349, "name": "Discover"}, {"primary": false, "id": 11361, "name": "MasterCard"}, {"primary": false, "id": 11382, "name": "Visa"}, {"primary": true, "id": 1722, "name": "Restaurants"}], "fax_number": null, "expansion": {"count": null, "uri": null}, "impression_id": "000b0000009016417e5c54426da67ab79933443fd6", "profile": "http://www.citysearch.com/profile/39888651/douglasville_ga/mc_donald_s.html", "address": {"city": "Douglasville", "state": "GA", "street": "7001 Concourse Pkwy", "postal_code": "30134"}, "capProviderId": null, "distance": null, "has_offers": false, "name": "Mc Donald's", "longitude": -84.757034, "has_menu": true, "awards": null, "user_review_count": 0}, {"business_operation_status": 1, "rating": null, "neighborhood": null, "image": null, "scorecard": null, "featured": false, "sample_categories": "Coffeehouses, Coffee & Tea Shops, Restaurants, American Express, Discover", "public_id": "starbucks-austell", "id": 43858639, "votes": null, "tagline": null, "has_video": false, "website": "http://www.citysearch.com/profile/external/43858639/austell_ga/starbucks.html", "offers": null, "latitude": 33.855384, "politanName": "Atlanta, GA Metro ", "phone_number": "6788429143", "tags": [{"primary": false, "id": 1711, "name": "Coffee & Tea Shops"}, {"primary": false, "id": 1722, "name": "Restaurants"}, {"primary": false, "id": 11333, "name": "American Express"}, {"primary": false, "id": 11349, "name": "Discover"}, {"primary": false, "id": 11361, "name": "MasterCard"}, {"primary": false, "id": 11382, "name": "Visa"}, {"primary": true, "id": 1726, "name": "Coffeehouses"}], "fax_number": null, "expansion": {"count": null, "uri": null}, "impression_id": "000b00000025c06cc3c7af4461989cd1333c91e038", "profile": "http://www.citysearch.com/profile/43858639/austell_ga/starbucks.html", "address": {"city": "Austell", "state": "GA", "street": "1025 E West Connector Ste 510", "postal_code": "30106"}, "capProviderId": null, "distance": null, "has_offers": false, "name": "Starbucks", "longitude": -84.583167, "has_menu": true, "awards": null, "user_review_count": 2}, {"business_operation_status": 1, "rating": null, "neighborhood": null, "image": null, "scorecard": null, "featured": false, "sample_categories": "Restaurants, Delis And Delicatessens, Sandwich Shops, Carry Out", "public_id": "subway-dallas-181", "id": 609351504, "votes": null, "tagline": null, "has_video": false, "website": "http://www.citysearch.com/profile/external/609351504/dallas_ga/subway.html", "offers": null, "latitude": 33.868182, "politanName": "Atlanta, GA Metro ", "phone_number": "6782476965", "tags": [{"primary": false, "id": 1727, "name": "Delis And Delicatessens"}, {"primary": false, "id": 1736, "name": "Sandwich Shops"}, {"primary": false, "id": 11247, "name": "Carry Out"}, {"primary": true, "id": 1722, "name": "Restaurants"}], "fax_number": null, "expansion": {"count": null, "uri": null}, "impression_id": "000b0000001047721b8ac74588986b04762ac447e1", "profile": "http://www.citysearch.com/profile/609351504/dallas_ga/subway.html", "address": {"city": "Dallas", "state": "GA", "street": "2985 Villa Rica Hwy", "postal_code": "30157"}, "capProviderId": null, "distance": null, "has_offers": false, "name": "Subway", "longitude": -84.8398, "has_menu": false, "awards": null, "user_review_count": 0}, {"business_operation_status": 1, "rating": null, "neighborhood": null, "image": null, "scorecard": null, "featured": false, "sample_categories": "Restaurants, Delis And Delicatessens, Sandwich Shops, Carry Out", "public_id": "dakota-enterprises-austell", "id": 33586641, "votes": null, "tagline": null, "has_video": false, "website": "http://www.citysearch.com/profile/external/33586641/austell_ga/dakota_enterprises.html", "offers": null, "latitude": 33.811558, "politanName": "Atlanta, GA Metro ", "phone_number": "7708198888", "tags": [{"primary": false, "id": 1727, "name": "Delis And Delicatessens"}, {"primary": false, "id": 1736, "name": "Sandwich Shops"}, {"primary": false, "id": 11247, "name": "Carry Out"}, {"primary": true, "id": 1722, "name": "Restaurants"}], "fax_number": null, "expansion": {"count": null, "uri": null}, "impression_id": "000b0000004884471a0aee45fd9759141f3212cc0f", "profile": "http://www.citysearch.com/profile/33586641/austell_ga/dakota_enterprises.html", "address": {"city": "Austell", "state": "GA", "street": "5875 Gore Pl", "postal_code": "30106"}, "capProviderId": null, "distance": null, "has_offers": false, "name": "Dakota Enterprises", "longitude": -84.641027, "has_menu": false, "awards": null, "user_review_count": 0}, {"business_operation_status": 1, "rating": null, "neighborhood": null, "image": null, "scorecard": null, "featured": false, "sample_categories": "Food Delivery", "public_id": "nanas-fish-n-wings-austell", "id": 826891830, "votes": null, "tagline": null, "has_video": false, "website": null, "offers": null, "latitude": 33.804939, "politanName": "Atlanta, GA Metro ", "phone_number": "7707321234", "tags": [{"primary": true, "id": 11267, "name": "Food Delivery"}], "fax_number": null, "expansion": {"count": null, "uri": null}, "impression_id": "000b00000037cc70e6debd4e748d6030d05aac9009", "profile": "http://www.citysearch.com/profile/826891830/austell_ga/nana_s_fish_n_wings.html", "address": {"city": "Austell", "state": "GA", "street": "5770 Veterans Memorial Hwy SW", "postal_code": "30168"}, "capProviderId": null, "distance": null, "has_offers": false, "name": "Nana's Fish N Wings", "longitude": -84.636774, "has_menu": false, "awards": null, "user_review_count": 0}, {"business_operation_status": 1, "rating": null, "neighborhood": null, "image": null, "scorecard": null, "featured": false, "sample_categories": "Restaurants, Fast Food, Mexican, American Express, Discover", "public_id": "taco-bell-marietta-3", "id": 45988789, "votes": null, "tagline": null, "has_video": false, "website": "http://www.citysearch.com/profile/external/45988789/marietta_ga/taco_bell.html", "offers": null, "latitude": 33.944998, "politanName": "Atlanta, GA Metro ", "phone_number": "7704218815", "tags": [{"primary": false, "id": 11199, "name": "Fast Food"}, {"primary": false, "id": 11208, "name": "Mexican"}, {"primary": false, "id": 11333, "name": "American Express"}, {"primary": false, "id": 11349, "name": "Discover"}, {"primary": false, "id": 11361, "name": "MasterCard"}, {"primary": false, "id": 11382, "name": "Visa"}, {"primary": true, "id": 1722, "name": "Restaurants"}], "fax_number": null, "expansion": {"count": null, "uri": null}, "impression_id": "000b000000fcff07e581fd4208bbdd358d95d8683e", "profile": "http://www.citysearch.com/profile/45988789/marietta_ga/taco_bell.html", "address": {"city": "Marietta", "state": "GA", "street": "380 Villa Rica Way SW", "postal_code": "30064"}, "capProviderId": null, "distance": null, "has_offers": false, "name": "Taco Bell", "longitude": -84.622332, "has_menu": false, "awards": null, "user_review_count": 0}, {"business_operation_status": 1, "rating": null, "neighborhood": null, "image": null, "scorecard": null, "featured": false, "sample_categories": "Restaurants, Carry Out", "public_id": "famous-amos-subs-douglasville", "id": 613909404, "votes": null, "tagline": null, "has_video": false, "website": null, "offers": null, "latitude": 33.726168, "politanName": "Atlanta, GA Metro ", "phone_number": "7706757239", "tags": [{"primary": false, "id": 11247, "name": "Carry Out"}, {"primary": true, "id": 1722, "name": "Restaurants"}], "fax_number": null, "expansion": {"count": null, "uri": null}, "impression_id": "000b000000cd838d71efe443169bd7f17286b6d36c", "profile": "http://www.citysearch.com/profile/613909404/douglasville_ga/famous_amos_subs.html", "address": {"city": "Douglasville", "state": "GA", "street": "2911 Chapel Hill Rd", "postal_code": "30135"}, "capProviderId": null, "distance": null, "has_offers": false, "name": "Famous Amos Subs", "longitude": -84.736639, "has_menu": false, "awards": null, "user_review_count": 0}, {"business_operation_status": 1, "rating": null, "neighborhood": null, "image": null, "scorecard": null, "featured": false, "sample_categories": "Restaurants", "public_id": "happy-buddha-austell", "id": 620056464, "votes": null, "tagline": null, "has_video": false, "website": null, "offers": null, "latitude": 33.798694, "politanName": "Atlanta, GA Metro ", "phone_number": "7709447800", "tags": [{"primary": true, "id": 1722, "name": "Restaurants"}], "fax_number": null, "expansion": {"count": null, "uri": null}, "impression_id": "000b0000002bbb8d9c338041a286415f8c9a36871b", "profile": "http://www.citysearch.com/profile/620056464/austell_ga/happy_buddha.html", "address": {"city": "Austell", "state": "GA", "street": "3018 Bankhead Hwy", "postal_code": "30168"}, "capProviderId": null, "distance": null, "has_offers": false, "name": "Happy Buddha", "longitude": -84.641691, "has_menu": true, "awards": null, "user_review_count": 1}, {"business_operation_status": 1, "rating": null, "neighborhood": null, "image": null, "scorecard": null, "featured": false, "sample_categories": "Restaurants", "public_id": "wingstreet-douglasville-2", "id": 823864540, "votes": null, "tagline": null, "has_video": false, "website": "http://www.citysearch.com/profile/external/823864540/douglasville_ga/wingstreet.html", "offers": null, "latitude": 33.81864, "politanName": "Atlanta, GA Metro ", "phone_number": "7704897855", "tags": [{"primary": true, "id": 1722, "name": "Restaurants"}], "fax_number": null, "expansion": {"count": null, "uri": null}, "impression_id": "000b000000d74b509a029d4e54b41b79f9f10fb471", "profile": "http://www.citysearch.com/profile/823864540/douglasville_ga/wingstreet.html", "address": {"city": "Douglasville", "state": "GA", "street": "4813 Ridge Rd", "postal_code": "30134"}, "capProviderId": null, "distance": null, "has_offers": false, "name": "Wingstreet", "longitude": -84.813859, "has_menu": true, "awards": null, "user_review_count": 0}, {"business_operation_status": 1, "rating": null, "neighborhood": null, "image": null, "scorecard": null, "featured": false, "sample_categories": "Juice & Smoothie Shops", "public_id": "juice-me-too-austell", "id": 611119264, "votes": null, "tagline": null, "has_video": false, "website": null, "offers": null, "latitude": 33.855802, "politanName": "Atlanta, GA Metro ", "phone_number": "4046688380", "tags": [{"primary": true, "id": 1735, "name": "Juice & Smoothie Shops"}], "fax_number": null, "expansion": {"count": null, "uri": null}, "impression_id": "000b000000e9f6263360a048c69392cdb897eecb30", "profile": "http://www.citysearch.com/profile/611119264/austell_ga/juice_me_too.html", "address": {"city": "Austell", "state": "GA", "street": "3999 Austell Rd", "postal_code": "30106"}, "capProviderId": null, "distance": null, "has_offers": false, "name": "Juice Me Too", "longitude": -84.600338, "has_menu": false, "awards": null, "user_review_count": 0}, {"business_operation_status": 1, "rating": null, "neighborhood": null, "image": null, "scorecard": null, "featured": false, "sample_categories": "Restaurants", "public_id": "winstons-food-spirits-austell", "id": 627650230, "votes": null, "tagline": null, "has_video": false, "website": null, "offers": null, "latitude": 33.856339, "politanName": "Atlanta, GA Metro ", "phone_number": "7707391130", "tags": [{"primary": true, "id": 1722, "name": "Restaurants"}], "fax_number": null, "expansion": {"count": null, "uri": null}, "impression_id": "000b000000ac4743f5873342c881b5360c154f5c62", "profile": "http://www.citysearch.com/profile/627650230/austell_ga/winston_s_food_spirits.html", "address": {"city": "Austell", "state": "GA", "street": "3999 Austell Rd", "postal_code": "30106"}, "capProviderId": null, "distance": null, "has_offers": false, "name": "Winston's Food & Spirits", "longitude": -84.599753, "has_menu": false, "awards": null, "user_review_count": 0}, {"business_operation_status": 1, "rating": null, "neighborhood": null, "image": null, "scorecard": null, "featured": false, "sample_categories": "Restaurants, Chinese", "public_id": "china-palace-douglasville", "id": 647322410, "votes": null, "tagline": null, "has_video": false, "website": null, "offers": null, "latitude": 33.706721, "politanName": "Atlanta, GA Metro ", "phone_number": "6788388118", "tags": [{"primary": false, "id": 11252, "name": "Chinese"}, {"primary": true, "id": 1722, "name": "Restaurants"}], "fax_number": null, "expansion": {"count": null, "uri": null}, "impression_id": "000b00000015e2189e008145c8ad4b410090ac23c1", "profile": "http://www.citysearch.com/profile/647322410/douglasville_ga/china_palace.html", "address": {"city": "Douglasville", "state": "GA", "street": "3697 Highway 5", "postal_code": "30135"}, "capProviderId": null, "distance": null, "has_offers": false, "name": "China Palace", "longitude": -84.7782, "has_menu": true, "awards": null, "user_review_count": 0}, {"business_operation_status": 0, "rating": null, "neighborhood": null, "image": null, "scorecard": null, "featured": false, "sample_categories": "Restaurants", "public_id": "big-city-deli-kennesaw", "id": 672288520, "votes": null, "tagline": null, "has_video": false, "website": null, "offers": null, "latitude": 34.018515, "politanName": "Atlanta, GA Metro ", "phone_number": "7709759237", "tags": [{"primary": true, "id": 1722, "name": "Restaurants"}], "fax_number": null, "expansion": {"count": null, "uri": null}, "impression_id": "000b000000329e9da028b24299a9b9d47036ea170f", "profile": "http://www.citysearch.com/profile/672288520/kennesaw_ga/big_city_deli.html", "address": {"city": "Kennesaw", "state": "GA", "street": "3061 Jim Owens Road", "postal_code": "30152"}, "capProviderId": null, "distance": null, "has_offers": false, "name": "Big City Deli", "longitude": -84.657278, "has_menu": false, "awards": null, "user_review_count": 0}, {"business_operation_status": 1, "rating": null, "neighborhood": null, "image": null, "scorecard": null, "featured": false, "sample_categories": "Restaurants", "public_id": "douglasville-diner-douglasville", "id": 672876320, "votes": null, "tagline": null, "has_video": false, "website": null, "offers": null, "latitude": 33.722725, "politanName": "Atlanta, GA Metro ", "phone_number": "7709423800", "tags": [{"primary": true, "id": 1722, "name": "Restaurants"}], "fax_number": null, "expansion": {"count": null, "uri": null}, "impression_id": "000b0000007bc00c6563994d48aa34e016cc392ad6", "profile": "http://www.citysearch.com/profile/672876320/douglasville_ga/douglasville_diner.html", "address": {"city": "Douglasville", "state": "GA", "street": "9579 Highway 5", "postal_code": "30135"}, "capProviderId": null, "distance": null, "has_offers": false, "name": "Douglasville Diner", "longitude": -84.762693, "has_menu": false, "awards": null, "user_review_count": 0}, {"business_operation_status": 1, "rating": null, "neighborhood": null, "image": null, "scorecard": null, "featured": false, "sample_categories": "Delis And Delicatessens", "public_id": "kroger-deli-marietta-4", "id": 693544700, "votes": null, "tagline": null, "has_video": false, "website": null, "offers": null, "latitude": 33.953033, "politanName": "Atlanta, GA Metro ", "phone_number": "7704217676", "tags": [{"primary": true, "id": 1727, "name": "Delis And Delicatessens"}], "fax_number": null, "expansion": {"count": null, "uri": null}, "impression_id": "000b00000030a92bb07ef54c2b8da1f93cd0ea44ed", "profile": "http://www.citysearch.com/profile/693544700/marietta_ga/kroger_deli.html", "address": {"city": "Marietta", "state": "GA", "street": "1000 Whitlock Ave NW # 200", "postal_code": "30064"}, "capProviderId": null, "distance": null, "has_offers": false, "name": "Kroger Deli", "longitude": -84.581202, "has_menu": false, "awards": null, "user_review_count": 0}, {"business_operation_status": 1, "rating": null, "neighborhood": null, "image": null, "scorecard": null, "featured": false, "sample_categories": "Delis And Delicatessens", "public_id": "kroger-deli-dallas-6", "id": 698385790, "votes": null, "tagline": null, "has_video": false, "website": null, "offers": null, "latitude": 34.010309, "politanName": "Atlanta, GA Metro ", "phone_number": "6784393372", "tags": [{"primary": true, "id": 1727, "name": "Delis And Delicatessens"}], "fax_number": null, "expansion": {"count": null, "uri": null}, "impression_id": "000b0000009d0a4519e7384abb9fc4b1b151399fb6", "profile": "http://www.citysearch.com/profile/698385790/dallas_ga/kroger_deli.html", "address": {"city": "Dallas", "state": "GA", "street": "8876 Dallas Acworth Hwy", "postal_code": "30132"}, "capProviderId": null, "distance": null, "has_offers": false, "name": "Kroger Deli", "longitude": -84.753348, "has_menu": false, "awards": null, "user_review_count": 0}, {"business_operation_status": 1, "rating": 8.0, "neighborhood": null, "image": null, "scorecard": null, "featured": false, "sample_categories": "Restaurants, Chinese, American Express, Discover, MasterCard", "public_id": "szechuan-village-restaurant-douglasville", "id": 2953303, "votes": null, "tagline": null, "has_video": false, "website": null, "offers": null, "latitude": 33.722878, "politanName": "Atlanta, GA Metro ", "phone_number": "7709496167", "tags": [{"primary": false, "id": 11252, "name": "Chinese"}, {"primary": false, "id": 11333, "name": "American Express"}, {"primary": false, "id": 11349, "name": "Discover"}, {"primary": false, "id": 11361, "name": "MasterCard"}, {"primary": false, "id": 11382, "name": "Visa"}, {"primary": true, "id": 1722, "name": "Restaurants"}], "fax_number": null, "expansion": {"count": null, "uri": null}, "impression_id": "000b00000074737a4ebcc144bb88e9a57fac492224", "profile": "http://www.citysearch.com/profile/2953303/douglasville_ga/szechuan_village_restaurant.html", "address": {"city": "Douglasville", "state": "GA", "street": "9569 Hwy 5", "postal_code": "30135"}, "capProviderId": null, "distance": null, "has_offers": false, "name": "Szechuan Village Restaurant", "longitude": -84.762665, "has_menu": false, "awards": null, "user_review_count": 3}, {"business_operation_status": 1, "rating": null, "neighborhood": null, "image": null, "scorecard": null, "featured": false, "sample_categories": "Restaurants", "public_id": "capalbos-cappys-cafe-acworth", "id": 632010670, "votes": null, "tagline": null, "has_video": false, "website": null, "offers": null, "latitude": 33.989129, "politanName": "Atlanta, GA Metro ", "phone_number": "7709190750", "tags": [{"primary": true, "id": 1722, "name": "Restaurants"}], "fax_number": null, "expansion": {"count": null, "uri": null}, "impression_id": "000b0000005b9d7f8413ed4bff954561a01ec98871", "profile": "http://www.citysearch.com/profile/632010670/acworth_ga/capalbo_s_cappys_cafe.html", "address": {"city": "Acworth", "state": "GA", "street": "6318 Benbrooke Overlook Nw", "postal_code": "30101"}, "capProviderId": null, "distance": null, "has_offers": false, "name": "Capalbo's Cappys Cafe", "longitude": -84.738749, "has_menu": false, "awards": null, "user_review_count": 0}, {"business_operation_status": 1, "rating": null, "neighborhood": null, "image": null, "scorecard": null, "featured": false, "sample_categories": "Restaurants", "public_id": "dinner-afare-marietta", "id": 621938470, "votes": null, "tagline": null, "has_video": false, "website": null, "offers": null, "latitude": 33.963729, "politanName": "Atlanta, GA Metro ", "phone_number": "7704261838", "tags": [{"primary": true, "id": 1722, "name": "Restaurants"}], "fax_number": null, "expansion": {"count": null, "uri": null}, "impression_id": "000b000000626e654b91ba47eaa1139d3d960420f1", "profile": "http://www.citysearch.com/profile/621938470/marietta_ga/dinner_a_fare.html", "address": {"city": "Marietta", "state": "GA", "street": "3391 Bridle Run Trl Nw", "postal_code": "30064"}, "capProviderId": null, "distance": null, "has_offers": false, "name": "Dinner A'Fare", "longitude": -84.649114, "has_menu": false, "awards": null, "user_review_count": 0}, {"business_operation_status": 1, "rating": null, "neighborhood": null, "image": null, "scorecard": null, "featured": false, "sample_categories": "Restaurants, Mexican", "public_id": "el-vaquero-mexican-cantina-marietta", "id": 655802400, "votes": null, "tagline": null, "has_video": false, "website": null, "offers": null, "latitude": 33.953033, "politanName": "Atlanta, GA Metro ", "phone_number": "6787385431", "tags": [{"primary": false, "id": 11208, "name": "Mexican"}, {"primary": true, "id": 1722, "name": "Restaurants"}], "fax_number": null, "expansion": {"count": null, "uri": null}, "impression_id": "000b0000008fd7f659f1474d9483292ee8c43c8c98", "profile": "http://www.citysearch.com/profile/655802400/marietta_ga/el_vaquero_mexican_cantina.html", "address": {"city": "Marietta", "state": "GA", "street": "1000 Whitlock Ave Nw # 410", "postal_code": "30064"}, "capProviderId": null, "distance": null, "has_offers": false, "name": "El Vaquero Mexican Cantina", "longitude": -84.581202, "has_menu": false, "awards": null, "user_review_count": 0}, {"business_operation_status": 1, "rating": null, "neighborhood": null, "image": null, "scorecard": null, "featured": false, "sample_categories": "Restaurants, Barbecue Restaurants", "public_id": "smore-bbq-douglasville", "id": 742236390, "votes": null, "tagline": null, "has_video": false, "website": "http://www.citysearch.com/profile/external/742236390/douglasville_ga/s_more_bbq.html", "offers": null, "latitude": 33.728382, "politanName": "Atlanta, GA Metro ", "phone_number": "6784263661", "tags": [{"primary": false, "id": 1724, "name": "Barbecue Restaurants"}, {"primary": true, "id": 1722, "name": "Restaurants"}], "fax_number": null, "expansion": {"count": null, "uri": null}, "impression_id": "000b0000003e14f70e251d4ab694048ad292bbcc49", "profile": "http://www.citysearch.com/profile/742236390/douglasville_ga/s_more_bbq.html", "address": {"city": "Douglasville", "state": "GA", "street": "6855 Douglas Blvd", "postal_code": "30135"}, "capProviderId": null, "distance": null, "has_offers": false, "name": "S'More BBQ", "longitude": -84.75562, "has_menu": false, "awards": null, "user_review_count": 0}, {"business_operation_status": 1, "rating": null, "neighborhood": null, "image": null, "scorecard": null, "featured": false, "sample_categories": "Restaurants, Pizza, Carry Out", "public_id": "mellow-mushroom-acworth", "id": 609955104, "votes": null, "tagline": null, "has_video": false, "website": "http://www.citysearch.com/profile/external/609955104/acworth_ga/mellow_mushroom.html", "offers": null, "latitude": 34.057868, "politanName": "Atlanta, GA Metro ", "phone_number": "6784026009", "tags": [{"primary": false, "id": 1722, "name": "Restaurants"}, {"primary": false, "id": 11247, "name": "Carry Out"}, {"primary": true, "id": 11299, "name": "Pizza"}], "fax_number": null, "expansion": {"count": null, "uri": null}, "impression_id": "000b000000696e3db358a54d6e998fa00171122a51", "profile": "http://www.citysearch.com/profile/609955104/acworth_ga/mellow_mushroom.html", "address": {"city": "Acworth", "state": "GA", "street": "6121 Cedarcrest Rd", "postal_code": "30101"}, "capProviderId": null, "distance": null, "has_offers": false, "name": "Mellow Mushroom", "longitude": -84.732946, "has_menu": false, "awards": null, "user_review_count": 0}, {"business_operation_status": 1, "rating": null, "neighborhood": null, "image": null, "scorecard": null, "featured": false, "sample_categories": "Restaurants", "public_id": "borber-restaurant-hiram", "id": 732143050, "votes": null, "tagline": null, "has_video": false, "website": null, "offers": null, "latitude": 33.876664, "politanName": "Atlanta, GA Metro ", "phone_number": "7707785401", "tags": [{"primary": true, "id": 1722, "name": "Restaurants"}], "fax_number": null, "expansion": {"count": null, "uri": null}, "impression_id": "000b0000003b8a4c87bb004da686620da8047e8e89", "profile": "http://www.citysearch.com/profile/732143050/hiram_ga/borber_restaurant.html", "address": {"city": "Hiram", "state": "GA", "street": "25 Travelers Path", "postal_code": "30141"}, "capProviderId": null, "distance": null, "has_offers": false, "name": "Borber Restaurant", "longitude": -84.73037, "has_menu": false, "awards": null, "user_review_count": 0}, {"business_operation_status": 1, "rating": null, "neighborhood": null, "image": null, "scorecard": null, "featured": false, "sample_categories": "Restaurants, Pizza, Carry Out", "public_id": "little-caesars-pizza-acworth-3", "id": 682324320, "votes": null, "tagline": null, "has_video": false, "website": "http://www.citysearch.com/profile/external/682324320/acworth_ga/little_caesars_pizza.html", "offers": null, "latitude": 33.997403, "politanName": "Atlanta, GA Metro ", "phone_number": "7704999981", "tags": [{"primary": false, "id": 1722, "name": "Restaurants"}, {"primary": false, "id": 11247, "name": "Carry Out"}, {"primary": true, "id": 11299, "name": "Pizza"}], "fax_number": null, "expansion": {"count": null, "uri": null}, "impression_id": "000b000000b28f1e542ec44eff9340ae8bbd6cc5a7", "profile": "http://www.citysearch.com/profile/682324320/acworth_ga/little_caesars_pizza.html", "address": {"city": "Acworth", "state": "GA", "street": "1727 Mars Hill Rd NW # 8", "postal_code": "30101"}, "capProviderId": null, "distance": null, "has_offers": false, "name": "Little Caesars Pizza", "longitude": -84.707837, "has_menu": false, "awards": null, "user_review_count": 0}, {"business_operation_status": 1, "rating": null, "neighborhood": null, "image": null, "scorecard": null, "featured": false, "sample_categories": "Restaurants, Delis And Delicatessens, Sandwich Shops, Carry Out", "public_id": "subway-marietta-47", "id": 713567500, "votes": null, "tagline": null, "has_video": false, "website": "http://www.citysearch.com/profile/external/713567500/marietta_ga/subway.html", "offers": null, "latitude": 33.882452, "politanName": "Atlanta, GA Metro ", "phone_number": "7704365640", "tags": [{"primary": false, "id": 1727, "name": "Delis And Delicatessens"}, {"primary": false, "id": 1736, "name": "Sandwich Shops"}, {"primary": false, "id": 11247, "name": "Carry Out"}, {"primary": true, "id": 1722, "name": "Restaurants"}], "fax_number": null, "expansion": {"count": null, "uri": null}, "impression_id": "000b000000130f78f956134e57881b4b620b5ee011", "profile": "http://www.citysearch.com/profile/713567500/marietta_ga/subway.html", "address": {"city": "Marietta", "state": "GA", "street": "2909 Austell Rd Sw # 114", "postal_code": "30008"}, "capProviderId": null, "distance": null, "has_offers": false, "name": "SUBWAY", "longitude": -84.58798, "has_menu": false, "awards": null, "user_review_count": 0}, {"business_operation_status": 1, "rating": null, "neighborhood": null, "image": null, "scorecard": null, "featured": false, "sample_categories": "Restaurants, Soul", "public_id": "lil-mammas-soul-food-douglasville", "id": 728106280, "votes": null, "tagline": null, "has_video": false, "website": null, "offers": null, "latitude": 33.754776, "politanName": "Atlanta, GA Metro ", "phone_number": "7704893322", "tags": [{"primary": false, "id": 15140, "name": "Soul"}, {"primary": true, "id": 1722, "name": "Restaurants"}], "fax_number": null, "expansion": {"count": null, "uri": null}, "impression_id": "000b000000e11e9682869145fdbb3878327fc3e2d2", "profile": "http://www.citysearch.com/profile/728106280/douglasville_ga/lil_mammas_soul_food.html", "address": {"city": "Douglasville", "state": "GA", "street": "8285 Courtland St", "postal_code": "30134"}, "capProviderId": null, "distance": null, "has_offers": false, "name": "Lil Mammas Soul Food", "longitude": -84.737967, "has_menu": false, "awards": null, "user_review_count": 0}, {"business_operation_status": 1, "rating": null, "neighborhood": null, "image": null, "scorecard": null, "featured": false, "sample_categories": "Restaurants", "public_id": "fad-restaurant-marietta", "id": 682613120, "votes": null, "tagline": null, "has_video": false, "website": null, "offers": null, "latitude": 33.865697, "politanName": "Atlanta, GA Metro ", "phone_number": "7704318505", "tags": [{"primary": true, "id": 1722, "name": "Restaurants"}], "fax_number": null, "expansion": {"count": null, "uri": null}, "impression_id": "000b00000040188318717144b0ae728aadb7f49ce3", "profile": "http://www.citysearch.com/profile/682613120/marietta_ga/fad_restaurant.html", "address": {"city": "Marietta", "state": "GA", "street": "3565 Austell Rd Sw # 1061", "postal_code": "30008"}, "capProviderId": null, "distance": null, "has_offers": false, "name": "Fad Restaurant", "longitude": -84.592502, "has_menu": false, "awards": null, "user_review_count": 0}, {"business_operation_status": 1, "rating": null, "neighborhood": null, "image": null, "scorecard": null, "featured": false, "sample_categories": "Restaurants", "public_id": "j-k-island-cafe-marietta", "id": 808002760, "votes": null, "tagline": null, "has_video": false, "website": null, "offers": null, "latitude": 33.953203, "politanName": "Atlanta, GA Metro ", "phone_number": "6782909933", "tags": [{"primary": true, "id": 1722, "name": "Restaurants"}], "fax_number": null, "expansion": {"count": null, "uri": null}, "impression_id": "000b000000a77f20b339bf4a54b80d2cb94f53a05f", "profile": "http://www.citysearch.com/profile/808002760/marietta_ga/j_k_island_cafe.html", "address": {"city": "Marietta", "state": "GA", "street": "2503 Zachary Woods Dr NW", "postal_code": "30064"}, "capProviderId": null, "distance": null, "has_offers": false, "name": "J & K Island Cafe", "longitude": -84.630386, "has_menu": false, "awards": null, "user_review_count": 0}, {"business_operation_status": 1, "rating": null, "neighborhood": null, "image": null, "scorecard": null, "featured": false, "sample_categories": "Restaurants", "public_id": "dogwoods-country-cooking-hiram", "id": 817264360, "votes": null, "tagline": null, "has_video": false, "website": null, "offers": null, "latitude": 33.864689, "politanName": "Atlanta, GA Metro ", "phone_number": "7704390550", "tags": [{"primary": true, "id": 1722, "name": "Restaurants"}], "fax_number": null, "expansion": {"count": null, "uri": null}, "impression_id": "000b00000011804d293ccb4c9d917d959aea628c2d", "profile": "http://www.citysearch.com/profile/817264360/hiram_ga/dogwoods_country_cooking.html", "address": {"city": "Hiram", "state": "GA", "street": "1948 Hiram Douglasville Hwy", "postal_code": "30141"}, "capProviderId": null, "distance": null, "has_offers": false, "name": "Dogwoods Country Cooking", "longitude": -84.762946, "has_menu": false, "awards": null, "user_review_count": 0}, {"business_operation_status": 1, "rating": null, "neighborhood": null, "image": null, "scorecard": null, "featured": false, "sample_categories": "Restaurants, Pizza, Carry Out", "public_id": "papa-johns-pizza-marietta-2", "id": 632029900, "votes": null, "tagline": null, "has_video": false, "website": null, "offers": null, "latitude": 33.952112, "politanName": "Atlanta, GA Metro ", "phone_number": "7704267272", "tags": [{"primary": false, "id": 1722, "name": "Restaurants"}, {"primary": false, "id": 11247, "name": "Carry Out"}, {"primary": true, "id": 11299, "name": "Pizza"}], "fax_number": null, "expansion": {"count": null, "uri": null}, "impression_id": "000b00000027da8f4e8a774dcd91fff6746db464ba", "profile": "http://www.citysearch.com/profile/632029900/marietta_ga/papa_john_s_pizza.html", "address": {"city": "Marietta", "state": "GA", "street": "971 Whitlock Ave Sw", "postal_code": "30064"}, "capProviderId": null, "distance": null, "has_offers": false, "name": "Papa John's Pizza", "longitude": -84.578857, "has_menu": false, "awards": null, "user_review_count": 0}, {"business_operation_status": 1, "rating": null, "neighborhood": null, "image": null, "scorecard": null, "featured": false, "sample_categories": "Restaurants, Delis And Delicatessens", "public_id": "best-wings-deli-douglasville-2", "id": 728017940, "votes": null, "tagline": null, "has_video": false, "website": null, "offers": null, "latitude": 33.747372, "politanName": "Atlanta, GA Metro ", "phone_number": "7709477809", "tags": [{"primary": false, "id": 1727, "name": "Delis And Delicatessens"}, {"primary": true, "id": 1722, "name": "Restaurants"}], "fax_number": null, "expansion": {"count": null, "uri": null}, "impression_id": "000b00000061ec37e3d396457c8c67243bc80aa151", "profile": "http://www.citysearch.com/profile/728017940/douglasville_ga/best_wings_deli.html", "address": {"city": "Douglasville", "state": "GA", "street": "2134 Fairburn Rd", "postal_code": "30135"}, "capProviderId": null, "distance": null, "has_offers": false, "name": "Best Wings & Deli", "longitude": -84.699929, "has_menu": false, "awards": null, "user_review_count": 0}, {"business_operation_status": 1, "rating": null, "neighborhood": null, "image": null, "scorecard": null, "featured": false, "sample_categories": "Restaurants, Caribbean", "public_id": "caribbean-cafe-dallas", "id": 732148300, "votes": null, "tagline": null, "has_video": false, "website": null, "offers": null, "latitude": 33.909628, "politanName": "Atlanta, GA Metro ", "phone_number": "7702228844", "tags": [{"primary": false, "id": 11195, "name": "Caribbean"}, {"primary": true, "id": 1722, "name": "Restaurants"}], "fax_number": null, "expansion": {"count": null, "uri": null}, "impression_id": "000b00000020c491f0fcff4a539a54229e84af15fb", "profile": "http://www.citysearch.com/profile/732148300/dallas_ga/caribbean_cafe.html", "address": {"city": "Dallas", "state": "GA", "street": "1336 Hiram Acworth Hwy", "postal_code": "30157"}, "capProviderId": null, "distance": null, "has_offers": false, "name": "Caribbean Cafe", "longitude": -84.746817, "has_menu": false, "awards": null, "user_review_count": 0}, {"business_operation_status": 1, "rating": null, "neighborhood": null, "image": null, "scorecard": null, "featured": false, "sample_categories": "Restaurants", "public_id": "d-e-restaurant-equipment-acworth", "id": 732160900, "votes": null, "tagline": null, "has_video": false, "website": null, "offers": null, "latitude": 34.028974, "politanName": "Atlanta, GA Metro ", "phone_number": "4049759264", "tags": [{"primary": true, "id": 1722, "name": "Restaurants"}], "fax_number": null, "expansion": {"count": null, "uri": null}, "impression_id": "000b00000015c0c1dfdcd24938997c765421926ebb", "profile": "http://www.citysearch.com/profile/732160900/acworth_ga/d_e_restaurant_equipment.html", "address": {"city": "Acworth", "state": "GA", "street": "3112 Maplewood Dr", "postal_code": "30101"}, "capProviderId": null, "distance": null, "has_offers": false, "name": "D & E Restaurant Equipment", "longitude": -84.740837, "has_menu": false, "awards": null, "user_review_count": 0}, {"business_operation_status": 1, "rating": null, "neighborhood": null, "image": null, "scorecard": null, "featured": false, "sample_categories": "Restaurants, Barbecue Restaurants, American Express, Discover, MasterCard", "public_id": "cafe-wing-max-hiram", "id": 2954097, "votes": null, "tagline": null, "has_video": false, "website": "http://www.citysearch.com/profile/external/2954097/hiram_ga/cafe_wing_max.html", "offers": null, "latitude": 33.894468, "politanName": "Atlanta, GA Metro ", "phone_number": "7704390050", "tags": [{"primary": false, "id": 1724, "name": "Barbecue Restaurants"}, {"primary": false, "id": 11333, "name": "American Express"}, {"primary": false, "id": 11349, "name": "Discover"}, {"primary": false, "id": 11361, "name": "MasterCard"}, {"primary": false, "id": 11382, "name": "Visa"}, {"primary": true, "id": 1722, "name": "Restaurants"}], "fax_number": null, "expansion": {"count": null, "uri": null}, "impression_id": "000b000000e47fbc39b32f4bada7fcdb2732015ca6", "profile": "http://www.citysearch.com/profile/2954097/hiram_ga/cafe_wing_max.html", "address": {"city": "Hiram", "state": "GA", "street": "4215 Jimmy Lee Smith Pkwy Ste 18", "postal_code": "30141"}, "capProviderId": null, "distance": null, "has_offers": false, "name": "Cafe Wing Max", "longitude": -84.758246, "has_menu": false, "awards": null, "user_review_count": 0}, {"business_operation_status": 0, "rating": null, "neighborhood": null, "image": null, "scorecard": null, "featured": false, "sample_categories": "Restaurants, Delis And Delicatessens", "public_id": "subs-n-such-dallas", "id": 2958336, "votes": null, "tagline": null, "has_video": false, "website": null, "offers": null, "latitude": 33.867883, "politanName": "Atlanta, GA Metro ", "phone_number": "7704431337", "tags": [{"primary": false, "id": 1727, "name": "Delis And Delicatessens"}, {"primary": true, "id": 1722, "name": "Restaurants"}], "fax_number": null, "expansion": {"count": null, "uri": null}, "impression_id": "000b0000004a93664a4ee2480984735e8fcd96b960", "profile": "http://www.citysearch.com/profile/2958336/dallas_ga/subs_n_such.html", "address": {"city": "Dallas", "state": "GA", "street": "2985 Villa Rica Hwy Ste 1", "postal_code": "30157"}, "capProviderId": null, "distance": null, "has_offers": false, "name": "Subs 'n' Such", "longitude": -84.839834, "has_menu": false, "awards": null, "user_review_count": 1}, {"business_operation_status": 0, "rating": null, "neighborhood": null, "image": null, "scorecard": null, "featured": false, "sample_categories": "Restaurants", "public_id": "birdies-wings-acworth", "id": 682521810, "votes": null, "tagline": null, "has_video": false, "website": "http://www.citysearch.com/profile/external/682521810/acworth_ga/birdies_wings.html", "offers": null, "latitude": 34.060071, "politanName": "Atlanta, GA Metro ", "phone_number": "7702229959", "tags": [{"primary": true, "id": 1722, "name": "Restaurants"}], "fax_number": null, "expansion": {"count": null, "uri": null}, "impression_id": "000b00000012a2143704ff4d96af72a1024cf4134f", "profile": "http://www.citysearch.com/profile/682521810/acworth_ga/birdies_wings.html", "address": {"city": "Acworth", "state": "GA", "street": "219 Applewood Ln", "postal_code": "30101"}, "capProviderId": null, "distance": null, "has_offers": false, "name": "Birdies Wings", "longitude": -84.758334, "has_menu": false, "awards": null, "user_review_count": 0}], "histograms": [], "tag_ids": [1722], "uri": "http://api.citygridmedia.com:8080/search/places/v2/search/where?has_offers=false&type=restaurant&format=json&page=12&where=30127&rpp=50&histograms=false&publisher=10000009598&region_type=circle", "did_you_mean": "", "regions": [{"latitude": 33.880952, "default_radius": 7.3, "type": "postal_code", "name": "30127", "longitude": -84.695289}], "call_id": "000b00000065a077603aea4af4b1467cec5d34b8bd", "first_hit": 551, "total_hits": 1066, "geo_ids": [26302], "page": 12, "last_hit": 600}}