{"results": {"rpp": 50, "locations": [{"business_operation_status": 1, "rating": null, "neighborhood": null, "image": null, "scorecard": null, "featured": false, "sample_categories": "Restaurants", "public_id": "woodstock-family-restaurant-woodstock", "id": 812007640, "votes": null, "tagline": null, "has_video": false, "website": null, "offers": null, "latitude": 34.087003, "politanName": "Atlanta, GA Metro ", "phone_number": "7705166180", "tags": [{"primary": true, "id": 1722, "name": "Restaurants"}], "fax_number": null, "expansion": {"count": null, "uri": null}, "impression_id": "000b000000e7b2158e508548998410b9504b42d50e", "profile": "http://www.citysearch.com/profile/812007640/woodstock_ga/woodstock_family_restaurant.html", "address": {"city": "Woodstock", "state": "GA", "street": "9425 Highway 92 # 104", "postal_code": "30188"}, "capProviderId": null, "distance": null, "has_offers": false, "name": "Woodstock Family Restaurant", "longitude": -84.532577, "has_menu": true, "awards": null, "user_review_count": 0}, {"business_operation_status": 0, "rating": null, "neighborhood": null, "image": null, "scorecard": null, "featured": false, "sample_categories": "Ice Cream Parlors", "public_id": "clearview-ventures-kennesaw", "id": 732172070, "votes": null, "tagline": null, "has_video": false, "website": null, "offers": null, "latitude": 33.976849, "politanName": "Atlanta, GA Metro ", "phone_number": "7706178112", "tags": [{"primary": true, "id": 1730, "name": "Ice Cream Parlors"}], "fax_number": null, "expansion": {"count": null, "uri": null}, "impression_id": "000b0000000df9ded97d954bb9bd9b17b83ab2dabf", "profile": "http://www.citysearch.com/profile/732172070/kennesaw_ga/clearview_ventures.html", "address": {"city": "Kennesaw", "state": "GA", "street": "985 Frog Leap Trl NW", "postal_code": "30152"}, "capProviderId": null, "distance": null, "has_offers": false, "name": "Clearview Ventures", "longitude": -84.607323, "has_menu": false, "awards": null, "user_review_count": 0}, {"business_operation_status": 1, "rating": null, "neighborhood": null, "image": null, "scorecard": null, "featured": false, "sample_categories": "Restaurants", "public_id": "g-a-mex-marietta", "id": 837455650, "votes": null, "tagline": null, "has_video": false, "website": null, "offers": null, "latitude": 33.954748, "politanName": "Atlanta, GA Metro ", "phone_number": "6783540331", "tags": [{"primary": true, "id": 1722, "name": "Restaurants"}], "fax_number": null, "expansion": {"count": null, "uri": null}, "impression_id": "000b00000044f16dbb4da141f4aaf00b30a38b94cd", "profile": "http://www.citysearch.com/profile/837455650/marietta_ga/g_a_mex.html", "address": {"city": "Marietta", "state": "GA", "street": "3636 Dallas Hwy SW", "postal_code": "30064"}, "capProviderId": null, "distance": null, "has_offers": false, "name": "G A Mex", "longitude": -84.657951, "has_menu": false, "awards": null, "user_review_count": 0}, {"business_operation_status": 1, "rating": null, "neighborhood": null, "image": null, "scorecard": null, "featured": false, "sample_categories": "Restaurants", "public_id": "chilitos-woodstock", "id": 820086190, "votes": null, "tagline": null, "has_video": false, "website": null, "offers": null, "latitude": 34.087967, "politanName": "Atlanta, GA Metro ", "phone_number": "7709285948", "tags": [{"primary": true, "id": 1722, "name": "Restaurants"}], "fax_number": null, "expansion": {"count": null, "uri": null}, "impression_id": "000b000000b85a46a8211044f5a6e83a4bafad6623", "profile": "http://www.citysearch.com/profile/820086190/woodstock_ga/chilitos.html", "address": {"city": "Woodstock", "state": "GA", "street": "12035 Highway 92", "postal_code": "30188"}, "capProviderId": null, "distance": null, "has_offers": false, "name": "Chilitos", "longitude": -84.486231, "has_menu": true, "awards": null, "user_review_count": 0}, {"business_operation_status": 0, "rating": null, "neighborhood": null, "image": null, "scorecard": null, "featured": false, "sample_categories": "Restaurants", "public_id": "by-the-tracks-cafe-llc-woodstock", "id": 751304040, "votes": null, "tagline": null, "has_video": false, "website": null, "offers": null, "latitude": 34.085958, "politanName": "Atlanta, GA Metro ", "phone_number": "7705169993", "tags": [{"primary": true, "id": 1722, "name": "Restaurants"}], "fax_number": null, "expansion": {"count": null, "uri": null}, "impression_id": "000b00000012f987e75ef84018b800bc89aeb9dfff", "profile": "http://www.citysearch.com/profile/751304040/woodstock_ga/by_the_tracks_cafe_llc.html", "address": {"city": "Woodstock", "state": "GA", "street": "9595 Main St", "postal_code": "30188"}, "capProviderId": null, "distance": null, "has_offers": false, "name": "By the Tracks Cafe LLC", "longitude": -84.519417, "has_menu": false, "awards": null, "user_review_count": 0}, {"business_operation_status": 1, "rating": null, "neighborhood": null, "image": null, "scorecard": null, "featured": false, "sample_categories": "Restaurants, Pizza", "public_id": "uncle-maddios-pizza-woodstock", "id": 732245370, "votes": null, "tagline": null, "has_video": false, "website": "http://www.citysearch.com/profile/external/732245370/woodstock_ga/uncle_maddio_s_pizza.html", "offers": null, "latitude": 34.086912, "politanName": "Atlanta, GA Metro ", "phone_number": "7705912685", "tags": [{"primary": false, "id": 11299, "name": "Pizza"}, {"primary": true, "id": 1722, "name": "Restaurants"}], "fax_number": null, "expansion": {"count": null, "uri": null}, "impression_id": "000b0000004b2e2bc6c83c448b9477a8aecc36fd59", "profile": "http://www.citysearch.com/profile/732245370/woodstock_ga/uncle_maddio_s_pizza.html", "address": {"city": "Woodstock", "state": "GA", "street": "9745 Highway 92", "postal_code": "30188"}, "capProviderId": null, "distance": null, "has_offers": false, "name": "Uncle Maddio's Pizza", "longitude": -84.528611, "has_menu": false, "awards": null, "user_review_count": 0}, {"business_operation_status": 1, "rating": null, "neighborhood": null, "image": null, "scorecard": null, "featured": false, "sample_categories": "Restaurants", "public_id": "zorbas-kitchen-acworth", "id": 764937910, "votes": null, "tagline": null, "has_video": false, "website": null, "offers": null, "latitude": 34.039365, "politanName": "Atlanta, GA Metro ", "phone_number": "7705296900", "tags": [{"primary": true, "id": 1722, "name": "Restaurants"}], "fax_number": null, "expansion": {"count": null, "uri": null}, "impression_id": "000b0000006daccde17f034790b3ebe3408004a2cd", "profile": "http://www.citysearch.com/profile/764937910/acworth_ga/zorba_s_kitchen.html", "address": {"city": "Acworth", "state": "GA", "street": "3450 Cobb Pkwy NW", "postal_code": "30101"}, "capProviderId": null, "distance": null, "has_offers": false, "name": "Zorba's Kitchen", "longitude": -84.689961, "has_menu": false, "awards": null, "user_review_count": 0}, {"business_operation_status": 1, "rating": null, "neighborhood": null, "image": null, "scorecard": null, "featured": false, "sample_categories": "Restaurants, Pizza", "public_id": "johnnys-pizza-woodstock-2", "id": 773442120, "votes": null, "tagline": null, "has_video": false, "website": null, "offers": null, "latitude": 34.107712, "politanName": "Atlanta, GA Metro ", "phone_number": "6784012340", "tags": [{"primary": false, "id": 1722, "name": "Restaurants"}, {"primary": true, "id": 11299, "name": "Pizza"}], "fax_number": null, "expansion": {"count": null, "uri": null}, "impression_id": "000b000000aa5f4ca436264ecda4b4747ade4b7a1c", "profile": "http://www.citysearch.com/profile/773442120/woodstock_ga/johnny_s_pizza.html", "address": {"city": "Woodstock", "state": "GA", "street": "1105 Parkside Ln # 1330", "postal_code": "30189"}, "capProviderId": null, "distance": null, "has_offers": false, "name": "Johnny's Pizza", "longitude": -84.553184, "has_menu": true, "awards": null, "user_review_count": 0}, {"business_operation_status": 1, "rating": null, "neighborhood": null, "image": null, "scorecard": null, "featured": false, "sample_categories": "Restaurants, Grocery Stores", "public_id": "global-food-concepts-inc-marietta", "id": 775200900, "votes": null, "tagline": null, "has_video": false, "website": null, "offers": null, "latitude": 34.040146, "politanName": "Atlanta, GA Metro ", "phone_number": "7705798452", "tags": [{"primary": false, "id": 1713, "name": "Grocery Stores"}, {"primary": true, "id": 1722, "name": "Restaurants"}], "fax_number": null, "expansion": {"count": null, "uri": null}, "impression_id": "000b0000009dfa41a3613a4543b770ee416796ccb7", "profile": "http://www.citysearch.com/profile/775200900/marietta_ga/global_food_concepts_inc.html", "address": {"city": "Marietta", "state": "GA", "street": "2985 Gordy Pkwy", "postal_code": "30066"}, "capProviderId": null, "distance": null, "has_offers": false, "name": "Global Food Concepts Inc", "longitude": -84.46186, "has_menu": false, "awards": null, "user_review_count": 0}, {"business_operation_status": 0, "rating": null, "neighborhood": null, "image": null, "scorecard": null, "featured": false, "sample_categories": "Restaurants, Delis And Delicatessens, Sandwich Shops, Carry Out", "public_id": "blimpie-subs-salads-acworth", "id": 764875800, "votes": null, "tagline": null, "has_video": false, "website": null, "offers": null, "latitude": 34.088626, "politanName": "Atlanta, GA Metro ", "phone_number": "7709241725", "tags": [{"primary": false, "id": 1727, "name": "Delis And Delicatessens"}, {"primary": false, "id": 1736, "name": "Sandwich Shops"}, {"primary": false, "id": 11247, "name": "Carry Out"}, {"primary": true, "id": 1722, "name": "Restaurants"}], "fax_number": null, "expansion": {"count": null, "uri": null}, "impression_id": "000b00000021b8598e87a54db3b66f1d931f811fc3", "profile": "http://www.citysearch.com/profile/764875800/acworth_ga/blimpie_subs_salads.html", "address": {"city": "Acworth", "state": "GA", "street": "6161 Highway 92", "postal_code": "30102"}, "capProviderId": null, "distance": null, "has_offers": false, "name": "Blimpie Subs & Salads", "longitude": -84.586852, "has_menu": false, "awards": null, "user_review_count": 0}, {"business_operation_status": 1, "rating": null, "neighborhood": null, "image": null, "scorecard": null, "featured": false, "sample_categories": "Coffeehouses", "public_id": "starbucks-marietta-14", "id": 781239330, "votes": null, "tagline": null, "has_video": false, "website": "http://www.citysearch.com/profile/external/781239330/marietta_ga/starbucks.html", "offers": null, "latitude": 33.952517, "politanName": "Atlanta, GA Metro ", "phone_number": "6782901695", "tags": [{"primary": true, "id": 1726, "name": "Coffeehouses"}], "fax_number": null, "expansion": {"count": null, "uri": null}, "impression_id": "000b000000e9068da451c344eaaac58955ee533f7d", "profile": "http://www.citysearch.com/profile/781239330/marietta_ga/starbucks.html", "address": {"city": "Marietta", "state": "GA", "street": "30 Whitlock Ave NW", "postal_code": "30064"}, "capProviderId": null, "distance": null, "has_offers": false, "name": "Starbucks", "longitude": -84.551632, "has_menu": false, "awards": null, "user_review_count": 0}, {"business_operation_status": 1, "rating": null, "neighborhood": null, "image": null, "scorecard": null, "featured": false, "sample_categories": "Restaurants, Traditional American", "public_id": "come-get-it-marietta", "id": 655806390, "votes": null, "tagline": null, "has_video": false, "website": "http://www.citysearch.com/profile/external/655806390/marietta_ga/come_get_it.html", "offers": null, "latitude": 33.97734, "politanName": "Atlanta, GA Metro ", "phone_number": "7704230010", "tags": [{"primary": false, "id": 11190, "name": "Traditional American"}, {"primary": true, "id": 1722, "name": "Restaurants"}], "fax_number": null, "expansion": {"count": null, "uri": null}, "impression_id": "000b00000068bbb9a58f7745f9a51bf7e6157f80c0", "profile": "http://www.citysearch.com/profile/655806390/marietta_ga/come_get_it.html", "address": {"city": "Marietta", "state": "GA", "street": "1409 Church Street Ext Ne # E", "postal_code": "30060"}, "capProviderId": null, "distance": null, "has_offers": false, "name": "Come & Get It", "longitude": -84.555829, "has_menu": false, "awards": null, "user_review_count": 0}, {"business_operation_status": 1, "rating": null, "neighborhood": null, "image": null, "scorecard": null, "featured": false, "sample_categories": "Restaurants, Pizza, Carry Out", "public_id": "jets-pizza-marietta", "id": 655911690, "votes": null, "tagline": null, "has_video": false, "website": "http://www.citysearch.com/profile/external/655911690/marietta_ga/jet_s_pizza.html", "offers": null, "latitude": 33.954848, "politanName": "Atlanta, GA Metro ", "phone_number": "7707925700", "tags": [{"primary": false, "id": 1722, "name": "Restaurants"}, {"primary": false, "id": 11247, "name": "Carry Out"}, {"primary": true, "id": 11299, "name": "Pizza"}], "fax_number": null, "expansion": {"count": null, "uri": null}, "impression_id": "000b000000682c8629b974439ead2b061e319ba7c4", "profile": "http://www.citysearch.com/profile/655911690/marietta_ga/jet_s_pizza.html", "address": {"city": "Marietta", "state": "GA", "street": "3600 Dallas Hwy Sw", "postal_code": "30064"}, "capProviderId": null, "distance": null, "has_offers": false, "name": "Jet's Pizza", "longitude": -84.655682, "has_menu": false, "awards": null, "user_review_count": 0}, {"business_operation_status": 1, "rating": null, "neighborhood": null, "image": null, "scorecard": null, "featured": false, "sample_categories": "Restaurants, Mexican", "public_id": "mr-burrito-kennesaw", "id": 682318370, "votes": null, "tagline": null, "has_video": false, "website": null, "offers": null, "latitude": 34.028401, "politanName": "Atlanta, GA Metro ", "phone_number": "7709176061", "tags": [{"primary": false, "id": 11208, "name": "Mexican"}, {"primary": true, "id": 1722, "name": "Restaurants"}], "fax_number": null, "expansion": {"count": null, "uri": null}, "impression_id": "000b000000d2af4f4e85e0466391233c1d9993f233", "profile": "http://www.citysearch.com/profile/682318370/kennesaw_ga/mr_burrito.html", "address": {"city": "Kennesaw", "state": "GA", "street": "3061 Jim Owens Rd NW", "postal_code": "30152"}, "capProviderId": null, "distance": null, "has_offers": false, "name": "Mr Burrito", "longitude": -84.65049, "has_menu": false, "awards": null, "user_review_count": 0}, {"business_operation_status": 1, "rating": null, "neighborhood": null, "image": null, "scorecard": null, "featured": false, "sample_categories": "Restaurants, Carry Out, Hamburgers, American Express, Discover", "public_id": "burger-king-marietta-11", "id": 682637510, "votes": null, "tagline": null, "has_video": false, "website": "http://www.citysearch.com/profile/external/682637510/marietta_ga/burger_king.html", "offers": null, "latitude": 33.945546, "politanName": "Atlanta, GA Metro ", "phone_number": "6783541084", "tags": [{"primary": false, "id": 1722, "name": "Restaurants"}, {"primary": false, "id": 11270, "name": "Hamburgers"}, {"primary": false, "id": 11333, "name": "American Express"}, {"primary": false, "id": 11349, "name": "Discover"}, {"primary": false, "id": 11361, "name": "MasterCard"}, {"primary": false, "id": 11382, "name": "Visa"}, {"primary": true, "id": 11247, "name": "Carry Out"}], "fax_number": null, "expansion": {"count": null, "uri": null}, "impression_id": "000b00000093162d09b99a49008084b1e59fb82dbb", "profile": "http://www.citysearch.com/profile/682637510/marietta_ga/burger_king.html", "address": {"city": "Marietta", "state": "GA", "street": "2495 Dallas Hwy SW", "postal_code": "30064"}, "capProviderId": null, "distance": null, "has_offers": false, "name": "Burger King", "longitude": -84.624745, "has_menu": true, "awards": null, "user_review_count": 0}, {"business_operation_status": 1, "rating": null, "neighborhood": null, "image": null, "scorecard": null, "featured": false, "sample_categories": "Ice Cream Parlors", "public_id": "high-road-craft-ice-cream-inc-marietta", "id": 803512700, "votes": null, "tagline": null, "has_video": false, "website": null, "offers": null, "latitude": 33.982909, "politanName": "Atlanta, GA Metro ", "phone_number": "7705651652", "tags": [{"primary": true, "id": 1730, "name": "Ice Cream Parlors"}], "fax_number": null, "expansion": {"count": null, "uri": null}, "impression_id": "000b0000003628558ce2af465fbf86bdb0cda12519", "profile": "http://www.citysearch.com/profile/803512700/marietta_ga/high_road_craft_ice_cream_inc.html", "address": {"city": "Marietta", "state": "GA", "street": "1730 W Oak Commons Ct", "postal_code": "30062"}, "capProviderId": null, "distance": null, "has_offers": false, "name": "High Road Craft Ice Cream INC", "longitude": -84.523354, "has_menu": false, "awards": null, "user_review_count": 0}, {"business_operation_status": 1, "rating": null, "neighborhood": null, "image": null, "scorecard": null, "featured": false, "sample_categories": "Restaurants", "public_id": "ken-mar-cafe-grill-marietta", "id": 808387530, "votes": null, "tagline": null, "has_video": false, "website": null, "offers": null, "latitude": 33.971179, "politanName": "Atlanta, GA Metro ", "phone_number": "7707950081", "tags": [{"primary": true, "id": 1722, "name": "Restaurants"}], "fax_number": null, "expansion": {"count": null, "uri": null}, "impression_id": "000b0000005886d98f5814408688c2ab33d4db3ef7", "profile": "http://www.citysearch.com/profile/808387530/marietta_ga/ken_mar_cafe_grill.html", "address": {"city": "Marietta", "state": "GA", "street": "833 Campbell Hill St NW # 105", "postal_code": "30060"}, "capProviderId": null, "distance": null, "has_offers": false, "name": "Ken Mar Cafe & Grill", "longitude": -84.552313, "has_menu": false, "awards": null, "user_review_count": 0}, {"business_operation_status": 1, "rating": null, "neighborhood": null, "image": null, "scorecard": null, "featured": false, "sample_categories": "Restaurants", "public_id": "el-fuereno-acworth", "id": 805170480, "votes": null, "tagline": null, "has_video": false, "website": null, "offers": null, "latitude": 34.088334, "politanName": "Atlanta, GA Metro ", "phone_number": "7705162270", "tags": [{"primary": true, "id": 1722, "name": "Restaurants"}], "fax_number": null, "expansion": {"count": null, "uri": null}, "impression_id": "000b0000001201c7a6a94948b486bdef17e3556441", "profile": "http://www.citysearch.com/profile/805170480/acworth_ga/el_fuereno.html", "address": {"city": "Acworth", "state": "GA", "street": "6548 Highway 92 # 150", "postal_code": "30102"}, "capProviderId": null, "distance": null, "has_offers": false, "name": "El Fuereno", "longitude": -84.579739, "has_menu": false, "awards": null, "user_review_count": 0}, {"business_operation_status": 0, "rating": 4.0, "neighborhood": null, "image": null, "scorecard": null, "featured": false, "sample_categories": "Restaurants, Carry Out", "public_id": "zaxbys-woodstock-2", "id": 37306042, "votes": null, "tagline": null, "has_video": false, "website": "http://www.citysearch.com/profile/external/37306042/woodstock_ga/zaxby_s.html", "offers": null, "latitude": 34.087178, "politanName": "Atlanta, GA Metro ", "phone_number": "6784949231", "tags": [{"primary": false, "id": 11247, "name": "Carry Out"}, {"primary": true, "id": 1722, "name": "Restaurants"}], "fax_number": null, "expansion": {"count": null, "uri": null}, "impression_id": "000b0000004c7e5ff14f974c21a0bf30bc5ec376ed", "profile": "http://www.citysearch.com/profile/37306042/woodstock_ga/zaxby_s.html", "address": {"city": "Woodstock", "state": "GA", "street": "12900 Highway 92", "postal_code": "30188"}, "capProviderId": null, "distance": null, "has_offers": false, "name": "Zaxby's", "longitude": -84.473662, "has_menu": true, "awards": null, "user_review_count": 0}, {"business_operation_status": 1, "rating": null, "neighborhood": null, "image": null, "scorecard": null, "featured": false, "sample_categories": "Restaurants, Fast Food, Carry Out, Hamburgers, American Express", "public_id": "mc-donalds-acworth", "id": 45560369, "votes": null, "tagline": null, "has_video": false, "website": "http://www.citysearch.com/profile/external/45560369/acworth_ga/mc_donald_s.html", "offers": null, "latitude": 34.000342, "politanName": "Atlanta, GA Metro ", "phone_number": "7702189065", "tags": [{"primary": false, "id": 11199, "name": "Fast Food"}, {"primary": false, "id": 11247, "name": "Carry Out"}, {"primary": false, "id": 11270, "name": "Hamburgers"}, {"primary": false, "id": 11333, "name": "American Express"}, {"primary": false, "id": 11361, "name": "MasterCard"}, {"primary": false, "id": 11382, "name": "Visa"}, {"primary": true, "id": 1722, "name": "Restaurants"}], "fax_number": null, "expansion": {"count": null, "uri": null}, "impression_id": "000b000000377aab30252f40b384bb1e2496428db2", "profile": "http://www.citysearch.com/profile/45560369/acworth_ga/mc_donald_s.html", "address": {"city": "Acworth", "state": "GA", "street": "1855 Mars Hill Rd NW", "postal_code": "30101"}, "capProviderId": null, "distance": null, "has_offers": false, "name": "Mc Donald's", "longitude": -84.708385, "has_menu": true, "awards": null, "user_review_count": 0}, {"business_operation_status": 1, "rating": null, "neighborhood": null, "image": null, "scorecard": null, "featured": false, "sample_categories": "Coffeehouses, Coffee & Tea Shops", "public_id": "daily-grind-marietta-3", "id": 601298033, "votes": null, "tagline": null, "has_video": false, "website": "http://www.citysearch.com/profile/external/601298033/marietta_ga/daily_grind.html", "offers": null, "latitude": 33.967672, "politanName": "Atlanta, GA Metro ", "phone_number": "7704229480", "tags": [{"primary": false, "id": 1711, "name": "Coffee & Tea Shops"}, {"primary": true, "id": 1726, "name": "Coffeehouses"}], "fax_number": null, "expansion": {"count": null, "uri": null}, "impression_id": "000b000000fbd72adfc80f4f8a82d52d7583c80e06", "profile": "http://www.citysearch.com/profile/601298033/marietta_ga/daily_grind.html", "address": {"city": "Marietta", "state": "GA", "street": "3960 Mary Eliza Trce Nw", "postal_code": "30064"}, "capProviderId": null, "distance": null, "has_offers": false, "name": "Daily Grind", "longitude": -84.667328, "has_menu": true, "awards": null, "user_review_count": 1}, {"business_operation_status": 1, "rating": null, "neighborhood": null, "image": null, "scorecard": null, "featured": false, "sample_categories": "Restaurants, Delis And Delicatessens", "public_id": "great-wraps-marietta", "id": 621905160, "votes": null, "tagline": null, "has_video": false, "website": "http://www.citysearch.com/profile/external/621905160/marietta_ga/great_wraps.html", "offers": null, "latitude": 34.013539, "politanName": "Atlanta, GA Metro ", "phone_number": "6783540001", "tags": [{"primary": false, "id": 1727, "name": "Delis And Delicatessens"}, {"primary": true, "id": 1722, "name": "Restaurants"}], "fax_number": null, "expansion": {"count": null, "uri": null}, "impression_id": "000b0000000ba7119de4274e6a86d0dad26cf4097f", "profile": "http://www.citysearch.com/profile/621905160/marietta_ga/great_wraps.html", "address": {"city": "Marietta", "state": "GA", "street": "125 Barrett Pkwy", "postal_code": "30066"}, "capProviderId": null, "distance": null, "has_offers": false, "name": "Great Wraps", "longitude": -84.552923, "has_menu": true, "awards": null, "user_review_count": 1}, {"business_operation_status": 1, "rating": null, "neighborhood": null, "image": null, "scorecard": null, "featured": false, "sample_categories": "Restaurants, Carry Out, Hamburgers", "public_id": "mc-donalds-canton-18", "id": 622245630, "votes": null, "tagline": null, "has_video": false, "website": "http://www.citysearch.com/profile/external/622245630/canton_ga/mc_donald_s.html", "offers": null, "latitude": 34.173495, "politanName": "Atlanta, GA Metro ", "phone_number": "7707044885", "tags": [{"primary": false, "id": 11247, "name": "Carry Out"}, {"primary": false, "id": 11270, "name": "Hamburgers"}, {"primary": true, "id": 1722, "name": "Restaurants"}], "fax_number": null, "expansion": {"count": null, "uri": null}, "impression_id": "000b00000072a37b25aa7346f7b60d6752561c7873", "profile": "http://www.citysearch.com/profile/622245630/canton_ga/mc_donald_s.html", "address": {"city": "Canton", "state": "GA", "street": "3335 Sixes Rd", "postal_code": "30114"}, "capProviderId": null, "distance": null, "has_offers": false, "name": "Mc Donald's", "longitude": -84.54906, "has_menu": true, "awards": null, "user_review_count": 0}, {"business_operation_status": 1, "rating": null, "neighborhood": null, "image": null, "scorecard": null, "featured": false, "sample_categories": "Restaurants, Seafood", "public_id": "seafood-restaurant-marietta", "id": 627596910, "votes": null, "tagline": null, "has_video": false, "website": null, "offers": null, "latitude": 34.046421, "politanName": "Atlanta, GA Metro ", "phone_number": "6784028205", "tags": [{"primary": false, "id": 11228, "name": "Seafood"}, {"primary": true, "id": 1722, "name": "Restaurants"}], "fax_number": null, "expansion": {"count": null, "uri": null}, "impression_id": "000b000000966982cd234a4fc09b1fe027b5305404", "profile": "http://www.citysearch.com/profile/627596910/marietta_ga/seafood_restaurant.html", "address": {"city": "Marietta", "state": "GA", "street": "3920 Canton Rd", "postal_code": "30066"}, "capProviderId": null, "distance": null, "has_offers": false, "name": "Seafood Restaurant", "longitude": -84.52845, "has_menu": false, "awards": null, "user_review_count": 0}, {"business_operation_status": 1, "rating": null, "neighborhood": null, "image": null, "scorecard": null, "featured": false, "sample_categories": "Restaurants, Barbecue Restaurants", "public_id": "wings-burger-haven-marietta", "id": 653579150, "votes": null, "tagline": null, "has_video": false, "website": null, "offers": null, "latitude": 33.988155, "politanName": "Atlanta, GA Metro ", "phone_number": "6784679223", "tags": [{"primary": false, "id": 1724, "name": "Barbecue Restaurants"}, {"primary": true, "id": 1722, "name": "Restaurants"}], "fax_number": null, "expansion": {"count": null, "uri": null}, "impression_id": "000b0000002f422096f2624a6f8c88a6e5064dd185", "profile": "http://www.citysearch.com/profile/653579150/marietta_ga/wings_burger_haven.html", "address": {"city": "Marietta", "state": "GA", "street": "1410 Glenover Cir", "postal_code": "30062"}, "capProviderId": null, "distance": null, "has_offers": false, "name": "Wings & Burger Haven", "longitude": -84.511569, "has_menu": false, "awards": null, "user_review_count": 0}, {"business_operation_status": 1, "rating": null, "neighborhood": null, "image": null, "scorecard": null, "featured": false, "sample_categories": "Restaurants", "public_id": "big-u-n-s-biscuits-dallas", "id": 790659730, "votes": null, "tagline": null, "has_video": false, "website": null, "offers": null, "latitude": 34.065889, "politanName": "Atlanta, GA Metro ", "phone_number": "6783634880", "tags": [{"primary": true, "id": 1722, "name": "Restaurants"}], "fax_number": null, "expansion": {"count": null, "uri": null}, "impression_id": "000b000000c1c3470bf9b64f9b8b45616910c5a72a", "profile": "http://www.citysearch.com/profile/790659730/dallas_ga/big_u_n_s_biscuits.html", "address": {"city": "Dallas", "state": "GA", "street": "11090 Cartersville Hwy", "postal_code": "30132"}, "capProviderId": null, "distance": null, "has_offers": false, "name": "Big U N S Biscuits", "longitude": -84.825325, "has_menu": false, "awards": null, "user_review_count": 0}, {"business_operation_status": 1, "rating": null, "neighborhood": null, "image": null, "scorecard": null, "featured": false, "sample_categories": "Restaurants, Greek", "public_id": "milos-restaurant-greek-tavern-marietta", "id": 793388790, "votes": null, "tagline": null, "has_video": false, "website": null, "offers": null, "latitude": 33.953276, "politanName": "Atlanta, GA Metro ", "phone_number": "6789033148", "tags": [{"primary": false, "id": 11268, "name": "Greek"}, {"primary": true, "id": 1722, "name": "Restaurants"}], "fax_number": null, "expansion": {"count": null, "uri": null}, "impression_id": "000b0000007725fa5865764b109704c6617e648882", "profile": "http://www.citysearch.com/profile/793388790/marietta_ga/milos_restaurant_greek_tavern.html", "address": {"city": "Marietta", "state": "GA", "street": "26 Mill St Ne", "postal_code": "30060"}, "capProviderId": null, "distance": null, "has_offers": false, "name": "Milos Restaurant Greek Tavern", "longitude": -84.551885, "has_menu": false, "awards": null, "user_review_count": 0}, {"business_operation_status": 1, "rating": null, "neighborhood": null, "image": null, "scorecard": null, "featured": false, "sample_categories": "Restaurants", "public_id": "its-greek-to-us-marietta", "id": 804307170, "votes": null, "tagline": null, "has_video": false, "website": null, "offers": null, "latitude": 33.974019, "politanName": "Atlanta, GA Metro ", "phone_number": "7705753077", "tags": [{"primary": true, "id": 1722, "name": "Restaurants"}], "fax_number": null, "expansion": {"count": null, "uri": null}, "impression_id": "000b000000f52f1c5b7ff14f8e81a7eb2aef6e3006", "profile": "http://www.citysearch.com/profile/804307170/marietta_ga/it_s_greek_to_us.html", "address": {"city": "Marietta", "state": "GA", "street": "1355 Church Street Ext Ne", "postal_code": "30060"}, "capProviderId": null, "distance": null, "has_offers": false, "name": "It's Greek To US", "longitude": -84.552835, "has_menu": true, "awards": null, "user_review_count": 0}, {"business_operation_status": 0, "rating": 8.0, "neighborhood": null, "image": null, "scorecard": null, "featured": false, "sample_categories": "Restaurants, Mexican", "public_id": "la-hacienda-marietta", "id": 43844935, "votes": null, "tagline": null, "has_video": false, "website": null, "offers": null, "latitude": 34.029387, "politanName": "Atlanta, GA Metro ", "phone_number": "7704241554", "tags": [{"primary": false, "id": 1722, "name": "Restaurants"}, {"primary": true, "id": 11208, "name": "Mexican"}], "fax_number": null, "expansion": {"count": null, "uri": null}, "impression_id": "000b000000a1b60945df9c40afb8359ffaa3ecf18d", "profile": "http://www.citysearch.com/profile/43844935/marietta_ga/la_hacienda.html", "address": {"city": "Marietta", "state": "GA", "street": "3185 Canton Rd", "postal_code": "30066"}, "capProviderId": null, "distance": null, "has_offers": false, "name": "La Hacienda", "longitude": -84.528034, "has_menu": true, "awards": null, "user_review_count": 0}, {"business_operation_status": 1, "rating": null, "neighborhood": null, "image": null, "scorecard": null, "featured": false, "sample_categories": "Restaurants, Delis And Delicatessens, Sandwich Shops, Carry Out, Soups", "public_id": "subway-dallas-37", "id": 43864475, "votes": null, "tagline": null, "has_video": false, "website": "http://www.citysearch.com/profile/external/43864475/dallas_ga/subway.html", "offers": null, "latitude": 33.957866, "politanName": "Atlanta, GA Metro ", "phone_number": "7704457566", "tags": [{"primary": false, "id": 1727, "name": "Delis And Delicatessens"}, {"primary": false, "id": 1736, "name": "Sandwich Shops"}, {"primary": false, "id": 11247, "name": "Carry Out"}, {"primary": false, "id": 11311, "name": "Soups"}, {"primary": false, "id": 11333, "name": "American Express"}, {"primary": false, "id": 11349, "name": "Discover"}, {"primary": false, "id": 11361, "name": "MasterCard"}, {"primary": false, "id": 11382, "name": "Visa"}, {"primary": true, "id": 1722, "name": "Restaurants"}], "fax_number": null, "expansion": {"count": null, "uri": null}, "impression_id": "000b000000c147818ff43945159d913d7fe87993d0", "profile": "http://www.citysearch.com/profile/43864475/dallas_ga/subway.html", "address": {"city": "Dallas", "state": "GA", "street": "55 E Paulding Dr Ste 116", "postal_code": "30157"}, "capProviderId": null, "distance": null, "has_offers": false, "name": "Subway", "longitude": -84.787071, "has_menu": true, "awards": null, "user_review_count": 0}, {"business_operation_status": 1, "rating": null, "neighborhood": null, "image": null, "scorecard": null, "featured": false, "sample_categories": "Restaurants", "public_id": "pacha-mama-acworth", "id": 828909620, "votes": null, "tagline": null, "has_video": false, "website": null, "offers": null, "latitude": 34.088213, "politanName": "Atlanta, GA Metro ", "phone_number": "7709287977", "tags": [{"primary": true, "id": 1722, "name": "Restaurants"}], "fax_number": null, "expansion": {"count": null, "uri": null}, "impression_id": "000b000000d09015e8ddb347cf825261c75379388a", "profile": "http://www.citysearch.com/profile/828909620/acworth_ga/pacha_mama.html", "address": {"city": "Acworth", "state": "GA", "street": "6598 Highway 92", "postal_code": "30102"}, "capProviderId": null, "distance": null, "has_offers": false, "name": "Pacha Mama", "longitude": -84.57896, "has_menu": false, "awards": null, "user_review_count": 0}, {"business_operation_status": 1, "rating": null, "neighborhood": null, "image": null, "scorecard": null, "featured": false, "sample_categories": "Restaurants", "public_id": "volcano-steak-sushi-acworth", "id": 625813834, "votes": null, "tagline": null, "has_video": false, "website": null, "offers": null, "latitude": 33.99646, "politanName": "Atlanta, GA Metro ", "phone_number": "7704209888", "tags": [{"primary": true, "id": 1722, "name": "Restaurants"}], "fax_number": null, "expansion": {"count": null, "uri": null}, "impression_id": "000b00000056d837658d884e12ba7cfd98c5f8f3e0", "profile": "http://www.citysearch.com/profile/625813834/acworth_ga/volcano_steak_sushi.html", "address": {"city": "Acworth", "state": "GA", "street": "1720 Mars Hill Rd NW", "postal_code": "30101"}, "capProviderId": null, "distance": null, "has_offers": false, "name": "Volcano Steak & Sushi", "longitude": -84.70439, "has_menu": false, "awards": null, "user_review_count": 0}, {"business_operation_status": 1, "rating": 8.0, "neighborhood": null, "image": null, "scorecard": null, "featured": false, "sample_categories": "Translators & Interpreters, Bakeries, Restaurants", "public_id": "progreso-latino-marietta", "id": 44772942, "votes": null, "tagline": null, "has_video": false, "website": null, "offers": null, "latitude": 33.936757, "politanName": "Atlanta, GA Metro ", "phone_number": "7707941110", "tags": [{"primary": false, "id": 3744, "name": "Translators & Interpreters"}, {"primary": false, "id": 1685, "name": "Bakeries"}, {"primary": false, "id": 1722, "name": "Restaurants"}], "fax_number": null, "expansion": {"count": null, "uri": null}, "impression_id": "000b00000066947c4420eb416692b60a082137c435", "profile": "http://www.citysearch.com/profile/44772942/marietta_ga/progreso_latino.html", "address": {"city": "Marietta", "state": "GA", "street": "680 Powder Springs St", "postal_code": "30064"}, "capProviderId": null, "distance": null, "has_offers": false, "name": "Progreso Latino", "longitude": -84.557357, "has_menu": false, "awards": null, "user_review_count": 0}, {"business_operation_status": 1, "rating": null, "neighborhood": null, "image": null, "scorecard": null, "featured": false, "sample_categories": "Restaurants, Cafes", "public_id": "giga-bites-cafe-marietta", "id": 631962750, "votes": null, "tagline": null, "has_video": false, "website": null, "offers": null, "latitude": 33.991608, "politanName": "Atlanta, GA Metro ", "phone_number": "4045186735", "tags": [{"primary": false, "id": 6190, "name": "Cafes"}, {"primary": true, "id": 1722, "name": "Restaurants"}], "fax_number": null, "expansion": {"count": null, "uri": null}, "impression_id": "000b0000007bb2fc3703f74c1fa45bcb98c70fc4b9", "profile": "http://www.citysearch.com/profile/631962750/marietta_ga/giga_bites_cafe.html", "address": {"city": "Marietta", "state": "GA", "street": "2791 Craig Ct", "postal_code": "30062"}, "capProviderId": null, "distance": null, "has_offers": false, "name": "Giga Bites Cafe", "longitude": -84.47001, "has_menu": false, "awards": null, "user_review_count": 0}, {"business_operation_status": 1, "rating": null, "neighborhood": null, "image": null, "scorecard": null, "featured": false, "sample_categories": "Restaurants", "public_id": "a-la-carte-market-cafe-marietta", "id": 672919100, "votes": null, "tagline": null, "has_video": false, "website": null, "offers": null, "latitude": 33.967672, "politanName": "Atlanta, GA Metro ", "phone_number": null, "tags": [{"primary": true, "id": 1722, "name": "Restaurants"}], "fax_number": null, "expansion": {"count": null, "uri": null}, "impression_id": "000b0000006fd2d0805c834dd1af72d6a637cbe072", "profile": "http://www.citysearch.com/profile/672919100/marietta_ga/a_la_carte_market_cafe.html", "address": {"city": "Marietta", "state": "GA", "street": "3960 Mary Eliza Trace", "postal_code": "30064"}, "capProviderId": null, "distance": null, "has_offers": false, "name": "A La Carte Market & Cafe", "longitude": -84.667328, "has_menu": false, "awards": null, "user_review_count": 0}, {"business_operation_status": 1, "rating": null, "neighborhood": null, "image": null, "scorecard": null, "featured": false, "sample_categories": "Restaurants", "public_id": "party-q-marietta", "id": 618276704, "votes": null, "tagline": null, "has_video": false, "website": null, "offers": null, "latitude": 34.020818, "politanName": "Atlanta, GA Metro ", "phone_number": "6786977808", "tags": [{"primary": true, "id": 1722, "name": "Restaurants"}], "fax_number": null, "expansion": {"count": null, "uri": null}, "impression_id": "000b000000dd873b8a985449e1884b41d2d9276c94", "profile": "http://www.citysearch.com/profile/618276704/marietta_ga/party_q.html", "address": {"city": "Marietta", "state": "GA", "street": "2821 Chastain Meadows Pkwy", "postal_code": "30066"}, "capProviderId": null, "distance": null, "has_offers": false, "name": "Party Q", "longitude": -84.55554, "has_menu": false, "awards": null, "user_review_count": 0}, {"business_operation_status": 1, "rating": null, "neighborhood": null, "image": null, "scorecard": null, "featured": false, "sample_categories": "Restaurants", "public_id": "el-fuereno-mexican-restaurant-acworth", "id": 808617860, "votes": null, "tagline": null, "has_video": false, "website": null, "offers": null, "latitude": 34.088334, "politanName": "Atlanta, GA Metro ", "phone_number": "7705162271", "tags": [{"primary": true, "id": 1722, "name": "Restaurants"}], "fax_number": null, "expansion": {"count": null, "uri": null}, "impression_id": "000b0000009ee1a8aee4b14b198f804e165198c88b", "profile": "http://www.citysearch.com/profile/808617860/acworth_ga/el_fuereno_mexican_restaurant.html", "address": {"city": "Acworth", "state": "GA", "street": "6548 Highway 92 # 150", "postal_code": "30102"}, "capProviderId": null, "distance": null, "has_offers": false, "name": "El Fuereno Mexican Restaurant", "longitude": -84.579739, "has_menu": false, "awards": null, "user_review_count": 0}, {"business_operation_status": 1, "rating": null, "neighborhood": null, "image": null, "scorecard": null, "featured": false, "sample_categories": "Restaurants, Pizza", "public_id": "hole-pizza-acworth", "id": 37648116, "votes": null, "tagline": null, "has_video": false, "website": null, "offers": null, "latitude": 34.096498, "politanName": "Atlanta, GA Metro ", "phone_number": "7703838743", "tags": [{"primary": false, "id": 11299, "name": "Pizza"}, {"primary": true, "id": 1722, "name": "Restaurants"}], "fax_number": null, "expansion": {"count": null, "uri": null}, "impression_id": "000b0000001ab3649b975e4b31a6d177cf2aba89c1", "profile": "http://www.citysearch.com/profile/37648116/acworth_ga/hole_pizza.html", "address": {"city": "Acworth", "state": "GA", "street": "5900 Bells Ferry Rd", "postal_code": "30102"}, "capProviderId": null, "distance": null, "has_offers": false, "name": "Hole Pizza", "longitude": -84.581946, "has_menu": false, "awards": null, "user_review_count": 0}, {"business_operation_status": 1, "rating": null, "neighborhood": null, "image": null, "scorecard": null, "featured": false, "sample_categories": "Restaurants, Carry Out", "public_id": "kfc-acworth-4", "id": 728083890, "votes": null, "tagline": null, "has_video": false, "website": "http://www.citysearch.com/profile/external/728083890/acworth_ga/kfc.html", "offers": null, "latitude": 34.083385, "politanName": "Atlanta, GA Metro ", "phone_number": "7709745420", "tags": [{"primary": false, "id": 11247, "name": "Carry Out"}, {"primary": true, "id": 1722, "name": "Restaurants"}], "fax_number": null, "expansion": {"count": null, "uri": null}, "impression_id": "000b0000004f26a3fbee7b42e7b98c6ee505e6f9c8", "profile": "http://www.citysearch.com/profile/728083890/acworth_ga/kfc.html", "address": {"city": "Acworth", "state": "GA", "street": "5040 Glade Rd NW", "postal_code": "30101"}, "capProviderId": null, "distance": null, "has_offers": false, "name": "KFC", "longitude": -84.676474, "has_menu": false, "awards": null, "user_review_count": 0}, {"business_operation_status": 1, "rating": null, "neighborhood": null, "image": null, "scorecard": null, "featured": false, "sample_categories": "Restaurants", "public_id": "blue-pig-restaurant-woodstock", "id": 813898230, "votes": null, "tagline": null, "has_video": false, "website": null, "offers": null, "latitude": 34.080769, "politanName": "Atlanta, GA Metro ", "phone_number": "7705172583", "tags": [{"primary": true, "id": 1722, "name": "Restaurants"}], "fax_number": null, "expansion": {"count": null, "uri": null}, "impression_id": "000b000000e708f11df4c64ac38075604b03223ae0", "profile": "http://www.citysearch.com/profile/813898230/woodstock_ga/blue_pig_restaurant.html", "address": {"city": "Woodstock", "state": "GA", "street": "9970 Main St", "postal_code": "30188"}, "capProviderId": null, "distance": null, "has_offers": false, "name": "Blue Pig Restaurant", "longitude": -84.520285, "has_menu": false, "awards": null, "user_review_count": 0}, {"business_operation_status": 1, "rating": null, "neighborhood": null, "image": null, "scorecard": null, "featured": false, "sample_categories": "Restaurants", "public_id": "stoney-river-legendary-steaks-marietta", "id": 732164930, "votes": null, "tagline": null, "has_video": false, "website": null, "offers": null, "latitude": 34.009709, "politanName": "Atlanta, GA Metro ", "phone_number": "7706671201", "tags": [{"primary": true, "id": 1722, "name": "Restaurants"}], "fax_number": null, "expansion": {"count": null, "uri": null}, "impression_id": "000b000000d6714bca592e4a33823275ff24a65bae", "profile": "http://www.citysearch.com/profile/732164930/marietta_ga/stoney_river_legendary_steaks.html", "address": {"city": "Marietta", "state": "GA", "street": "2440 Sandy Plains Rd # 1-150", "postal_code": "30066"}, "capProviderId": null, "distance": null, "has_offers": false, "name": "Stoney River Legendary Steaks", "longitude": -84.496627, "has_menu": false, "awards": null, "user_review_count": 0}, {"business_operation_status": 1, "rating": null, "neighborhood": null, "image": null, "scorecard": null, "featured": false, "sample_categories": "Coffeehouses, Restaurants", "public_id": "higher-grounds-coffee-cafe-incorporated-dallas", "id": 37649206, "votes": null, "tagline": null, "has_video": false, "website": null, "offers": null, "latitude": 33.935326, "politanName": "Atlanta, GA Metro ", "phone_number": "7705055051", "tags": [{"primary": false, "id": 1722, "name": "Restaurants"}, {"primary": true, "id": 1726, "name": "Coffeehouses"}], "fax_number": null, "expansion": {"count": null, "uri": null}, "impression_id": "000b0000009fb445c54d3c48ba99e6707ff3f3ed44", "profile": "http://www.citysearch.com/profile/37649206/dallas_ga/higher_grounds_coffee_cafe_incorporated.html", "address": {"city": "Dallas", "state": "GA", "street": "4075 Charles Hardy Pkwy", "postal_code": "30157"}, "capProviderId": null, "distance": null, "has_offers": false, "name": "Higher Grounds Coffee Cafe Incorporated", "longitude": -84.725993, "has_menu": false, "awards": null, "user_review_count": 0}, {"business_operation_status": 1, "rating": null, "neighborhood": null, "image": null, "scorecard": null, "featured": false, "sample_categories": "Restaurants", "public_id": "slate-grill-marietta-2", "id": 820825960, "votes": null, "tagline": null, "has_video": false, "website": null, "offers": null, "latitude": 33.953111, "politanName": "Atlanta, GA Metro ", "phone_number": "7704269777", "tags": [{"primary": true, "id": 1722, "name": "Restaurants"}], "fax_number": null, "expansion": {"count": null, "uri": null}, "impression_id": "000b000000599f8af219dd49869297c850dc5881c7", "profile": "http://www.citysearch.com/profile/820825960/marietta_ga/slate_grill.html", "address": {"city": "Marietta", "state": "GA", "street": "1000 Whitlock Ave NW # 410", "postal_code": "30064"}, "capProviderId": null, "distance": null, "has_offers": false, "name": "Slate Grill", "longitude": -84.581272, "has_menu": true, "awards": null, "user_review_count": 0}, {"business_operation_status": 1, "rating": null, "neighborhood": null, "image": null, "scorecard": null, "featured": false, "sample_categories": "Restaurants, Carry Out", "public_id": "wendys-woodstock-8", "id": 825950410, "votes": null, "tagline": null, "has_video": false, "website": "http://www.citysearch.com/profile/external/825950410/woodstock_ga/wendys.html", "offers": null, "latitude": 34.085185, "politanName": "Atlanta, GA Metro ", "phone_number": "7709286336", "tags": [{"primary": false, "id": 11247, "name": "Carry Out"}, {"primary": true, "id": 1722, "name": "Restaurants"}], "fax_number": null, "expansion": {"count": null, "uri": null}, "impression_id": "000b00000055b253ca062f40fd8494b2d6b1b9ba21", "profile": "http://www.citysearch.com/profile/825950410/woodstock_ga/wendys.html", "address": {"city": "Woodstock", "state": "GA", "street": "6751 Highway 92", "postal_code": "30189"}, "capProviderId": null, "distance": null, "has_offers": false, "name": "Wendys", "longitude": -84.554494, "has_menu": true, "awards": null, "user_review_count": 0}, {"business_operation_status": 1, "rating": null, "neighborhood": null, "image": null, "scorecard": null, "featured": false, "sample_categories": "Restaurants", "public_id": "santinos-acworth", "id": 828239830, "votes": null, "tagline": null, "has_video": false, "website": null, "offers": null, "latitude": 34.096498, "politanName": "Atlanta, GA Metro ", "phone_number": "7709268000", "tags": [{"primary": true, "id": 1722, "name": "Restaurants"}], "fax_number": null, "expansion": {"count": null, "uri": null}, "impression_id": "000b00000017149f77035b47bda71a8e6ab7b5e37e", "profile": "http://www.citysearch.com/profile/828239830/acworth_ga/santino_s.html", "address": {"city": "Acworth", "state": "GA", "street": "5900 Bells Ferry Rd", "postal_code": "30102"}, "capProviderId": null, "distance": null, "has_offers": false, "name": "Santino's", "longitude": -84.581946, "has_menu": false, "awards": null, "user_review_count": 0}, {"business_operation_status": 1, "rating": null, "neighborhood": null, "image": null, "scorecard": null, "featured": false, "sample_categories": "Restaurants", "public_id": "grand-champion-bbq-marietta", "id": 836972670, "votes": null, "tagline": null, "has_video": false, "website": null, "offers": null, "latitude": 33.952602, "politanName": "Atlanta, GA Metro ", "phone_number": "7709934227", "tags": [{"primary": true, "id": 1722, "name": "Restaurants"}], "fax_number": null, "expansion": {"count": null, "uri": null}, "impression_id": "000b00000075bce9fed0f1492d9b408e1888db5113", "profile": "http://www.citysearch.com/profile/836972670/marietta_ga/grand_champion_bbq.html", "address": {"city": "Marietta", "state": "GA", "street": "[empty]", "postal_code": "30062"}, "capProviderId": null, "distance": null, "has_offers": false, "name": "Grand Champion BBQ", "longitude": -84.549933, "has_menu": false, "awards": null, "user_review_count": 0}, {"business_operation_status": 0, "rating": null, "neighborhood": null, "image": null, "scorecard": null, "featured": false, "sample_categories": "Restaurants, Pizza", "public_id": "godfathers-pizza-canton", "id": 40068310, "votes": null, "tagline": null, "has_video": false, "website": "http://www.citysearch.com/profile/external/40068310/canton_ga/godfather_s_pizza.html", "offers": null, "latitude": 34.17755, "politanName": "Atlanta, GA Metro ", "phone_number": "6784933636", "tags": [{"primary": false, "id": 1722, "name": "Restaurants"}, {"primary": true, "id": 11299, "name": "Pizza"}], "fax_number": null, "expansion": {"count": null, "uri": null}, "impression_id": "000b0000002e53c0bf5e4c4f35b01d524ce4162641", "profile": "http://www.citysearch.com/profile/40068310/canton_ga/godfather_s_pizza.html", "address": {"city": "Canton", "state": "GA", "street": "3775 Sixes Rd", "postal_code": "30114"}, "capProviderId": null, "distance": null, "has_offers": false, "name": "Godfather's Pizza", "longitude": -84.550972, "has_menu": true, "awards": null, "user_review_count": 0}, {"business_operation_status": 0, "rating": null, "neighborhood": null, "image": null, "scorecard": null, "featured": false, "sample_categories": "Restaurants", "public_id": "aspen-west-cobb-marietta", "id": 41283282, "votes": null, "tagline": null, "has_video": false, "website": "http://www.citysearch.com/profile/external/41283282/marietta_ga/aspens.html", "offers": null, "latitude": 33.952164, "politanName": "Atlanta, GA Metro ", "phone_number": "7704191744", "tags": [{"primary": true, "id": 1722, "name": "Restaurants"}], "fax_number": null, "expansion": {"count": null, "uri": null}, "impression_id": "000b0000007de7f0a097844f84af261f2c9cba790a", "profile": "http://www.citysearch.com/profile/41283282/marietta_ga/aspens.html", "address": {"city": "Marietta", "state": "GA", "street": "3625 Dallas Hwy SW Ste 715", "postal_code": "30064"}, "capProviderId": null, "distance": null, "has_offers": false, "name": "Aspens", "longitude": -84.657799, "has_menu": false, "awards": null, "user_review_count": 1}, {"business_operation_status": 0, "rating": null, "neighborhood": null, "image": null, "scorecard": null, "featured": false, "sample_categories": "Restaurants, French", "public_id": "seasons-de-provence-acworth", "id": 43863427, "votes": null, "tagline": null, "has_video": false, "website": null, "offers": null, "latitude": 34.065841, "politanName": "Atlanta, GA Metro ", "phone_number": "6785747188", "tags": [{"primary": false, "id": 11219, "name": "French"}, {"primary": true, "id": 1722, "name": "Restaurants"}], "fax_number": null, "expansion": {"count": null, "uri": null}, "impression_id": "000b000000951e53df857f45018db611592e954155", "profile": "http://www.citysearch.com/profile/43863427/acworth_ga/seasons_de_provence.html", "address": {"city": "Acworth", "state": "GA", "street": "4416 Senator Russell Ave", "postal_code": "30101"}, "capProviderId": null, "distance": null, "has_offers": false, "name": "Seasons De Provence", "longitude": -84.67833, "has_menu": true, "awards": null, "user_review_count": 0}, {"business_operation_status": 1, "rating": null, "neighborhood": null, "image": null, "scorecard": null, "featured": false, "sample_categories": "Restaurants, Pizza, Carry Out", "public_id": "dominos-pizza-acworth-3", "id": 806463440, "votes": null, "tagline": null, "has_video": false, "website": null, "offers": null, "latitude": 34.051802, "politanName": "Atlanta, GA Metro ", "phone_number": "4049753030", "tags": [{"primary": false, "id": 1722, "name": "Restaurants"}, {"primary": false, "id": 11247, "name": "Carry Out"}, {"primary": true, "id": 11299, "name": "Pizza"}], "fax_number": null, "expansion": {"count": null, "uri": null}, "impression_id": "000b000000a2f397d21a284c1dba88ebaeb25d6bcc", "profile": "http://www.citysearch.com/profile/806463440/acworth_ga/domino_s_pizza.html", "address": {"city": "Acworth", "state": "GA", "street": "3985 Baker Rd Ste 20", "postal_code": "30101"}, "capProviderId": null, "distance": null, "has_offers": false, "name": "Domino's Pizza", "longitude": -84.615362, "has_menu": false, "awards": null, "user_review_count": 0}], "histograms": [], "tag_ids": [1722], "uri": "http://api.citygridmedia.com:8080/search/places/v2/search/where?has_offers=false&type=restaurant&format=json&page=32&where=30144&rpp=50&histograms=false&publisher=10000009598&region_type=circle", "did_you_mean": "", "regions": [{"latitude": 34.037076, "default_radius": 4.72, "type": "postal_code", "name": "30144", "longitude": -84.591034}], "call_id": "000b0000006b9cb15ea1ea42c1a8bde92f1aedee01", "first_hit": 1551, "total_hits": 1696, "geo_ids": [26310], "page": 32, "last_hit": 1600}}