{"results": {"rpp": 50, "locations": [{"business_operation_status": 1, "rating": null, "neighborhood": null, "image": null, "scorecard": null, "featured": false, "sample_categories": "Restaurants", "public_id": "ronny-johns-sunset-grill-woodstock", "id": 607507004, "votes": null, "tagline": null, "has_video": false, "website": null, "offers": null, "latitude": 34.083799, "politanName": "Atlanta, GA Metro ", "phone_number": "7705754085", "tags": [{"primary": true, "id": 1722, "name": "Restaurants"}], "fax_number": null, "expansion": {"count": null, "uri": null}, "impression_id": "000b0000008cc80fadaf304303a6f20ee6bc17315a", "profile": "http://www.citysearch.com/profile/607507004/woodstock_ga/ronny_john_s_sunset_grill.html", "address": {"city": "Woodstock", "state": "GA", "street": "9770 Main St", "postal_code": "30188"}, "capProviderId": null, "distance": null, "has_offers": false, "name": "Ronny John's Sunset Grill", "longitude": -84.519754, "has_menu": false, "awards": null, "user_review_count": 0}, {"business_operation_status": 1, "rating": null, "neighborhood": null, "image": null, "scorecard": null, "featured": false, "sample_categories": "Restaurants", "public_id": "tacos-del-chavo-llc-kennesaw", "id": 611127424, "votes": null, "tagline": null, "has_video": false, "website": null, "offers": null, "latitude": 34.005966, "politanName": "Atlanta, GA Metro ", "phone_number": "6788868893", "tags": [{"primary": true, "id": 1722, "name": "Restaurants"}], "fax_number": null, "expansion": {"count": null, "uri": null}, "impression_id": "000b00000019e6dba8a6bc4fb2a709e1444b235f85", "profile": "http://www.citysearch.com/profile/611127424/kennesaw_ga/tacos_del_chavo_llc.html", "address": {"city": "Kennesaw", "state": "GA", "street": "2176 Cobb Pkwy NW", "postal_code": "30152"}, "capProviderId": null, "distance": null, "has_offers": false, "name": "Tacos Del Chavo LLC", "longitude": -84.603387, "has_menu": false, "awards": null, "user_review_count": 0}, {"business_operation_status": 1, "rating": null, "neighborhood": null, "image": null, "scorecard": null, "featured": false, "sample_categories": "Restaurants", "public_id": "thats-a-wrap-marietta", "id": 814226120, "votes": null, "tagline": null, "has_video": false, "website": null, "offers": null, "latitude": 34.017341, "politanName": "Atlanta, GA Metro ", "phone_number": "6787979992", "tags": [{"primary": true, "id": 1722, "name": "Restaurants"}], "fax_number": null, "expansion": {"count": null, "uri": null}, "impression_id": "000b00000013e38e5cf6764013b20fa3c82efa6524", "profile": "http://www.citysearch.com/profile/814226120/marietta_ga/that_s_a_wrap.html", "address": {"city": "Marietta", "state": "GA", "street": "2769 Chastain Meadows Pkwy", "postal_code": "30066"}, "capProviderId": null, "distance": null, "has_offers": false, "name": "That's A Wrap", "longitude": -84.555709, "has_menu": false, "awards": null, "user_review_count": 0}, {"business_operation_status": 1, "rating": null, "neighborhood": null, "image": null, "scorecard": null, "featured": false, "sample_categories": "Restaurants, Carry Out", "public_id": "captain-ds-seafood-kennesaw", "id": 823995220, "votes": null, "tagline": null, "has_video": false, "website": "http://www.citysearch.com/profile/external/823995220/kennesaw_ga/captain_d_s_seafood.html", "offers": null, "latitude": 34.001936, "politanName": "Atlanta, GA Metro ", "phone_number": "7704223068", "tags": [{"primary": false, "id": 11247, "name": "Carry Out"}, {"primary": true, "id": 1722, "name": "Restaurants"}], "fax_number": null, "expansion": {"count": null, "uri": null}, "impression_id": "000b000000017ab33918104555b0939000010eb751", "profile": "http://www.citysearch.com/profile/823995220/kennesaw_ga/captain_d_s_seafood.html", "address": {"city": "Kennesaw", "state": "GA", "street": "2013 Cobb Pkwy NW", "postal_code": "30152"}, "capProviderId": null, "distance": null, "has_offers": false, "name": "Captain D's Seafood", "longitude": -84.598402, "has_menu": true, "awards": null, "user_review_count": 0}, {"business_operation_status": 1, "rating": null, "neighborhood": null, "image": null, "scorecard": null, "featured": false, "sample_categories": "Restaurants", "public_id": "shin-lai-inc-woodstock", "id": 614550594, "votes": null, "tagline": null, "has_video": false, "website": null, "offers": null, "latitude": 34.11177, "politanName": "Atlanta, GA Metro ", "phone_number": "7705918858", "tags": [{"primary": true, "id": 1722, "name": "Restaurants"}], "fax_number": null, "expansion": {"count": null, "uri": null}, "impression_id": "000b0000002acf33c13c984b09a4684903364e7ddd", "profile": "http://www.citysearch.com/profile/614550594/woodstock_ga/shin_lai_inc.html", "address": {"city": "Woodstock", "state": "GA", "street": "200 Parkbrooke Dr # Ste 160", "postal_code": "30189"}, "capProviderId": null, "distance": null, "has_offers": false, "name": "Shin Lai Inc", "longitude": -84.558567, "has_menu": false, "awards": null, "user_review_count": 0}, {"business_operation_status": 1, "rating": null, "neighborhood": null, "image": null, "scorecard": null, "featured": false, "sample_categories": "Restaurants", "public_id": "asian-express-marietta", "id": 617926934, "votes": null, "tagline": null, "has_video": false, "website": null, "offers": null, "latitude": 34.020818, "politanName": "Atlanta, GA Metro ", "phone_number": "7704201819", "tags": [{"primary": true, "id": 1722, "name": "Restaurants"}], "fax_number": null, "expansion": {"count": null, "uri": null}, "impression_id": "000b0000008a4d30d5507642a7858106608d3fce75", "profile": "http://www.citysearch.com/profile/617926934/marietta_ga/asian_express.html", "address": {"city": "Marietta", "state": "GA", "street": "2821 Chastain Meadows Pkwy", "postal_code": "30066"}, "capProviderId": null, "distance": null, "has_offers": false, "name": "Asian Express", "longitude": -84.55554, "has_menu": false, "awards": null, "user_review_count": 0}, {"business_operation_status": 1, "rating": null, "neighborhood": null, "image": null, "scorecard": null, "featured": false, "sample_categories": "Restaurants, Bars & Pubs", "public_id": "mannys-bar-grill-marietta", "id": 621939080, "votes": null, "tagline": null, "has_video": false, "website": null, "offers": null, "latitude": 34.015118, "politanName": "Atlanta, GA Metro ", "phone_number": "7706932190", "tags": [{"primary": false, "id": 1686, "name": "Bars & Pubs"}, {"primary": true, "id": 1722, "name": "Restaurants"}], "fax_number": null, "expansion": {"count": null, "uri": null}, "impression_id": "000b000000c4c83a7c17674affa6df16752f5f93b9", "profile": "http://www.citysearch.com/profile/621939080/marietta_ga/manny_s_bar_grill.html", "address": {"city": "Marietta", "state": "GA", "street": "2635 Sandy Plains Rd", "postal_code": "30066"}, "capProviderId": null, "distance": null, "has_offers": false, "name": "Manny's Bar & Grill", "longitude": -84.495187, "has_menu": false, "awards": null, "user_review_count": 0}, {"business_operation_status": 1, "rating": null, "neighborhood": null, "image": null, "scorecard": null, "featured": false, "sample_categories": "Restaurants", "public_id": "stockyard-burgers-marietta", "id": 621272344, "votes": null, "tagline": null, "has_video": false, "website": null, "offers": null, "latitude": 33.953436, "politanName": "Atlanta, GA Metro ", "phone_number": "6785032760", "tags": [{"primary": true, "id": 1722, "name": "Restaurants"}], "fax_number": null, "expansion": {"count": null, "uri": null}, "impression_id": "000b00000013c5bd2ba16d41fca133740a34b77461", "profile": "http://www.citysearch.com/profile/621272344/marietta_ga/stockyard_burgers.html", "address": {"city": "Marietta", "state": "GA", "street": "26 Mill St NE", "postal_code": "30060"}, "capProviderId": null, "distance": null, "has_offers": false, "name": "Stockyard Burgers", "longitude": -84.550777, "has_menu": false, "awards": null, "user_review_count": 0}, {"business_operation_status": 1, "rating": null, "neighborhood": null, "image": null, "scorecard": null, "featured": false, "sample_categories": "Restaurants", "public_id": "tme-enterprises-i-ltd-marietta", "id": 621954570, "votes": null, "tagline": null, "has_video": false, "website": "http://www.citysearch.com/profile/external/621954570/marietta_ga/tme_enterprises_i_ltd.html", "offers": null, "latitude": 34.036665, "politanName": "Atlanta, GA Metro ", "phone_number": "7705781119", "tags": [{"primary": true, "id": 1722, "name": "Restaurants"}], "fax_number": null, "expansion": {"count": null, "uri": null}, "impression_id": "000b000000dc4066d80f6b406b8309cf1b74e0e10c", "profile": "http://www.citysearch.com/profile/621954570/marietta_ga/tme_enterprises_i_ltd.html", "address": {"city": "Marietta", "state": "GA", "street": "2971 Shallowford Rd", "postal_code": "30066"}, "capProviderId": null, "distance": null, "has_offers": false, "name": "Tme Enterprises I Ltd", "longitude": -84.464103, "has_menu": false, "awards": null, "user_review_count": 0}, {"business_operation_status": 1, "rating": null, "neighborhood": null, "image": null, "scorecard": null, "featured": false, "sample_categories": "Restaurants, Delis And Delicatessens, Sandwich Shops, Carry Out", "public_id": "subway-cartersville-13", "id": 628168994, "votes": null, "tagline": null, "has_video": false, "website": "http://www.citysearch.com/profile/external/628168994/cartersville_ga/subway.html", "offers": null, "latitude": 34.113491, "politanName": "Atlanta, GA Metro ", "phone_number": "7703824141", "tags": [{"primary": false, "id": 1727, "name": "Delis And Delicatessens"}, {"primary": false, "id": 1736, "name": "Sandwich Shops"}, {"primary": false, "id": 11247, "name": "Carry Out"}, {"primary": true, "id": 1722, "name": "Restaurants"}], "fax_number": null, "expansion": {"count": null, "uri": null}, "impression_id": "000b000000393356caa4bc43a0a65f8458e46c76a1", "profile": "http://www.citysearch.com/profile/628168994/cartersville_ga/subway.html", "address": {"city": "Cartersville", "state": "GA", "street": "105 Old Allatoona Rd SE", "postal_code": "30121"}, "capProviderId": null, "distance": null, "has_offers": false, "name": "Subway", "longitude": -84.73018, "has_menu": false, "awards": null, "user_review_count": 0}, {"business_operation_status": 1, "rating": null, "neighborhood": null, "image": null, "scorecard": null, "featured": false, "sample_categories": "Restaurants, Carry Out, Hamburgers, American Express, Discover", "public_id": "burger-king-kennesaw", "id": 638853600, "votes": null, "tagline": null, "has_video": false, "website": "http://www.citysearch.com/profile/external/638853600/kennesaw_ga/burger_king.html", "offers": null, "latitude": 34.020782, "politanName": "Atlanta, GA Metro ", "phone_number": "6783548989", "tags": [{"primary": false, "id": 11247, "name": "Carry Out"}, {"primary": false, "id": 11270, "name": "Hamburgers"}, {"primary": false, "id": 11333, "name": "American Express"}, {"primary": false, "id": 11349, "name": "Discover"}, {"primary": false, "id": 11361, "name": "MasterCard"}, {"primary": false, "id": 11382, "name": "Visa"}, {"primary": true, "id": 1722, "name": "Restaurants"}], "fax_number": null, "expansion": {"count": null, "uri": null}, "impression_id": "000b000000492d30995b4045b89cb7bbb690ec4439", "profile": "http://www.citysearch.com/profile/638853600/kennesaw_ga/burger_king.html", "address": {"city": "Kennesaw", "state": "GA", "street": "2775 Cobb Pkwy NW", "postal_code": "30152"}, "capProviderId": null, "distance": null, "has_offers": false, "name": "Burger King", "longitude": -84.624098, "has_menu": true, "awards": null, "user_review_count": 0}, {"business_operation_status": 1, "rating": null, "neighborhood": null, "image": null, "scorecard": null, "featured": false, "sample_categories": "Restaurants", "public_id": "good-fatts-country-cookin-acworth", "id": 653578880, "votes": null, "tagline": null, "has_video": false, "website": null, "offers": null, "latitude": 34.06489, "politanName": "Atlanta, GA Metro ", "phone_number": "6784014805", "tags": [{"primary": true, "id": 1722, "name": "Restaurants"}], "fax_number": null, "expansion": {"count": null, "uri": null}, "impression_id": "000b000000ab27345472bc42ee88bf8783c5934d31", "profile": "http://www.citysearch.com/profile/653578880/acworth_ga/good_fatts_country_cookin.html", "address": {"city": "Acworth", "state": "GA", "street": "2535 Hickory Grove Rd Nw # 105", "postal_code": "30101"}, "capProviderId": null, "distance": null, "has_offers": false, "name": "Good Fatts Country Cookin", "longitude": -84.624038, "has_menu": false, "awards": null, "user_review_count": 0}, {"business_operation_status": 0, "rating": null, "neighborhood": null, "image": null, "scorecard": null, "featured": false, "sample_categories": "Restaurants", "public_id": "big-city-deli-kennesaw", "id": 672288520, "votes": null, "tagline": null, "has_video": false, "website": null, "offers": null, "latitude": 34.018515, "politanName": "Atlanta, GA Metro ", "phone_number": "7709759237", "tags": [{"primary": true, "id": 1722, "name": "Restaurants"}], "fax_number": null, "expansion": {"count": null, "uri": null}, "impression_id": "000b000000e1fc904a60cf47598afe122fe8886e07", "profile": "http://www.citysearch.com/profile/672288520/kennesaw_ga/big_city_deli.html", "address": {"city": "Kennesaw", "state": "GA", "street": "3061 Jim Owens Road", "postal_code": "30152"}, "capProviderId": null, "distance": null, "has_offers": false, "name": "Big City Deli", "longitude": -84.657278, "has_menu": false, "awards": null, "user_review_count": 0}, {"business_operation_status": 1, "rating": null, "neighborhood": null, "image": null, "scorecard": null, "featured": false, "sample_categories": "Delis And Delicatessens", "public_id": "kroger-deli-marietta-4", "id": 693544700, "votes": null, "tagline": null, "has_video": false, "website": null, "offers": null, "latitude": 33.953033, "politanName": "Atlanta, GA Metro ", "phone_number": "7704217676", "tags": [{"primary": true, "id": 1727, "name": "Delis And Delicatessens"}], "fax_number": null, "expansion": {"count": null, "uri": null}, "impression_id": "000b0000000308f75e38a640e3b8a6dc648eea6cb7", "profile": "http://www.citysearch.com/profile/693544700/marietta_ga/kroger_deli.html", "address": {"city": "Marietta", "state": "GA", "street": "1000 Whitlock Ave NW # 200", "postal_code": "30064"}, "capProviderId": null, "distance": null, "has_offers": false, "name": "Kroger Deli", "longitude": -84.581202, "has_menu": false, "awards": null, "user_review_count": 0}, {"business_operation_status": 1, "rating": null, "neighborhood": null, "image": null, "scorecard": null, "featured": false, "sample_categories": "Delis And Delicatessens", "public_id": "kroger-deli-dallas-6", "id": 698385790, "votes": null, "tagline": null, "has_video": false, "website": null, "offers": null, "latitude": 34.010309, "politanName": "Atlanta, GA Metro ", "phone_number": "6784393372", "tags": [{"primary": true, "id": 1727, "name": "Delis And Delicatessens"}], "fax_number": null, "expansion": {"count": null, "uri": null}, "impression_id": "000b0000003ae4cf2906f34a93996b741dcd9c144c", "profile": "http://www.citysearch.com/profile/698385790/dallas_ga/kroger_deli.html", "address": {"city": "Dallas", "state": "GA", "street": "8876 Dallas Acworth Hwy", "postal_code": "30132"}, "capProviderId": null, "distance": null, "has_offers": false, "name": "Kroger Deli", "longitude": -84.753348, "has_menu": false, "awards": null, "user_review_count": 0}, {"business_operation_status": 1, "rating": null, "neighborhood": null, "image": null, "scorecard": null, "featured": false, "sample_categories": "Restaurants", "public_id": "cafe-med-marietta", "id": 2908313, "votes": null, "tagline": null, "has_video": false, "website": null, "offers": null, "latitude": 34.015118, "politanName": "Atlanta, GA Metro ", "phone_number": "7705790630", "tags": [{"primary": true, "id": 1722, "name": "Restaurants"}], "fax_number": null, "expansion": {"count": null, "uri": null}, "impression_id": "000b00000038a2f65b58b94305be3808919a793d7b", "profile": "http://www.citysearch.com/profile/2908313/marietta_ga/cafe_med.html", "address": {"city": "Marietta", "state": "GA", "street": "2635 Sandy Plains Rd Ste A10", "postal_code": "30066"}, "capProviderId": null, "distance": null, "has_offers": false, "name": "Cafe Med", "longitude": -84.495187, "has_menu": true, "awards": null, "user_review_count": 3}, {"business_operation_status": 1, "rating": null, "neighborhood": null, "image": null, "scorecard": null, "featured": false, "sample_categories": "Restaurants", "public_id": "wicked-wings-fish-cafe-acworth", "id": 621428684, "votes": null, "tagline": null, "has_video": false, "website": null, "offers": null, "latitude": 34.0749, "politanName": "Atlanta, GA Metro ", "phone_number": "6784038155", "tags": [{"primary": true, "id": 1722, "name": "Restaurants"}], "fax_number": null, "expansion": {"count": null, "uri": null}, "impression_id": "000b000000aaf3703319044043a976afaf622f38ae", "profile": "http://www.citysearch.com/profile/621428684/acworth_ga/wicked_wings_fish_cafe.html", "address": {"city": "Acworth", "state": "GA", "street": "4974 Cowan Rd", "postal_code": "30101"}, "capProviderId": null, "distance": null, "has_offers": false, "name": "Wicked Wings & Fish Cafe", "longitude": -84.653924, "has_menu": false, "awards": null, "user_review_count": 0}, {"business_operation_status": 1, "rating": null, "neighborhood": null, "image": null, "scorecard": null, "featured": false, "sample_categories": "Restaurants", "public_id": "capalbos-cappys-cafe-acworth", "id": 632010670, "votes": null, "tagline": null, "has_video": false, "website": null, "offers": null, "latitude": 33.989129, "politanName": "Atlanta, GA Metro ", "phone_number": "7709190750", "tags": [{"primary": true, "id": 1722, "name": "Restaurants"}], "fax_number": null, "expansion": {"count": null, "uri": null}, "impression_id": "000b0000004ef5a4f4e0ae467e86715b3033f21a6d", "profile": "http://www.citysearch.com/profile/632010670/acworth_ga/capalbo_s_cappys_cafe.html", "address": {"city": "Acworth", "state": "GA", "street": "6318 Benbrooke Overlook Nw", "postal_code": "30101"}, "capProviderId": null, "distance": null, "has_offers": false, "name": "Capalbo's Cappys Cafe", "longitude": -84.738749, "has_menu": false, "awards": null, "user_review_count": 0}, {"business_operation_status": 1, "rating": null, "neighborhood": null, "image": null, "scorecard": null, "featured": false, "sample_categories": "Restaurants", "public_id": "dinner-afare-marietta", "id": 621938470, "votes": null, "tagline": null, "has_video": false, "website": null, "offers": null, "latitude": 33.963729, "politanName": "Atlanta, GA Metro ", "phone_number": "7704261838", "tags": [{"primary": true, "id": 1722, "name": "Restaurants"}], "fax_number": null, "expansion": {"count": null, "uri": null}, "impression_id": "000b00000094754cc89b6640c787fe00e9f8ae39b8", "profile": "http://www.citysearch.com/profile/621938470/marietta_ga/dinner_a_fare.html", "address": {"city": "Marietta", "state": "GA", "street": "3391 Bridle Run Trl Nw", "postal_code": "30064"}, "capProviderId": null, "distance": null, "has_offers": false, "name": "Dinner A'Fare", "longitude": -84.649114, "has_menu": false, "awards": null, "user_review_count": 0}, {"business_operation_status": 1, "rating": null, "neighborhood": null, "image": null, "scorecard": null, "featured": false, "sample_categories": "Restaurants", "public_id": "five-guys-woodstock-2", "id": 672566830, "votes": null, "tagline": null, "has_video": false, "website": null, "offers": null, "latitude": 34.104221, "politanName": "Atlanta, GA Metro ", "phone_number": null, "tags": [{"primary": true, "id": 1722, "name": "Restaurants"}], "fax_number": null, "expansion": {"count": null, "uri": null}, "impression_id": "000b00000013f4efdc633e4c0090c2b5b5b9afc5df", "profile": "http://www.citysearch.com/profile/672566830/woodstock_ga/five_guys.html", "address": {"city": "Woodstock", "state": "GA", "street": "600 Towne Lake Pky", "postal_code": "30189"}, "capProviderId": null, "distance": null, "has_offers": false, "name": "Five Guys", "longitude": -84.539935, "has_menu": false, "awards": null, "user_review_count": 0}, {"business_operation_status": 1, "rating": null, "neighborhood": null, "image": null, "scorecard": null, "featured": false, "sample_categories": "Restaurants, Bars & Clubs, Bars & Pubs", "public_id": "southern-bar-grill-woodstock", "id": 713453450, "votes": null, "tagline": null, "has_video": false, "website": null, "offers": null, "latitude": 34.087943, "politanName": "Atlanta, GA Metro ", "phone_number": "6783241012", "tags": [{"primary": false, "id": 164, "name": "Bars & Clubs"}, {"primary": false, "id": 1686, "name": "Bars & Pubs"}, {"primary": true, "id": 1722, "name": "Restaurants"}], "fax_number": null, "expansion": {"count": null, "uri": null}, "impression_id": "000b000000e5768557d8e441d3a76d0fc4e2a0e0a2", "profile": "http://www.citysearch.com/profile/713453450/woodstock_ga/southern_bar_grill.html", "address": {"city": "Woodstock", "state": "GA", "street": "6889 Highway 92", "postal_code": "30189"}, "capProviderId": null, "distance": null, "has_offers": false, "name": "Southern Bar Grill", "longitude": -84.573347, "has_menu": false, "awards": null, "user_review_count": 0}, {"business_operation_status": 1, "rating": null, "neighborhood": null, "image": null, "scorecard": null, "featured": false, "sample_categories": "Restaurants, Mexican", "public_id": "el-vaquero-mexican-cantina-marietta", "id": 655802400, "votes": null, "tagline": null, "has_video": false, "website": null, "offers": null, "latitude": 33.953033, "politanName": "Atlanta, GA Metro ", "phone_number": "6787385431", "tags": [{"primary": false, "id": 11208, "name": "Mexican"}, {"primary": true, "id": 1722, "name": "Restaurants"}], "fax_number": null, "expansion": {"count": null, "uri": null}, "impression_id": "000b000000fc008432425341c3a4cc77a01c6861f7", "profile": "http://www.citysearch.com/profile/655802400/marietta_ga/el_vaquero_mexican_cantina.html", "address": {"city": "Marietta", "state": "GA", "street": "1000 Whitlock Ave Nw # 410", "postal_code": "30064"}, "capProviderId": null, "distance": null, "has_offers": false, "name": "El Vaquero Mexican Cantina", "longitude": -84.581202, "has_menu": false, "awards": null, "user_review_count": 0}, {"business_operation_status": 1, "rating": null, "neighborhood": null, "image": null, "scorecard": null, "featured": false, "sample_categories": "Coffeehouses, Coffee & Tea Shops, Restaurants", "public_id": "starbucks-marietta-10", "id": 621939860, "votes": null, "tagline": null, "has_video": false, "website": "http://www.citysearch.com/profile/external/621939860/marietta_ga/starbucks.html", "offers": null, "latitude": 33.971846, "politanName": "Atlanta, GA Metro ", "phone_number": "7707941443", "tags": [{"primary": false, "id": 1711, "name": "Coffee & Tea Shops"}, {"primary": false, "id": 1722, "name": "Restaurants"}, {"primary": true, "id": 1726, "name": "Coffeehouses"}], "fax_number": null, "expansion": {"count": null, "uri": null}, "impression_id": "000b000000f6fd91f35061492ea462dcc483426f12", "profile": "http://www.citysearch.com/profile/621939860/marietta_ga/starbucks.html", "address": {"city": "Marietta", "state": "GA", "street": "825 Church St Ne", "postal_code": "30060"}, "capProviderId": null, "distance": null, "has_offers": false, "name": "Starbucks", "longitude": -84.551204, "has_menu": true, "awards": null, "user_review_count": 0}, {"business_operation_status": 1, "rating": null, "neighborhood": null, "image": null, "scorecard": null, "featured": false, "sample_categories": "Health Food Stores, Health Food, Vitamins", "public_id": "bigtime-fitness-woodstock", "id": 608703960, "votes": null, "tagline": null, "has_video": false, "website": null, "offers": null, "latitude": 34.078336, "politanName": "Atlanta, GA Metro ", "phone_number": "7705914825", "tags": [{"primary": false, "id": 1716, "name": "Health Food Stores"}, {"primary": false, "id": 11164, "name": "Vitamins"}, {"primary": true, "id": 11200, "name": "Health Food"}], "fax_number": null, "expansion": {"count": null, "uri": null}, "impression_id": "000b000000e740a39ddc6742c2b6a01368cbbc078e", "profile": "http://www.citysearch.com/profile/608703960/woodstock_ga/bigtime_fitness.html", "address": {"city": "Woodstock", "state": "GA", "street": "101 Westridge Ct,", "postal_code": "30180"}, "capProviderId": null, "distance": null, "has_offers": false, "name": "Bigtime Fitness", "longitude": -84.435647, "has_menu": false, "awards": null, "user_review_count": 0}, {"business_operation_status": 1, "rating": null, "neighborhood": null, "image": null, "scorecard": null, "featured": false, "sample_categories": "Restaurants, Pizza, Carry Out", "public_id": "mellow-mushroom-acworth", "id": 609955104, "votes": null, "tagline": null, "has_video": false, "website": "http://www.citysearch.com/profile/external/609955104/acworth_ga/mellow_mushroom.html", "offers": null, "latitude": 34.057868, "politanName": "Atlanta, GA Metro ", "phone_number": "6784026009", "tags": [{"primary": false, "id": 1722, "name": "Restaurants"}, {"primary": false, "id": 11247, "name": "Carry Out"}, {"primary": true, "id": 11299, "name": "Pizza"}], "fax_number": null, "expansion": {"count": null, "uri": null}, "impression_id": "000b0000003a06ba087cc7442cbf3ddb06d8fc9c64", "profile": "http://www.citysearch.com/profile/609955104/acworth_ga/mellow_mushroom.html", "address": {"city": "Acworth", "state": "GA", "street": "6121 Cedarcrest Rd", "postal_code": "30101"}, "capProviderId": null, "distance": null, "has_offers": false, "name": "Mellow Mushroom", "longitude": -84.732946, "has_menu": false, "awards": null, "user_review_count": 0}, {"business_operation_status": 1, "rating": null, "neighborhood": null, "image": null, "scorecard": null, "featured": false, "sample_categories": "Restaurants, Pizza", "public_id": "stevi-bs-pizza-marietta-4", "id": 713518730, "votes": null, "tagline": null, "has_video": false, "website": null, "offers": null, "latitude": 34.015975, "politanName": "Atlanta, GA Metro ", "phone_number": "7704990155", "tags": [{"primary": false, "id": 11299, "name": "Pizza"}, {"primary": true, "id": 1722, "name": "Restaurants"}], "fax_number": null, "expansion": {"count": null, "uri": null}, "impression_id": "000b00000022954485e3ee4d7e968dc8355a97923d", "profile": "http://www.citysearch.com/profile/713518730/marietta_ga/stevi_b_s_pizza.html", "address": {"city": "Marietta", "state": "GA", "street": "50 Ernest Barrett Pkwy NW", "postal_code": "30060"}, "capProviderId": null, "distance": null, "has_offers": false, "name": "Stevi B's Pizza", "longitude": -84.550996, "has_menu": false, "awards": null, "user_review_count": 0}, {"business_operation_status": 1, "rating": null, "neighborhood": null, "image": null, "scorecard": null, "featured": false, "sample_categories": "Restaurants", "public_id": "nibbles-acworth", "id": 732147010, "votes": null, "tagline": null, "has_video": false, "website": null, "offers": null, "latitude": 34.06395, "politanName": "Atlanta, GA Metro ", "phone_number": "7705958044", "tags": [{"primary": true, "id": 1722, "name": "Restaurants"}], "fax_number": null, "expansion": {"count": null, "uri": null}, "impression_id": "000b0000009fa72431c34d4f8494ab6902be4d05f2", "profile": "http://www.citysearch.com/profile/732147010/acworth_ga/nibbles.html", "address": {"city": "Acworth", "state": "GA", "street": "4618 S Main St", "postal_code": "30101"}, "capProviderId": null, "distance": null, "has_offers": false, "name": "Nibbles", "longitude": -84.671655, "has_menu": false, "awards": null, "user_review_count": 0}, {"business_operation_status": 1, "rating": null, "neighborhood": null, "image": null, "scorecard": null, "featured": false, "sample_categories": "Restaurants, Pizza, Carry Out", "public_id": "little-caesars-pizza-acworth-3", "id": 682324320, "votes": null, "tagline": null, "has_video": false, "website": "http://www.citysearch.com/profile/external/682324320/acworth_ga/little_caesars_pizza.html", "offers": null, "latitude": 33.997403, "politanName": "Atlanta, GA Metro ", "phone_number": "7704999981", "tags": [{"primary": false, "id": 1722, "name": "Restaurants"}, {"primary": false, "id": 11247, "name": "Carry Out"}, {"primary": true, "id": 11299, "name": "Pizza"}], "fax_number": null, "expansion": {"count": null, "uri": null}, "impression_id": "000b000000f11e7a913539433db4920d86b8b71463", "profile": "http://www.citysearch.com/profile/682324320/acworth_ga/little_caesars_pizza.html", "address": {"city": "Acworth", "state": "GA", "street": "1727 Mars Hill Rd NW # 8", "postal_code": "30101"}, "capProviderId": null, "distance": null, "has_offers": false, "name": "Little Caesars Pizza", "longitude": -84.707837, "has_menu": false, "awards": null, "user_review_count": 0}, {"business_operation_status": 0, "rating": null, "neighborhood": null, "image": null, "scorecard": null, "featured": false, "sample_categories": "Restaurants, Barbecue Restaurants", "public_id": "georges-grill-barbecue-marietta", "id": 621879190, "votes": null, "tagline": null, "has_video": false, "website": null, "offers": null, "latitude": 33.997727, "politanName": "Atlanta, GA Metro ", "phone_number": "7704851099", "tags": [{"primary": false, "id": 1724, "name": "Barbecue Restaurants"}, {"primary": true, "id": 1722, "name": "Restaurants"}], "fax_number": null, "expansion": {"count": null, "uri": null}, "impression_id": "000b0000001f2468c050174af5af86a00ad487d18e", "profile": "http://www.citysearch.com/profile/621879190/marietta_ga/georges_grill_barbecue.html", "address": {"city": "Marietta", "state": "GA", "street": "1951 Canton Rd # 330", "postal_code": "30066"}, "capProviderId": null, "distance": null, "has_offers": false, "name": "Georges Grill & Barbecue", "longitude": -84.525055, "has_menu": false, "awards": null, "user_review_count": 0}, {"business_operation_status": 1, "rating": null, "neighborhood": null, "image": null, "scorecard": null, "featured": false, "sample_categories": "Restaurants, Delis And Delicatessens, Sandwich Shops, Carry Out", "public_id": "subway-sandwiches-salads-marietta", "id": 764919100, "votes": null, "tagline": null, "has_video": false, "website": "http://www.citysearch.com/profile/external/764919100/marietta_ga/subway_sandwiches_salads.html", "offers": null, "latitude": 33.949333, "politanName": "Atlanta, GA Metro ", "phone_number": "7704225412", "tags": [{"primary": false, "id": 1727, "name": "Delis And Delicatessens"}, {"primary": false, "id": 1736, "name": "Sandwich Shops"}, {"primary": false, "id": 11247, "name": "Carry Out"}, {"primary": true, "id": 1722, "name": "Restaurants"}], "fax_number": null, "expansion": {"count": null, "uri": null}, "impression_id": "000b000000dcc1aa04df0144449d842ef51131be07", "profile": "http://www.citysearch.com/profile/764919100/marietta_ga/subway_sandwiches_salads.html", "address": {"city": "Marietta", "state": "GA", "street": "85 S Marietta Pkwy SW", "postal_code": "30064"}, "capProviderId": null, "distance": null, "has_offers": false, "name": "Subway Sandwiches & Salads", "longitude": -84.550502, "has_menu": false, "awards": null, "user_review_count": 0}, {"business_operation_status": 1, "rating": null, "neighborhood": null, "image": null, "scorecard": null, "featured": false, "sample_categories": "Ice Cream Parlors, Sandwich Shops", "public_id": "jersey-mikes-subs-woodstock-2", "id": 766754370, "votes": null, "tagline": null, "has_video": false, "website": null, "offers": null, "latitude": 34.12171, "politanName": "Atlanta, GA Metro ", "phone_number": "7705169008", "tags": [{"primary": false, "id": 1736, "name": "Sandwich Shops"}, {"primary": true, "id": 1730, "name": "Ice Cream Parlors"}], "fax_number": null, "expansion": {"count": null, "uri": null}, "impression_id": "000b0000000453f46b897b4644b8899396327d4d0f", "profile": "http://www.citysearch.com/profile/766754370/woodstock_ga/jersey_mike_s_subs.html", "address": {"city": "Woodstock", "state": "GA", "street": "4141 Dream Catcher Dr", "postal_code": "30189"}, "capProviderId": null, "distance": null, "has_offers": false, "name": "Jersey Mike's Subs", "longitude": -84.531971, "has_menu": false, "awards": null, "user_review_count": 0}, {"business_operation_status": 1, "rating": null, "neighborhood": null, "image": null, "scorecard": null, "featured": false, "sample_categories": "Catering, Restaurants", "public_id": "paisanos-catering-marietta", "id": 2908338, "votes": null, "tagline": null, "has_video": false, "website": "http://www.citysearch.com/profile/external/2908338/marietta_ga/paisanos_catering.html", "offers": null, "latitude": 34.030179, "politanName": "Atlanta, GA Metro ", "phone_number": "7709987488", "tags": [{"primary": false, "id": 1722, "name": "Restaurants"}, {"primary": true, "id": 1705, "name": "Catering"}], "fax_number": null, "expansion": {"count": null, "uri": null}, "impression_id": "000b0000006f4507277ae741f1876d12a7edb64eab", "profile": "http://www.citysearch.com/profile/2908338/marietta_ga/paisanos_catering.html", "address": {"city": "Marietta", "state": "GA", "street": "3205 Canton Rd Ste 106", "postal_code": "30066"}, "capProviderId": null, "distance": null, "has_offers": false, "name": "Paisanos Catering", "longitude": -84.528473, "has_menu": false, "awards": null, "user_review_count": 0}, {"business_operation_status": 1, "rating": null, "neighborhood": null, "image": null, "scorecard": null, "featured": false, "sample_categories": "Restaurants", "public_id": "daily-bread-cafe-marietta", "id": 787129630, "votes": null, "tagline": null, "has_video": false, "website": null, "offers": null, "latitude": 33.964179, "politanName": "Atlanta, GA Metro ", "phone_number": "7704237288", "tags": [{"primary": true, "id": 1722, "name": "Restaurants"}], "fax_number": null, "expansion": {"count": null, "uri": null}, "impression_id": "000b0000001b99cd0129374ad9b49a337125c461c4", "profile": "http://www.citysearch.com/profile/787129630/marietta_ga/daily_bread_cafe.html", "address": {"city": "Marietta", "state": "GA", "street": "531 Roselane St NW", "postal_code": "30060"}, "capProviderId": null, "distance": null, "has_offers": false, "name": "Daily Bread Cafe", "longitude": -84.556876, "has_menu": false, "awards": null, "user_review_count": 0}, {"business_operation_status": 1, "rating": null, "neighborhood": null, "image": null, "scorecard": null, "featured": false, "sample_categories": "Restaurants", "public_id": "saigon-pearl-marietta", "id": 672478560, "votes": null, "tagline": null, "has_video": false, "website": null, "offers": null, "latitude": 34.018696, "politanName": "Atlanta, GA Metro ", "phone_number": "7705147555", "tags": [{"primary": true, "id": 1722, "name": "Restaurants"}], "fax_number": null, "expansion": {"count": null, "uri": null}, "impression_id": "000b00000001a02ad68d944d358552971288c3a16c", "profile": "http://www.citysearch.com/profile/672478560/marietta_ga/saigon_pearl.html", "address": {"city": "Marietta", "state": "GA", "street": "2755 Canton Rd NE", "postal_code": "30066"}, "capProviderId": null, "distance": null, "has_offers": false, "name": "Saigon Pearl", "longitude": -84.528341, "has_menu": false, "awards": null, "user_review_count": 0}, {"business_operation_status": 1, "rating": null, "neighborhood": null, "image": null, "scorecard": null, "featured": false, "sample_categories": "Restaurants, Sandwich Shops, Pizza", "public_id": "peace-love-and-pizza-marietta-2", "id": 606523644, "votes": null, "tagline": null, "has_video": false, "website": "http://www.citysearch.com/profile/external/606523644/marietta_ga/peace_love_and_pizza.html", "offers": null, "latitude": 33.976429, "politanName": "Atlanta, GA Metro ", "phone_number": "7703210757", "tags": [{"primary": false, "id": 1722, "name": "Restaurants"}, {"primary": false, "id": 1736, "name": "Sandwich Shops"}, {"primary": true, "id": 11299, "name": "Pizza"}], "fax_number": null, "expansion": {"count": null, "uri": null}, "impression_id": "000b0000001a2327e8767848afb621e1f803b3b4fa", "profile": "http://www.citysearch.com/profile/606523644/marietta_ga/peace_love_and_pizza.html", "address": {"city": "Marietta", "state": "GA", "street": "1050 E Piedmont Rd 152", "postal_code": "30062"}, "capProviderId": null, "distance": null, "has_offers": false, "name": "Peace Love and Pizza", "longitude": -84.478226, "has_menu": false, "awards": null, "user_review_count": 0}, {"business_operation_status": 1, "rating": null, "neighborhood": null, "image": null, "scorecard": null, "featured": false, "sample_categories": "Restaurants", "public_id": "j-k-island-cafe-marietta", "id": 808002760, "votes": null, "tagline": null, "has_video": false, "website": null, "offers": null, "latitude": 33.953203, "politanName": "Atlanta, GA Metro ", "phone_number": "6782909933", "tags": [{"primary": true, "id": 1722, "name": "Restaurants"}], "fax_number": null, "expansion": {"count": null, "uri": null}, "impression_id": "000b000000421b84f406e147b3b16472b8e8f50ec6", "profile": "http://www.citysearch.com/profile/808002760/marietta_ga/j_k_island_cafe.html", "address": {"city": "Marietta", "state": "GA", "street": "2503 Zachary Woods Dr NW", "postal_code": "30064"}, "capProviderId": null, "distance": null, "has_offers": false, "name": "J & K Island Cafe", "longitude": -84.630386, "has_menu": false, "awards": null, "user_review_count": 0}, {"business_operation_status": 1, "rating": null, "neighborhood": null, "image": null, "scorecard": null, "featured": false, "sample_categories": "Restaurants", "public_id": "entree-vous-woodstock", "id": 817827750, "votes": null, "tagline": null, "has_video": false, "website": null, "offers": null, "latitude": 34.113132, "politanName": "Atlanta, GA Metro ", "phone_number": "7709241117", "tags": [{"primary": true, "id": 1722, "name": "Restaurants"}], "fax_number": null, "expansion": {"count": null, "uri": null}, "impression_id": "000b000000e5986eed424d45c5937d229ac9472847", "profile": "http://www.citysearch.com/profile/817827750/woodstock_ga/entree_vous.html", "address": {"city": "Woodstock", "state": "GA", "street": "6424 Bells Ferry Rd", "postal_code": "30189"}, "capProviderId": null, "distance": null, "has_offers": false, "name": "Entree Vous", "longitude": -84.58211, "has_menu": false, "awards": null, "user_review_count": 0}, {"business_operation_status": 1, "rating": null, "neighborhood": null, "image": null, "scorecard": null, "featured": false, "sample_categories": "Restaurants, Pizza, Carry Out", "public_id": "papa-johns-pizza-marietta-2", "id": 632029900, "votes": null, "tagline": null, "has_video": false, "website": null, "offers": null, "latitude": 33.952112, "politanName": "Atlanta, GA Metro ", "phone_number": "7704267272", "tags": [{"primary": false, "id": 1722, "name": "Restaurants"}, {"primary": false, "id": 11247, "name": "Carry Out"}, {"primary": true, "id": 11299, "name": "Pizza"}], "fax_number": null, "expansion": {"count": null, "uri": null}, "impression_id": "000b00000048f15f6b0d404c9c809339878563cc1c", "profile": "http://www.citysearch.com/profile/632029900/marietta_ga/papa_john_s_pizza.html", "address": {"city": "Marietta", "state": "GA", "street": "971 Whitlock Ave Sw", "postal_code": "30064"}, "capProviderId": null, "distance": null, "has_offers": false, "name": "Papa John's Pizza", "longitude": -84.578857, "has_menu": false, "awards": null, "user_review_count": 0}, {"business_operation_status": 1, "rating": null, "neighborhood": null, "image": null, "scorecard": null, "featured": false, "sample_categories": "Restaurants", "public_id": "i-l-s-wayport-woodstock", "id": 611006684, "votes": null, "tagline": null, "has_video": false, "website": null, "offers": null, "latitude": 34.120924, "politanName": "Atlanta, GA Metro ", "phone_number": "7705918657", "tags": [{"primary": true, "id": 1722, "name": "Restaurants"}], "fax_number": null, "expansion": {"count": null, "uri": null}, "impression_id": "000b000000aa3c02d25f964a128ebaf59b3617e577", "profile": "http://www.citysearch.com/profile/611006684/woodstock_ga/i_l_s_wayport.html", "address": {"city": "Woodstock", "state": "GA", "street": "931 Ridgewalk Pkwy", "postal_code": "30188"}, "capProviderId": null, "distance": null, "has_offers": false, "name": "I L S Wayport", "longitude": -84.521823, "has_menu": false, "awards": null, "user_review_count": 0}, {"business_operation_status": 0, "rating": null, "neighborhood": null, "image": null, "scorecard": null, "featured": false, "sample_categories": "Restaurants, Barbecue Restaurants", "public_id": "longhorns-buffalo-wings-marietta", "id": 653551040, "votes": null, "tagline": null, "has_video": false, "website": null, "offers": null, "latitude": 33.986818, "politanName": "Atlanta, GA Metro ", "phone_number": "4043131588", "tags": [{"primary": false, "id": 1724, "name": "Barbecue Restaurants"}, {"primary": true, "id": 1722, "name": "Restaurants"}], "fax_number": null, "expansion": {"count": null, "uri": null}, "impression_id": "000b0000002526335d9bd0437a81b20df73447f40a", "profile": "http://www.citysearch.com/profile/653551040/marietta_ga/longhorns_buffalo_wings.html", "address": {"city": "Marietta", "state": "GA", "street": "1367 Sheffield Pkwy", "postal_code": "30062"}, "capProviderId": null, "distance": null, "has_offers": false, "name": "Longhorns Buffalo Wings", "longitude": -84.497978, "has_menu": false, "awards": null, "user_review_count": 0}, {"business_operation_status": 1, "rating": null, "neighborhood": null, "image": null, "scorecard": null, "featured": false, "sample_categories": "Restaurants", "public_id": "d-e-restaurant-equipment-acworth", "id": 732160900, "votes": null, "tagline": null, "has_video": false, "website": null, "offers": null, "latitude": 34.028974, "politanName": "Atlanta, GA Metro ", "phone_number": "4049759264", "tags": [{"primary": true, "id": 1722, "name": "Restaurants"}], "fax_number": null, "expansion": {"count": null, "uri": null}, "impression_id": "000b000000c1c4a2de49194ba287681f9aa852cfd3", "profile": "http://www.citysearch.com/profile/732160900/acworth_ga/d_e_restaurant_equipment.html", "address": {"city": "Acworth", "state": "GA", "street": "3112 Maplewood Dr", "postal_code": "30101"}, "capProviderId": null, "distance": null, "has_offers": false, "name": "D & E Restaurant Equipment", "longitude": -84.740837, "has_menu": false, "awards": null, "user_review_count": 0}, {"business_operation_status": 1, "rating": null, "neighborhood": null, "image": null, "scorecard": null, "featured": false, "sample_categories": "Restaurants", "public_id": "tin-drum-asiacafe-marietta", "id": 614029774, "votes": null, "tagline": null, "has_video": false, "website": null, "offers": null, "latitude": 34.013358, "politanName": "Atlanta, GA Metro ", "phone_number": "6785403471", "tags": [{"primary": true, "id": 1722, "name": "Restaurants"}], "fax_number": null, "expansion": {"count": null, "uri": null}, "impression_id": "000b00000054c91726a27248f882a11e3258f30cbd", "profile": "http://www.citysearch.com/profile/614029774/marietta_ga/tin_drum_asiacafe.html", "address": {"city": "Marietta", "state": "GA", "street": "125 Ernest Barrett Pkwy NW", "postal_code": "30066"}, "capProviderId": null, "distance": null, "has_offers": false, "name": "Tin Drum Asiacafe", "longitude": -84.553529, "has_menu": false, "awards": null, "user_review_count": 0}, {"business_operation_status": 1, "rating": 10.0, "neighborhood": null, "image": null, "scorecard": null, "featured": false, "sample_categories": "Restaurants, Catering, Traditional American, Southwestern", "public_id": "buffalos-southwest-cafe-woodstock", "id": 2963628, "votes": null, "tagline": null, "has_video": false, "website": "http://www.citysearch.com/profile/external/2963628/woodstock_ga/buffalo_s_southwest_cafe.html", "offers": null, "latitude": 34.087958, "politanName": "Atlanta, GA Metro ", "phone_number": "7705919464", "tags": [{"primary": false, "id": 1705, "name": "Catering"}, {"primary": false, "id": 11190, "name": "Traditional American"}, {"primary": false, "id": 11313, "name": "Southwestern"}, {"primary": true, "id": 1722, "name": "Restaurants"}], "fax_number": null, "expansion": {"count": null, "uri": null}, "impression_id": "000b0000009358b05b331847bbb01d5c46418b3c10", "profile": "http://www.citysearch.com/profile/2963628/woodstock_ga/buffalo_s_southwest_cafe.html", "address": {"city": "Woodstock", "state": "GA", "street": "12035 Highway 92 Ste 100", "postal_code": "30188"}, "capProviderId": null, "distance": null, "has_offers": false, "name": "Buffalo's Southwest Cafe", "longitude": -84.48622, "has_menu": true, "awards": null, "user_review_count": 3}, {"business_operation_status": 0, "rating": null, "neighborhood": null, "image": null, "scorecard": null, "featured": false, "sample_categories": "Restaurants", "public_id": "birdies-wings-acworth", "id": 682521810, "votes": null, "tagline": null, "has_video": false, "website": "http://www.citysearch.com/profile/external/682521810/acworth_ga/birdies_wings.html", "offers": null, "latitude": 34.060071, "politanName": "Atlanta, GA Metro ", "phone_number": "7702229959", "tags": [{"primary": true, "id": 1722, "name": "Restaurants"}], "fax_number": null, "expansion": {"count": null, "uri": null}, "impression_id": "000b0000005beaab7f1bca42d895fb3dc634ee2c67", "profile": "http://www.citysearch.com/profile/682521810/acworth_ga/birdies_wings.html", "address": {"city": "Acworth", "state": "GA", "street": "219 Applewood Ln", "postal_code": "30101"}, "capProviderId": null, "distance": null, "has_offers": false, "name": "Birdies Wings", "longitude": -84.758334, "has_menu": false, "awards": null, "user_review_count": 0}, {"business_operation_status": 1, "rating": null, "neighborhood": null, "image": null, "scorecard": null, "featured": false, "sample_categories": "Restaurants", "public_id": "totopos-dallas", "id": 764911840, "votes": null, "tagline": null, "has_video": false, "website": null, "offers": null, "latitude": 33.957866, "politanName": "Atlanta, GA Metro ", "phone_number": "7704433070", "tags": [{"primary": true, "id": 1722, "name": "Restaurants"}], "fax_number": null, "expansion": {"count": null, "uri": null}, "impression_id": "000b000000a085be44e1fb4f7ab09002b005a46b46", "profile": "http://www.citysearch.com/profile/764911840/dallas_ga/totopos.html", "address": {"city": "Dallas", "state": "GA", "street": "55 E Paulding Dr", "postal_code": "30157"}, "capProviderId": null, "distance": null, "has_offers": false, "name": "Totopos", "longitude": -84.787071, "has_menu": false, "awards": null, "user_review_count": 0}, {"business_operation_status": 1, "rating": null, "neighborhood": null, "image": null, "scorecard": null, "featured": false, "sample_categories": "Restaurants, Southwestern", "public_id": "moes-southwest-grill-woodstock-2", "id": 638858350, "votes": null, "tagline": null, "has_video": false, "website": null, "offers": null, "latitude": 34.095604, "politanName": "Atlanta, GA Metro ", "phone_number": "7705176634", "tags": [{"primary": false, "id": 11313, "name": "Southwestern"}, {"primary": true, "id": 1722, "name": "Restaurants"}], "fax_number": null, "expansion": {"count": null, "uri": null}, "impression_id": "000b0000006ac986eb2d2242c18e3bd4762b8298a7", "profile": "http://www.citysearch.com/profile/638858350/woodstock_ga/moes_southwest_grill.html", "address": {"city": "Woodstock", "state": "GA", "street": "1506 Willow Bnd", "postal_code": "30188"}, "capProviderId": null, "distance": null, "has_offers": false, "name": "Moes Southwest Grill", "longitude": -84.431902, "has_menu": false, "awards": null, "user_review_count": 0}, {"business_operation_status": 1, "rating": null, "neighborhood": null, "image": null, "scorecard": null, "featured": false, "sample_categories": "Restaurants", "public_id": "atlwest-mariett-marietta", "id": 787106980, "votes": null, "tagline": null, "has_video": false, "website": null, "offers": null, "latitude": 33.944719, "politanName": "Atlanta, GA Metro ", "phone_number": "7707927933", "tags": [{"primary": true, "id": 1722, "name": "Restaurants"}], "fax_number": null, "expansion": {"count": null, "uri": null}, "impression_id": "000b000000af84c1069c4347faa61e6f376fcaf8df", "profile": "http://www.citysearch.com/profile/787106980/marietta_ga/atl_west_mariett.html", "address": {"city": "Marietta", "state": "GA", "street": "2535 Dallas Hwy Sw", "postal_code": "30064"}, "capProviderId": null, "distance": null, "has_offers": false, "name": "Atl-West Mariett", "longitude": -84.625194, "has_menu": false, "awards": null, "user_review_count": 0}, {"business_operation_status": 1, "rating": null, "neighborhood": null, "image": null, "scorecard": null, "featured": false, "sample_categories": "Restaurants, Soul", "public_id": "henrys-louisiana-grill-acworth-2", "id": 787119490, "votes": null, "tagline": null, "has_video": false, "website": "http://www.citysearch.com/profile/external/787119490/acworth_ga/henry_s_louisiana_grill.html", "offers": null, "latitude": 34.066918, "politanName": "Atlanta, GA Metro ", "phone_number": "7709661515", "tags": [{"primary": false, "id": 15140, "name": "Soul"}, {"primary": true, "id": 1722, "name": "Restaurants"}], "fax_number": null, "expansion": {"count": null, "uri": null}, "impression_id": "000b0000000d1dc10fe05143499129f11e61ca116c", "profile": "http://www.citysearch.com/profile/787119490/acworth_ga/henry_s_louisiana_grill.html", "address": {"city": "Acworth", "state": "GA", "street": "4849 N Main St", "postal_code": "30101"}, "capProviderId": null, "distance": null, "has_offers": false, "name": "Henry's Louisiana Grill", "longitude": -84.679726, "has_menu": true, "awards": null, "user_review_count": 3}, {"business_operation_status": 1, "rating": null, "neighborhood": null, "image": null, "scorecard": null, "featured": false, "sample_categories": "Restaurants, Caribbean", "public_id": "vern-caribbean-intl-cuisine-acworth", "id": 653602240, "votes": null, "tagline": null, "has_video": false, "website": null, "offers": null, "latitude": 34.062501, "politanName": "Atlanta, GA Metro ", "phone_number": "6783241723", "tags": [{"primary": false, "id": 11195, "name": "Caribbean"}, {"primary": true, "id": 1722, "name": "Restaurants"}], "fax_number": null, "expansion": {"count": null, "uri": null}, "impression_id": "000b0000008cb63278e5e64fbdab9323df2e2e1159", "profile": "http://www.citysearch.com/profile/653602240/acworth_ga/vern_caribbean_intl_cuisine.html", "address": {"city": "Acworth", "state": "GA", "street": "4439 S Main St", "postal_code": "30101"}, "capProviderId": null, "distance": null, "has_offers": false, "name": "Vern Caribbean & Intl Cuisine", "longitude": -84.666528, "has_menu": false, "awards": null, "user_review_count": 0}, {"business_operation_status": 1, "rating": null, "neighborhood": null, "image": null, "scorecard": null, "featured": false, "sample_categories": "Restaurants, Italian", "public_id": "i-p-ps-pastaria-bar-rstrnt-woodstock", "id": 728043760, "votes": null, "tagline": null, "has_video": false, "website": null, "offers": null, "latitude": 34.102444, "politanName": "Atlanta, GA Metro ", "phone_number": "7705177305", "tags": [{"primary": false, "id": 11279, "name": "Italian"}, {"primary": true, "id": 1722, "name": "Restaurants"}], "fax_number": null, "expansion": {"count": null, "uri": null}, "impression_id": "000b000000b38716c11f8240a9a556a3aac663280a", "profile": "http://www.citysearch.com/profile/728043760/woodstock_ga/i_p_p_s_pastaria_bar_rstrnt.html", "address": {"city": "Woodstock", "state": "GA", "street": "8496 Main St", "postal_code": "30188"}, "capProviderId": null, "distance": null, "has_offers": false, "name": "I P P's Pastaria & Bar Rstrnt", "longitude": -84.519881, "has_menu": false, "awards": null, "user_review_count": 0}], "histograms": [], "tag_ids": [1722], "uri": "http://api.citygridmedia.com:8080/search/places/v2/search/where?has_offers=false&type=restaurant&format=json&page=20&where=30144&rpp=50&histograms=false&publisher=10000009598&region_type=circle", "did_you_mean": "", "regions": [{"latitude": 34.037076, "default_radius": 4.72, "type": "postal_code", "name": "30144", "longitude": -84.591034}], "call_id": "000b0000004e98db6e43944484867f92070136cef9", "first_hit": 951, "total_hits": 1696, "geo_ids": [26310], "page": 20, "last_hit": 1000}}