{"results": {"rpp": 50, "locations": [{"business_operation_status": 1, "rating": null, "neighborhood": null, "image": null, "scorecard": null, "featured": false, "sample_categories": "Restaurants", "public_id": "beyond-the-box-designs-inc-marietta", "id": 713390380, "votes": null, "tagline": null, "has_video": false, "website": "http://www.citysearch.com/profile/external/713390380/marietta_ga/beyond_the_box_designs_inc.html", "offers": null, "latitude": 33.950732, "politanName": "Atlanta, GA Metro ", "phone_number": "7704898198", "tags": [{"primary": true, "id": 1722, "name": "Restaurants"}], "fax_number": null, "expansion": {"count": null, "uri": null}, "impression_id": "000b000000b39a84beda64492996419d0e2cfa2472", "profile": "http://www.citysearch.com/profile/713390380/marietta_ga/beyond_the_box_designs_inc.html", "address": {"city": "Marietta", "state": "GA", "street": "515 Roswell St Ne", "postal_code": "30060"}, "capProviderId": null, "distance": null, "has_offers": false, "name": "Beyond The Box Designs INC", "longitude": -84.537203, "has_menu": false, "awards": null, "user_review_count": 0}, {"business_operation_status": 1, "rating": null, "neighborhood": null, "image": null, "scorecard": null, "featured": false, "sample_categories": "Catering, Restaurants", "public_id": "a-delightful-bitefull-catering-woodstock", "id": 754838980, "votes": null, "tagline": null, "has_video": false, "website": null, "offers": null, "latitude": 34.096188, "politanName": "Atlanta, GA Metro ", "phone_number": "7705917370", "tags": [{"primary": false, "id": 1722, "name": "Restaurants"}, {"primary": true, "id": 1705, "name": "Catering"}], "fax_number": null, "expansion": {"count": null, "uri": null}, "impression_id": "000b0000003c0040ee7603469e98307dbf5c0c3a36", "profile": "http://www.citysearch.com/profile/754838980/woodstock_ga/a_delightful_bitefull_catering.html", "address": {"city": "Woodstock", "state": "GA", "street": "1503 Willow Bnd", "postal_code": "30188"}, "capProviderId": null, "distance": null, "has_offers": false, "name": "A Delightful Bitefull Catering", "longitude": -84.432721, "has_menu": false, "awards": null, "user_review_count": 0}, {"business_operation_status": 1, "rating": null, "neighborhood": null, "image": null, "scorecard": null, "featured": false, "sample_categories": "Restaurants, Carry Out", "public_id": "wing-street-acworth-3", "id": 764934400, "votes": null, "tagline": null, "has_video": false, "website": null, "offers": null, "latitude": 34.033755, "politanName": "Atlanta, GA Metro ", "phone_number": "7709660555", "tags": [{"primary": false, "id": 11247, "name": "Carry Out"}, {"primary": true, "id": 1722, "name": "Restaurants"}], "fax_number": null, "expansion": {"count": null, "uri": null}, "impression_id": "000b000000bb71e10d8a0e498fb4f711a151c2648c", "profile": "http://www.citysearch.com/profile/764934400/acworth_ga/wing_street.html", "address": {"city": "Acworth", "state": "GA", "street": "3265 Cobb Pkwy NW # 3", "postal_code": "30101"}, "capProviderId": null, "distance": null, "has_offers": false, "name": "Wing Street", "longitude": -84.677156, "has_menu": false, "awards": null, "user_review_count": 0}, {"business_operation_status": 1, "rating": null, "neighborhood": null, "image": null, "scorecard": null, "featured": false, "sample_categories": "Restaurants, Carry Out, Hamburgers", "public_id": "wendys-canton-19", "id": 764932320, "votes": null, "tagline": null, "has_video": false, "website": "http://www.citysearch.com/profile/external/764932320/canton_ga/wendy_s.html", "offers": null, "latitude": 34.212144, "politanName": "Atlanta, GA Metro ", "phone_number": "7703454981", "tags": [{"primary": false, "id": 11247, "name": "Carry Out"}, {"primary": false, "id": 11270, "name": "Hamburgers"}, {"primary": true, "id": 1722, "name": "Restaurants"}], "fax_number": null, "expansion": {"count": null, "uri": null}, "impression_id": "000b00000032d931f57c3d4b4f936d25a7544a423e", "profile": "http://www.citysearch.com/profile/764932320/canton_ga/wendy_s.html", "address": {"city": "Canton", "state": "GA", "street": "101 River Green Ave", "postal_code": "30114"}, "capProviderId": null, "distance": null, "has_offers": false, "name": "Wendy's", "longitude": -84.527679, "has_menu": false, "awards": null, "user_review_count": 0}, {"business_operation_status": 1, "rating": null, "neighborhood": null, "image": null, "scorecard": null, "featured": false, "sample_categories": "Restaurants", "public_id": "buffalos-cafe-marietta", "id": 2870538, "votes": null, "tagline": null, "has_video": false, "website": null, "offers": null, "latitude": 33.950209, "politanName": "Atlanta, GA Metro ", "phone_number": "7705212844", "tags": [{"primary": true, "id": 1722, "name": "Restaurants"}], "fax_number": null, "expansion": {"count": null, "uri": null}, "impression_id": "000b00000005a887cc5bd6483c9eb55e4cd1d729ba", "profile": "http://www.citysearch.com/profile/2870538/marietta_ga/buffalo_s_cafe.html", "address": {"city": "Marietta", "state": "GA", "street": "707 Whitlock Ave SW Ste H13", "postal_code": "30064"}, "capProviderId": null, "distance": null, "has_offers": false, "name": "Buffalo's Cafe", "longitude": -84.573437, "has_menu": true, "awards": null, "user_review_count": 0}, {"business_operation_status": 1, "rating": null, "neighborhood": null, "image": null, "scorecard": null, "featured": false, "sample_categories": "Seafood Markets, Restaurants", "public_id": "cajun-gulf-seafood-marietta", "id": 775189770, "votes": null, "tagline": null, "has_video": false, "website": null, "offers": null, "latitude": 33.970105, "politanName": "Atlanta, GA Metro ", "phone_number": "7705753222", "tags": [{"primary": false, "id": 1722, "name": "Restaurants"}, {"primary": true, "id": 1719, "name": "Seafood Markets"}], "fax_number": null, "expansion": {"count": null, "uri": null}, "impression_id": "000b0000005822d1230f8e4e2290d5e65f5310cdab", "profile": "http://www.citysearch.com/profile/775189770/marietta_ga/cajun_gulf_seafood.html", "address": {"city": "Marietta", "state": "GA", "street": "745 Cobb Pkwy N", "postal_code": "30062"}, "capProviderId": null, "distance": null, "has_offers": false, "name": "Cajun Gulf Seafood", "longitude": -84.5389, "has_menu": false, "awards": null, "user_review_count": 0}, {"business_operation_status": 1, "rating": null, "neighborhood": null, "image": null, "scorecard": null, "featured": false, "sample_categories": "Coffeehouses", "public_id": "assoc-coffee-mill-enthusics-marietta", "id": 787109920, "votes": null, "tagline": null, "has_video": false, "website": null, "offers": null, "latitude": 33.969136, "politanName": "Atlanta, GA Metro ", "phone_number": "7704276434", "tags": [{"primary": true, "id": 1726, "name": "Coffeehouses"}], "fax_number": null, "expansion": {"count": null, "uri": null}, "impression_id": "000b000000b83ad48efd684507aaecda1a3010e883", "profile": "http://www.citysearch.com/profile/787109920/marietta_ga/assoc_coffee_mill_enthusics.html", "address": {"city": "Marietta", "state": "GA", "street": "657 Old Mountain Rd NW", "postal_code": "30064"}, "capProviderId": null, "distance": null, "has_offers": false, "name": "Assoc Coffee Mill Enthusics", "longitude": -84.593531, "has_menu": false, "awards": null, "user_review_count": 0}, {"business_operation_status": 1, "rating": null, "neighborhood": null, "image": null, "scorecard": null, "featured": false, "sample_categories": "Restaurants, Luaus", "public_id": "wings-cantina-woodstock", "id": 787134670, "votes": null, "tagline": null, "has_video": false, "website": null, "offers": null, "latitude": 34.120096, "politanName": "Atlanta, GA Metro ", "phone_number": "7705174470", "tags": [{"primary": false, "id": 1722, "name": "Restaurants"}, {"primary": true, "id": 11285, "name": "Luaus"}], "fax_number": null, "expansion": {"count": null, "uri": null}, "impression_id": "000b000000366b08a489264ba587a012b4178962f4", "profile": "http://www.citysearch.com/profile/787134670/woodstock_ga/wings_cantina.html", "address": {"city": "Woodstock", "state": "GA", "street": "316 Ironhill Trce", "postal_code": "30189"}, "capProviderId": null, "distance": null, "has_offers": false, "name": "Wings Cantina", "longitude": -84.560728, "has_menu": false, "awards": null, "user_review_count": 0}, {"business_operation_status": 1, "rating": null, "neighborhood": null, "image": null, "scorecard": null, "featured": false, "sample_categories": "Restaurants", "public_id": "righteous-que-marietta", "id": 790722150, "votes": null, "tagline": null, "has_video": false, "website": null, "offers": null, "latitude": 33.976739, "politanName": "Atlanta, GA Metro ", "phone_number": "7709718111", "tags": [{"primary": true, "id": 1722, "name": "Restaurants"}], "fax_number": null, "expansion": {"count": null, "uri": null}, "impression_id": "000b000000b468a632e2314c0d885033b1a6605f8f", "profile": "http://www.citysearch.com/profile/790722150/marietta_ga/righteous_que.html", "address": {"city": "Marietta", "state": "GA", "street": "1050 E Piedmont Rd", "postal_code": "30062"}, "capProviderId": null, "distance": null, "has_offers": false, "name": "Righteous Que", "longitude": -84.479676, "has_menu": false, "awards": null, "user_review_count": 0}, {"business_operation_status": 1, "rating": null, "neighborhood": null, "image": null, "scorecard": null, "featured": false, "sample_categories": "Restaurants", "public_id": "artuzzis-woodstock", "id": 672593490, "votes": null, "tagline": null, "has_video": false, "website": "http://www.citysearch.com/profile/external/672593490/woodstock_ga/artuzzi_s.html", "offers": null, "latitude": 34.086912, "politanName": "Atlanta, GA Metro ", "phone_number": "7705926522", "tags": [{"primary": true, "id": 1722, "name": "Restaurants"}], "fax_number": null, "expansion": {"count": null, "uri": null}, "impression_id": "000b000000828ea0d1cc3f40ae8d44fd1588531004", "profile": "http://www.citysearch.com/profile/672593490/woodstock_ga/artuzzi_s.html", "address": {"city": "Woodstock", "state": "GA", "street": "9745 Highway 92", "postal_code": "30188"}, "capProviderId": null, "distance": null, "has_offers": false, "name": "Artuzzi's", "longitude": -84.528611, "has_menu": true, "awards": null, "user_review_count": 1}, {"business_operation_status": 1, "rating": null, "neighborhood": null, "image": null, "scorecard": null, "featured": false, "sample_categories": "Restaurants", "public_id": "bikini-beach-kennesaw", "id": 672684390, "votes": null, "tagline": null, "has_video": false, "website": null, "offers": null, "latitude": 33.991946, "politanName": "Atlanta, GA Metro ", "phone_number": "7704268001", "tags": [{"primary": true, "id": 1722, "name": "Restaurants"}], "fax_number": null, "expansion": {"count": null, "uri": null}, "impression_id": "000b00000093a0c20733a0453a89c5e96f15bfd0bc", "profile": "http://www.citysearch.com/profile/672684390/kennesaw_ga/bikini_beach.html", "address": {"city": "Kennesaw", "state": "GA", "street": "1619 Collins Road Northwest", "postal_code": "30152"}, "capProviderId": null, "distance": null, "has_offers": false, "name": "Bikini Beach", "longitude": -84.59912, "has_menu": false, "awards": null, "user_review_count": 0}, {"business_operation_status": 0, "rating": null, "neighborhood": null, "image": null, "scorecard": null, "featured": false, "sample_categories": "Restaurants", "public_id": "daily-grind-marietta-2", "id": 672770880, "votes": null, "tagline": null, "has_video": false, "website": null, "offers": null, "latitude": 34.014064, "politanName": "Atlanta, GA Metro ", "phone_number": "7709715199", "tags": [{"primary": true, "id": 1722, "name": "Restaurants"}], "fax_number": null, "expansion": {"count": null, "uri": null}, "impression_id": "000b000000f27f08e74c824456b781d0ceb44897b3", "profile": "http://www.citysearch.com/profile/672770880/marietta_ga/daily_grind.html", "address": {"city": "Marietta", "state": "GA", "street": "2595 Sandy Plains Rd", "postal_code": "30066"}, "capProviderId": null, "distance": null, "has_offers": false, "name": "Daily Grind", "longitude": -84.495766, "has_menu": true, "awards": null, "user_review_count": 0}, {"business_operation_status": 1, "rating": null, "neighborhood": null, "image": null, "scorecard": null, "featured": false, "sample_categories": "Restaurants", "public_id": "mustards-last-stand-woodstock", "id": 793282820, "votes": null, "tagline": null, "has_video": false, "website": null, "offers": null, "latitude": 34.117933, "politanName": "Atlanta, GA Metro ", "phone_number": "7706351604", "tags": [{"primary": true, "id": 1722, "name": "Restaurants"}], "fax_number": null, "expansion": {"count": null, "uri": null}, "impression_id": "000b000000aa514528fbe847c491715735db789ad0", "profile": "http://www.citysearch.com/profile/793282820/woodstock_ga/mustards_last_stand.html", "address": {"city": "Woodstock", "state": "GA", "street": "514 Arnold Mill Rd", "postal_code": "30188"}, "capProviderId": null, "distance": null, "has_offers": false, "name": "Mustards Last Stand", "longitude": -84.469363, "has_menu": false, "awards": null, "user_review_count": 0}, {"business_operation_status": 1, "rating": null, "neighborhood": null, "image": null, "scorecard": null, "featured": false, "sample_categories": "Restaurants, Chinese", "public_id": "china-inn-marietta", "id": 787127820, "votes": null, "tagline": null, "has_video": false, "website": null, "offers": null, "latitude": 33.950252, "politanName": "Atlanta, GA Metro ", "phone_number": "7705908023", "tags": [{"primary": false, "id": 11252, "name": "Chinese"}, {"primary": true, "id": 1722, "name": "Restaurants"}], "fax_number": null, "expansion": {"count": null, "uri": null}, "impression_id": "000b00000016a5b2c0bae44fb4b6351c0c0dcc06ec", "profile": "http://www.citysearch.com/profile/787127820/marietta_ga/china_inn.html", "address": {"city": "Marietta", "state": "GA", "street": "2500 Dallas Hwy Sw # 200", "postal_code": "30064"}, "capProviderId": null, "distance": null, "has_offers": false, "name": "China Inn", "longitude": -84.638093, "has_menu": false, "awards": null, "user_review_count": 0}, {"business_operation_status": 1, "rating": null, "neighborhood": null, "image": null, "scorecard": null, "featured": false, "sample_categories": "Restaurants", "public_id": "jc-flowers-bonsai-marietta", "id": 787129080, "votes": null, "tagline": null, "has_video": false, "website": null, "offers": null, "latitude": 33.952602, "politanName": "Atlanta, GA Metro ", "phone_number": "7705653912", "tags": [{"primary": true, "id": 1722, "name": "Restaurants"}], "fax_number": null, "expansion": {"count": null, "uri": null}, "impression_id": "000b000000531a248495284c52939da2f3a9d4f8d4", "profile": "http://www.citysearch.com/profile/787129080/marietta_ga/jc_flowers_bonsai.html", "address": {"city": "Marietta", "state": "GA", "street": "2754 Sandy Plains Rd # 116", "postal_code": "30066"}, "capProviderId": null, "distance": null, "has_offers": false, "name": "Jc Flowers & Bonsai", "longitude": -84.549933, "has_menu": false, "awards": null, "user_review_count": 0}, {"business_operation_status": 0, "rating": null, "neighborhood": null, "image": null, "scorecard": null, "featured": false, "sample_categories": "Restaurants", "public_id": "planet-smoothie-marietta-4", "id": 2904683, "votes": null, "tagline": null, "has_video": false, "website": null, "offers": null, "latitude": 34.037444, "politanName": "Atlanta, GA Metro ", "phone_number": "7703210321", "tags": [{"primary": true, "id": 1722, "name": "Restaurants"}], "fax_number": null, "expansion": {"count": null, "uri": null}, "impression_id": "000b000000398e511c9bf44b9c940a7bb96a8e3ec1", "profile": "http://www.citysearch.com/profile/2904683/marietta_ga/planet_smoothie.html", "address": {"city": "Marietta", "state": "GA", "street": "3065 Shallowford Rd", "postal_code": "30062"}, "capProviderId": null, "distance": null, "has_offers": false, "name": "Planet Smoothie", "longitude": -84.459357, "has_menu": true, "awards": null, "user_review_count": 0}, {"business_operation_status": 1, "rating": null, "neighborhood": null, "image": null, "scorecard": null, "featured": false, "sample_categories": "Restaurants", "public_id": "stars-strikes-dallas", "id": 704869870, "votes": null, "tagline": null, "has_video": false, "website": null, "offers": null, "latitude": 33.925416, "politanName": "Atlanta, GA Metro ", "phone_number": "6789655705", "tags": [{"primary": true, "id": 1722, "name": "Restaurants"}], "fax_number": null, "expansion": {"count": null, "uri": null}, "impression_id": "000b000000f5d48d5cd7924d60a819831380b6dfd0", "profile": "http://www.citysearch.com/profile/704869870/dallas_ga/stars_strikes.html", "address": {"city": "Dallas", "state": "GA", "street": "2400 Hiram Acworth Hwy", "postal_code": "30157"}, "capProviderId": null, "distance": null, "has_offers": false, "name": "Stars & Strikes", "longitude": -84.74616, "has_menu": false, "awards": null, "user_review_count": 0}, {"business_operation_status": 1, "rating": null, "neighborhood": null, "image": null, "scorecard": null, "featured": false, "sample_categories": "Delis And Delicatessens", "public_id": "kroger-deli-marietta-8", "id": 705426210, "votes": null, "tagline": null, "has_video": false, "website": null, "offers": null, "latitude": 34.03494, "politanName": "Atlanta, GA Metro ", "phone_number": "7709777724", "tags": [{"primary": true, "id": 1727, "name": "Delis And Delicatessens"}], "fax_number": null, "expansion": {"count": null, "uri": null}, "impression_id": "000b000000b1d0378cebf745238ec903c8fb1226a3", "profile": "http://www.citysearch.com/profile/705426210/marietta_ga/kroger_deli.html", "address": {"city": "Marietta", "state": "GA", "street": "2960 Shallowford Rd # 199", "postal_code": "30066"}, "capProviderId": null, "distance": null, "has_offers": false, "name": "Kroger Deli", "longitude": -84.466773, "has_menu": false, "awards": null, "user_review_count": 0}, {"business_operation_status": 1, "rating": null, "neighborhood": null, "image": null, "scorecard": null, "featured": false, "sample_categories": "Restaurants", "public_id": "terry-burger-kennesaw", "id": 816406770, "votes": null, "tagline": null, "has_video": false, "website": null, "offers": null, "latitude": 33.992629, "politanName": "Atlanta, GA Metro ", "phone_number": "6782906981", "tags": [{"primary": true, "id": 1722, "name": "Restaurants"}], "fax_number": null, "expansion": {"count": null, "uri": null}, "impression_id": "000b00000053ea63e1786845b685e25788260295ad", "profile": "http://www.citysearch.com/profile/816406770/kennesaw_ga/terry_burger.html", "address": {"city": "Kennesaw", "state": "GA", "street": "1595 Stoddard CT NW", "postal_code": "30152"}, "capProviderId": null, "distance": null, "has_offers": false, "name": "Terry Burger", "longitude": -84.660867, "has_menu": false, "awards": null, "user_review_count": 0}, {"business_operation_status": 0, "rating": null, "neighborhood": null, "image": null, "scorecard": null, "featured": false, "sample_categories": "Restaurants", "public_id": "rosies-diner-woodstock", "id": 816541950, "votes": null, "tagline": null, "has_video": false, "website": null, "offers": null, "latitude": 34.112372, "politanName": "Atlanta, GA Metro ", "phone_number": "7705177313", "tags": [{"primary": true, "id": 1722, "name": "Restaurants"}], "fax_number": null, "expansion": {"count": null, "uri": null}, "impression_id": "000b00000035a6361248b741a493374bb1f9b1df43", "profile": "http://www.citysearch.com/profile/816541950/woodstock_ga/rosie_s_diner.html", "address": {"city": "Woodstock", "state": "GA", "street": "2990 Eagle Dr # 100", "postal_code": "30189"}, "capProviderId": null, "distance": null, "has_offers": false, "name": "Rosie's Diner", "longitude": -84.561077, "has_menu": false, "awards": null, "user_review_count": 0}, {"business_operation_status": 1, "rating": null, "neighborhood": null, "image": null, "scorecard": null, "featured": false, "sample_categories": "Restaurants, Bars & Clubs, Bars & Pubs", "public_id": "celic-firehouse-pub-marietta", "id": 713546520, "votes": null, "tagline": null, "has_video": false, "website": null, "offers": null, "latitude": 33.95185, "politanName": "Atlanta, GA Metro ", "phone_number": "6782906642", "tags": [{"primary": false, "id": 164, "name": "Bars & Clubs"}, {"primary": false, "id": 1686, "name": "Bars & Pubs"}, {"primary": true, "id": 1722, "name": "Restaurants"}], "fax_number": null, "expansion": {"count": null, "uri": null}, "impression_id": "000b000000613df463140042fb8bdfb333699bbb9f", "profile": "http://www.citysearch.com/profile/713546520/marietta_ga/celic_firehouse_pub.html", "address": {"city": "Marietta", "state": "GA", "street": "15 Atlanta St Se", "postal_code": "30060"}, "capProviderId": null, "distance": null, "has_offers": false, "name": "Celic Firehouse Pub", "longitude": -84.548701, "has_menu": false, "awards": null, "user_review_count": 0}, {"business_operation_status": 1, "rating": null, "neighborhood": null, "image": null, "scorecard": null, "featured": false, "sample_categories": "Restaurants, Barbecue Restaurants, Carry Out", "public_id": "wingstreet-acworth-2", "id": 728120470, "votes": null, "tagline": null, "has_video": false, "website": null, "offers": null, "latitude": 34.083387, "politanName": "Atlanta, GA Metro ", "phone_number": "4049757444", "tags": [{"primary": false, "id": 1724, "name": "Barbecue Restaurants"}, {"primary": false, "id": 11247, "name": "Carry Out"}, {"primary": true, "id": 1722, "name": "Restaurants"}], "fax_number": null, "expansion": {"count": null, "uri": null}, "impression_id": "000b0000000d6817bd353b40298a892dc2bdd60e2c", "profile": "http://www.citysearch.com/profile/728120470/acworth_ga/wingstreet.html", "address": {"city": "Acworth", "state": "GA", "street": "5070 Glade Rd", "postal_code": "30101"}, "capProviderId": null, "distance": null, "has_offers": false, "name": "Wingstreet", "longitude": -84.676474, "has_menu": false, "awards": null, "user_review_count": 0}, {"business_operation_status": 1, "rating": null, "neighborhood": null, "image": null, "scorecard": null, "featured": false, "sample_categories": "Restaurants", "public_id": "linda-mc-entyre-catering-woodstock", "id": 633015150, "votes": null, "tagline": null, "has_video": false, "website": null, "offers": null, "latitude": 34.114833, "politanName": "Atlanta, GA Metro ", "phone_number": "7705169489", "tags": [{"primary": true, "id": 1722, "name": "Restaurants"}], "fax_number": null, "expansion": {"count": null, "uri": null}, "impression_id": "000b0000002c94e5dcafa24697a48a34b3b91a240c", "profile": "http://www.citysearch.com/profile/633015150/woodstock_ga/linda_mc_entyre_catering.html", "address": {"city": "Woodstock", "state": "GA", "street": "2005 Cresthaven Walk", "postal_code": "30189"}, "capProviderId": null, "distance": null, "has_offers": false, "name": "Linda Mc Entyre Catering", "longitude": -84.573272, "has_menu": false, "awards": null, "user_review_count": 0}, {"business_operation_status": 1, "rating": null, "neighborhood": null, "image": null, "scorecard": null, "featured": false, "sample_categories": "Restaurants, Mexican", "public_id": "el-chile-restaurant-woodstock", "id": 757930500, "votes": null, "tagline": null, "has_video": false, "website": null, "offers": null, "latitude": 34.083799, "politanName": "Atlanta, GA Metro ", "phone_number": "6784028649", "tags": [{"primary": false, "id": 11208, "name": "Mexican"}, {"primary": true, "id": 1722, "name": "Restaurants"}], "fax_number": null, "expansion": {"count": null, "uri": null}, "impression_id": "000b0000002276380b5b0e4a71919a38526f495c32", "profile": "http://www.citysearch.com/profile/757930500/woodstock_ga/el_chile_restaurant.html", "address": {"city": "Woodstock", "state": "GA", "street": "9770 Main St", "postal_code": "30188"}, "capProviderId": null, "distance": null, "has_offers": false, "name": "El Chile Restaurant", "longitude": -84.519754, "has_menu": false, "awards": null, "user_review_count": 0}, {"business_operation_status": 1, "rating": null, "neighborhood": null, "image": null, "scorecard": null, "featured": false, "sample_categories": "Seafood Markets, Restaurants, Seafood", "public_id": "pieer-213-seafood-marietta", "id": 772962240, "votes": null, "tagline": null, "has_video": false, "website": null, "offers": null, "latitude": 33.951025, "politanName": "Atlanta, GA Metro ", "phone_number": "6782908170", "tags": [{"primary": false, "id": 1722, "name": "Restaurants"}, {"primary": false, "id": 11228, "name": "Seafood"}, {"primary": true, "id": 1719, "name": "Seafood Markets"}], "fax_number": null, "expansion": {"count": null, "uri": null}, "impression_id": "000b0000004aa6f923fe2a4632908a60ca05f26453", "profile": "http://www.citysearch.com/profile/772962240/marietta_ga/pieer_213_seafood.html", "address": {"city": "Marietta", "state": "GA", "street": "35 S Marietta Pkwy Sw", "postal_code": "30064"}, "capProviderId": null, "distance": null, "has_offers": false, "name": "Pieer 213 Seafood", "longitude": -84.551785, "has_menu": false, "awards": null, "user_review_count": 0}, {"business_operation_status": 1, "rating": null, "neighborhood": null, "image": null, "scorecard": null, "featured": false, "sample_categories": "Restaurants, Mexican, Carry Out", "public_id": "marietta-marietta", "id": 2907255, "votes": null, "tagline": null, "has_video": false, "website": "http://www.citysearch.com/profile/external/2907255/marietta_ga/marietta.html", "offers": null, "latitude": 34.036665, "politanName": "Atlanta, GA Metro ", "phone_number": "7705789432", "tags": [{"primary": false, "id": 11208, "name": "Mexican"}, {"primary": false, "id": 11247, "name": "Carry Out"}, {"primary": true, "id": 1722, "name": "Restaurants"}], "fax_number": null, "expansion": {"count": null, "uri": null}, "impression_id": "000b0000001103c69225cc427ea49a8f2aea824d56", "profile": "http://www.citysearch.com/profile/2907255/marietta_ga/marietta.html", "address": {"city": "Marietta", "state": "GA", "street": "2971 Shallowford Rd", "postal_code": "30066"}, "capProviderId": null, "distance": null, "has_offers": false, "name": "Marietta", "longitude": -84.464103, "has_menu": true, "awards": null, "user_review_count": 0}, {"business_operation_status": 1, "rating": 8.0, "neighborhood": null, "image": null, "scorecard": null, "featured": false, "sample_categories": "Restaurants, American Express, Discover, MasterCard, Visa", "public_id": "joyful-diner-marietta", "id": 2908308, "votes": null, "tagline": null, "has_video": false, "website": null, "offers": null, "latitude": 34.017069, "politanName": "Atlanta, GA Metro ", "phone_number": "7705656700", "tags": [{"primary": false, "id": 11333, "name": "American Express"}, {"primary": false, "id": 11349, "name": "Discover"}, {"primary": false, "id": 11361, "name": "MasterCard"}, {"primary": false, "id": 11382, "name": "Visa"}, {"primary": true, "id": 1722, "name": "Restaurants"}], "fax_number": null, "expansion": {"count": null, "uri": null}, "impression_id": "000b000000b02c159aacd543e98d45554c23e240f3", "profile": "http://www.citysearch.com/profile/2908308/marietta_ga/joyful_diner.html", "address": {"city": "Marietta", "state": "GA", "street": "2778 Sandy Plains Rd", "postal_code": "30066"}, "capProviderId": null, "distance": null, "has_offers": false, "name": "Joyful Diner", "longitude": -84.491613, "has_menu": false, "awards": null, "user_review_count": 1}, {"business_operation_status": 0, "rating": null, "neighborhood": null, "image": null, "scorecard": null, "featured": false, "sample_categories": "Coffeehouses, Restaurants", "public_id": "expresso-expresso-marietta", "id": 2908344, "votes": null, "tagline": null, "has_video": false, "website": null, "offers": null, "latitude": 34.018009, "politanName": "Atlanta, GA Metro ", "phone_number": "7066375366", "tags": [{"primary": false, "id": 1722, "name": "Restaurants"}, {"primary": true, "id": 1726, "name": "Coffeehouses"}], "fax_number": null, "expansion": {"count": null, "uri": null}, "impression_id": "000b0000004741c7a16e234ff88b5d27e95530c428", "profile": "http://www.citysearch.com/profile/2908344/marietta_ga/expresso_expresso.html", "address": {"city": "Marietta", "state": "GA", "street": "1251 Morgan Chase Dr NE", "postal_code": "30066"}, "capProviderId": null, "distance": null, "has_offers": false, "name": "Expresso Expresso", "longitude": -84.515255, "has_menu": false, "awards": null, "user_review_count": 0}, {"business_operation_status": 1, "rating": null, "neighborhood": null, "image": null, "scorecard": null, "featured": false, "sample_categories": "Restaurants, Delis And Delicatessens, Carry Out", "public_id": "firehouse-subs-woodstock-2", "id": 777757870, "votes": null, "tagline": null, "has_video": false, "website": null, "offers": null, "latitude": 34.100351, "politanName": "Atlanta, GA Metro ", "phone_number": "7706647615", "tags": [{"primary": false, "id": 1727, "name": "Delis And Delicatessens"}, {"primary": false, "id": 11247, "name": "Carry Out"}, {"primary": true, "id": 1722, "name": "Restaurants"}], "fax_number": null, "expansion": {"count": null, "uri": null}, "impression_id": "000b0000009ee5d053d73145fca983b2df95c78657", "profile": "http://www.citysearch.com/profile/777757870/woodstock_ga/firehouse_subs.html", "address": {"city": "Woodstock", "state": "GA", "street": "123 E Main St", "postal_code": "30188"}, "capProviderId": null, "distance": null, "has_offers": false, "name": "Firehouse Subs", "longitude": -84.519352, "has_menu": false, "awards": null, "user_review_count": 0}, {"business_operation_status": 1, "rating": null, "neighborhood": null, "image": null, "scorecard": null, "featured": false, "sample_categories": "Restaurants", "public_id": "royal-waffel-king-woodstock", "id": 2964180, "votes": null, "tagline": null, "has_video": false, "website": null, "offers": null, "latitude": 34.10272, "politanName": "Atlanta, GA Metro ", "phone_number": "7705161212", "tags": [{"primary": true, "id": 1722, "name": "Restaurants"}], "fax_number": null, "expansion": {"count": null, "uri": null}, "impression_id": "000b0000005496439d7c8f42c0a06b1a5731f91793", "profile": "http://www.citysearch.com/profile/2964180/woodstock_ga/royal_waffel_king.html", "address": {"city": "Woodstock", "state": "GA", "street": "224 Towne Lake Pkwy", "postal_code": "30188"}, "capProviderId": null, "distance": null, "has_offers": false, "name": "Royal Waffel King", "longitude": -84.528438, "has_menu": true, "awards": null, "user_review_count": 0}, {"business_operation_status": 1, "rating": null, "neighborhood": null, "image": null, "scorecard": null, "featured": false, "sample_categories": "Restaurants, American Express, MasterCard, Visa", "public_id": "buddhas-delight-marietta", "id": 2908307, "votes": null, "tagline": null, "has_video": false, "website": "http://www.citysearch.com/profile/external/2908307/marietta_ga/buddhas_delight.html", "offers": null, "latitude": 34.017093, "politanName": "Atlanta, GA Metro ", "phone_number": "7705651995", "tags": [{"primary": false, "id": 11333, "name": "American Express"}, {"primary": false, "id": 11361, "name": "MasterCard"}, {"primary": false, "id": 11382, "name": "Visa"}, {"primary": true, "id": 1722, "name": "Restaurants"}], "fax_number": null, "expansion": {"count": null, "uri": null}, "impression_id": "000b00000059c0abfebc1147dbad771cb6fbbb781b", "profile": "http://www.citysearch.com/profile/2908307/marietta_ga/buddhas_delight.html", "address": {"city": "Marietta", "state": "GA", "street": "2731 Sandy Plains Rd", "postal_code": "30066"}, "capProviderId": null, "distance": null, "has_offers": false, "name": "Buddhas Delight", "longitude": -84.492328, "has_menu": true, "awards": null, "user_review_count": 3}, {"business_operation_status": 1, "rating": null, "neighborhood": null, "image": null, "scorecard": null, "featured": false, "sample_categories": "Restaurants", "public_id": "el-don-acworth", "id": 793360730, "votes": null, "tagline": null, "has_video": false, "website": null, "offers": null, "latitude": 34.087774, "politanName": "Atlanta, GA Metro ", "phone_number": "6784455593", "tags": [{"primary": true, "id": 1722, "name": "Restaurants"}], "fax_number": null, "expansion": {"count": null, "uri": null}, "impression_id": "000b000000933d2df12506463f8130ec5333a30afd", "profile": "http://www.citysearch.com/profile/793360730/acworth_ga/el_don.html", "address": {"city": "Acworth", "state": "GA", "street": "5683 Bells Ferry Rd", "postal_code": "30102"}, "capProviderId": null, "distance": null, "has_offers": false, "name": "El Don", "longitude": -84.5771, "has_menu": false, "awards": null, "user_review_count": 0}, {"business_operation_status": 1, "rating": null, "neighborhood": null, "image": null, "scorecard": null, "featured": false, "sample_categories": "Restaurants, Delis And Delicatessens, Sandwich Shops, Carry Out", "public_id": "subway-woodstock-11", "id": 811170020, "votes": null, "tagline": null, "has_video": false, "website": null, "offers": null, "latitude": 34.110969, "politanName": "Atlanta, GA Metro ", "phone_number": "7705917411", "tags": [{"primary": false, "id": 1727, "name": "Delis And Delicatessens"}, {"primary": false, "id": 1736, "name": "Sandwich Shops"}, {"primary": false, "id": 11247, "name": "Carry Out"}, {"primary": true, "id": 1722, "name": "Restaurants"}], "fax_number": null, "expansion": {"count": null, "uri": null}, "impression_id": "000b000000a727e241d89f49fb8704ab34ae647f68", "profile": "http://www.citysearch.com/profile/811170020/woodstock_ga/subway.html", "address": {"city": "Woodstock", "state": "GA", "street": "1018 Braddock Cir", "postal_code": "30189"}, "capProviderId": null, "distance": null, "has_offers": false, "name": "SUBWAY", "longitude": -84.5902, "has_menu": false, "awards": null, "user_review_count": 0}, {"business_operation_status": 1, "rating": null, "neighborhood": null, "image": null, "scorecard": null, "featured": false, "sample_categories": "Restaurants, Carry Out", "public_id": "mc-donalds-canton-33", "id": 728117040, "votes": null, "tagline": null, "has_video": false, "website": "http://www.citysearch.com/profile/external/728117040/canton_ga/mc_donald_s.html", "offers": null, "latitude": 34.176715, "politanName": "Atlanta, GA Metro ", "phone_number": "7703454996", "tags": [{"primary": false, "id": 11247, "name": "Carry Out"}, {"primary": true, "id": 1722, "name": "Restaurants"}], "fax_number": null, "expansion": {"count": null, "uri": null}, "impression_id": "000b0000001e07f6e3eae8490ab9218f15acb56276", "profile": "http://www.citysearch.com/profile/728117040/canton_ga/mc_donald_s.html", "address": {"city": "Canton", "state": "GA", "street": "213 Evergreen Trce", "postal_code": "30114"}, "capProviderId": null, "distance": null, "has_offers": false, "name": "Mc Donald's", "longitude": -84.557041, "has_menu": false, "awards": null, "user_review_count": 0}, {"business_operation_status": 0, "rating": null, "neighborhood": null, "image": null, "scorecard": null, "featured": false, "sample_categories": "Restaurants", "public_id": "izzys-cantina-taqueria-llc-woodstock", "id": 732210320, "votes": null, "tagline": null, "has_video": false, "website": null, "offers": null, "latitude": 34.084509, "politanName": "Atlanta, GA Metro ", "phone_number": "7709262628", "tags": [{"primary": true, "id": 1722, "name": "Restaurants"}], "fax_number": null, "expansion": {"count": null, "uri": null}, "impression_id": "000b000000bb9ca2fa15e34a06959caa88419a0fc0", "profile": "http://www.citysearch.com/profile/732210320/woodstock_ga/izzy_s_cantina_taqueria_llc.html", "address": {"city": "Woodstock", "state": "GA", "street": "290 Molly Ln", "postal_code": "30189"}, "capProviderId": null, "distance": null, "has_offers": false, "name": "Izzy's Cantina & Taqueria LLC", "longitude": -84.540278, "has_menu": false, "awards": null, "user_review_count": 0}, {"business_operation_status": 1, "rating": null, "neighborhood": null, "image": null, "scorecard": null, "featured": false, "sample_categories": "Restaurants", "public_id": "checkers-marietta-3", "id": 836194250, "votes": null, "tagline": null, "has_video": false, "website": null, "offers": null, "latitude": 33.950121, "politanName": "Atlanta, GA Metro ", "phone_number": "7704298398", "tags": [{"primary": true, "id": 1722, "name": "Restaurants"}], "fax_number": null, "expansion": {"count": null, "uri": null}, "impression_id": "000b0000009d5c8a37083443549eab1b7160d78c6d", "profile": "http://www.citysearch.com/profile/836194250/marietta_ga/checkers.html", "address": {"city": "Marietta", "state": "GA", "street": "41 Cobb Pkwy S", "postal_code": "30060"}, "capProviderId": null, "distance": null, "has_offers": false, "name": "Checkers", "longitude": -84.519571, "has_menu": false, "awards": null, "user_review_count": 0}, {"business_operation_status": 1, "rating": null, "neighborhood": null, "image": null, "scorecard": null, "featured": false, "sample_categories": "Restaurants", "public_id": "mcdonalds-restaurants-woodstock-2", "id": 611864154, "votes": null, "tagline": null, "has_video": false, "website": null, "offers": null, "latitude": 34.086513, "politanName": "Atlanta, GA Metro ", "phone_number": "7705910074", "tags": [{"primary": true, "id": 1722, "name": "Restaurants"}], "fax_number": null, "expansion": {"count": null, "uri": null}, "impression_id": "000b00000021f1b8daf2ed4bf99770ce6e107c4e7e", "profile": "http://www.citysearch.com/profile/611864154/woodstock_ga/mcdonald_s_restaurants.html", "address": {"city": "Woodstock", "state": "GA", "street": "9961 Highway 92", "postal_code": "30188"}, "capProviderId": null, "distance": null, "has_offers": false, "name": "Mcdonald's Restaurants", "longitude": -84.522411, "has_menu": false, "awards": null, "user_review_count": 0}, {"business_operation_status": 1, "rating": null, "neighborhood": null, "image": null, "scorecard": null, "featured": false, "sample_categories": "Coffeehouses", "public_id": "starbucks-woodstock", "id": 627665050, "votes": null, "tagline": null, "has_video": false, "website": "http://www.citysearch.com/profile/external/627665050/woodstock_ga/starbucks.html", "offers": null, "latitude": 34.083888, "politanName": "Atlanta, GA Metro ", "phone_number": "6784945307", "tags": [{"primary": true, "id": 1726, "name": "Coffeehouses"}], "fax_number": null, "expansion": {"count": null, "uri": null}, "impression_id": "000b000000cdcbad53d43f44d1ba8d0a189a9a6509", "profile": "http://www.citysearch.com/profile/627665050/woodstock_ga/starbucks.html", "address": {"city": "Woodstock", "state": "GA", "street": "140 Woodstock Square Ave", "postal_code": "30189"}, "capProviderId": null, "distance": null, "has_offers": false, "name": "Starbucks", "longitude": -84.543985, "has_menu": true, "awards": null, "user_review_count": 0}, {"business_operation_status": 1, "rating": null, "neighborhood": null, "image": null, "scorecard": null, "featured": false, "sample_categories": "Restaurants", "public_id": "neighborhood-restaurant-prtnrs-woodstock", "id": 627763204, "votes": null, "tagline": null, "has_video": false, "website": "http://www.citysearch.com/profile/external/627763204/woodstock_ga/applebee_s.html", "offers": null, "latitude": 34.120924, "politanName": "Atlanta, GA Metro ", "phone_number": "6786263677", "tags": [{"primary": true, "id": 1722, "name": "Restaurants"}], "fax_number": null, "expansion": {"count": null, "uri": null}, "impression_id": "000b0000003babf1f2963648cbb7a8b3f5ca7631bd", "profile": "http://www.citysearch.com/profile/627763204/woodstock_ga/applebee_s.html", "address": {"city": "Woodstock", "state": "GA", "street": "901 Ridgewalk Pkwy", "postal_code": "30188"}, "capProviderId": null, "distance": null, "has_offers": false, "name": "Applebee's", "longitude": -84.521823, "has_menu": false, "awards": null, "user_review_count": 0}, {"business_operation_status": 1, "rating": null, "neighborhood": null, "image": null, "scorecard": null, "featured": false, "sample_categories": "Cafes", "public_id": "reveille-cafe-marietta-2", "id": 619600404, "votes": null, "tagline": null, "has_video": false, "website": null, "offers": null, "latitude": 34.023215, "politanName": "Atlanta, GA Metro ", "phone_number": "7709716800", "tags": [{"primary": true, "id": 6190, "name": "Cafes"}], "fax_number": null, "expansion": {"count": null, "uri": null}, "impression_id": "000b0000007ef89863b3aa4ca9b418354b7212e044", "profile": "http://www.citysearch.com/profile/619600404/marietta_ga/reveille_cafe.html", "address": {"city": "Marietta", "state": "GA", "street": "2960 Sandy Plains Rd # 130", "postal_code": "30066"}, "capProviderId": null, "distance": null, "has_offers": false, "name": "Reveille Cafe", "longitude": -84.485512, "has_menu": false, "awards": null, "user_review_count": 0}, {"business_operation_status": 1, "rating": null, "neighborhood": null, "image": null, "scorecard": null, "featured": false, "sample_categories": "Restaurants", "public_id": "abbondanza-acworth", "id": 655873520, "votes": null, "tagline": null, "has_video": false, "website": null, "offers": null, "latitude": 34.050728, "politanName": "Atlanta, GA Metro ", "phone_number": "7706938752", "tags": [{"primary": true, "id": 1722, "name": "Restaurants"}], "fax_number": null, "expansion": {"count": null, "uri": null}, "impression_id": "000b0000002f6ccf76252c4962903e93c97bca4cd2", "profile": "http://www.citysearch.com/profile/655873520/acworth_ga/abbondanza.html", "address": {"city": "Acworth", "state": "GA", "street": "3979 S Main St", "postal_code": "30101"}, "capProviderId": null, "distance": null, "has_offers": false, "name": "Abbondanza", "longitude": -84.663654, "has_menu": false, "awards": null, "user_review_count": 0}, {"business_operation_status": 1, "rating": null, "neighborhood": null, "image": null, "scorecard": null, "featured": false, "sample_categories": "Restaurants, Bars & Clubs, Bars & Pubs", "public_id": "stadium-bar-grill-marietta", "id": 647336140, "votes": null, "tagline": null, "has_video": false, "website": null, "offers": null, "latitude": 34.011742, "politanName": "Atlanta, GA Metro ", "phone_number": "7705092899", "tags": [{"primary": false, "id": 164, "name": "Bars & Clubs"}, {"primary": false, "id": 1686, "name": "Bars & Pubs"}, {"primary": true, "id": 1722, "name": "Restaurants"}], "fax_number": null, "expansion": {"count": null, "uri": null}, "impression_id": "000b00000016ec5be7f36449c0b7817b42400d6d78", "profile": "http://www.citysearch.com/profile/647336140/marietta_ga/stadium_bar_grill.html", "address": {"city": "Marietta", "state": "GA", "street": "2550 Sandy Plains Rd", "postal_code": "30066"}, "capProviderId": null, "distance": null, "has_offers": false, "name": "Stadium Bar & Grill", "longitude": -84.495056, "has_menu": false, "awards": null, "user_review_count": 0}, {"business_operation_status": 1, "rating": null, "neighborhood": null, "image": null, "scorecard": null, "featured": false, "sample_categories": "Restaurants, Traditional American, Carry Out, MasterCard, Visa", "public_id": "waffle-house-acworth-6", "id": 682723260, "votes": null, "tagline": null, "has_video": false, "website": "http://www.citysearch.com/profile/external/682723260/acworth_ga/waffle_house.html", "offers": null, "latitude": 34.07789, "politanName": "Atlanta, GA Metro ", "phone_number": "7709170683", "tags": [{"primary": false, "id": 11190, "name": "Traditional American"}, {"primary": false, "id": 11247, "name": "Carry Out"}, {"primary": false, "id": 11361, "name": "MasterCard"}, {"primary": false, "id": 11382, "name": "Visa"}, {"primary": true, "id": 1722, "name": "Restaurants"}], "fax_number": null, "expansion": {"count": null, "uri": null}, "impression_id": "000b000000d75e4b37d6094c53b682ac9345247367", "profile": "http://www.citysearch.com/profile/682723260/acworth_ga/waffle_house.html", "address": {"city": "Acworth", "state": "GA", "street": "5350 Cherokee St # 857", "postal_code": "30101"}, "capProviderId": null, "distance": null, "has_offers": false, "name": "Waffle House", "longitude": -84.676435, "has_menu": true, "awards": null, "user_review_count": 0}, {"business_operation_status": 1, "rating": null, "neighborhood": null, "image": null, "scorecard": null, "featured": false, "sample_categories": "Restaurants, Delis And Delicatessens", "public_id": "roly-poly-sandwiches-woodstock-2", "id": 682472160, "votes": null, "tagline": null, "has_video": false, "website": "http://www.citysearch.com/profile/external/682472160/woodstock_ga/roly_poly_sandwiches.html", "offers": null, "latitude": 34.104183, "politanName": "Atlanta, GA Metro ", "phone_number": "7709287659", "tags": [{"primary": false, "id": 1727, "name": "Delis And Delicatessens"}, {"primary": true, "id": 1722, "name": "Restaurants"}], "fax_number": null, "expansion": {"count": null, "uri": null}, "impression_id": "000b000000c3c7c2f1fde94abe929eba5bb775574d", "profile": "http://www.citysearch.com/profile/682472160/woodstock_ga/roly_poly_sandwiches.html", "address": {"city": "Woodstock", "state": "GA", "street": "875 Towne Lake Pkwy # 100", "postal_code": "30189"}, "capProviderId": null, "distance": null, "has_offers": false, "name": "Roly Poly Sandwiches", "longitude": -84.53987, "has_menu": true, "awards": null, "user_review_count": 0}, {"business_operation_status": 1, "rating": null, "neighborhood": null, "image": null, "scorecard": null, "featured": false, "sample_categories": "Restaurants", "public_id": "pizzahut-acworth", "id": 713588360, "votes": null, "tagline": null, "has_video": false, "website": null, "offers": null, "latitude": 34.060456, "politanName": "Atlanta, GA Metro ", "phone_number": "7709754306", "tags": [{"primary": true, "id": 1722, "name": "Restaurants"}], "fax_number": null, "expansion": {"count": null, "uri": null}, "impression_id": "000b000000e4153c55535e4585ba7f782353bfbe3a", "profile": "http://www.citysearch.com/profile/713588360/acworth_ga/pizzahut.html", "address": {"city": "Acworth", "state": "GA", "street": "3298 Cobb Pkwy NW", "postal_code": "30101"}, "capProviderId": null, "distance": null, "has_offers": false, "name": "Pizzahut", "longitude": -84.721428, "has_menu": false, "awards": null, "user_review_count": 0}, {"business_operation_status": 1, "rating": null, "neighborhood": null, "image": null, "scorecard": null, "featured": false, "sample_categories": "Restaurants, Barbecue Restaurants, Cajun & Creole", "public_id": "wow-cafe-wingery-kennesaw", "id": 732246340, "votes": null, "tagline": null, "has_video": false, "website": null, "offers": null, "latitude": 33.99449, "politanName": "Atlanta, GA Metro ", "phone_number": "7707958590", "tags": [{"primary": false, "id": 1724, "name": "Barbecue Restaurants"}, {"primary": false, "id": 11245, "name": "Cajun & Creole"}, {"primary": true, "id": 1722, "name": "Restaurants"}], "fax_number": null, "expansion": {"count": null, "uri": null}, "impression_id": "000b00000013e34c8bf33346f0b6cbe483d7d1f381", "profile": "http://www.citysearch.com/profile/732246340/kennesaw_ga/wow_cafe_wingery.html", "address": {"city": "Kennesaw", "state": "GA", "street": "1615 Ridenour Blvd NW # 207", "postal_code": "30152"}, "capProviderId": null, "distance": null, "has_offers": false, "name": "WOW Cafe & Wingery", "longitude": -84.592515, "has_menu": false, "awards": null, "user_review_count": 0}, {"business_operation_status": 1, "rating": null, "neighborhood": null, "image": null, "scorecard": null, "featured": false, "sample_categories": "Restaurants", "public_id": "tacos-el-sabor-woodstock", "id": 627538314, "votes": null, "tagline": null, "has_video": false, "website": null, "offers": null, "latitude": 34.112098, "politanName": "Atlanta, GA Metro ", "phone_number": "6784028283", "tags": [{"primary": true, "id": 1722, "name": "Restaurants"}], "fax_number": null, "expansion": {"count": null, "uri": null}, "impression_id": "000b000000740e5be597da4003bb5b9200767b9589", "profile": "http://www.citysearch.com/profile/627538314/woodstock_ga/tacos_el_sabor.html", "address": {"city": "Woodstock", "state": "GA", "street": "6425 Bells Ferry Rd", "postal_code": "30189"}, "capProviderId": null, "distance": null, "has_offers": false, "name": "Tacos El Sabor", "longitude": -84.582389, "has_menu": false, "awards": null, "user_review_count": 0}, {"business_operation_status": 0, "rating": null, "neighborhood": null, "image": null, "scorecard": null, "featured": false, "sample_categories": "Coffeehouses", "public_id": "starbucks-dallas-8", "id": 627639330, "votes": null, "tagline": null, "has_video": false, "website": "http://www.citysearch.com/profile/external/627639330/dallas_ga/starbucks.html", "offers": null, "latitude": 33.985034, "politanName": "Atlanta, GA Metro ", "phone_number": "6785747173", "tags": [{"primary": true, "id": 1726, "name": "Coffeehouses"}], "fax_number": null, "expansion": {"count": null, "uri": null}, "impression_id": "000b000000c011360d02c940d2b3194526ee9482a0", "profile": "http://www.citysearch.com/profile/627639330/dallas_ga/starbucks.html", "address": {"city": "Dallas", "state": "GA", "street": "8876 Dallas Acworth Hwy", "postal_code": "30132"}, "capProviderId": null, "distance": null, "has_offers": false, "name": "Starbucks", "longitude": -84.771736, "has_menu": true, "awards": null, "user_review_count": 1}, {"business_operation_status": 1, "rating": null, "neighborhood": null, "image": null, "scorecard": null, "featured": false, "sample_categories": "Restaurants, Barbecue Restaurants", "public_id": "shanes-rib-shack-canton-3", "id": 627658140, "votes": null, "tagline": null, "has_video": false, "website": "http://www.citysearch.com/profile/external/627658140/canton_ga/shane_s_rib_shack.html", "offers": null, "latitude": 34.152288, "politanName": "Atlanta, GA Metro ", "phone_number": "7705178655", "tags": [{"primary": false, "id": 1724, "name": "Barbecue Restaurants"}, {"primary": true, "id": 1722, "name": "Restaurants"}], "fax_number": null, "expansion": {"count": null, "uri": null}, "impression_id": "000b00000096fda1e7858a491a823b2090ea63f957", "profile": "http://www.citysearch.com/profile/627658140/canton_ga/shane_s_rib_shack.html", "address": {"city": "Canton", "state": "GA", "street": "4504 Holly Springs Pkwy # 101", "postal_code": "30115"}, "capProviderId": null, "distance": null, "has_offers": false, "name": "Shane's Rib Shack", "longitude": -84.510107, "has_menu": false, "awards": null, "user_review_count": 0}, {"business_operation_status": 1, "rating": null, "neighborhood": null, "image": null, "scorecard": null, "featured": false, "sample_categories": "Restaurants, Delis And Delicatessens, Sandwich Shops, Carry Out, Soups", "public_id": "subway-kennesaw-5", "id": 43860432, "votes": null, "tagline": null, "has_video": false, "website": "http://www.citysearch.com/profile/external/43860432/kennesaw_ga/subway.html", "offers": null, "latitude": 33.992292, "politanName": "Atlanta, GA Metro ", "phone_number": "7704298722", "tags": [{"primary": false, "id": 1727, "name": "Delis And Delicatessens"}, {"primary": false, "id": 1736, "name": "Sandwich Shops"}, {"primary": false, "id": 11247, "name": "Carry Out"}, {"primary": false, "id": 11311, "name": "Soups"}, {"primary": false, "id": 11333, "name": "American Express"}, {"primary": false, "id": 11349, "name": "Discover"}, {"primary": false, "id": 11361, "name": "MasterCard"}, {"primary": false, "id": 11382, "name": "Visa"}, {"primary": true, "id": 1722, "name": "Restaurants"}], "fax_number": null, "expansion": {"count": null, "uri": null}, "impression_id": "000b000000e83779fa303d4236ab7eac0fdce0c5bd", "profile": "http://www.citysearch.com/profile/43860432/kennesaw_ga/subway.html", "address": {"city": "Kennesaw", "state": "GA", "street": "1605 Collins Rd NW 500", "postal_code": "30152"}, "capProviderId": null, "distance": null, "has_offers": false, "name": "Subway", "longitude": -84.598483, "has_menu": true, "awards": null, "user_review_count": 0}], "histograms": [], "tag_ids": [1722], "uri": "http://api.citygridmedia.com:8080/search/places/v2/search/where?has_offers=false&type=restaurant&format=json&page=29&where=30144&rpp=50&histograms=false&publisher=10000009598&region_type=circle", "did_you_mean": "", "regions": [{"latitude": 34.037076, "default_radius": 4.72, "type": "postal_code", "name": "30144", "longitude": -84.591034}], "call_id": "000b0000003a3617a11c3f43b698ecafa7ba633611", "first_hit": 1401, "total_hits": 1696, "geo_ids": [26310], "page": 29, "last_hit": 1450}}