{"results": {"rpp": 50, "locations": [{"business_operation_status": 1, "rating": null, "neighborhood": null, "image": null, "scorecard": null, "featured": false, "sample_categories": "Restaurants, Pizza", "public_id": "sub-pizza-co-woodstock", "id": 764894380, "votes": null, "tagline": null, "has_video": false, "website": null, "offers": null, "latitude": 34.130884, "politanName": "Atlanta, GA Metro ", "phone_number": "7705911119", "tags": [{"primary": false, "id": 11299, "name": "Pizza"}, {"primary": true, "id": 1722, "name": "Restaurants"}], "fax_number": null, "expansion": {"count": null, "uri": null}, "impression_id": "000b0000004e65d798829246169d7b632a2f76e220", "profile": "http://www.citysearch.com/profile/764894380/woodstock_ga/sub_pizza_co.html", "address": {"city": "Woodstock", "state": "GA", "street": "6687 Bells Ferry Rd", "postal_code": "30189"}, "capProviderId": null, "distance": null, "has_offers": false, "name": "Sub & Pizza Co", "longitude": -84.586697, "has_menu": false, "awards": null, "user_review_count": 0}, {"business_operation_status": 1, "rating": null, "neighborhood": null, "image": null, "scorecard": null, "featured": false, "sample_categories": "Health Food Stores, Restaurants", "public_id": "planet-smoothie-marietta", "id": 36642521, "votes": null, "tagline": null, "has_video": false, "website": "http://www.citysearch.com/profile/external/36642521/marietta_ga/planet_smoothie.html", "offers": null, "latitude": 33.969856, "politanName": "Atlanta, GA Metro ", "phone_number": "6785604001", "tags": [{"primary": false, "id": 1722, "name": "Restaurants"}, {"primary": true, "id": 1716, "name": "Health Food Stores"}], "fax_number": null, "expansion": {"count": null, "uri": null}, "impression_id": "000b000000f05b49341722449c9526b229b4bbe55b", "profile": "http://www.citysearch.com/profile/36642521/marietta_ga/planet_smoothie.html", "address": {"city": "Marietta", "state": "GA", "street": "2200 Roswell Rd", "postal_code": "30062"}, "capProviderId": null, "distance": null, "has_offers": false, "name": "Planet Smoothie", "longitude": -84.488427, "has_menu": true, "awards": null, "user_review_count": 0}, {"business_operation_status": 1, "rating": null, "neighborhood": null, "image": null, "scorecard": null, "featured": false, "sample_categories": "Restaurants", "public_id": "royal-waffle-king-marietta", "id": 775234230, "votes": null, "tagline": null, "has_video": false, "website": "http://www.citysearch.com/profile/external/775234230/marietta_ga/royal_waffle_king.html", "offers": null, "latitude": 33.987292, "politanName": "Atlanta, GA Metro ", "phone_number": "7704423800", "tags": [{"primary": true, "id": 1722, "name": "Restaurants"}], "fax_number": null, "expansion": {"count": null, "uri": null}, "impression_id": "000b000000ac4ed5f1e15543eeafb22c9548321c09", "profile": "http://www.citysearch.com/profile/775234230/marietta_ga/royal_waffle_king.html", "address": {"city": "Marietta", "state": "GA", "street": "1459 Field Park Cir", "postal_code": "30066"}, "capProviderId": null, "distance": null, "has_offers": false, "name": "Royal Waffle King", "longitude": -84.563324, "has_menu": true, "awards": null, "user_review_count": 0}, {"business_operation_status": 1, "rating": null, "neighborhood": null, "image": null, "scorecard": null, "featured": false, "sample_categories": "Restaurants, Delis And Delicatessens, Carry Out, American Express, Debit Card", "public_id": "panera-bread-woodstock", "id": 751363100, "votes": null, "tagline": null, "has_video": false, "website": null, "offers": null, "latitude": 34.104637, "politanName": "Atlanta, GA Metro ", "phone_number": "6788134809", "tags": [{"primary": false, "id": 1727, "name": "Delis And Delicatessens"}, {"primary": false, "id": 11247, "name": "Carry Out"}, {"primary": false, "id": 11333, "name": "American Express"}, {"primary": false, "id": 11347, "name": "Debit Card"}, {"primary": false, "id": 11349, "name": "Discover"}, {"primary": false, "id": 11361, "name": "MasterCard"}, {"primary": false, "id": 11382, "name": "Visa"}, {"primary": true, "id": 1722, "name": "Restaurants"}], "fax_number": null, "expansion": {"count": null, "uri": null}, "impression_id": "000b000000f7fdb44014144268bb1da0a2be0f7aed", "profile": "http://www.citysearch.com/profile/751363100/woodstock_ga/panera_bread.html", "address": {"city": "Woodstock", "state": "GA", "street": "2625 Towne Lake Pkwy", "postal_code": "30189"}, "capProviderId": null, "distance": null, "has_offers": false, "name": "Panera Bread", "longitude": -84.541047, "has_menu": false, "awards": null, "user_review_count": 0}, {"business_operation_status": 1, "rating": null, "neighborhood": null, "image": null, "scorecard": null, "featured": false, "sample_categories": "Restaurants, New American, Carry Out, Cooking, Soul", "public_id": "chads-place-marietta", "id": 753259210, "votes": null, "tagline": null, "has_video": false, "website": null, "offers": null, "latitude": 33.964105, "politanName": "Atlanta, GA Metro ", "phone_number": "7704278226", "tags": [{"primary": false, "id": 11189, "name": "New American"}, {"primary": false, "id": 11247, "name": "Carry Out"}, {"primary": false, "id": 11254, "name": "Cooking"}, {"primary": false, "id": 15140, "name": "Soul"}, {"primary": true, "id": 1722, "name": "Restaurants"}], "fax_number": null, "expansion": {"count": null, "uri": null}, "impression_id": "000b000000db8da7a3d82348c1954c03dd62ff7a0d", "profile": "http://www.citysearch.com/profile/753259210/marietta_ga/chad_s_place.html", "address": {"city": "Marietta", "state": "GA", "street": "531 Roselane St NW Suite 520 NW", "postal_code": "30060"}, "capProviderId": null, "distance": null, "has_offers": false, "name": "Chad's Place", "longitude": -84.557337, "has_menu": false, "awards": null, "user_review_count": 0}, {"business_operation_status": 1, "rating": null, "neighborhood": null, "image": null, "scorecard": null, "featured": false, "sample_categories": "Bars & Clubs, Restaurants, Pizza", "public_id": "cedarcrest-pizza-shack-dallas-2", "id": 779690830, "votes": null, "tagline": null, "has_video": false, "website": "http://www.citysearch.com/profile/external/779690830/dallas_ga/pizza_shack.html", "offers": null, "latitude": 34.029654, "politanName": "Atlanta, GA Metro ", "phone_number": "6785744124", "tags": [{"primary": false, "id": 164, "name": "Bars & Clubs"}, {"primary": false, "id": 1722, "name": "Restaurants"}, {"primary": true, "id": 11299, "name": "Pizza"}], "fax_number": null, "expansion": {"count": null, "uri": null}, "impression_id": "000b0000009991db51e78143f5b99c519c1fbf7006", "profile": "http://www.citysearch.com/profile/779690830/dallas_ga/pizza_shack.html", "address": {"city": "Dallas", "state": "GA", "street": "80 Seven Hills Blvd 111", "postal_code": "30132"}, "capProviderId": null, "distance": null, "has_offers": false, "name": "Pizza Shack", "longitude": -84.778758, "has_menu": false, "awards": null, "user_review_count": 0}, {"business_operation_status": 1, "rating": null, "neighborhood": null, "image": null, "scorecard": null, "featured": false, "sample_categories": "Restaurants, Traditional American, Carry Out, American Express, Discover", "public_id": "sonic-drivein-woodstock-4", "id": 781239180, "votes": null, "tagline": null, "has_video": false, "website": null, "offers": null, "latitude": 34.087477, "politanName": "Atlanta, GA Metro ", "phone_number": "7705731677", "tags": [{"primary": false, "id": 11190, "name": "Traditional American"}, {"primary": false, "id": 11247, "name": "Carry Out"}, {"primary": false, "id": 11333, "name": "American Express"}, {"primary": false, "id": 11349, "name": "Discover"}, {"primary": false, "id": 11361, "name": "MasterCard"}, {"primary": false, "id": 11382, "name": "Visa"}, {"primary": true, "id": 1722, "name": "Restaurants"}], "fax_number": null, "expansion": {"count": null, "uri": null}, "impression_id": "000b000000127773655159459c95615d2273f56ac9", "profile": "http://www.citysearch.com/profile/781239180/woodstock_ga/sonic_drive_in.html", "address": {"city": "Woodstock", "state": "GA", "street": "1960 Georgia Highway 92", "postal_code": "30188"}, "capProviderId": null, "distance": null, "has_offers": false, "name": "Sonic Drive-In", "longitude": -84.480705, "has_menu": false, "awards": null, "user_review_count": 0}, {"business_operation_status": 1, "rating": null, "neighborhood": null, "image": null, "scorecard": null, "featured": false, "sample_categories": "Restaurants, Italian", "public_id": "ippolitos-italian-restaurant-woodstock", "id": 682287800, "votes": null, "tagline": null, "has_video": false, "website": null, "offers": null, "latitude": 34.102444, "politanName": "Atlanta, GA Metro ", "phone_number": "7705166631", "tags": [{"primary": false, "id": 11279, "name": "Italian"}, {"primary": true, "id": 1722, "name": "Restaurants"}], "fax_number": null, "expansion": {"count": null, "uri": null}, "impression_id": "000b00000032623dc7809e4b7c9f22215758b5996b", "profile": "http://www.citysearch.com/profile/682287800/woodstock_ga/ippolito_s_italian_restaurant.html", "address": {"city": "Woodstock", "state": "GA", "street": "8496 Main St", "postal_code": "30188"}, "capProviderId": null, "distance": null, "has_offers": false, "name": "Ippolito's Italian Restaurant", "longitude": -84.519881, "has_menu": false, "awards": null, "user_review_count": 0}, {"business_operation_status": 1, "rating": null, "neighborhood": null, "image": null, "scorecard": null, "featured": false, "sample_categories": "Restaurants, Mexican", "public_id": "jalapeno-joes-dallas", "id": 775226210, "votes": null, "tagline": null, "has_video": false, "website": null, "offers": null, "latitude": 34.010309, "politanName": "Atlanta, GA Metro ", "phone_number": "6789092382", "tags": [{"primary": false, "id": 11208, "name": "Mexican"}, {"primary": true, "id": 1722, "name": "Restaurants"}], "fax_number": null, "expansion": {"count": null, "uri": null}, "impression_id": "000b000000e1fb71e4f50f49a6b517a8050d7c8df4", "profile": "http://www.citysearch.com/profile/775226210/dallas_ga/jalapeno_joe_s.html", "address": {"city": "Dallas", "state": "GA", "street": "8876 Dallas Acworth Hwy", "postal_code": "30132"}, "capProviderId": null, "distance": null, "has_offers": false, "name": "Jalapeno Joe's", "longitude": -84.753348, "has_menu": false, "awards": null, "user_review_count": 0}, {"business_operation_status": 1, "rating": null, "neighborhood": null, "image": null, "scorecard": null, "featured": false, "sample_categories": "Restaurants, Carry Out", "public_id": "long-john-silvers-woodstock", "id": 806446900, "votes": null, "tagline": null, "has_video": false, "website": null, "offers": null, "latitude": 34.085185, "politanName": "Atlanta, GA Metro ", "phone_number": "7709281695", "tags": [{"primary": false, "id": 11247, "name": "Carry Out"}, {"primary": true, "id": 1722, "name": "Restaurants"}], "fax_number": null, "expansion": {"count": null, "uri": null}, "impression_id": "000b000000a36fe22e78f9483ba260f48fd13880ea", "profile": "http://www.citysearch.com/profile/806446900/woodstock_ga/long_john_silver_s.html", "address": {"city": "Woodstock", "state": "GA", "street": "6869 Highway 92", "postal_code": "30189"}, "capProviderId": null, "distance": null, "has_offers": false, "name": "Long John Silver's", "longitude": -84.554494, "has_menu": false, "awards": null, "user_review_count": 0}, {"business_operation_status": 0, "rating": null, "neighborhood": null, "image": null, "scorecard": null, "featured": false, "sample_categories": "Restaurants", "public_id": "jitterbeans-sandwich-coffee-marietta", "id": 728099640, "votes": null, "tagline": null, "has_video": false, "website": null, "offers": null, "latitude": 34.039126, "politanName": "Atlanta, GA Metro ", "phone_number": "7705790019", "tags": [{"primary": true, "id": 1722, "name": "Restaurants"}], "fax_number": null, "expansion": {"count": null, "uri": null}, "impression_id": "000b000000bf882b7c7e894250808cbadc3de492ae", "profile": "http://www.citysearch.com/profile/728099640/marietta_ga/jitterbeans_sandwich_coffee.html", "address": {"city": "Marietta", "state": "GA", "street": "2690 Shallowford Rd", "postal_code": "30066"}, "capProviderId": null, "distance": null, "has_offers": false, "name": "Jitterbeans Sandwich & Coffee", "longitude": -84.470483, "has_menu": false, "awards": null, "user_review_count": 0}, {"business_operation_status": 1, "rating": null, "neighborhood": null, "image": null, "scorecard": null, "featured": false, "sample_categories": "Coffeehouses", "public_id": "insomnia-marietta", "id": 37646047, "votes": null, "tagline": null, "has_video": false, "website": null, "offers": null, "latitude": 33.948083, "politanName": "Atlanta, GA Metro ", "phone_number": "7705147442", "tags": [{"primary": true, "id": 1726, "name": "Coffeehouses"}], "fax_number": null, "expansion": {"count": null, "uri": null}, "impression_id": "000b0000004ea7f9e894224ac68f2ad46de4c73aa9", "profile": "http://www.citysearch.com/profile/37646047/marietta_ga/insomnia.html", "address": {"city": "Marietta", "state": "GA", "street": "245 Ridgeway Rd", "postal_code": "30064"}, "capProviderId": null, "distance": null, "has_offers": false, "name": "Insomnia", "longitude": -84.626672, "has_menu": false, "awards": null, "user_review_count": 0}, {"business_operation_status": 1, "rating": 8.0, "neighborhood": null, "image": null, "scorecard": null, "featured": false, "sample_categories": "Restaurants, Pizza", "public_id": "uncle-vitos-new-york-pizza-marietta", "id": 37646046, "votes": null, "tagline": null, "has_video": false, "website": null, "offers": null, "latitude": 33.950252, "politanName": "Atlanta, GA Metro ", "phone_number": "6787668486", "tags": [{"primary": false, "id": 1722, "name": "Restaurants"}, {"primary": true, "id": 11299, "name": "Pizza"}], "fax_number": null, "expansion": {"count": null, "uri": null}, "impression_id": "000b00000003538a72470c4c10b7767cdfa0dd0cd5", "profile": "http://www.citysearch.com/profile/37646046/marietta_ga/uncle_vitos_new_york_pizza.html", "address": {"city": "Marietta", "state": "GA", "street": "2500 Dallas Hwy SW", "postal_code": "30064"}, "capProviderId": null, "distance": null, "has_offers": false, "name": "Uncle Vitos New York Pizza", "longitude": -84.638093, "has_menu": true, "awards": null, "user_review_count": 2}, {"business_operation_status": 1, "rating": null, "neighborhood": null, "image": null, "scorecard": null, "featured": false, "sample_categories": "Coffee & Tea Shops, Restaurants, Deordorant, Soap, Glue", "public_id": "southern-tea-llc-marietta-2", "id": 43853814, "votes": null, "tagline": null, "has_video": false, "website": null, "offers": null, "latitude": 33.983317, "politanName": "Atlanta, GA Metro ", "phone_number": "7705901221", "tags": [{"primary": false, "id": 1711, "name": "Coffee & Tea Shops"}, {"primary": false, "id": 1722, "name": "Restaurants"}, {"primary": false, "id": 23400, "name": "Deordorant"}, {"primary": false, "id": 23410, "name": "Soap"}, {"primary": false, "id": 24950, "name": "Glue"}, {"primary": false, "id": 25880, "name": "Air Fresheners"}, {"primary": false, "id": 3922, "name": "General Merchandise Stores"}, {"primary": true, "id": 11147, "name": "Tea"}], "fax_number": null, "expansion": {"count": null, "uri": null}, "impression_id": "000b000000da3ede156d154983a26f7ebce10f6cb4", "profile": "http://www.citysearch.com/profile/43853814/marietta_ga/southern_tea_llc.html", "address": {"city": "Marietta", "state": "GA", "street": "1491 Cobb Industrial Dr", "postal_code": "30066"}, "capProviderId": null, "distance": null, "has_offers": false, "name": "Southern Tea Llc", "longitude": -84.534242, "has_menu": false, "awards": null, "user_review_count": 1}, {"business_operation_status": 1, "rating": null, "neighborhood": null, "image": null, "scorecard": null, "featured": false, "sample_categories": "Restaurants, Delis And Delicatessens, Sandwich Shops, Carry Out", "public_id": "subway-acworth-7", "id": 632978540, "votes": null, "tagline": null, "has_video": false, "website": "http://www.citysearch.com/profile/external/632978540/acworth_ga/subway.html", "offers": null, "latitude": 33.996583, "politanName": "Atlanta, GA Metro ", "phone_number": "6783556035", "tags": [{"primary": false, "id": 1727, "name": "Delis And Delicatessens"}, {"primary": false, "id": 1736, "name": "Sandwich Shops"}, {"primary": false, "id": 11247, "name": "Carry Out"}, {"primary": true, "id": 1722, "name": "Restaurants"}], "fax_number": null, "expansion": {"count": null, "uri": null}, "impression_id": "000b000000303e71ec7b7e4830bb3b7b1ab0816fbd", "profile": "http://www.citysearch.com/profile/632978540/acworth_ga/subway.html", "address": {"city": "Acworth", "state": "GA", "street": "1720 Mars Hill Rd Nw # 3", "postal_code": "30101"}, "capProviderId": null, "distance": null, "has_offers": false, "name": "Subway", "longitude": -84.705934, "has_menu": true, "awards": null, "user_review_count": 0}, {"business_operation_status": 1, "rating": null, "neighborhood": null, "image": null, "scorecard": null, "featured": false, "sample_categories": "Restaurants, Southern, American Express, Discover, MasterCard", "public_id": "homestyle-cooking-inc-woodstock", "id": 627690690, "votes": null, "tagline": null, "has_video": false, "website": null, "offers": null, "latitude": 34.129127, "politanName": "Atlanta, GA Metro ", "phone_number": "7708522885", "tags": [{"primary": false, "id": 11312, "name": "Southern"}, {"primary": false, "id": 11333, "name": "American Express"}, {"primary": false, "id": 11349, "name": "Discover"}, {"primary": false, "id": 11361, "name": "MasterCard"}, {"primary": false, "id": 11382, "name": "Visa"}, {"primary": true, "id": 1722, "name": "Restaurants"}], "fax_number": null, "expansion": {"count": null, "uri": null}, "impression_id": "000b000000e06a135464c84b2899b79e1704add049", "profile": "http://www.citysearch.com/profile/627690690/woodstock_ga/homestyle_cooking_inc.html", "address": {"city": "Woodstock", "state": "GA", "street": "4379 Towne Lake Pkwy", "postal_code": "30189"}, "capProviderId": null, "distance": null, "has_offers": false, "name": "Homestyle Cooking Inc", "longitude": -84.575938, "has_menu": false, "awards": null, "user_review_count": 0}, {"business_operation_status": 1, "rating": null, "neighborhood": null, "image": null, "scorecard": null, "featured": false, "sample_categories": "Restaurants", "public_id": "j-christpher-woodstock", "id": 672604610, "votes": null, "tagline": null, "has_video": false, "website": null, "offers": null, "latitude": 34.098479, "politanName": "Atlanta, GA Metro ", "phone_number": null, "tags": [{"primary": true, "id": 1722, "name": "Restaurants"}], "fax_number": null, "expansion": {"count": null, "uri": null}, "impression_id": "000b00000021f0d22079f543f590d4b9bb88309372", "profile": "http://www.citysearch.com/profile/672604610/woodstock_ga/j_christpher.html", "address": {"city": "Woodstock", "state": "GA", "street": "315 Chamber St", "postal_code": "30188"}, "capProviderId": null, "distance": null, "has_offers": false, "name": "J Christpher", "longitude": -84.519579, "has_menu": false, "awards": null, "user_review_count": 0}, {"business_operation_status": 1, "rating": null, "neighborhood": null, "image": null, "scorecard": null, "featured": false, "sample_categories": "Restaurants", "public_id": "seven-bar-grill-hookah-lounge-woodstock", "id": 672641240, "votes": null, "tagline": null, "has_video": false, "website": null, "offers": null, "latitude": 34.087943, "politanName": "Atlanta, GA Metro ", "phone_number": "6783241012", "tags": [{"primary": true, "id": 1722, "name": "Restaurants"}], "fax_number": null, "expansion": {"count": null, "uri": null}, "impression_id": "000b000000f9410f4b663b49ad9e3938d627e14dc1", "profile": "http://www.citysearch.com/profile/672641240/woodstock_ga/seven_bar_grill_hookah_lounge.html", "address": {"city": "Woodstock", "state": "GA", "street": "6889 Hwy. 92", "postal_code": "30189"}, "capProviderId": null, "distance": null, "has_offers": false, "name": "Seven Bar & Grill Hookah Lounge", "longitude": -84.573347, "has_menu": false, "awards": null, "user_review_count": 0}, {"business_operation_status": 1, "rating": null, "neighborhood": null, "image": null, "scorecard": null, "featured": false, "sample_categories": "Restaurants, American Express, Discover, MasterCard, Visa", "public_id": "piezonias-restaurant-marietta", "id": 601298040, "votes": null, "tagline": null, "has_video": false, "website": null, "offers": null, "latitude": 33.967672, "politanName": "Atlanta, GA Metro ", "phone_number": "7704192188", "tags": [{"primary": false, "id": 11333, "name": "American Express"}, {"primary": false, "id": 11349, "name": "Discover"}, {"primary": false, "id": 11361, "name": "MasterCard"}, {"primary": false, "id": 11382, "name": "Visa"}, {"primary": true, "id": 1722, "name": "Restaurants"}], "fax_number": null, "expansion": {"count": null, "uri": null}, "impression_id": "000b000000ff9875d663c240f0813d57178b59b5b7", "profile": "http://www.citysearch.com/profile/601298040/marietta_ga/piezonia_s_restaurant.html", "address": {"city": "Marietta", "state": "GA", "street": "3960 Mary Eliza Trce Nw", "postal_code": "30064"}, "capProviderId": null, "distance": null, "has_offers": false, "name": "Piezonia's Restaurant", "longitude": -84.667328, "has_menu": false, "awards": null, "user_review_count": 0}, {"business_operation_status": 1, "rating": null, "neighborhood": null, "image": null, "scorecard": null, "featured": false, "sample_categories": "Restaurants, Health Food Stores", "public_id": "smoothie-king-woodstock", "id": 672622510, "votes": null, "tagline": null, "has_video": false, "website": null, "offers": null, "latitude": 34.128602, "politanName": "Atlanta, GA Metro ", "phone_number": "6789431234", "tags": [{"primary": false, "id": 1716, "name": "Health Food Stores"}, {"primary": true, "id": 1722, "name": "Restaurants"}], "fax_number": null, "expansion": {"count": null, "uri": null}, "impression_id": "000b000000b15afc37d0a346a8bbb4ca5308660626", "profile": "http://www.citysearch.com/profile/672622510/woodstock_ga/smoothie_king.html", "address": {"city": "Woodstock", "state": "GA", "street": "6348 Towne Lake Parkway", "postal_code": "30189"}, "capProviderId": null, "distance": null, "has_offers": false, "name": "Smoothie King", "longitude": -84.585144, "has_menu": false, "awards": null, "user_review_count": 0}, {"business_operation_status": 1, "rating": null, "neighborhood": null, "image": null, "scorecard": null, "featured": false, "sample_categories": "Restaurants, Traditional American, Carry Out, American Express, Discover", "public_id": "ruby-tuesday-acworth-2", "id": 682371990, "votes": null, "tagline": null, "has_video": false, "website": "http://www.citysearch.com/profile/external/682371990/acworth_ga/ruby_tuesday.html", "offers": null, "latitude": 34.035849, "politanName": "Atlanta, GA Metro ", "phone_number": "6785744550", "tags": [{"primary": false, "id": 11190, "name": "Traditional American"}, {"primary": false, "id": 11247, "name": "Carry Out"}, {"primary": false, "id": 11333, "name": "American Express"}, {"primary": false, "id": 11349, "name": "Discover"}, {"primary": false, "id": 11361, "name": "MasterCard"}, {"primary": false, "id": 11382, "name": "Visa"}, {"primary": true, "id": 1722, "name": "Restaurants"}], "fax_number": null, "expansion": {"count": null, "uri": null}, "impression_id": "000b0000003dc63f3df3aa47aaa4587bd570527e13", "profile": "http://www.citysearch.com/profile/682371990/acworth_ga/ruby_tuesday.html", "address": {"city": "Acworth", "state": "GA", "street": "3338 Cobb Pkwy NW", "postal_code": "30101"}, "capProviderId": null, "distance": null, "has_offers": false, "name": "Ruby Tuesday", "longitude": -84.679075, "has_menu": true, "awards": null, "user_review_count": 0}, {"business_operation_status": 1, "rating": null, "neighborhood": null, "image": null, "scorecard": null, "featured": false, "sample_categories": "Restaurants", "public_id": "best-friends-cafe-incorporated-marietta", "id": 37645592, "votes": null, "tagline": null, "has_video": false, "website": null, "offers": null, "latitude": 33.951322, "politanName": "Atlanta, GA Metro ", "phone_number": "7707920506", "tags": [{"primary": true, "id": 1722, "name": "Restaurants"}], "fax_number": null, "expansion": {"count": null, "uri": null}, "impression_id": "000b000000b6e8b1aa0191400d998af164c5a23891", "profile": "http://www.citysearch.com/profile/37645592/marietta_ga/best_friends_cafe_incorporated.html", "address": {"city": "Marietta", "state": "GA", "street": "749 Roswell St NE", "postal_code": "30060"}, "capProviderId": null, "distance": null, "has_offers": false, "name": "Best Friends Cafe Incorporated", "longitude": -84.530069, "has_menu": false, "awards": null, "user_review_count": 0}, {"business_operation_status": 1, "rating": null, "neighborhood": null, "image": null, "scorecard": null, "featured": false, "sample_categories": "Restaurants", "public_id": "geordie-boy-inc-woodstock", "id": 632991790, "votes": null, "tagline": null, "has_video": false, "website": null, "offers": null, "latitude": 34.11726, "politanName": "Atlanta, GA Metro ", "phone_number": "7705160737", "tags": [{"primary": true, "id": 1722, "name": "Restaurants"}], "fax_number": null, "expansion": {"count": null, "uri": null}, "impression_id": "000b0000000f2005cf626942839be526d0c7f41eb7", "profile": "http://www.citysearch.com/profile/632991790/woodstock_ga/geordie_boy_inc.html", "address": {"city": "Woodstock", "state": "GA", "street": "3035 Towneside Ln", "postal_code": "30189"}, "capProviderId": null, "distance": null, "has_offers": false, "name": "Geordie Boy Inc", "longitude": -84.547703, "has_menu": false, "awards": null, "user_review_count": 0}, {"business_operation_status": 1, "rating": null, "neighborhood": null, "image": null, "scorecard": null, "featured": false, "sample_categories": "Restaurants", "public_id": "luckys-shaved-ice-marietta", "id": 673025380, "votes": null, "tagline": null, "has_video": false, "website": null, "offers": null, "latitude": 34.042549, "politanName": "Atlanta, GA Metro ", "phone_number": "7703541975", "tags": [{"primary": true, "id": 1722, "name": "Restaurants"}], "fax_number": null, "expansion": {"count": null, "uri": null}, "impression_id": "000b000000381ba33cdc1e4db5ab0a2f0e68f5a1d4", "profile": "http://www.citysearch.com/profile/673025380/marietta_ga/lucky_s_shaved_ice.html", "address": {"city": "Marietta", "state": "GA", "street": "2323 Shallowford rd", "postal_code": "30066"}, "capProviderId": null, "distance": null, "has_offers": false, "name": "Lucky's Shaved Ice", "longitude": -84.482558, "has_menu": false, "awards": null, "user_review_count": 0}, {"business_operation_status": 1, "rating": null, "neighborhood": null, "image": null, "scorecard": null, "featured": false, "sample_categories": "Restaurants", "public_id": "watsons-gulf-coast-seafood-acworth", "id": 672907130, "votes": null, "tagline": null, "has_video": false, "website": null, "offers": null, "latitude": 34.065933, "politanName": "Atlanta, GA Metro ", "phone_number": null, "tags": [{"primary": true, "id": 1722, "name": "Restaurants"}], "fax_number": null, "expansion": {"count": null, "uri": null}, "impression_id": "000b00000010f27d6ee52443818de8063891e2820e", "profile": "http://www.citysearch.com/profile/672907130/acworth_ga/watson_s_gulf_coast_seafood.html", "address": {"city": "Acworth", "state": "GA", "street": "4416 Senator Richard B Russell Sq", "postal_code": "30101"}, "capProviderId": null, "distance": null, "has_offers": false, "name": "Watson's Gulf Coast Seafood", "longitude": -84.67688, "has_menu": false, "awards": null, "user_review_count": 0}, {"business_operation_status": 1, "rating": null, "neighborhood": null, "image": null, "scorecard": null, "featured": false, "sample_categories": "Restaurants", "public_id": "blues-brothers-entertainment-woodstock", "id": 37091317, "votes": null, "tagline": null, "has_video": false, "website": null, "offers": null, "latitude": 34.089184, "politanName": "Atlanta, GA Metro ", "phone_number": "7709268006", "tags": [{"primary": true, "id": 1722, "name": "Restaurants"}], "fax_number": null, "expansion": {"count": null, "uri": null}, "impression_id": "000b00000073b2d9583a7e4f8a9d1695adb91a7c23", "profile": "http://www.citysearch.com/profile/37091317/woodstock_ga/blues_brothers_entertainment.html", "address": {"city": "Woodstock", "state": "GA", "street": "12195 Hwy 92", "postal_code": "30188"}, "capProviderId": null, "distance": null, "has_offers": false, "name": "Blues Brothers Entertainment", "longitude": -84.483229, "has_menu": false, "awards": null, "user_review_count": 0}, {"business_operation_status": 1, "rating": null, "neighborhood": null, "image": null, "scorecard": null, "featured": false, "sample_categories": "Restaurants, Chinese", "public_id": "mr-wok-woodstock", "id": 745601430, "votes": null, "tagline": null, "has_video": false, "website": null, "offers": null, "latitude": 34.140062, "politanName": "Atlanta, GA Metro ", "phone_number": "7709246608", "tags": [{"primary": false, "id": 11252, "name": "Chinese"}, {"primary": true, "id": 1722, "name": "Restaurants"}], "fax_number": null, "expansion": {"count": null, "uri": null}, "impression_id": "000b0000009065b9a9f44749adbf57af1f9f308a71", "profile": "http://www.citysearch.com/profile/745601430/woodstock_ga/mr_wok.html", "address": {"city": "Woodstock", "state": "GA", "street": "5335 Old Highway 5", "postal_code": "30188"}, "capProviderId": null, "distance": null, "has_offers": false, "name": "Mr Wok", "longitude": -84.504209, "has_menu": false, "awards": null, "user_review_count": 0}, {"business_operation_status": 1, "rating": null, "neighborhood": null, "image": null, "scorecard": null, "featured": false, "sample_categories": "Delis And Delicatessens, Restaurants", "public_id": "european-deli-specialties-woodstock", "id": 826853500, "votes": null, "tagline": null, "has_video": false, "website": null, "offers": null, "latitude": 34.086211, "politanName": "Atlanta, GA Metro ", "phone_number": "6782380567", "tags": [{"primary": false, "id": 1722, "name": "Restaurants"}, {"primary": true, "id": 1727, "name": "Delis And Delicatessens"}], "fax_number": null, "expansion": {"count": null, "uri": null}, "impression_id": "000b000000051a058ccc5f4cedb8b3afb9f280ce25", "profile": "http://www.citysearch.com/profile/826853500/woodstock_ga/european_deli_specialties.html", "address": {"city": "Woodstock", "state": "GA", "street": "9550 Main St # 100", "postal_code": "30188"}, "capProviderId": null, "distance": null, "has_offers": false, "name": "European Deli Specialties", "longitude": -84.519459, "has_menu": true, "awards": null, "user_review_count": 1}, {"business_operation_status": 1, "rating": null, "neighborhood": null, "image": null, "scorecard": null, "featured": false, "sample_categories": "Restaurants, Delis And Delicatessens, Sandwich Shops, Carry Out", "public_id": "blimpie-subs-salads-woodstock-4", "id": 764855870, "votes": null, "tagline": null, "has_video": false, "website": "http://www.citysearch.com/profile/external/764855870/woodstock_ga/blimpie_subs_salads.html", "offers": null, "latitude": 34.087504, "politanName": "Atlanta, GA Metro ", "phone_number": "7705911121", "tags": [{"primary": false, "id": 1727, "name": "Delis And Delicatessens"}, {"primary": false, "id": 1736, "name": "Sandwich Shops"}, {"primary": false, "id": 11247, "name": "Carry Out"}, {"primary": true, "id": 1722, "name": "Restaurants"}], "fax_number": null, "expansion": {"count": null, "uri": null}, "impression_id": "000b000000dc257d8d69ae43b8a0be7beefb42b990", "profile": "http://www.citysearch.com/profile/764855870/woodstock_ga/blimpie_subs_salads.html", "address": {"city": "Woodstock", "state": "GA", "street": "10029 Highway 92", "postal_code": "30188"}, "capProviderId": null, "distance": null, "has_offers": false, "name": "Blimpie Subs & Salads", "longitude": -84.520678, "has_menu": true, "awards": null, "user_review_count": 0}, {"business_operation_status": 1, "rating": null, "neighborhood": null, "image": null, "scorecard": null, "featured": false, "sample_categories": "Restaurants", "public_id": "yoland-trade-co-marietta", "id": 766788970, "votes": null, "tagline": null, "has_video": false, "website": null, "offers": null, "latitude": 34.017093, "politanName": "Atlanta, GA Metro ", "phone_number": "7705651995", "tags": [{"primary": true, "id": 1722, "name": "Restaurants"}], "fax_number": null, "expansion": {"count": null, "uri": null}, "impression_id": "000b000000311dc48061a5461da19cff6448f26624", "profile": "http://www.citysearch.com/profile/766788970/marietta_ga/yoland_trade_co.html", "address": {"city": "Marietta", "state": "GA", "street": "2731 Sandy Plains Rd # A", "postal_code": "30066"}, "capProviderId": null, "distance": null, "has_offers": false, "name": "Yoland Trade Co", "longitude": -84.492328, "has_menu": false, "awards": null, "user_review_count": 0}, {"business_operation_status": 1, "rating": null, "neighborhood": null, "image": null, "scorecard": null, "featured": false, "sample_categories": "Restaurants, Mexican, Carry Out", "public_id": "taco-bell-marietta-10", "id": 775210570, "votes": null, "tagline": null, "has_video": false, "website": "http://www.citysearch.com/profile/external/775210570/marietta_ga/taco_bell.html", "offers": null, "latitude": 33.924583, "politanName": "Atlanta, GA Metro ", "phone_number": "7705907481", "tags": [{"primary": false, "id": 11208, "name": "Mexican"}, {"primary": false, "id": 11247, "name": "Carry Out"}, {"primary": true, "id": 1722, "name": "Restaurants"}], "fax_number": null, "expansion": {"count": null, "uri": null}, "impression_id": "000b000000056bfcb127ac470ba96710ab56ef013e", "profile": "http://www.citysearch.com/profile/775210570/marietta_ga/taco_bell.html", "address": {"city": "Marietta", "state": "GA", "street": "1180 Powder Springs St", "postal_code": "30064"}, "capProviderId": null, "distance": null, "has_offers": false, "name": "Taco Bell", "longitude": -84.575231, "has_menu": false, "awards": null, "user_review_count": 0}, {"business_operation_status": 1, "rating": null, "neighborhood": null, "image": null, "scorecard": null, "featured": false, "sample_categories": "Restaurants", "public_id": "pressed-marietta", "id": 787100030, "votes": null, "tagline": null, "has_video": false, "website": null, "offers": null, "latitude": 33.952269, "politanName": "Atlanta, GA Metro ", "phone_number": "7704853759", "tags": [{"primary": true, "id": 1722, "name": "Restaurants"}], "fax_number": null, "expansion": {"count": null, "uri": null}, "impression_id": "000b00000005cf3bbccf3b4893a35e364bb85344d8", "profile": "http://www.citysearch.com/profile/787100030/marietta_ga/pressed.html", "address": {"city": "Marietta", "state": "GA", "street": "30 S Park Sq Ne", "postal_code": "30060"}, "capProviderId": null, "distance": null, "has_offers": false, "name": "Pressed", "longitude": -84.550109, "has_menu": false, "awards": null, "user_review_count": 0}, {"business_operation_status": 1, "rating": null, "neighborhood": null, "image": null, "scorecard": null, "featured": false, "sample_categories": "Restaurants, Pizza, Carry Out", "public_id": "c-c-pizza-acworth", "id": 790666570, "votes": null, "tagline": null, "has_video": false, "website": null, "offers": null, "latitude": 34.065933, "politanName": "Atlanta, GA Metro ", "phone_number": "7704253661", "tags": [{"primary": false, "id": 1722, "name": "Restaurants"}, {"primary": false, "id": 11247, "name": "Carry Out"}, {"primary": true, "id": 11299, "name": "Pizza"}], "fax_number": null, "expansion": {"count": null, "uri": null}, "impression_id": "000b000000eab2c2dda1f64143b9ec42e7b746e220", "profile": "http://www.citysearch.com/profile/790666570/acworth_ga/c_c_pizza.html", "address": {"city": "Acworth", "state": "GA", "street": "Po Box 801016", "postal_code": "30101"}, "capProviderId": null, "distance": null, "has_offers": false, "name": "C C Pizza", "longitude": -84.67688, "has_menu": false, "awards": null, "user_review_count": 0}, {"business_operation_status": 1, "rating": null, "neighborhood": null, "image": null, "scorecard": null, "featured": false, "sample_categories": "Restaurants, Pizza", "public_id": "emkay-llc-marietta", "id": 802504650, "votes": null, "tagline": null, "has_video": false, "website": null, "offers": null, "latitude": 34.032174, "politanName": "Atlanta, GA Metro ", "phone_number": "6783248066", "tags": [{"primary": false, "id": 11299, "name": "Pizza"}, {"primary": true, "id": 1722, "name": "Restaurants"}], "fax_number": null, "expansion": {"count": null, "uri": null}, "impression_id": "000b00000085d4f392ffd3485eb51aafefb6aa871b", "profile": "http://www.citysearch.com/profile/802504650/marietta_ga/emkay_llc.html", "address": {"city": "Marietta", "state": "GA", "street": "3372 Canton Rd", "postal_code": "30066"}, "capProviderId": null, "distance": null, "has_offers": false, "name": "Emkay LLC", "longitude": -84.527817, "has_menu": false, "awards": null, "user_review_count": 0}, {"business_operation_status": 1, "rating": null, "neighborhood": null, "image": null, "scorecard": null, "featured": false, "sample_categories": "Restaurants, Delis And Delicatessens, Sandwich Shops, American Express, Discover", "public_id": "jersey-mikes-subs-marietta", "id": 43853819, "votes": null, "tagline": null, "has_video": false, "website": null, "offers": null, "latitude": 34.03494, "politanName": "Atlanta, GA Metro ", "phone_number": "7705783973", "tags": [{"primary": false, "id": 1727, "name": "Delis And Delicatessens"}, {"primary": false, "id": 1736, "name": "Sandwich Shops"}, {"primary": false, "id": 11333, "name": "American Express"}, {"primary": false, "id": 11349, "name": "Discover"}, {"primary": false, "id": 11361, "name": "MasterCard"}, {"primary": false, "id": 11382, "name": "Visa"}, {"primary": true, "id": 1722, "name": "Restaurants"}], "fax_number": null, "expansion": {"count": null, "uri": null}, "impression_id": "000b000000f014f21ba5d245f399a8a2b51431f3cf", "profile": "http://www.citysearch.com/profile/43853819/marietta_ga/jersey_mike_s_subs.html", "address": {"city": "Marietta", "state": "GA", "street": "2960 Shallowford Rd 106", "postal_code": "30066"}, "capProviderId": null, "distance": null, "has_offers": false, "name": "Jersey Mike's Subs", "longitude": -84.466773, "has_menu": true, "awards": null, "user_review_count": 0}, {"business_operation_status": 1, "rating": null, "neighborhood": null, "image": null, "scorecard": null, "featured": false, "sample_categories": "Restaurants", "public_id": "buffalos-cafe-kennesaw", "id": 803506350, "votes": null, "tagline": null, "has_video": false, "website": null, "offers": null, "latitude": 34.032711, "politanName": "Atlanta, GA Metro ", "phone_number": "6782369464", "tags": [{"primary": true, "id": 1722, "name": "Restaurants"}], "fax_number": null, "expansion": {"count": null, "uri": null}, "impression_id": "000b0000002646b20210ff430fa5f3c10aea24d481", "profile": "http://www.citysearch.com/profile/803506350/kennesaw_ga/buffalos_cafe.html", "address": {"city": "Kennesaw", "state": "GA", "street": "3161 Cobb Pkwy NW", "postal_code": "30152"}, "capProviderId": null, "distance": null, "has_offers": false, "name": "Buffalos Cafe", "longitude": -84.673088, "has_menu": false, "awards": null, "user_review_count": 0}, {"business_operation_status": 1, "rating": 10.0, "neighborhood": null, "image": null, "scorecard": null, "featured": false, "sample_categories": "Restaurants, Fast Food, Carry Out, Hamburgers, American Express", "public_id": "mc-donalds-woodstock", "id": 43864384, "votes": null, "tagline": null, "has_video": false, "website": "http://www.citysearch.com/profile/external/43864384/woodstock_ga/mc_donald_s.html", "offers": null, "latitude": 34.087494, "politanName": "Atlanta, GA Metro ", "phone_number": "7709246912", "tags": [{"primary": false, "id": 11199, "name": "Fast Food"}, {"primary": false, "id": 11247, "name": "Carry Out"}, {"primary": false, "id": 11270, "name": "Hamburgers"}, {"primary": false, "id": 11333, "name": "American Express"}, {"primary": false, "id": 11349, "name": "Discover"}, {"primary": false, "id": 11361, "name": "MasterCard"}, {"primary": false, "id": 11382, "name": "Visa"}, {"primary": true, "id": 1722, "name": "Restaurants"}], "fax_number": null, "expansion": {"count": null, "uri": null}, "impression_id": "000b000000b23bcbbf18f24aaca70e70d1798b9bbc", "profile": "http://www.citysearch.com/profile/43864384/woodstock_ga/mc_donald_s.html", "address": {"city": "Woodstock", "state": "GA", "street": "12156 Highway 92", "postal_code": "30188"}, "capProviderId": null, "distance": null, "has_offers": false, "name": "Mc Donald's", "longitude": -84.483189, "has_menu": true, "awards": null, "user_review_count": 0}, {"business_operation_status": 0, "rating": null, "neighborhood": null, "image": null, "scorecard": null, "featured": false, "sample_categories": "Restaurants, Fast Food, American Express, Discover, MasterCard", "public_id": "kfc-marietta-2", "id": 45557267, "votes": null, "tagline": null, "has_video": false, "website": "http://www.citysearch.com/profile/external/45557267/marietta_ga/kfc.html", "offers": null, "latitude": 33.971057, "politanName": "Atlanta, GA Metro ", "phone_number": "7709713374", "tags": [{"primary": false, "id": 11199, "name": "Fast Food"}, {"primary": false, "id": 11333, "name": "American Express"}, {"primary": false, "id": 11349, "name": "Discover"}, {"primary": false, "id": 11361, "name": "MasterCard"}, {"primary": false, "id": 11382, "name": "Visa"}, {"primary": false, "id": 12839, "name": "Chicken"}, {"primary": true, "id": 1722, "name": "Restaurants"}], "fax_number": null, "expansion": {"count": null, "uri": null}, "impression_id": "000b0000009696eac8e9d14e8abe125643423dadde", "profile": "http://www.citysearch.com/profile/45557267/marietta_ga/kfc.html", "address": {"city": "Marietta", "state": "GA", "street": "2220 Roswell Rd", "postal_code": "30062"}, "capProviderId": null, "distance": null, "has_offers": false, "name": "Kfc", "longitude": -84.487359, "has_menu": true, "awards": null, "user_review_count": 0}, {"business_operation_status": 1, "rating": 9.0, "neighborhood": null, "image": null, "scorecard": null, "featured": false, "sample_categories": "Restaurants, Tea Room", "public_id": "miss-scarlets-chocolate-empr-acworth", "id": 43859717, "votes": null, "tagline": null, "has_video": false, "website": "http://www.citysearch.com/profile/external/43859717/acworth_ga/miss_scarlets_chocolate_empr.html", "offers": null, "latitude": 34.063674, "politanName": "Atlanta, GA Metro ", "phone_number": "6785746449", "tags": [{"primary": false, "id": 1722, "name": "Restaurants"}, {"primary": true, "id": 11318, "name": "Tea Room"}], "fax_number": null, "expansion": {"count": null, "uri": null}, "impression_id": "000b0000002d5352f6af1b45d498ac98f5c40cec98", "profile": "http://www.citysearch.com/profile/43859717/acworth_ga/miss_scarlets_chocolate_empr.html", "address": {"city": "Acworth", "state": "GA", "street": "4480 Park St", "postal_code": "30101"}, "capProviderId": null, "distance": null, "has_offers": false, "name": "Miss Scarlets Chocolate Empr", "longitude": -84.67067, "has_menu": false, "awards": null, "user_review_count": 4}, {"business_operation_status": 1, "rating": null, "neighborhood": null, "image": null, "scorecard": null, "featured": false, "sample_categories": "Restaurants, Fast Food, Carry Out, MasterCard, Visa", "public_id": "bojangles-famous-chicken-acworth", "id": 43862669, "votes": null, "tagline": null, "has_video": false, "website": "http://www.citysearch.com/profile/external/43862669/acworth_ga/bojangles_famous_chicken.html", "offers": null, "latitude": 34.074128, "politanName": "Atlanta, GA Metro ", "phone_number": "7709748365", "tags": [{"primary": false, "id": 11199, "name": "Fast Food"}, {"primary": false, "id": 11247, "name": "Carry Out"}, {"primary": false, "id": 11361, "name": "MasterCard"}, {"primary": false, "id": 11382, "name": "Visa"}, {"primary": false, "id": 12839, "name": "Chicken"}, {"primary": true, "id": 1722, "name": "Restaurants"}], "fax_number": null, "expansion": {"count": null, "uri": null}, "impression_id": "000b0000004d875666a26043f08245a75286a86a0a", "profile": "http://www.citysearch.com/profile/43862669/acworth_ga/bojangles_famous_chicken.html", "address": {"city": "Acworth", "state": "GA", "street": "5010 Cherokee St", "postal_code": "30101"}, "capProviderId": null, "distance": null, "has_offers": false, "name": "Bojangles' Famous Chicken", "longitude": -84.676544, "has_menu": true, "awards": null, "user_review_count": 0}, {"business_operation_status": 1, "rating": null, "neighborhood": null, "image": null, "scorecard": null, "featured": false, "sample_categories": "Restaurants, MasterCard, Visa", "public_id": "green-tomato-acworth", "id": 43860769, "votes": null, "tagline": null, "has_video": false, "website": null, "offers": null, "latitude": 34.090204, "politanName": "Atlanta, GA Metro ", "phone_number": "7709282303", "tags": [{"primary": false, "id": 11361, "name": "MasterCard"}, {"primary": false, "id": 11382, "name": "Visa"}, {"primary": true, "id": 1722, "name": "Restaurants"}], "fax_number": null, "expansion": {"count": null, "uri": null}, "impression_id": "000b00000068c731956920414aa3f95b939f6caae6", "profile": "http://www.citysearch.com/profile/43860769/acworth_ga/green_tomato.html", "address": {"city": "Acworth", "state": "GA", "street": "6199 Highway 92", "postal_code": "30102"}, "capProviderId": null, "distance": null, "has_offers": false, "name": "Green Tomato", "longitude": -84.585493, "has_menu": false, "awards": null, "user_review_count": 0}, {"business_operation_status": 1, "rating": null, "neighborhood": null, "image": null, "scorecard": null, "featured": false, "sample_categories": "Doughnut Shops", "public_id": "rubina-corp-inc-woodstock", "id": 36462525, "votes": null, "tagline": null, "has_video": false, "website": null, "offers": null, "latitude": 34.122096, "politanName": "Atlanta, GA Metro ", "phone_number": "7709265696", "tags": [{"primary": true, "id": 1734, "name": "Doughnut Shops"}], "fax_number": null, "expansion": {"count": null, "uri": null}, "impression_id": "000b000000f84cd0d6f95240d18ee0346e10e5eeb0", "profile": "http://www.citysearch.com/profile/36462525/woodstock_ga/rubina_corp_inc.html", "address": {"city": "Woodstock", "state": "GA", "street": "117 Caracas Dr", "postal_code": "30188"}, "capProviderId": null, "distance": null, "has_offers": false, "name": "Rubina Corp Inc", "longitude": -84.487843, "has_menu": false, "awards": null, "user_review_count": 0}, {"business_operation_status": 1, "rating": null, "neighborhood": null, "image": null, "scorecard": null, "featured": false, "sample_categories": "Restaurants", "public_id": "parkside-grill-woodstock", "id": 819340440, "votes": null, "tagline": null, "has_video": false, "website": null, "offers": null, "latitude": 34.130884, "politanName": "Atlanta, GA Metro ", "phone_number": "6782130552", "tags": [{"primary": true, "id": 1722, "name": "Restaurants"}], "fax_number": null, "expansion": {"count": null, "uri": null}, "impression_id": "000b000000b9b04c7ecd0947d781dafb9286d64179", "profile": "http://www.citysearch.com/profile/819340440/woodstock_ga/parkside_grill.html", "address": {"city": "Woodstock", "state": "GA", "street": "6687 Bells Ferry Rd", "postal_code": "30189"}, "capProviderId": null, "distance": null, "has_offers": false, "name": "Parkside Grill", "longitude": -84.586697, "has_menu": false, "awards": null, "user_review_count": 0}, {"business_operation_status": 1, "rating": null, "neighborhood": null, "image": null, "scorecard": null, "featured": false, "sample_categories": "Restaurants", "public_id": "the-mad-italian-marietta", "id": 826162680, "votes": null, "tagline": null, "has_video": false, "website": null, "offers": null, "latitude": 33.974656, "politanName": "Atlanta, GA Metro ", "phone_number": "6782130564", "tags": [{"primary": true, "id": 1722, "name": "Restaurants"}], "fax_number": null, "expansion": {"count": null, "uri": null}, "impression_id": "000b0000006f1ad5cb120a4f45b6c97e654f31a7eb", "profile": "http://www.citysearch.com/profile/826162680/marietta_ga/the_mad_italian.html", "address": {"city": "Marietta", "state": "GA", "street": "980 E Piedmont Rd", "postal_code": "30062"}, "capProviderId": null, "distance": null, "has_offers": false, "name": "The Mad Italian", "longitude": -84.479091, "has_menu": true, "awards": null, "user_review_count": 0}, {"business_operation_status": 0, "rating": null, "neighborhood": null, "image": null, "scorecard": null, "featured": false, "sample_categories": "Restaurants", "public_id": "perez-ncr-acworth", "id": 36286047, "votes": null, "tagline": null, "has_video": false, "website": null, "offers": null, "latitude": 34.099835, "politanName": "Atlanta, GA Metro ", "phone_number": "7709178436", "tags": [{"primary": true, "id": 1722, "name": "Restaurants"}], "fax_number": null, "expansion": {"count": null, "uri": null}, "impression_id": "000b000000722435253695442ba745e930efef313f", "profile": "http://www.citysearch.com/profile/36286047/acworth_ga/perez_ncr.html", "address": {"city": "Acworth", "state": "GA", "street": "4755 Pine Dr NW", "postal_code": "30101"}, "capProviderId": null, "distance": null, "has_offers": false, "name": "Perez NCR", "longitude": -84.688031, "has_menu": false, "awards": null, "user_review_count": 0}, {"business_operation_status": 0, "rating": 9.0, "neighborhood": null, "image": null, "scorecard": null, "featured": false, "sample_categories": "Restaurants, Coffee & Tea Shops", "public_id": "tiffanys-tea-room-marietta", "id": 37645595, "votes": null, "tagline": null, "has_video": false, "website": null, "offers": null, "latitude": 33.952532, "politanName": "Atlanta, GA Metro ", "phone_number": "7702188463", "tags": [{"primary": false, "id": 1711, "name": "Coffee & Tea Shops"}, {"primary": true, "id": 1722, "name": "Restaurants"}], "fax_number": null, "expansion": {"count": null, "uri": null}, "impression_id": "000b00000060d01b5600db4ea7b5acef36f38566d4", "profile": "http://www.citysearch.com/profile/37645595/marietta_ga/tiffanys_tea_room.html", "address": {"city": "Marietta", "state": "GA", "street": "21 W Park Sq NE", "postal_code": "30060"}, "capProviderId": null, "distance": null, "has_offers": false, "name": "Tiffanys Tea Room", "longitude": -84.550467, "has_menu": false, "awards": null, "user_review_count": 3}, {"business_operation_status": 1, "rating": null, "neighborhood": null, "image": null, "scorecard": null, "featured": false, "sample_categories": "Barbecue Restaurants", "public_id": "apple-two-peach-barbecue-marietta", "id": 614162144, "votes": null, "tagline": null, "has_video": false, "website": null, "offers": null, "latitude": 33.936816, "politanName": "Atlanta, GA Metro ", "phone_number": "7706756411", "tags": [{"primary": true, "id": 1724, "name": "Barbecue Restaurants"}], "fax_number": null, "expansion": {"count": null, "uri": null}, "impression_id": "000b00000069783f7e46d445c8bce46febaadcfe77", "profile": "http://www.citysearch.com/profile/614162144/marietta_ga/apple_two_peach_barbecue.html", "address": {"city": "Marietta", "state": "GA", "street": "680 Powder Springs St", "postal_code": "30064"}, "capProviderId": null, "distance": null, "has_offers": false, "name": "Apple Two Peach Barbecue", "longitude": -84.557309, "has_menu": false, "awards": null, "user_review_count": 0}, {"business_operation_status": 1, "rating": null, "neighborhood": null, "image": null, "scorecard": null, "featured": false, "sample_categories": "Restaurants", "public_id": "el-tepeyac-woodstock", "id": 39889232, "votes": null, "tagline": null, "has_video": false, "website": null, "offers": null, "latitude": 34.083799, "politanName": "Atlanta, GA Metro ", "phone_number": "7705166269", "tags": [{"primary": true, "id": 1722, "name": "Restaurants"}], "fax_number": null, "expansion": {"count": null, "uri": null}, "impression_id": "000b0000005172555d0536450b9e492d6677b3e83a", "profile": "http://www.citysearch.com/profile/39889232/woodstock_ga/el_tepeyac.html", "address": {"city": "Woodstock", "state": "GA", "street": "9770 Main St", "postal_code": "30188"}, "capProviderId": null, "distance": null, "has_offers": false, "name": "El Tepeyac", "longitude": -84.519754, "has_menu": true, "awards": null, "user_review_count": 0}, {"business_operation_status": 0, "rating": 8.0, "neighborhood": null, "image": null, "scorecard": null, "featured": false, "sample_categories": "Cafes, Restaurants, Coffeehouses", "public_id": "the-serene-bean-woodstock", "id": 41480845, "votes": null, "tagline": null, "has_video": false, "website": null, "offers": null, "latitude": 34.101837, "politanName": "Atlanta, GA Metro ", "phone_number": "7709248433", "tags": [{"primary": false, "id": 1722, "name": "Restaurants"}, {"primary": false, "id": 1726, "name": "Coffeehouses"}, {"primary": true, "id": 6190, "name": "Cafes"}], "fax_number": null, "expansion": {"count": null, "uri": null}, "impression_id": "000b000000052b3d5d2f694b11a8979e0118d251e5", "profile": "http://www.citysearch.com/profile/41480845/woodstock_ga/the_serene_bean.html", "address": {"city": "Woodstock", "state": "GA", "street": "105 E Main St", "postal_code": "30188"}, "capProviderId": null, "distance": null, "has_offers": false, "name": "The Serene Bean", "longitude": -84.518423, "has_menu": true, "awards": null, "user_review_count": 0}, {"business_operation_status": 1, "rating": null, "neighborhood": null, "image": null, "scorecard": null, "featured": false, "sample_categories": "Grocery Stores, Bakeries, Delis And Delicatessens, Florists, Department Stores", "public_id": "kroger-deli-marietta", "id": 621968220, "votes": null, "tagline": null, "has_video": false, "website": "http://www.citysearch.com/profile/external/621968220/marietta_ga/kroger_deli.html", "offers": null, "latitude": 34.038928, "politanName": "Atlanta, GA Metro ", "phone_number": "7709247930", "tags": [{"primary": false, "id": 1685, "name": "Bakeries"}, {"primary": false, "id": 1727, "name": "Delis And Delicatessens"}, {"primary": false, "id": 3921, "name": "Florists"}, {"primary": false, "id": 3924, "name": "Department Stores"}, {"primary": true, "id": 1713, "name": "Grocery Stores"}], "fax_number": null, "expansion": {"count": null, "uri": null}, "impression_id": "000b000000b283c314739d4a8f9fa61760f8b964a6", "profile": "http://www.citysearch.com/profile/621968220/marietta_ga/kroger_deli.html", "address": {"city": "Marietta", "state": "GA", "street": "3595 Canton Rd # B", "postal_code": "30066"}, "capProviderId": null, "distance": null, "has_offers": false, "name": "Kroger Deli", "longitude": -84.530249, "has_menu": false, "awards": null, "user_review_count": 0}], "histograms": [], "tag_ids": [1722], "uri": "http://api.citygridmedia.com:8080/search/places/v2/search/where?has_offers=false&type=restaurant&format=json&page=25&where=30144&rpp=50&histograms=false&publisher=10000009598&region_type=circle", "did_you_mean": "", "regions": [{"latitude": 34.037076, "default_radius": 4.72, "type": "postal_code", "name": "30144", "longitude": -84.591034}], "call_id": "000b000000ef7b20fea7b248998ac5827119431682", "first_hit": 1201, "total_hits": 1696, "geo_ids": [26310], "page": 25, "last_hit": 1250}}