{"results": {"rpp": 50, "locations": [{"business_operation_status": 1, "rating": null, "neighborhood": null, "image": null, "scorecard": null, "featured": false, "sample_categories": "Restaurants, Carry Out, Shop Online, Chicken", "public_id": "kfc-kennesaw-2", "id": 764895270, "votes": null, "tagline": null, "has_video": false, "website": "http://www.citysearch.com/profile/external/764895270/kennesaw_ga/kfc.html", "offers": null, "latitude": 34.110827, "politanName": "Atlanta, GA Metro ", "phone_number": "7709745420", "tags": [{"primary": false, "id": 11247, "name": "Carry Out"}, {"primary": false, "id": 11375, "name": "Shop Online"}, {"primary": false, "id": 12839, "name": "Chicken"}, {"primary": true, "id": 1722, "name": "Restaurants"}], "fax_number": null, "expansion": {"count": null, "uri": null}, "impression_id": "000b00000085c3bad88303465fa2b2e4ab22e692e5", "profile": "http://www.citysearch.com/profile/764895270/kennesaw_ga/kfc.html", "address": {"city": "Kennesaw", "state": "GA", "street": "5040 Glade Rd NW", "postal_code": "30144"}, "capProviderId": null, "distance": null, "has_offers": false, "name": "KFC", "longitude": -84.680635, "has_menu": false, "awards": null, "user_review_count": 0}, {"business_operation_status": 1, "rating": null, "neighborhood": null, "image": null, "scorecard": null, "featured": false, "sample_categories": "Restaurants, Pizza, Carry Out", "public_id": "pizza-hut-kennesaw-3", "id": 790675460, "votes": null, "tagline": null, "has_video": false, "website": null, "offers": null, "latitude": 33.99979, "politanName": "Atlanta, GA Metro ", "phone_number": "7704248863", "tags": [{"primary": false, "id": 1722, "name": "Restaurants"}, {"primary": false, "id": 11247, "name": "Carry Out"}, {"primary": true, "id": 11299, "name": "Pizza"}], "fax_number": null, "expansion": {"count": null, "uri": null}, "impression_id": "000b000000b179ad36601c4d7cb51dc4769ec4ac5e", "profile": "http://www.citysearch.com/profile/790675460/kennesaw_ga/pizza_hut.html", "address": {"city": "Kennesaw", "state": "GA", "street": "1906 Cobb Pkwy NW", "postal_code": "30152"}, "capProviderId": null, "distance": null, "has_offers": false, "name": "Pizza Hut", "longitude": -84.588641, "has_menu": false, "awards": null, "user_review_count": 0}, {"business_operation_status": 1, "rating": null, "neighborhood": null, "image": null, "scorecard": null, "featured": false, "sample_categories": "Restaurants, Delis And Delicatessens", "public_id": "jasons-deli-kennesaw", "id": 803500390, "votes": null, "tagline": null, "has_video": false, "website": "http://www.citysearch.com/profile/external/803500390/kennesaw_ga/jason_s_deli.html", "offers": null, "latitude": 34.003304, "politanName": "Atlanta, GA Metro ", "phone_number": "6783984000", "tags": [{"primary": false, "id": 1727, "name": "Delis And Delicatessens"}, {"primary": true, "id": 1722, "name": "Restaurants"}], "fax_number": null, "expansion": {"count": null, "uri": null}, "impression_id": "000b000000b6471898ba3c487d93455234314fdc74", "profile": "http://www.citysearch.com/profile/803500390/kennesaw_ga/jason_s_deli.html", "address": {"city": "Kennesaw", "state": "GA", "street": "945 Ernest W Barrett Pkwy NW", "postal_code": "30144"}, "capProviderId": null, "distance": null, "has_offers": false, "name": "Jason's Deli", "longitude": -84.578858, "has_menu": false, "awards": null, "user_review_count": 0}, {"business_operation_status": 1, "rating": null, "neighborhood": null, "image": null, "scorecard": null, "featured": false, "sample_categories": "Restaurants", "public_id": "mrs-winners-chicken-bscts-kennesaw", "id": 806276160, "votes": null, "tagline": null, "has_video": false, "website": null, "offers": null, "latitude": 34.059567, "politanName": "Atlanta, GA Metro ", "phone_number": "7704274040", "tags": [{"primary": true, "id": 1722, "name": "Restaurants"}], "fax_number": null, "expansion": {"count": null, "uri": null}, "impression_id": "000b0000003cea1cf0d1da462d90d7988f72f63211", "profile": "http://www.citysearch.com/profile/806276160/kennesaw_ga/mrs_winner_s_chicken_bscts.html", "address": {"city": "Kennesaw", "state": "GA", "street": "4383 Wade Green Rd NW", "postal_code": "30144"}, "capProviderId": null, "distance": null, "has_offers": false, "name": "Mrs Winner's Chicken & Bscts", "longitude": -84.593135, "has_menu": false, "awards": null, "user_review_count": 0}, {"business_operation_status": 1, "rating": null, "neighborhood": null, "image": null, "scorecard": null, "featured": false, "sample_categories": "Restaurants, Coffeehouses", "public_id": "peace-cafe-kennesaw", "id": 748262240, "votes": null, "tagline": null, "has_video": false, "website": null, "offers": null, "latitude": 34.042632, "politanName": "Atlanta, GA Metro ", "phone_number": "7707927880", "tags": [{"primary": false, "id": 1726, "name": "Coffeehouses"}, {"primary": true, "id": 1722, "name": "Restaurants"}], "fax_number": null, "expansion": {"count": null, "uri": null}, "impression_id": "000b000000495dd49155c34553baff9e984f1f7b95", "profile": "http://www.citysearch.com/profile/748262240/kennesaw_ga/peace_cafe.html", "address": {"city": "Kennesaw", "state": "GA", "street": "3805 Canton Pl NW", "postal_code": "30144"}, "capProviderId": null, "distance": null, "has_offers": false, "name": "Peace Cafe", "longitude": -84.584447, "has_menu": false, "awards": null, "user_review_count": 0}, {"business_operation_status": 1, "rating": null, "neighborhood": null, "image": null, "scorecard": null, "featured": false, "sample_categories": "Restaurants", "public_id": "specialty-restaurant-group-inc-kennesaw", "id": 648896300, "votes": null, "tagline": null, "has_video": false, "website": "http://www.citysearch.com/profile/external/648896300/kennesaw_ga/specialty_restaurant_group_inc.html", "offers": null, "latitude": 34.015329, "politanName": "Atlanta, GA Metro ", "phone_number": "7704997878", "tags": [{"primary": true, "id": 1722, "name": "Restaurants"}], "fax_number": null, "expansion": {"count": null, "uri": null}, "impression_id": "000b000000df6055b8e8794ff8958f2ece1a7a359e", "profile": "http://www.citysearch.com/profile/648896300/kennesaw_ga/specialty_restaurant_group_inc.html", "address": {"city": "Kennesaw", "state": "GA", "street": "2500 Cobb Pkwy NW Ste B7", "postal_code": "30152"}, "capProviderId": null, "distance": null, "has_offers": false, "name": "Specialty Restaurant Group Inc", "longitude": -84.615064, "has_menu": false, "awards": null, "user_review_count": 0}, {"business_operation_status": 1, "rating": null, "neighborhood": null, "image": null, "scorecard": null, "featured": false, "sample_categories": "Restaurants, Chicken", "public_id": "big-chic-kennesaw", "id": 632898430, "votes": null, "tagline": null, "has_video": false, "website": null, "offers": null, "latitude": 34.031399, "politanName": "Atlanta, GA Metro ", "phone_number": "7706946234", "tags": [{"primary": false, "id": 12839, "name": "Chicken"}, {"primary": true, "id": 1722, "name": "Restaurants"}], "fax_number": null, "expansion": {"count": null, "uri": null}, "impression_id": "000b0000002ac1d36bee2441dcaa83b4a35ec7e028", "profile": "http://www.citysearch.com/profile/632898430/kennesaw_ga/big_chic.html", "address": {"city": "Kennesaw", "state": "GA", "street": "3140 Cobb Pkwy Nw", "postal_code": "30152"}, "capProviderId": null, "distance": null, "has_offers": false, "name": "Big Chic", "longitude": -84.657284, "has_menu": false, "awards": null, "user_review_count": 0}, {"business_operation_status": 1, "rating": null, "neighborhood": null, "image": null, "scorecard": null, "featured": false, "sample_categories": "Restaurants", "public_id": "jmc-restaurant-distribution-kennesaw", "id": 601313826, "votes": null, "tagline": null, "has_video": false, "website": "http://www.citysearch.com/profile/external/601313826/kennesaw_ga/jmc_restaurant_distribution.html", "offers": null, "latitude": 34.011176, "politanName": "Atlanta, GA Metro ", "phone_number": "7705281170", "tags": [{"primary": true, "id": 1722, "name": "Restaurants"}], "fax_number": null, "expansion": {"count": null, "uri": null}, "impression_id": "000b000000b3180b8774f64bc9985b7091b0aebf40", "profile": "http://www.citysearch.com/profile/601313826/kennesaw_ga/jmc_restaurant_distribution.html", "address": {"city": "Kennesaw", "state": "GA", "street": "980 Cobb Place Blvd Nw # 240", "postal_code": "30144"}, "capProviderId": null, "distance": null, "has_offers": false, "name": "Jmc Restaurant Distribution", "longitude": -84.581645, "has_menu": false, "awards": null, "user_review_count": 0}, {"business_operation_status": 1, "rating": null, "neighborhood": null, "image": null, "scorecard": null, "featured": false, "sample_categories": "Restaurants, Delis And Delicatessens, Sandwich Shops, Carry Out", "public_id": "blimpie-subs-salads-kennesaw-2", "id": 713401400, "votes": null, "tagline": null, "has_video": false, "website": "http://www.citysearch.com/profile/external/713401400/kennesaw_ga/blimpie_subs_salads.html", "offers": null, "latitude": 34.00436, "politanName": "Atlanta, GA Metro ", "phone_number": "7704245088", "tags": [{"primary": false, "id": 1727, "name": "Delis And Delicatessens"}, {"primary": false, "id": 1736, "name": "Sandwich Shops"}, {"primary": false, "id": 11247, "name": "Carry Out"}, {"primary": true, "id": 1722, "name": "Restaurants"}], "fax_number": null, "expansion": {"count": null, "uri": null}, "impression_id": "000b00000031b66d85e016423a98367bbb0a45b2bc", "profile": "http://www.citysearch.com/profile/713401400/kennesaw_ga/blimpie_subs_salads.html", "address": {"city": "Kennesaw", "state": "GA", "street": "667 Ernest W Barrett Pkwy NW", "postal_code": "30144"}, "capProviderId": null, "distance": null, "has_offers": false, "name": "Blimpie Subs & Salads", "longitude": -84.572087, "has_menu": false, "awards": null, "user_review_count": 0}, {"business_operation_status": 1, "rating": null, "neighborhood": null, "image": null, "scorecard": null, "featured": false, "sample_categories": "Restaurants, Pizza, Carry Out", "public_id": "jets-pizza-kennesaw", "id": 713510300, "votes": null, "tagline": null, "has_video": false, "website": "http://www.citysearch.com/profile/external/713510300/kennesaw_ga/jet_s_pizza.html", "offers": null, "latitude": 34.047772, "politanName": "Atlanta, GA Metro ", "phone_number": "7704278788", "tags": [{"primary": false, "id": 1722, "name": "Restaurants"}, {"primary": false, "id": 11247, "name": "Carry Out"}, {"primary": true, "id": 11299, "name": "Pizza"}], "fax_number": null, "expansion": {"count": null, "uri": null}, "impression_id": "000b000000c6be053717ec447184e4ba1525551ad7", "profile": "http://www.citysearch.com/profile/713510300/kennesaw_ga/jet_s_pizza.html", "address": {"city": "Kennesaw", "state": "GA", "street": "4100 Jiles Rd NW", "postal_code": "30144"}, "capProviderId": null, "distance": null, "has_offers": false, "name": "Jet's Pizza", "longitude": -84.610566, "has_menu": true, "awards": null, "user_review_count": 0}, {"business_operation_status": 1, "rating": 6.0, "neighborhood": null, "image": null, "scorecard": null, "featured": false, "sample_categories": "Restaurants, Mexican, American Express, Discover, MasterCard", "public_id": "el-taco-azteca-mexican-grille-kennesaw", "id": 43859514, "votes": null, "tagline": null, "has_video": false, "website": "http://www.citysearch.com/profile/external/43859514/kennesaw_ga/el_taco_azteca_mexican_grille.html", "offers": null, "latitude": 34.020557, "politanName": "Atlanta, GA Metro ", "phone_number": "7709191609", "tags": [{"primary": false, "id": 11208, "name": "Mexican"}, {"primary": false, "id": 11333, "name": "American Express"}, {"primary": false, "id": 11349, "name": "Discover"}, {"primary": false, "id": 11361, "name": "MasterCard"}, {"primary": false, "id": 11382, "name": "Visa"}, {"primary": true, "id": 1722, "name": "Restaurants"}], "fax_number": null, "expansion": {"count": null, "uri": null}, "impression_id": "000b0000009c34b78dcf49408094bd05fd730ff94d", "profile": "http://www.citysearch.com/profile/43859514/kennesaw_ga/el_taco_azteca_mexican_grille.html", "address": {"city": "Kennesaw", "state": "GA", "street": "2752 S Main St NW", "postal_code": "30144"}, "capProviderId": null, "distance": null, "has_offers": false, "name": "El Taco Azteca Mexican Grille", "longitude": -84.612558, "has_menu": false, "awards": null, "user_review_count": 3}, {"business_operation_status": 1, "rating": null, "neighborhood": null, "image": null, "scorecard": null, "featured": false, "sample_categories": "Catering, Restaurants, Pizza", "public_id": "rays-new-york-pizza-kennesaw-2", "id": 653618780, "votes": null, "tagline": null, "has_video": false, "website": "http://www.citysearch.com/profile/external/653618780/kennesaw_ga/ray_s_new_york_pizza.html", "offers": null, "latitude": 34.037182, "politanName": "Atlanta, GA Metro ", "phone_number": "7704249000", "tags": [{"primary": false, "id": 1705, "name": "Catering"}, {"primary": false, "id": 1722, "name": "Restaurants"}, {"primary": true, "id": 11299, "name": "Pizza"}], "fax_number": null, "expansion": {"count": null, "uri": null}, "impression_id": "000b000000cf6c42b6486b49f4942e8bd5c74461b9", "profile": "http://www.citysearch.com/profile/653618780/kennesaw_ga/ray_s_new_york_pizza.html", "address": {"city": "Kennesaw", "state": "GA", "street": "600 Chastain Rd Nw", "postal_code": "30144"}, "capProviderId": null, "distance": null, "has_offers": false, "name": "Ray's New York Pizza", "longitude": -84.567518, "has_menu": false, "awards": null, "user_review_count": 0}, {"business_operation_status": 1, "rating": null, "neighborhood": null, "image": null, "scorecard": null, "featured": false, "sample_categories": "Restaurants, Pizza", "public_id": "atena-pizza-kennesaw", "id": 827581250, "votes": null, "tagline": null, "has_video": false, "website": null, "offers": null, "latitude": 34.020819, "politanName": "Atlanta, GA Metro ", "phone_number": "6787971888", "tags": [{"primary": false, "id": 1722, "name": "Restaurants"}, {"primary": true, "id": 11299, "name": "Pizza"}], "fax_number": null, "expansion": {"count": null, "uri": null}, "impression_id": "000b000000b3827e4eab8e452ba41727a06963238f", "profile": "http://www.citysearch.com/profile/827581250/kennesaw_ga/atena_pizza.html", "address": {"city": "Kennesaw", "state": "GA", "street": "2754 S Main St NW", "postal_code": "30144"}, "capProviderId": null, "distance": null, "has_offers": false, "name": "Atena Pizza", "longitude": -84.613657, "has_menu": false, "awards": null, "user_review_count": 0}, {"business_operation_status": 1, "rating": null, "neighborhood": null, "image": null, "scorecard": null, "featured": false, "sample_categories": "Ice Cream Parlors, Restaurants, Dessert Shops, Frozen Yogurt Shops, Doughnut Shops", "public_id": "baskinrobbins-kennesaw", "id": 43858643, "votes": null, "tagline": null, "has_video": false, "website": "http://www.citysearch.com/profile/external/43858643/kennesaw_ga/baskin_robbins.html", "offers": null, "latitude": 34.03594, "politanName": "Atlanta, GA Metro ", "phone_number": "6783555518", "tags": [{"primary": false, "id": 1722, "name": "Restaurants"}, {"primary": false, "id": 1728, "name": "Dessert Shops"}, {"primary": false, "id": 1729, "name": "Frozen Yogurt Shops"}, {"primary": false, "id": 1734, "name": "Doughnut Shops"}, {"primary": true, "id": 1730, "name": "Ice Cream Parlors"}], "fax_number": null, "expansion": {"count": null, "uri": null}, "impression_id": "000b0000003b41a9ff23504a5289bd4ec205b302bf", "profile": "http://www.citysearch.com/profile/43858643/kennesaw_ga/baskin_robbins.html", "address": {"city": "Kennesaw", "state": "GA", "street": "741 Townpark Ln NW", "postal_code": "30144"}, "capProviderId": null, "distance": null, "has_offers": false, "name": "Baskin-Robbins", "longitude": -84.572269, "has_menu": true, "awards": null, "user_review_count": 0}, {"business_operation_status": 1, "rating": null, "neighborhood": null, "image": null, "scorecard": null, "featured": false, "sample_categories": "Restaurants, Carry Out, American Express, Discover, MasterCard", "public_id": "zaxbys-kennesaw-2", "id": 43864981, "votes": null, "tagline": null, "has_video": false, "website": "http://www.citysearch.com/profile/external/43864981/kennesaw_ga/zaxby_s.html", "offers": null, "latitude": 34.036091, "politanName": "Atlanta, GA Metro ", "phone_number": "7704295778", "tags": [{"primary": false, "id": 11247, "name": "Carry Out"}, {"primary": false, "id": 11333, "name": "American Express"}, {"primary": false, "id": 11349, "name": "Discover"}, {"primary": false, "id": 11361, "name": "MasterCard"}, {"primary": false, "id": 11382, "name": "Visa"}, {"primary": false, "id": 12839, "name": "Chicken"}, {"primary": true, "id": 1722, "name": "Restaurants"}], "fax_number": null, "expansion": {"count": null, "uri": null}, "impression_id": "000b0000000a703cc68bbd417db5492a4c133ffded", "profile": "http://www.citysearch.com/profile/43864981/kennesaw_ga/zaxby_s.html", "address": {"city": "Kennesaw", "state": "GA", "street": "780 Townpark Ln NW", "postal_code": "30144"}, "capProviderId": null, "distance": null, "has_offers": false, "name": "Zaxby's", "longitude": -84.574531, "has_menu": true, "awards": null, "user_review_count": 0}, {"business_operation_status": 1, "rating": null, "neighborhood": null, "image": null, "scorecard": null, "featured": false, "sample_categories": "Ice Cream Parlors, Restaurants, Dessert Shops", "public_id": "dippin-dots-kennesaw", "id": 36642606, "votes": null, "tagline": null, "has_video": false, "website": "http://www.citysearch.com/profile/external/36642606/kennesaw_ga/dippin_dots.html", "offers": null, "latitude": 34.019128, "politanName": "Atlanta, GA Metro ", "phone_number": "7709191015", "tags": [{"primary": false, "id": 1722, "name": "Restaurants"}, {"primary": false, "id": 1728, "name": "Dessert Shops"}, {"primary": true, "id": 1730, "name": "Ice Cream Parlors"}], "fax_number": null, "expansion": {"count": null, "uri": null}, "impression_id": "000b000000c8d5bb82ff03429e8557c9c0a5c2014d", "profile": "http://www.citysearch.com/profile/36642606/kennesaw_ga/dippin_dots.html", "address": {"city": "Kennesaw", "state": "GA", "street": "400 Ernest W Barrett Pkwy NW", "postal_code": "30144"}, "capProviderId": null, "distance": null, "has_offers": false, "name": "Dippin' Dots", "longitude": -84.563608, "has_menu": true, "awards": null, "user_review_count": 0}, {"business_operation_status": 1, "rating": null, "neighborhood": null, "image": null, "scorecard": null, "featured": false, "sample_categories": "Ethnic Food Markets, Restaurants, Hispanic Food Products, Mexican", "public_id": "el-maizal-tortilleria-inc-kennesaw", "id": 36715365, "votes": null, "tagline": null, "has_video": false, "website": "http://www.citysearch.com/profile/external/36715365/kennesaw_ga/el_maizal_tortilleria_inc.html", "offers": null, "latitude": 34.056577, "politanName": "Atlanta, GA Metro ", "phone_number": "7709192501", "tags": [{"primary": false, "id": 1712, "name": "Ethnic Food Markets"}, {"primary": false, "id": 11153, "name": "Hispanic Food Products"}, {"primary": false, "id": 11208, "name": "Mexican"}, {"primary": true, "id": 1722, "name": "Restaurants"}], "fax_number": null, "expansion": {"count": null, "uri": null}, "impression_id": "000b00000086e5ac0f501c4b6cb6ef933638c2cc88", "profile": "http://www.citysearch.com/profile/36715365/kennesaw_ga/el_maizal_tortilleria_inc.html", "address": {"city": "Kennesaw", "state": "GA", "street": "1920 Shiloh Rd NW", "postal_code": "30144"}, "capProviderId": null, "distance": null, "has_offers": false, "name": "El Maizal Tortilleria Inc", "longitude": -84.606862, "has_menu": false, "awards": null, "user_review_count": 0}, {"business_operation_status": 1, "rating": null, "neighborhood": null, "image": null, "scorecard": null, "featured": false, "sample_categories": "Restaurants", "public_id": "kennesaw-thai-kennesaw", "id": 608222434, "votes": null, "tagline": null, "has_video": false, "website": null, "offers": null, "latitude": 34.020591, "politanName": "Atlanta, GA Metro ", "phone_number": "6783311988", "tags": [{"primary": true, "id": 1722, "name": "Restaurants"}], "fax_number": null, "expansion": {"count": null, "uri": null}, "impression_id": "000b0000009cbf0d7b298d491f939e4c584eaa9c84", "profile": "http://www.citysearch.com/profile/608222434/kennesaw_ga/kennesaw_thai.html", "address": {"city": "Kennesaw", "state": "GA", "street": "2754 S Main Street", "postal_code": "30144"}, "capProviderId": null, "distance": null, "has_offers": false, "name": "Kennesaw Thai", "longitude": -84.612586, "has_menu": true, "awards": null, "user_review_count": 1}, {"business_operation_status": 1, "rating": null, "neighborhood": null, "image": null, "scorecard": null, "featured": false, "sample_categories": "Restaurants", "public_id": "mediterranean-bistro-kennesaw", "id": 614254214, "votes": null, "tagline": null, "has_video": false, "website": null, "offers": null, "latitude": 34.049477, "politanName": "Atlanta, GA Metro ", "phone_number": "7704291999", "tags": [{"primary": true, "id": 1722, "name": "Restaurants"}], "fax_number": null, "expansion": {"count": null, "uri": null}, "impression_id": "000b000000398f8726d01a47c797893da082f39009", "profile": "http://www.citysearch.com/profile/614254214/kennesaw_ga/mediterranean_bistro.html", "address": {"city": "Kennesaw", "state": "GA", "street": "3940 Cherokee St NW", "postal_code": "30144"}, "capProviderId": null, "distance": null, "has_offers": false, "name": "Mediterranean Bistro", "longitude": -84.596636, "has_menu": false, "awards": null, "user_review_count": 0}, {"business_operation_status": 1, "rating": null, "neighborhood": null, "image": null, "scorecard": null, "featured": false, "sample_categories": "Restaurants, Delis And Delicatessens, Carry Out, American Express, Debit Card", "public_id": "panera-bread-kennesaw-2", "id": 779662590, "votes": null, "tagline": null, "has_video": false, "website": "http://www.citysearch.com/profile/external/779662590/kennesaw_ga/panera_bread.html", "offers": null, "latitude": 34.003608, "politanName": "Atlanta, GA Metro ", "phone_number": "7707992750", "tags": [{"primary": false, "id": 1727, "name": "Delis And Delicatessens"}, {"primary": false, "id": 11247, "name": "Carry Out"}, {"primary": false, "id": 11333, "name": "American Express"}, {"primary": false, "id": 11347, "name": "Debit Card"}, {"primary": false, "id": 11349, "name": "Discover"}, {"primary": false, "id": 11361, "name": "MasterCard"}, {"primary": false, "id": 11382, "name": "Visa"}, {"primary": true, "id": 1722, "name": "Restaurants"}], "fax_number": null, "expansion": {"count": null, "uri": null}, "impression_id": "000b000000a14d717609c1492eb585a1bb226024d6", "profile": "http://www.citysearch.com/profile/779662590/kennesaw_ga/panera_bread.html", "address": {"city": "Kennesaw", "state": "GA", "street": "964 Ernest W Barrett Pkwy NW", "postal_code": "30144"}, "capProviderId": null, "distance": null, "has_offers": false, "name": "Panera Bread", "longitude": -84.580197, "has_menu": false, "awards": null, "user_review_count": 0}, {"business_operation_status": 1, "rating": null, "neighborhood": null, "image": null, "scorecard": null, "featured": false, "sample_categories": "Coffeehouses", "public_id": "java-juice-smoothie-co-kennesaw", "id": 807031020, "votes": null, "tagline": null, "has_video": false, "website": null, "offers": null, "latitude": 34.010391, "politanName": "Atlanta, GA Metro ", "phone_number": "7704999306", "tags": [{"primary": true, "id": 1726, "name": "Coffeehouses"}], "fax_number": null, "expansion": {"count": null, "uri": null}, "impression_id": "000b0000006865f3debc524d84a0f7cee1fca94a21", "profile": "http://www.citysearch.com/profile/807031020/kennesaw_ga/java_juice_smoothie_co.html", "address": {"city": "Kennesaw", "state": "GA", "street": "501 Roberts CT NW", "postal_code": "30144"}, "capProviderId": null, "distance": null, "has_offers": false, "name": "Java & Juice Smoothie Co", "longitude": -84.563237, "has_menu": false, "awards": null, "user_review_count": 0}, {"business_operation_status": 1, "rating": null, "neighborhood": null, "image": null, "scorecard": null, "featured": false, "sample_categories": "Ice Cream Parlors", "public_id": "eatin-ice-cream-daily-inc-kennesaw", "id": 826821860, "votes": null, "tagline": null, "has_video": false, "website": null, "offers": null, "latitude": 34.023018, "politanName": "Atlanta, GA Metro ", "phone_number": "7704275378", "tags": [{"primary": true, "id": 1730, "name": "Ice Cream Parlors"}], "fax_number": null, "expansion": {"count": null, "uri": null}, "impression_id": "000b000000f4c7f84a42204e74aa8f451610b04852", "profile": "http://www.citysearch.com/profile/826821860/kennesaw_ga/eatin_ice_cream_daily_inc.html", "address": {"city": "Kennesaw", "state": "GA", "street": "2847 S Main St NW", "postal_code": "30144"}, "capProviderId": null, "distance": null, "has_offers": false, "name": "Eatin Ice Cream Daily Inc", "longitude": -84.615298, "has_menu": false, "awards": null, "user_review_count": 0}, {"business_operation_status": 1, "rating": null, "neighborhood": null, "image": null, "scorecard": null, "featured": false, "sample_categories": "Restaurants, Mexican", "public_id": "los-cabos-mexican-restaurant-kennesaw", "id": 777728160, "votes": null, "tagline": null, "has_video": false, "website": null, "offers": null, "latitude": 34.014676, "politanName": "Atlanta, GA Metro ", "phone_number": "7705909742", "tags": [{"primary": false, "id": 11208, "name": "Mexican"}, {"primary": true, "id": 1722, "name": "Restaurants"}], "fax_number": null, "expansion": {"count": null, "uri": null}, "impression_id": "000b000000deba7f6ac6544fd588575a5badcfd18b", "profile": "http://www.citysearch.com/profile/777728160/kennesaw_ga/los_cabos_mexican_restaurant.html", "address": {"city": "Kennesaw", "state": "GA", "street": "2500 Cobb Pkwy NW # B3", "postal_code": "30152"}, "capProviderId": null, "distance": null, "has_offers": false, "name": "Los Cabos Mexican Restaurant", "longitude": -84.614309, "has_menu": false, "awards": null, "user_review_count": 3}, {"business_operation_status": 1, "rating": null, "neighborhood": null, "image": null, "scorecard": null, "featured": false, "sample_categories": "Ice Cream Parlors", "public_id": "haagendazs-shop-marietta", "id": 621882610, "votes": null, "tagline": null, "has_video": false, "website": "http://www.citysearch.com/profile/external/621882610/marietta_ga/haagen_dazs_shop.html", "offers": null, "latitude": 34.019128, "politanName": "Atlanta, GA Metro ", "phone_number": "7705903120", "tags": [{"primary": true, "id": 1730, "name": "Ice Cream Parlors"}], "fax_number": null, "expansion": {"count": null, "uri": null}, "impression_id": "000b000000d8349f4caeef424689178d1e73a66845", "profile": "http://www.citysearch.com/profile/621882610/marietta_ga/haagen_dazs_shop.html", "address": {"city": "Marietta", "state": "GA", "street": "400 Ernest Barrett Pkwy Nw", "postal_code": "30060"}, "capProviderId": null, "distance": null, "has_offers": false, "name": "Haagen-Dazs Shop", "longitude": -84.563608, "has_menu": false, "awards": null, "user_review_count": 0}, {"business_operation_status": 1, "rating": null, "neighborhood": null, "image": null, "scorecard": null, "featured": false, "sample_categories": "Restaurants, Traditional American", "public_id": "huddle-house-kennesaw", "id": 713615300, "votes": null, "tagline": null, "has_video": false, "website": "http://www.citysearch.com/profile/external/713615300/kennesaw_ga/huddle_house.html", "offers": null, "latitude": 34.022601, "politanName": "Atlanta, GA Metro ", "phone_number": "7704990330", "tags": [{"primary": false, "id": 11190, "name": "Traditional American"}, {"primary": true, "id": 1722, "name": "Restaurants"}], "fax_number": null, "expansion": {"count": null, "uri": null}, "impression_id": "000b00000036277afbe53349c2924da8bb07685843", "profile": "http://www.citysearch.com/profile/713615300/kennesaw_ga/huddle_house.html", "address": {"city": "Kennesaw", "state": "GA", "street": "2420 Cobb Pkwy NW", "postal_code": "30152"}, "capProviderId": null, "distance": null, "has_offers": false, "name": "Huddle House", "longitude": -84.626408, "has_menu": true, "awards": null, "user_review_count": 1}, {"business_operation_status": 1, "rating": null, "neighborhood": null, "image": null, "scorecard": null, "featured": false, "sample_categories": "Restaurants", "public_id": "vinevera-kennesaw", "id": 793361100, "votes": null, "tagline": null, "has_video": false, "website": null, "offers": null, "latitude": 34.01771, "politanName": "Atlanta, GA Metro ", "phone_number": "7705909522", "tags": [{"primary": true, "id": 1722, "name": "Restaurants"}], "fax_number": null, "expansion": {"count": null, "uri": null}, "impression_id": "000b000000c7e087bb588949ae982450d13b47bc74", "profile": "http://www.citysearch.com/profile/793361100/kennesaw_ga/vinevera.html", "address": {"city": "Kennesaw", "state": "GA", "street": "400 Ernest W Barrett Pkwy NW", "postal_code": "30144"}, "capProviderId": null, "distance": null, "has_offers": false, "name": "Vinevera", "longitude": -84.564475, "has_menu": false, "awards": null, "user_review_count": 0}, {"business_operation_status": 1, "rating": null, "neighborhood": null, "image": null, "scorecard": null, "featured": false, "sample_categories": "Restaurants, Bars & Clubs, Bars & Pubs, Mexican", "public_id": "la-bamba-mexican-bar-grill-kennesaw", "id": 742263110, "votes": null, "tagline": null, "has_video": false, "website": null, "offers": null, "latitude": 34.047772, "politanName": "Atlanta, GA Metro ", "phone_number": "7704221106", "tags": [{"primary": false, "id": 164, "name": "Bars & Clubs"}, {"primary": false, "id": 1686, "name": "Bars & Pubs"}, {"primary": false, "id": 11208, "name": "Mexican"}, {"primary": true, "id": 1722, "name": "Restaurants"}], "fax_number": null, "expansion": {"count": null, "uri": null}, "impression_id": "000b0000009bd13865b06b4b3bb2d843e1f627792f", "profile": "http://www.citysearch.com/profile/742263110/kennesaw_ga/la_bamba_mexican_bar_grill.html", "address": {"city": "Kennesaw", "state": "GA", "street": "4100 Jiles Rd NW", "postal_code": "30144"}, "capProviderId": null, "distance": null, "has_offers": false, "name": "La Bamba Mexican Bar & Grill", "longitude": -84.610566, "has_menu": false, "awards": null, "user_review_count": 0}, {"business_operation_status": 1, "rating": null, "neighborhood": null, "image": null, "scorecard": null, "featured": false, "sample_categories": "Restaurants, Barbecue Restaurants", "public_id": "wings-inc-kennesaw", "id": 777815920, "votes": null, "tagline": null, "has_video": false, "website": null, "offers": null, "latitude": 34.008395, "politanName": "Atlanta, GA Metro ", "phone_number": "6782903950", "tags": [{"primary": false, "id": 1724, "name": "Barbecue Restaurants"}, {"primary": true, "id": 1722, "name": "Restaurants"}], "fax_number": null, "expansion": {"count": null, "uri": null}, "impression_id": "000b000000d4b8dfc60bef4166b83ffb0043ce327b", "profile": "http://www.citysearch.com/profile/777815920/kennesaw_ga/wings_inc.html", "address": {"city": "Kennesaw", "state": "GA", "street": "319 Heritage Park Trce NW", "postal_code": "30144"}, "capProviderId": null, "distance": null, "has_offers": false, "name": "Wings INC", "longitude": -84.56101, "has_menu": false, "awards": null, "user_review_count": 0}, {"business_operation_status": 1, "rating": null, "neighborhood": null, "image": null, "scorecard": null, "featured": false, "sample_categories": "Restaurants, Delis And Delicatessens, Sandwich Shops, Carry Out", "public_id": "subway-kennesaw-11", "id": 777683740, "votes": null, "tagline": null, "has_video": false, "website": "http://www.citysearch.com/profile/external/777683740/kennesaw_ga/subway.html", "offers": null, "latitude": 34.033713, "politanName": "Atlanta, GA Metro ", "phone_number": "7705440339", "tags": [{"primary": false, "id": 1727, "name": "Delis And Delicatessens"}, {"primary": false, "id": 1736, "name": "Sandwich Shops"}, {"primary": false, "id": 11247, "name": "Carry Out"}, {"primary": true, "id": 1722, "name": "Restaurants"}], "fax_number": null, "expansion": {"count": null, "uri": null}, "impression_id": "000b0000003d881229bc3b49568c4a52c614829d3b", "profile": "http://www.citysearch.com/profile/777683740/kennesaw_ga/subway.html", "address": {"city": "Kennesaw", "state": "GA", "street": "3300 Frey Rd NW", "postal_code": "30144"}, "capProviderId": null, "distance": null, "has_offers": false, "name": "SUBWAY", "longitude": -84.579677, "has_menu": true, "awards": null, "user_review_count": 0}, {"business_operation_status": 1, "rating": null, "neighborhood": null, "image": null, "scorecard": null, "featured": false, "sample_categories": "Restaurants, Bars & Clubs, Mexican", "public_id": "bogeys-kennesaw", "id": 775191750, "votes": null, "tagline": null, "has_video": false, "website": null, "offers": null, "latitude": 34.013172, "politanName": "Atlanta, GA Metro ", "phone_number": "7704261515", "tags": [{"primary": false, "id": 164, "name": "Bars & Clubs"}, {"primary": false, "id": 11208, "name": "Mexican"}, {"primary": true, "id": 1722, "name": "Restaurants"}], "fax_number": null, "expansion": {"count": null, "uri": null}, "impression_id": "000b000000c4484f20fd5a4f0992a6f907d134f919", "profile": "http://www.citysearch.com/profile/775191750/kennesaw_ga/bogey_s.html", "address": {"city": "Kennesaw", "state": "GA", "street": "2615 George Busbee Pkwy NW", "postal_code": "30144"}, "capProviderId": null, "distance": null, "has_offers": false, "name": "Bogey's", "longitude": -84.567215, "has_menu": false, "awards": null, "user_review_count": 0}, {"business_operation_status": 1, "rating": null, "neighborhood": null, "image": null, "scorecard": null, "featured": false, "sample_categories": "Coffee & Tea Shops, Coffeehouses", "public_id": "classic-coffee-inc-kennesaw", "id": 775222890, "votes": null, "tagline": null, "has_video": false, "website": null, "offers": null, "latitude": 34.042632, "politanName": "Atlanta, GA Metro ", "phone_number": "7706357120", "tags": [{"primary": false, "id": 1726, "name": "Coffeehouses"}, {"primary": true, "id": 1711, "name": "Coffee & Tea Shops"}], "fax_number": null, "expansion": {"count": null, "uri": null}, "impression_id": "000b0000004689ef23c75948cc976e9e0999723f71", "profile": "http://www.citysearch.com/profile/775222890/kennesaw_ga/classic_coffee_inc.html", "address": {"city": "Kennesaw", "state": "GA", "street": "3805 Canton Pl NW", "postal_code": "30144"}, "capProviderId": null, "distance": null, "has_offers": false, "name": "Classic Coffee Inc", "longitude": -84.584447, "has_menu": false, "awards": null, "user_review_count": 0}, {"business_operation_status": 0, "rating": null, "neighborhood": null, "image": null, "scorecard": null, "featured": false, "sample_categories": "Restaurants, Chicken", "public_id": "teriyaki-chicken-kennesaw", "id": 777806690, "votes": null, "tagline": null, "has_video": false, "website": null, "offers": null, "latitude": 34.061692, "politanName": "Atlanta, GA Metro ", "phone_number": "7704269225", "tags": [{"primary": false, "id": 12839, "name": "Chicken"}, {"primary": true, "id": 1722, "name": "Restaurants"}], "fax_number": null, "expansion": {"count": null, "uri": null}, "impression_id": "000b00000053edd579a5f04511b62cde192c6a3876", "profile": "http://www.citysearch.com/profile/777806690/kennesaw_ga/teriyaki_chicken.html", "address": {"city": "Kennesaw", "state": "GA", "street": "4430 Wade Green Rd NW", "postal_code": "30144"}, "capProviderId": null, "distance": null, "has_offers": false, "name": "Teriyaki Chicken", "longitude": -84.591055, "has_menu": true, "awards": null, "user_review_count": 2}, {"business_operation_status": 1, "rating": null, "neighborhood": null, "image": null, "scorecard": null, "featured": false, "sample_categories": "Restaurants", "public_id": "cappys-oyster-bar-kennesaw", "id": 805596570, "votes": null, "tagline": null, "has_video": false, "website": null, "offers": null, "latitude": 34.015064, "politanName": "Atlanta, GA Metro ", "phone_number": "7705909742", "tags": [{"primary": true, "id": 1722, "name": "Restaurants"}], "fax_number": null, "expansion": {"count": null, "uri": null}, "impression_id": "000b00000078eefedf2ce6419aa8194550923cbf10", "profile": "http://www.citysearch.com/profile/805596570/kennesaw_ga/cappy_s_oyster_bar.html", "address": {"city": "Kennesaw", "state": "GA", "street": "2500 Cobb Pkwy NW # B3", "postal_code": "30152"}, "capProviderId": null, "distance": null, "has_offers": false, "name": "Cappy's Oyster Bar", "longitude": -84.613619, "has_menu": false, "awards": null, "user_review_count": 0}, {"business_operation_status": 1, "rating": null, "neighborhood": null, "image": null, "scorecard": null, "featured": false, "sample_categories": "Restaurants", "public_id": "bamboo-garden-kennesaw", "id": 808021320, "votes": null, "tagline": null, "has_video": false, "website": null, "offers": null, "latitude": 34.005458, "politanName": "Atlanta, GA Metro ", "phone_number": "7705148868", "tags": [{"primary": true, "id": 1722, "name": "Restaurants"}], "fax_number": null, "expansion": {"count": null, "uri": null}, "impression_id": "000b000000e5016c62558b4ec48413a454a9301235", "profile": "http://www.citysearch.com/profile/808021320/kennesaw_ga/bamboo_garden.html", "address": {"city": "Kennesaw", "state": "GA", "street": "840 Ernest W Barrett Pkwy NW", "postal_code": "30144"}, "capProviderId": null, "distance": null, "has_offers": false, "name": "Bamboo Garden", "longitude": -84.575497, "has_menu": false, "awards": null, "user_review_count": 0}, {"business_operation_status": 1, "rating": null, "neighborhood": null, "image": null, "scorecard": null, "featured": false, "sample_categories": "Luaus", "public_id": "bergamo-kennesaw", "id": 827735830, "votes": null, "tagline": null, "has_video": false, "website": null, "offers": null, "latitude": 34.05561, "politanName": "Atlanta, GA Metro ", "phone_number": "6784458585", "tags": [{"primary": true, "id": 11285, "name": "Luaus"}], "fax_number": null, "expansion": {"count": null, "uri": null}, "impression_id": "000b000000a0d8bd5b7f9949cc802626b24f38ab9a", "profile": "http://www.citysearch.com/profile/827735830/kennesaw_ga/bergamo.html", "address": {"city": "Kennesaw", "state": "GA", "street": "4290 Bells Ferry Rd NW # 114", "postal_code": "30144"}, "capProviderId": null, "distance": null, "has_offers": false, "name": "Bergamo", "longitude": -84.554213, "has_menu": false, "awards": null, "user_review_count": 4}, {"business_operation_status": 1, "rating": null, "neighborhood": null, "image": null, "scorecard": null, "featured": false, "sample_categories": "Restaurants", "public_id": "el-toro-mexican-kennesaw", "id": 827881360, "votes": null, "tagline": null, "has_video": false, "website": null, "offers": null, "latitude": 34.02334, "politanName": "Atlanta, GA Metro ", "phone_number": "7704192244", "tags": [{"primary": true, "id": 1722, "name": "Restaurants"}], "fax_number": null, "expansion": {"count": null, "uri": null}, "impression_id": "000b000000444add11bb22474781b776a4e214c06d", "profile": "http://www.citysearch.com/profile/827881360/kennesaw_ga/el_toro_mexican.html", "address": {"city": "Kennesaw", "state": "GA", "street": "2774 Cobb Pkwy NW", "postal_code": "30152"}, "capProviderId": null, "distance": null, "has_offers": false, "name": "El Toro Mexican", "longitude": -84.624608, "has_menu": false, "awards": null, "user_review_count": 0}, {"business_operation_status": 1, "rating": null, "neighborhood": null, "image": null, "scorecard": null, "featured": false, "sample_categories": "Restaurants, Pizza", "public_id": "pizza-314-kennesaw", "id": 768811740, "votes": null, "tagline": null, "has_video": false, "website": null, "offers": null, "latitude": 34.014045, "politanName": "Atlanta, GA Metro ", "phone_number": "7706931156", "tags": [{"primary": false, "id": 11299, "name": "Pizza"}, {"primary": true, "id": 1722, "name": "Restaurants"}], "fax_number": null, "expansion": {"count": null, "uri": null}, "impression_id": "000b000000246fd901342048d9808bad5413e128fc", "profile": "http://www.citysearch.com/profile/768811740/kennesaw_ga/pizza_314.html", "address": {"city": "Kennesaw", "state": "GA", "street": "2615 George Busbee Pkwy NW", "postal_code": "30144"}, "capProviderId": null, "distance": null, "has_offers": false, "name": "Pizza 314", "longitude": -84.56696, "has_menu": false, "awards": null, "user_review_count": 0}, {"business_operation_status": 1, "rating": null, "neighborhood": null, "image": null, "scorecard": null, "featured": false, "sample_categories": "Restaurants", "public_id": "front-porch-southern-dining-kennesaw", "id": 773452750, "votes": null, "tagline": null, "has_video": false, "website": "http://www.citysearch.com/profile/external/773452750/kennesaw_ga/front_porch_southern_dining.html", "offers": null, "latitude": 34.025184, "politanName": "Atlanta, GA Metro ", "phone_number": "7707959455", "tags": [{"primary": true, "id": 1722, "name": "Restaurants"}], "fax_number": null, "expansion": {"count": null, "uri": null}, "impression_id": "000b00000061f3caa57581482884bbda94af28acca", "profile": "http://www.citysearch.com/profile/773452750/kennesaw_ga/front_porch_southern_dining.html", "address": {"city": "Kennesaw", "state": "GA", "street": "2940 Dallas St NW", "postal_code": "30144"}, "capProviderId": null, "distance": null, "has_offers": false, "name": "Front Porch Southern Dining", "longitude": -84.616866, "has_menu": false, "awards": null, "user_review_count": 0}, {"business_operation_status": 1, "rating": null, "neighborhood": null, "image": null, "scorecard": null, "featured": false, "sample_categories": "Doughnut Shops, Coffeehouses", "public_id": "dunkin-donuts-kennesaw-5", "id": 713313650, "votes": null, "tagline": null, "has_video": false, "website": "http://www.citysearch.com/profile/external/713313650/kennesaw_ga/dunkin_donuts.html", "offers": null, "latitude": 34.047772, "politanName": "Atlanta, GA Metro ", "phone_number": "6782752187", "tags": [{"primary": false, "id": 1726, "name": "Coffeehouses"}, {"primary": true, "id": 1734, "name": "Doughnut Shops"}], "fax_number": null, "expansion": {"count": null, "uri": null}, "impression_id": "000b0000005ae1f53ec4ba41da8b20631818ed92aa", "profile": "http://www.citysearch.com/profile/713313650/kennesaw_ga/dunkin_donuts.html", "address": {"city": "Kennesaw", "state": "GA", "street": "4100 Jiles Rd NW # 100", "postal_code": "30144"}, "capProviderId": null, "distance": null, "has_offers": false, "name": "Dunkin' Donuts", "longitude": -84.610566, "has_menu": false, "awards": null, "user_review_count": 0}, {"business_operation_status": 1, "rating": null, "neighborhood": null, "image": null, "scorecard": null, "featured": false, "sample_categories": "Restaurants, Catering, Delis And Delicatessens, American Express, Discover", "public_id": "mc-alisters-deli-kennesaw", "id": 36940938, "votes": null, "tagline": null, "has_video": false, "website": "http://www.citysearch.com/profile/external/36940938/kennesaw_ga/mc_alister_s_deli.html", "offers": null, "latitude": 34.025429, "politanName": "Atlanta, GA Metro ", "phone_number": "7704991581", "tags": [{"primary": false, "id": 1705, "name": "Catering"}, {"primary": false, "id": 1727, "name": "Delis And Delicatessens"}, {"primary": false, "id": 11333, "name": "American Express"}, {"primary": false, "id": 11349, "name": "Discover"}, {"primary": false, "id": 11361, "name": "MasterCard"}, {"primary": false, "id": 11382, "name": "Visa"}, {"primary": true, "id": 1722, "name": "Restaurants"}], "fax_number": null, "expansion": {"count": null, "uri": null}, "impression_id": "000b000000fc6df24efd3e40308f9dd5511d7256d9", "profile": "http://www.citysearch.com/profile/36940938/kennesaw_ga/mc_alister_s_deli.html", "address": {"city": "Kennesaw", "state": "GA", "street": "2950 George Busbee Pkwy NW # 102", "postal_code": "30144"}, "capProviderId": null, "distance": null, "has_offers": false, "name": "Mc Alister's Deli", "longitude": -84.566908, "has_menu": true, "awards": null, "user_review_count": 1}, {"business_operation_status": 1, "rating": null, "neighborhood": null, "image": null, "scorecard": null, "featured": false, "sample_categories": "Restaurants, Carry Out", "public_id": "jimmy-johns-kennesaw-2", "id": 621138804, "votes": null, "tagline": null, "has_video": false, "website": "http://www.citysearch.com/profile/external/621138804/kennesaw_ga/jimmy_john_s.html", "offers": null, "latitude": 34.012833, "politanName": "Atlanta, GA Metro ", "phone_number": "6784264030", "tags": [{"primary": false, "id": 11247, "name": "Carry Out"}, {"primary": true, "id": 1722, "name": "Restaurants"}], "fax_number": null, "expansion": {"count": null, "uri": null}, "impression_id": "000b0000006a50cb59feae4f62b60eb9a3fc305061", "profile": "http://www.citysearch.com/profile/621138804/kennesaw_ga/jimmy_john_s.html", "address": {"city": "Kennesaw", "state": "GA", "street": "440 Ernest W Barrett Pkwy NW", "postal_code": "30144"}, "capProviderId": null, "distance": null, "has_offers": false, "name": "Jimmy John's", "longitude": -84.564302, "has_menu": false, "awards": null, "user_review_count": 0}, {"business_operation_status": 1, "rating": null, "neighborhood": null, "image": null, "scorecard": null, "featured": false, "sample_categories": "Restaurants", "public_id": "legacy-park-of-georgia-llc-kennesaw", "id": 617695724, "votes": null, "tagline": null, "has_video": false, "website": null, "offers": null, "latitude": 34.048612, "politanName": "Atlanta, GA Metro ", "phone_number": "6783248865", "tags": [{"primary": true, "id": 1722, "name": "Restaurants"}], "fax_number": null, "expansion": {"count": null, "uri": null}, "impression_id": "000b00000042c5a81bc4194e4c86145af5ccffdf44", "profile": "http://www.citysearch.com/profile/617695724/kennesaw_ga/the_grille_at_legacy_park.html", "address": {"city": "Kennesaw", "state": "GA", "street": "3900 Legacy Park Blvd NW", "postal_code": "30144"}, "capProviderId": null, "distance": null, "has_offers": false, "name": "The Grille At Legacy Park", "longitude": -84.622496, "has_menu": false, "awards": null, "user_review_count": 0}, {"business_operation_status": 1, "rating": null, "neighborhood": null, "image": null, "scorecard": null, "featured": false, "sample_categories": "Restaurants", "public_id": "daves-kennesaw", "id": 33571129, "votes": null, "tagline": null, "has_video": false, "website": null, "offers": null, "latitude": 34.048639, "politanName": "Atlanta, GA Metro ", "phone_number": "7704251010", "tags": [{"primary": true, "id": 1722, "name": "Restaurants"}], "fax_number": null, "expansion": {"count": null, "uri": null}, "impression_id": "000b000000545622e610a94fc19998632327146d73", "profile": "http://www.citysearch.com/profile/33571129/kennesaw_ga/dave_s.html", "address": {"city": "Kennesaw", "state": "GA", "street": "3900 Legacy Park Blvd NW Ste B100", "postal_code": "30144"}, "capProviderId": null, "distance": null, "has_offers": false, "name": "Dave's", "longitude": -84.622471, "has_menu": true, "awards": null, "user_review_count": 0}, {"business_operation_status": 1, "rating": null, "neighborhood": null, "image": null, "scorecard": null, "featured": false, "sample_categories": "Restaurants, Carry Out", "public_id": "jimmy-johns-kennesaw", "id": 612255804, "votes": null, "tagline": null, "has_video": false, "website": "http://www.citysearch.com/profile/external/612255804/kennesaw_ga/jimmy_john_s.html", "offers": null, "latitude": 34.030272, "politanName": "Atlanta, GA Metro ", "phone_number": "6783100766", "tags": [{"primary": false, "id": 11247, "name": "Carry Out"}, {"primary": true, "id": 1722, "name": "Restaurants"}], "fax_number": null, "expansion": {"count": null, "uri": null}, "impression_id": "000b0000002e8362e45a2f4a75b798b6ef324a83aa", "profile": "http://www.citysearch.com/profile/612255804/kennesaw_ga/jimmy_john_s.html", "address": {"city": "Kennesaw", "state": "GA", "street": "1133 Chastain Rd NW # 300", "postal_code": "30144"}, "capProviderId": null, "distance": null, "has_offers": false, "name": "Jimmy John's", "longitude": -84.582584, "has_menu": false, "awards": null, "user_review_count": 0}, {"business_operation_status": 1, "rating": null, "neighborhood": null, "image": null, "scorecard": null, "featured": false, "sample_categories": "Restaurants, Carry Out, Chicken", "public_id": "chickfila-kennesaw-2", "id": 627656020, "votes": null, "tagline": null, "has_video": false, "website": null, "offers": null, "latitude": 34.034361, "politanName": "Atlanta, GA Metro ", "phone_number": "7704236448", "tags": [{"primary": false, "id": 11247, "name": "Carry Out"}, {"primary": false, "id": 12839, "name": "Chicken"}, {"primary": true, "id": 1722, "name": "Restaurants"}], "fax_number": null, "expansion": {"count": null, "uri": null}, "impression_id": "000b000000ff711ace45c64685bec198f5e50d2b0f", "profile": "http://www.citysearch.com/profile/627656020/kennesaw_ga/chick_fil_a.html", "address": {"city": "Kennesaw", "state": "GA", "street": "1000 Chastain Rd NW", "postal_code": "30144"}, "capProviderId": null, "distance": null, "has_offers": false, "name": "Chick-Fil-A", "longitude": -84.574216, "has_menu": false, "awards": null, "user_review_count": 0}, {"business_operation_status": 1, "rating": null, "neighborhood": null, "image": null, "scorecard": null, "featured": false, "sample_categories": "Restaurants, Bakeries", "public_id": "banbou-restaurant-bakery-kennesaw", "id": 653623320, "votes": null, "tagline": null, "has_video": false, "website": null, "offers": null, "latitude": 34.050651, "politanName": "Atlanta, GA Metro ", "phone_number": "6784018595", "tags": [{"primary": false, "id": 1685, "name": "Bakeries"}, {"primary": true, "id": 1722, "name": "Restaurants"}], "fax_number": null, "expansion": {"count": null, "uri": null}, "impression_id": "000b000000ec3645abee0a43f79cfb7fc0ea491af0", "profile": "http://www.citysearch.com/profile/653623320/kennesaw_ga/banbou_restaurant_bakery.html", "address": {"city": "Kennesaw", "state": "GA", "street": "3600 Cherokee St Nw # 115", "postal_code": "30144"}, "capProviderId": null, "distance": null, "has_offers": false, "name": "Banbou Restaurant & Bakery", "longitude": -84.595684, "has_menu": false, "awards": null, "user_review_count": 0}, {"business_operation_status": 1, "rating": null, "neighborhood": null, "image": null, "scorecard": null, "featured": false, "sample_categories": "Ice Cream Parlors", "public_id": "haagendazs-shop-kennesaw", "id": 706821520, "votes": null, "tagline": null, "has_video": false, "website": "http://www.citysearch.com/profile/external/706821520/kennesaw_ga/haagen_dazs_shop.html", "offers": null, "latitude": 34.019128, "politanName": "Atlanta, GA Metro ", "phone_number": "7705903120", "tags": [{"primary": true, "id": 1730, "name": "Ice Cream Parlors"}], "fax_number": null, "expansion": {"count": null, "uri": null}, "impression_id": "000b000000de0e439930a54a1eb3242ac8939c17c4", "profile": "http://www.citysearch.com/profile/706821520/kennesaw_ga/haagen_dazs_shop.html", "address": {"city": "Kennesaw", "state": "GA", "street": "400 Ernest W Barrett Pkwy NW", "postal_code": "30144"}, "capProviderId": null, "distance": null, "has_offers": false, "name": "Haagen-Dazs Shop", "longitude": -84.563608, "has_menu": true, "awards": null, "user_review_count": 0}, {"business_operation_status": 1, "rating": null, "neighborhood": null, "image": null, "scorecard": null, "featured": false, "sample_categories": "Restaurants, Food Stores, Grocery Stores, Asian, Chinese", "public_id": "happy-panda-kennesaw", "id": 732232180, "votes": null, "tagline": null, "has_video": false, "website": "http://www.citysearch.com/profile/external/732232180/kennesaw_ga/happy_panda.html", "offers": null, "latitude": 34.060235, "politanName": "Atlanta, GA Metro ", "phone_number": "7704269188", "tags": [{"primary": false, "id": 1706, "name": "Food Stores"}, {"primary": false, "id": 1713, "name": "Grocery Stores"}, {"primary": false, "id": 11235, "name": "Asian"}, {"primary": false, "id": 11252, "name": "Chinese"}, {"primary": false, "id": 11333, "name": "American Express"}, {"primary": false, "id": 11349, "name": "Discover"}, {"primary": false, "id": 11361, "name": "MasterCard"}, {"primary": false, "id": 11382, "name": "Visa"}, {"primary": true, "id": 1722, "name": "Restaurants"}], "fax_number": null, "expansion": {"count": null, "uri": null}, "impression_id": "000b0000002feed8be9555438085f943133eea3e93", "profile": "http://www.citysearch.com/profile/732232180/kennesaw_ga/happy_panda.html", "address": {"city": "Kennesaw", "state": "GA", "street": "4430 Wade Green Rd NW", "postal_code": "30144"}, "capProviderId": null, "distance": null, "has_offers": false, "name": "Happy Panda", "longitude": -84.592066, "has_menu": true, "awards": null, "user_review_count": 1}, {"business_operation_status": 1, "rating": null, "neighborhood": null, "image": null, "scorecard": null, "featured": false, "sample_categories": "Restaurants", "public_id": "new-china-buffet-kennesaw-2", "id": 830498290, "votes": null, "tagline": null, "has_video": false, "website": null, "offers": null, "latitude": 34.014631, "politanName": "Atlanta, GA Metro ", "phone_number": "7707922262", "tags": [{"primary": true, "id": 1722, "name": "Restaurants"}], "fax_number": null, "expansion": {"count": null, "uri": null}, "impression_id": "000b000000e97302f844314b98ab082b010f3fd49a", "profile": "http://www.citysearch.com/profile/830498290/kennesaw_ga/new_china_buffet.html", "address": {"city": "Kennesaw", "state": "GA", "street": "Town Center Plz", "postal_code": "30144"}, "capProviderId": null, "distance": null, "has_offers": false, "name": "New China Buffet", "longitude": -84.562889, "has_menu": false, "awards": null, "user_review_count": 0}, {"business_operation_status": 1, "rating": null, "neighborhood": null, "image": null, "scorecard": null, "featured": false, "sample_categories": "Juice & Smoothie Shops", "public_id": "energy-juice-bar-kennesaw", "id": 836019090, "votes": null, "tagline": null, "has_video": false, "website": null, "offers": null, "latitude": 33.999616, "politanName": "Atlanta, GA Metro ", "phone_number": "8622244594", "tags": [{"primary": true, "id": 1735, "name": "Juice & Smoothie Shops"}], "fax_number": null, "expansion": {"count": null, "uri": null}, "impression_id": "000b000000b2eca2e82ec847d29d2d16c37d296717", "profile": "http://www.citysearch.com/profile/836019090/kennesaw_ga/energy_juice_bar.html", "address": {"city": "Kennesaw", "state": "GA", "street": "1185 Ernest W Barrett Pkwy NW", "postal_code": "30144"}, "capProviderId": null, "distance": null, "has_offers": false, "name": "Energy Juice Bar", "longitude": -84.58372, "has_menu": false, "awards": null, "user_review_count": 0}], "histograms": [], "tag_ids": [1722], "uri": "http://api.citygridmedia.com:8080/search/places/v2/search/where?has_offers=false&type=restaurant&format=json&page=6&where=30144&rpp=50&histograms=false&publisher=10000009598&region_type=circle", "did_you_mean": "", "regions": [{"latitude": 34.037076, "default_radius": 4.72, "type": "postal_code", "name": "30144", "longitude": -84.591034}], "call_id": "000b00000088b711b1fd284be0be725479e1ec03e3", "first_hit": 251, "total_hits": 1696, "geo_ids": [26310], "page": 6, "last_hit": 300}}