{"results": {"rpp": 50, "locations": [{"business_operation_status": 1, "rating": null, "neighborhood": null, "image": null, "scorecard": null, "featured": false, "sample_categories": "Restaurants, Delis And Delicatessens, Carry Out, American Express, Debit Card", "public_id": "panera-bread-acworth", "id": 682416040, "votes": null, "tagline": null, "has_video": false, "website": "http://www.citysearch.com/profile/external/682416040/acworth_ga/panera_bread.html", "offers": null, "latitude": 34.036329, "politanName": "Atlanta, GA Metro ", "phone_number": "7709741861", "tags": [{"primary": false, "id": 1727, "name": "Delis And Delicatessens"}, {"primary": false, "id": 11247, "name": "Carry Out"}, {"primary": false, "id": 11333, "name": "American Express"}, {"primary": false, "id": 11347, "name": "Debit Card"}, {"primary": false, "id": 11349, "name": "Discover"}, {"primary": false, "id": 11361, "name": "MasterCard"}, {"primary": false, "id": 11382, "name": "Visa"}, {"primary": true, "id": 1722, "name": "Restaurants"}], "fax_number": null, "expansion": {"count": null, "uri": null}, "impression_id": "000b000000e47370cd451a411bbbad30346bd6554e", "profile": "http://www.citysearch.com/profile/682416040/acworth_ga/panera_bread.html", "address": {"city": "Acworth", "state": "GA", "street": "3384 Cobb Pkwy NW # 160", "postal_code": "30101"}, "capProviderId": null, "distance": null, "has_offers": false, "name": "Panera Bread", "longitude": -84.685123, "has_menu": false, "awards": null, "user_review_count": 0}, {"business_operation_status": 1, "rating": null, "neighborhood": null, "image": null, "scorecard": null, "featured": false, "sample_categories": "Restaurants, Traditional American, Carry Out", "public_id": "ihop-restaurant-marietta-3", "id": 682450140, "votes": null, "tagline": null, "has_video": false, "website": "http://www.citysearch.com/profile/external/682450140/marietta_ga/ihop.html", "offers": null, "latitude": 33.94651, "politanName": "Atlanta, GA Metro ", "phone_number": "7704851267", "tags": [{"primary": false, "id": 11190, "name": "Traditional American"}, {"primary": false, "id": 11247, "name": "Carry Out"}, {"primary": true, "id": 1722, "name": "Restaurants"}], "fax_number": null, "expansion": {"count": null, "uri": null}, "impression_id": "000b000000e9ae2f9542e74d7680400213371f986a", "profile": "http://www.citysearch.com/profile/682450140/marietta_ga/ihop.html", "address": {"city": "Marietta", "state": "GA", "street": "2390 Dallas Hwy SW", "postal_code": "30064"}, "capProviderId": null, "distance": null, "has_offers": false, "name": "IHOP", "longitude": -84.62155, "has_menu": false, "awards": null, "user_review_count": 0}, {"business_operation_status": 1, "rating": null, "neighborhood": null, "image": null, "scorecard": null, "featured": false, "sample_categories": "Restaurants", "public_id": "rossa-italian-cuisine-woodstock", "id": 825539150, "votes": null, "tagline": null, "has_video": false, "website": null, "offers": null, "latitude": 34.089184, "politanName": "Atlanta, GA Metro ", "phone_number": "7709267000", "tags": [{"primary": true, "id": 1722, "name": "Restaurants"}], "fax_number": null, "expansion": {"count": null, "uri": null}, "impression_id": "000b0000001bc57e78d7c4452695a93063ef68c1a5", "profile": "http://www.citysearch.com/profile/825539150/woodstock_ga/rossa_italian_cuisine.html", "address": {"city": "Woodstock", "state": "GA", "street": "12195 Highway 92", "postal_code": "30188"}, "capProviderId": null, "distance": null, "has_offers": false, "name": "Rossa Italian Cuisine", "longitude": -84.483229, "has_menu": true, "awards": null, "user_review_count": 0}, {"business_operation_status": 1, "rating": null, "neighborhood": null, "image": null, "scorecard": null, "featured": false, "sample_categories": "Restaurants, Chinese", "public_id": "songs-garden-chinese-rstrnt-woodstock", "id": 787130630, "votes": null, "tagline": null, "has_video": false, "website": null, "offers": null, "latitude": 34.129085, "politanName": "Atlanta, GA Metro ", "phone_number": "7709288440", "tags": [{"primary": false, "id": 11252, "name": "Chinese"}, {"primary": true, "id": 1722, "name": "Restaurants"}], "fax_number": null, "expansion": {"count": null, "uri": null}, "impression_id": "000b000000bef5e0c30bd3488fb8260ec4f4aef308", "profile": "http://www.citysearch.com/profile/787130630/woodstock_ga/song_s_garden_chinese_rstrnt.html", "address": {"city": "Woodstock", "state": "GA", "street": "4451 Towne Lake Pkwy", "postal_code": "30189"}, "capProviderId": null, "distance": null, "has_offers": false, "name": "Song's Garden Chinese Rstrnt", "longitude": -84.576054, "has_menu": false, "awards": null, "user_review_count": 0}, {"business_operation_status": 1, "rating": null, "neighborhood": null, "image": null, "scorecard": null, "featured": false, "sample_categories": "Restaurants, Delis And Delicatessens, Sandwich Shops, Carry Out, Shop Online", "public_id": "jimmy-johns-acworth", "id": 787102550, "votes": null, "tagline": null, "has_video": false, "website": "http://www.citysearch.com/profile/external/787102550/acworth_ga/jimmy_john_s.html", "offers": null, "latitude": 34.039365, "politanName": "Atlanta, GA Metro ", "phone_number": "6785016012", "tags": [{"primary": false, "id": 1727, "name": "Delis And Delicatessens"}, {"primary": false, "id": 1736, "name": "Sandwich Shops"}, {"primary": false, "id": 11247, "name": "Carry Out"}, {"primary": false, "id": 11375, "name": "Shop Online"}, {"primary": true, "id": 1722, "name": "Restaurants"}], "fax_number": null, "expansion": {"count": null, "uri": null}, "impression_id": "000b0000005a295e15209b4e37a3285c3ef7fdd267", "profile": "http://www.citysearch.com/profile/787102550/acworth_ga/jimmy_john_s.html", "address": {"city": "Acworth", "state": "GA", "street": "3450 Cobb Pkwy NW", "postal_code": "30101"}, "capProviderId": null, "distance": null, "has_offers": false, "name": "Jimmy John's", "longitude": -84.689961, "has_menu": false, "awards": null, "user_review_count": 0}, {"business_operation_status": 1, "rating": null, "neighborhood": null, "image": null, "scorecard": null, "featured": false, "sample_categories": "Luaus", "public_id": "el-herradero-kennesaw", "id": 818931270, "votes": null, "tagline": null, "has_video": false, "website": null, "offers": null, "latitude": 34.014345, "politanName": "Atlanta, GA Metro ", "phone_number": "7704231213", "tags": [{"primary": true, "id": 11285, "name": "Luaus"}], "fax_number": null, "expansion": {"count": null, "uri": null}, "impression_id": "000b000000ff5b290b433f450b8442fc21f082ddc1", "profile": "http://www.citysearch.com/profile/818931270/kennesaw_ga/el_herradero.html", "address": {"city": "Kennesaw", "state": "GA", "street": "2479 Cobb Pkwy NW", "postal_code": "30152"}, "capProviderId": null, "distance": null, "has_offers": false, "name": "El Herradero", "longitude": -84.614253, "has_menu": false, "awards": null, "user_review_count": 0}, {"business_operation_status": 1, "rating": null, "neighborhood": null, "image": null, "scorecard": null, "featured": false, "sample_categories": "Restaurants", "public_id": "leo-franco-chef-marietta", "id": 824426470, "votes": null, "tagline": null, "has_video": false, "website": null, "offers": null, "latitude": 33.948481, "politanName": "Atlanta, GA Metro ", "phone_number": "7704999439", "tags": [{"primary": true, "id": 1722, "name": "Restaurants"}], "fax_number": null, "expansion": {"count": null, "uri": null}, "impression_id": "000b00000062b2dd0673db4eb390a5121664766256", "profile": "http://www.citysearch.com/profile/824426470/marietta_ga/leo_franco_chef.html", "address": {"city": "Marietta", "state": "GA", "street": "20 Emerson Hill Sq", "postal_code": "30060"}, "capProviderId": null, "distance": null, "has_offers": false, "name": "Leo Franco Chef", "longitude": -84.542181, "has_menu": false, "awards": null, "user_review_count": 0}, {"business_operation_status": 1, "rating": 8.0, "neighborhood": null, "image": null, "scorecard": null, "featured": false, "sample_categories": "Restaurants, Chinese, American Express, Discover, MasterCard", "public_id": "new-lucky-china-marietta", "id": 33572518, "votes": null, "tagline": null, "has_video": false, "website": "http://www.citysearch.com/profile/external/33572518/marietta_ga/new_lucky_china.html", "offers": null, "latitude": 34.03494, "politanName": "Atlanta, GA Metro ", "phone_number": "7705659666", "tags": [{"primary": false, "id": 11252, "name": "Chinese"}, {"primary": false, "id": 11333, "name": "American Express"}, {"primary": false, "id": 11349, "name": "Discover"}, {"primary": false, "id": 11361, "name": "MasterCard"}, {"primary": false, "id": 11382, "name": "Visa"}, {"primary": true, "id": 1722, "name": "Restaurants"}], "fax_number": null, "expansion": {"count": null, "uri": null}, "impression_id": "000b000000a3897614f83e48ee899d917e3bc11467", "profile": "http://www.citysearch.com/profile/33572518/marietta_ga/new_lucky_china.html", "address": {"city": "Marietta", "state": "GA", "street": "2960 Shallowford Rd Ste 201", "postal_code": "30066"}, "capProviderId": null, "distance": null, "has_offers": false, "name": "New Lucky China", "longitude": -84.466773, "has_menu": true, "awards": null, "user_review_count": 4}, {"business_operation_status": 1, "rating": null, "neighborhood": null, "image": null, "scorecard": null, "featured": false, "sample_categories": "Restaurants, Bars & Clubs, Lounges", "public_id": "stock-bistro-lounge-woodstock", "id": 617747854, "votes": null, "tagline": null, "has_video": false, "website": "http://www.citysearch.com/profile/external/617747854/woodstock_ga/stock_bistro_lounge.html", "offers": null, "latitude": 34.113484, "politanName": "Atlanta, GA Metro ", "phone_number": "7705166779", "tags": [{"primary": false, "id": 164, "name": "Bars & Clubs"}, {"primary": false, "id": 1697, "name": "Lounges"}, {"primary": true, "id": 1722, "name": "Restaurants"}], "fax_number": null, "expansion": {"count": null, "uri": null}, "impression_id": "000b0000005c86bd5661134b94b4257ea32a3af9b2", "profile": "http://www.citysearch.com/profile/617747854/woodstock_ga/stock_bistro_lounge.html", "address": {"city": "Woodstock", "state": "GA", "street": "6424 Bells Ferry Rd #118", "postal_code": "30189"}, "capProviderId": null, "distance": null, "has_offers": false, "name": "Stock Bistro & Lounge", "longitude": -84.580747, "has_menu": false, "awards": null, "user_review_count": 0}, {"business_operation_status": 1, "rating": null, "neighborhood": null, "image": null, "scorecard": null, "featured": false, "sample_categories": "Ice Cream Parlors, Frozen Yogurt Shops", "public_id": "baskinrobbins-marietta", "id": 627670240, "votes": null, "tagline": null, "has_video": false, "website": "http://www.citysearch.com/profile/external/627670240/marietta_ga/baskin_robbins.html", "offers": null, "latitude": 34.021176, "politanName": "Atlanta, GA Metro ", "phone_number": "7704223375", "tags": [{"primary": false, "id": 1729, "name": "Frozen Yogurt Shops"}, {"primary": true, "id": 1730, "name": "Ice Cream Parlors"}], "fax_number": null, "expansion": {"count": null, "uri": null}, "impression_id": "000b000000598e54a9bd7b4a09a48427f4ea3b2a12", "profile": "http://www.citysearch.com/profile/627670240/marietta_ga/baskin_robbins.html", "address": {"city": "Marietta", "state": "GA", "street": "2885 Canton Rd", "postal_code": "30066"}, "capProviderId": null, "distance": null, "has_offers": false, "name": "Baskin-Robbins", "longitude": -84.529098, "has_menu": true, "awards": null, "user_review_count": 2}, {"business_operation_status": 1, "rating": null, "neighborhood": null, "image": null, "scorecard": null, "featured": false, "sample_categories": "Restaurants", "public_id": "moms-table-woodstock", "id": 655902740, "votes": null, "tagline": null, "has_video": false, "website": "http://www.citysearch.com/profile/external/655902740/woodstock_ga/mom_s_table.html", "offers": null, "latitude": 34.103521, "politanName": "Atlanta, GA Metro ", "phone_number": "6783887510", "tags": [{"primary": true, "id": 1722, "name": "Restaurants"}], "fax_number": null, "expansion": {"count": null, "uri": null}, "impression_id": "000b000000b054a4ac97db4bae879c14fbbce42706", "profile": "http://www.citysearch.com/profile/655902740/woodstock_ga/mom_s_table.html", "address": {"city": "Woodstock", "state": "GA", "street": "8420 Main St", "postal_code": "30188"}, "capProviderId": null, "distance": null, "has_offers": false, "name": "Mom's Table", "longitude": -84.51867, "has_menu": false, "awards": null, "user_review_count": 0}, {"business_operation_status": 1, "rating": null, "neighborhood": null, "image": null, "scorecard": null, "featured": false, "sample_categories": "Restaurants, Grocery Stores", "public_id": "snack-paradise-kennesaw", "id": 655941070, "votes": null, "tagline": null, "has_video": false, "website": null, "offers": null, "latitude": 34.022182, "politanName": "Atlanta, GA Metro ", "phone_number": "6784027506", "tags": [{"primary": false, "id": 1713, "name": "Grocery Stores"}, {"primary": true, "id": 1722, "name": "Restaurants"}], "fax_number": null, "expansion": {"count": null, "uri": null}, "impression_id": "000b00000079f28e7d39c1425f8970d31b1b2876e7", "profile": "http://www.citysearch.com/profile/655941070/kennesaw_ga/snack_paradise.html", "address": {"city": "Kennesaw", "state": "GA", "street": "2851 Cobb Pkwy Nw", "postal_code": "30152"}, "capProviderId": null, "distance": null, "has_offers": false, "name": "Snack Paradise", "longitude": -84.626291, "has_menu": false, "awards": null, "user_review_count": 0}, {"business_operation_status": 1, "rating": null, "neighborhood": null, "image": null, "scorecard": null, "featured": false, "sample_categories": "Restaurants", "public_id": "poblanoiis-mexican-grill-acworth", "id": 672389870, "votes": null, "tagline": null, "has_video": false, "website": null, "offers": null, "latitude": 34.036897, "politanName": "Atlanta, GA Metro ", "phone_number": null, "tags": [{"primary": true, "id": 1722, "name": "Restaurants"}], "fax_number": null, "expansion": {"count": null, "uri": null}, "impression_id": "000b000000ec2daebe3c2545e790e5134465abe6a0", "profile": "http://www.citysearch.com/profile/672389870/acworth_ga/poblano_s_mexican_grill.html", "address": {"city": "Acworth", "state": "GA", "street": "3344 Cobb Parkway", "postal_code": "30101"}, "capProviderId": null, "distance": null, "has_offers": false, "name": "Poblano\ufffd\ufffd\u00f4s Mexican Grill", "longitude": -84.67988, "has_menu": false, "awards": null, "user_review_count": 0}, {"business_operation_status": 1, "rating": null, "neighborhood": null, "image": null, "scorecard": null, "featured": false, "sample_categories": "Restaurants", "public_id": "ritas-woodstock", "id": 672865880, "votes": null, "tagline": null, "has_video": false, "website": null, "offers": null, "latitude": 34.088057, "politanName": "Atlanta, GA Metro ", "phone_number": "6784016788", "tags": [{"primary": true, "id": 1722, "name": "Restaurants"}], "fax_number": null, "expansion": {"count": null, "uri": null}, "impression_id": "000b00000004f03782c584490699af28b5aec560f5", "profile": "http://www.citysearch.com/profile/672865880/woodstock_ga/rita_s.html", "address": {"city": "Woodstock", "state": "GA", "street": "12201 Highway 92", "postal_code": "30188"}, "capProviderId": null, "distance": null, "has_offers": false, "name": "Rita's", "longitude": -84.48162, "has_menu": false, "awards": null, "user_review_count": 0}, {"business_operation_status": 1, "rating": null, "neighborhood": null, "image": null, "scorecard": null, "featured": false, "sample_categories": "Restaurants, Mexican, Carry Out, American Express, Discover", "public_id": "taco-bell-marietta-7", "id": 682721700, "votes": null, "tagline": null, "has_video": false, "website": "http://www.citysearch.com/profile/external/682721700/marietta_ga/taco_bell.html", "offers": null, "latitude": 33.944909, "politanName": "Atlanta, GA Metro ", "phone_number": "7704218815", "tags": [{"primary": false, "id": 11208, "name": "Mexican"}, {"primary": false, "id": 11247, "name": "Carry Out"}, {"primary": false, "id": 11333, "name": "American Express"}, {"primary": false, "id": 11349, "name": "Discover"}, {"primary": false, "id": 11361, "name": "MasterCard"}, {"primary": false, "id": 11382, "name": "Visa"}, {"primary": true, "id": 1722, "name": "Restaurants"}], "fax_number": null, "expansion": {"count": null, "uri": null}, "impression_id": "000b0000005ca0a232a9914f46ad07ca5f7887e160", "profile": "http://www.citysearch.com/profile/682721700/marietta_ga/taco_bell.html", "address": {"city": "Marietta", "state": "GA", "street": "3480 Ernest W Barrett Pkwy Sw", "postal_code": "30064"}, "capProviderId": null, "distance": null, "has_offers": false, "name": "Taco Bell", "longitude": -84.624717, "has_menu": true, "awards": null, "user_review_count": 0}, {"business_operation_status": 1, "rating": null, "neighborhood": null, "image": null, "scorecard": null, "featured": false, "sample_categories": "Ice Cream Parlors, Restaurants", "public_id": "pino-gelalo-of-marietta-marietta", "id": 713581850, "votes": null, "tagline": null, "has_video": false, "website": null, "offers": null, "latitude": 33.952532, "politanName": "Atlanta, GA Metro ", "phone_number": "7702182525", "tags": [{"primary": false, "id": 1722, "name": "Restaurants"}, {"primary": true, "id": 1730, "name": "Ice Cream Parlors"}], "fax_number": null, "expansion": {"count": null, "uri": null}, "impression_id": "000b00000010f1f2734a20431791b58603309a80b6", "profile": "http://www.citysearch.com/profile/713581850/marietta_ga/pino_gelalo_of_marietta.html", "address": {"city": "Marietta", "state": "GA", "street": "21 W Park Sq Ne", "postal_code": "30060"}, "capProviderId": null, "distance": null, "has_offers": false, "name": "Pino Gelalo of Marietta", "longitude": -84.550467, "has_menu": false, "awards": null, "user_review_count": 0}, {"business_operation_status": 1, "rating": null, "neighborhood": null, "image": null, "scorecard": null, "featured": false, "sample_categories": "Restaurants", "public_id": "willamsonbros-marietta-2", "id": 609749214, "votes": null, "tagline": null, "has_video": false, "website": null, "offers": null, "latitude": 33.977691, "politanName": "Atlanta, GA Metro ", "phone_number": "7704999797", "tags": [{"primary": true, "id": 1722, "name": "Restaurants"}], "fax_number": null, "expansion": {"count": null, "uri": null}, "impression_id": "000b0000008a5c02e97b2f411981ae9f23f37e7da1", "profile": "http://www.citysearch.com/profile/609749214/marietta_ga/willamsonbros.html", "address": {"city": "Marietta", "state": "GA", "street": "1160 Hayes Industrial Dr", "postal_code": "30062"}, "capProviderId": null, "distance": null, "has_offers": false, "name": "Willamsonbros", "longitude": -84.542327, "has_menu": false, "awards": null, "user_review_count": 0}, {"business_operation_status": 1, "rating": null, "neighborhood": null, "image": null, "scorecard": null, "featured": false, "sample_categories": "Restaurants, Carry Out", "public_id": "kfc-marietta-10", "id": 713491660, "votes": null, "tagline": null, "has_video": false, "website": "http://www.citysearch.com/profile/external/713491660/marietta_ga/kfc.html", "offers": null, "latitude": 33.999161, "politanName": "Atlanta, GA Metro ", "phone_number": "7704276866", "tags": [{"primary": false, "id": 11247, "name": "Carry Out"}, {"primary": true, "id": 1722, "name": "Restaurants"}], "fax_number": null, "expansion": {"count": null, "uri": null}, "impression_id": "000b000000e0b19d9418634bd184344668fa365e22", "profile": "http://www.citysearch.com/profile/713491660/marietta_ga/kfc.html", "address": {"city": "Marietta", "state": "GA", "street": "2012 Canton Rd", "postal_code": "30066"}, "capProviderId": null, "distance": null, "has_offers": false, "name": "KFC", "longitude": -84.523794, "has_menu": false, "awards": null, "user_review_count": 0}, {"business_operation_status": 1, "rating": null, "neighborhood": null, "image": null, "scorecard": null, "featured": false, "sample_categories": "Restaurants", "public_id": "little-gumbas-acworth", "id": 817697620, "votes": null, "tagline": null, "has_video": false, "website": null, "offers": null, "latitude": 34.030244, "politanName": "Atlanta, GA Metro ", "phone_number": "6785748956", "tags": [{"primary": true, "id": 1722, "name": "Restaurants"}], "fax_number": null, "expansion": {"count": null, "uri": null}, "impression_id": "000b00000023d2bce7eeb948b8a3db1acba5c11e4a", "profile": "http://www.citysearch.com/profile/817697620/acworth_ga/little_gumbas.html", "address": {"city": "Acworth", "state": "GA", "street": "22 Old Stilesboro Rd", "postal_code": "30101"}, "capProviderId": null, "distance": null, "has_offers": false, "name": "Little Gumbas", "longitude": -84.741165, "has_menu": false, "awards": null, "user_review_count": 0}, {"business_operation_status": 1, "rating": null, "neighborhood": null, "image": null, "scorecard": null, "featured": false, "sample_categories": "Bars & Clubs, Restaurants", "public_id": "two-monkeys-llc-marietta", "id": 823894470, "votes": null, "tagline": null, "has_video": false, "website": null, "offers": null, "latitude": 33.951907, "politanName": "Atlanta, GA Metro ", "phone_number": "7704220108", "tags": [{"primary": false, "id": 1722, "name": "Restaurants"}, {"primary": true, "id": 164, "name": "Bars & Clubs"}], "fax_number": null, "expansion": {"count": null, "uri": null}, "impression_id": "000b000000398bc7e058bf4a2fa0470b94769600b1", "profile": "http://www.citysearch.com/profile/823894470/marietta_ga/two_monkeys_llc.html", "address": {"city": "Marietta", "state": "GA", "street": "688 Whitlock Ave NW # G", "postal_code": "30064"}, "capProviderId": null, "distance": null, "has_offers": false, "name": "Two Monkeys LLC", "longitude": -84.572199, "has_menu": false, "awards": null, "user_review_count": 0}, {"business_operation_status": 1, "rating": null, "neighborhood": null, "image": null, "scorecard": null, "featured": false, "sample_categories": "Ice Cream Parlors", "public_id": "high-road-craft-ice-cream-inc-roswell", "id": 732210260, "votes": null, "tagline": null, "has_video": false, "website": null, "offers": null, "latitude": 34.043654, "politanName": "Atlanta, GA Metro ", "phone_number": "4045396444", "tags": [{"primary": true, "id": 1730, "name": "Ice Cream Parlors"}], "fax_number": null, "expansion": {"count": null, "uri": null}, "impression_id": "000b0000003a0d0eafe0314e77b1548673cc39e510", "profile": "http://www.citysearch.com/profile/732210260/roswell_ga/high_road_craft_ice_cream_inc.html", "address": {"city": "Roswell", "state": "GA", "street": "4147 Edinburgh Trl NE", "postal_code": "30075"}, "capProviderId": null, "distance": null, "has_offers": false, "name": "High Road Craft Ice Cream Inc", "longitude": -84.429593, "has_menu": false, "awards": null, "user_review_count": 0}, {"business_operation_status": 1, "rating": 9.0, "neighborhood": null, "image": null, "scorecard": null, "featured": false, "sample_categories": "Bakeries, Restaurants, Wholesale Bakers", "public_id": "my-friends-place-bakery-woodstock", "id": 33570795, "votes": null, "tagline": null, "has_video": false, "website": null, "offers": null, "latitude": 34.084441, "politanName": "Atlanta, GA Metro ", "phone_number": "6784455100", "tags": [{"primary": false, "id": 1722, "name": "Restaurants"}, {"primary": false, "id": 5696, "name": "Wholesale Bakers"}, {"primary": true, "id": 1685, "name": "Bakeries"}], "fax_number": null, "expansion": {"count": null, "uri": null}, "impression_id": "000b0000004bd1242c644541119b788b64c524874c", "profile": "http://www.citysearch.com/profile/33570795/woodstock_ga/my_friends_place_bakery.html", "address": {"city": "Woodstock", "state": "GA", "street": "9740 Main St", "postal_code": "30188"}, "capProviderId": null, "distance": null, "has_offers": false, "name": "My Friends' Place Bakery", "longitude": -84.519818, "has_menu": false, "awards": null, "user_review_count": 3}, {"business_operation_status": 1, "rating": null, "neighborhood": null, "image": null, "scorecard": null, "featured": false, "sample_categories": "Restaurants, Asian", "public_id": "atami-grill-sushi-marietta", "id": 793235190, "votes": null, "tagline": null, "has_video": false, "website": null, "offers": null, "latitude": 33.955116, "politanName": "Atlanta, GA Metro ", "phone_number": "7706938260", "tags": [{"primary": false, "id": 11235, "name": "Asian"}, {"primary": true, "id": 1722, "name": "Restaurants"}], "fax_number": null, "expansion": {"count": null, "uri": null}, "impression_id": "000b0000003b8a3a879b024085884b2374116c097e", "profile": "http://www.citysearch.com/profile/793235190/marietta_ga/atami_grill_sushi.html", "address": {"city": "Marietta", "state": "GA", "street": "3600 Dallas Hwy Sw", "postal_code": "30064"}, "capProviderId": null, "distance": null, "has_offers": false, "name": "Atami Grill & Sushi", "longitude": -84.656027, "has_menu": false, "awards": null, "user_review_count": 0}, {"business_operation_status": 1, "rating": null, "neighborhood": null, "image": null, "scorecard": null, "featured": false, "sample_categories": "Restaurants", "public_id": "1904-house-restaurant-woodstock", "id": 601322141, "votes": null, "tagline": null, "has_video": false, "website": null, "offers": null, "latitude": 34.101487, "politanName": "Atlanta, GA Metro ", "phone_number": "7709261904", "tags": [{"primary": true, "id": 1722, "name": "Restaurants"}], "fax_number": null, "expansion": {"count": null, "uri": null}, "impression_id": "000b000000430f6b1bafd04954a1e71d92bd219589", "profile": "http://www.citysearch.com/profile/601322141/woodstock_ga/1904_house_restaurant.html", "address": {"city": "Woodstock", "state": "GA", "street": "Po Box 818", "postal_code": "30188"}, "capProviderId": null, "distance": null, "has_offers": false, "name": "1904 House Restaurant", "longitude": -84.519375, "has_menu": false, "awards": null, "user_review_count": 0}, {"business_operation_status": 1, "rating": null, "neighborhood": null, "image": null, "scorecard": null, "featured": false, "sample_categories": "Restaurants, Pizza, Carry Out", "public_id": "little-caesars-pizza-marietta-14", "id": 607327154, "votes": null, "tagline": null, "has_video": false, "website": "http://www.citysearch.com/profile/external/607327154/marietta_ga/little_caesars_pizza.html", "offers": null, "latitude": 33.951081, "politanName": "Atlanta, GA Metro ", "phone_number": "7709195595", "tags": [{"primary": false, "id": 1722, "name": "Restaurants"}, {"primary": false, "id": 11247, "name": "Carry Out"}, {"primary": true, "id": 11299, "name": "Pizza"}], "fax_number": null, "expansion": {"count": null, "uri": null}, "impression_id": "000b0000007d2351ee578547e287da1bd109fbf1c3", "profile": "http://www.citysearch.com/profile/607327154/marietta_ga/little_caesars_pizza.html", "address": {"city": "Marietta", "state": "GA", "street": "36 Powder Springs St", "postal_code": "30064"}, "capProviderId": null, "distance": null, "has_offers": false, "name": "Little Caesars Pizza", "longitude": -84.55027, "has_menu": false, "awards": null, "user_review_count": 0}, {"business_operation_status": 1, "rating": null, "neighborhood": null, "image": null, "scorecard": null, "featured": false, "sample_categories": "Restaurants", "public_id": "angels-burrito-on-the-square-marietta", "id": 609728344, "votes": null, "tagline": null, "has_video": false, "website": null, "offers": null, "latitude": 33.952259, "politanName": "Atlanta, GA Metro ", "phone_number": "6785943352", "tags": [{"primary": true, "id": 1722, "name": "Restaurants"}], "fax_number": null, "expansion": {"count": null, "uri": null}, "impression_id": "000b00000046026e450d9740f695a7af0379a4100a", "profile": "http://www.citysearch.com/profile/609728344/marietta_ga/angel_s_burrito_on_the_square.html", "address": {"city": "Marietta", "state": "GA", "street": "154 Roswell St SE", "postal_code": "30060"}, "capProviderId": null, "distance": null, "has_offers": false, "name": "Angel's Burrito On The Square", "longitude": -84.548687, "has_menu": false, "awards": null, "user_review_count": 0}, {"business_operation_status": 1, "rating": null, "neighborhood": null, "image": null, "scorecard": null, "featured": false, "sample_categories": "Restaurants, Pizza", "public_id": "capozzis-ny-pizza-pasta-marietta", "id": 611363274, "votes": null, "tagline": null, "has_video": false, "website": "http://www.citysearch.com/profile/external/611363274/marietta_ga/capozzi_s_ny_pizza_pasta.html", "offers": null, "latitude": 34.034941, "politanName": "Atlanta, GA Metro ", "phone_number": "7703211969", "tags": [{"primary": false, "id": 1722, "name": "Restaurants"}, {"primary": true, "id": 11299, "name": "Pizza"}], "fax_number": null, "expansion": {"count": null, "uri": null}, "impression_id": "000b0000007fc671e77b6d47cc96f5ef5101fe0d83", "profile": "http://www.citysearch.com/profile/611363274/marietta_ga/capozzi_s_ny_pizza_pasta.html", "address": {"city": "Marietta", "state": "GA", "street": "2960 Shallowford Rd # 101", "postal_code": "30066"}, "capProviderId": null, "distance": null, "has_offers": false, "name": "Capozzi's NY Pizza & Pasta", "longitude": -84.466786, "has_menu": false, "awards": null, "user_review_count": 3}, {"business_operation_status": 1, "rating": 8.0, "neighborhood": null, "image": null, "scorecard": null, "featured": false, "sample_categories": "Restaurants, Mexican", "public_id": "el-toro-marietta-2", "id": 2903732, "votes": null, "tagline": null, "has_video": false, "website": null, "offers": null, "latitude": 33.977237, "politanName": "Atlanta, GA Metro ", "phone_number": "7709733173", "tags": [{"primary": false, "id": 1722, "name": "Restaurants"}, {"primary": true, "id": 11208, "name": "Mexican"}], "fax_number": null, "expansion": {"count": null, "uri": null}, "impression_id": "000b0000003fec3a8ed06f413689d65656b9f1d5bc", "profile": "http://www.citysearch.com/profile/2903732/marietta_ga/el_toro.html", "address": {"city": "Marietta", "state": "GA", "street": "1060 E Piedmont Rd", "postal_code": "30062"}, "capProviderId": null, "distance": null, "has_offers": false, "name": "El Toro", "longitude": -84.479761, "has_menu": true, "awards": null, "user_review_count": 0}, {"business_operation_status": 1, "rating": null, "neighborhood": null, "image": null, "scorecard": null, "featured": false, "sample_categories": "Restaurants, Bars & Clubs", "public_id": "bokitas-tapas-bar-woodstock", "id": 672914460, "votes": null, "tagline": null, "has_video": false, "website": null, "offers": null, "latitude": 34.104277, "politanName": "Atlanta, GA Metro ", "phone_number": "7709246585", "tags": [{"primary": false, "id": 164, "name": "Bars & Clubs"}, {"primary": true, "id": 1722, "name": "Restaurants"}], "fax_number": null, "expansion": {"count": null, "uri": null}, "impression_id": "000b00000079d33ddee2c3480d8be9a85de6cbf9ae", "profile": "http://www.citysearch.com/profile/672914460/woodstock_ga/bokita_s_tapas_bar.html", "address": {"city": "Woodstock", "state": "GA", "street": "900 Towne Lake Pkwy", "postal_code": "30189"}, "capProviderId": null, "distance": null, "has_offers": false, "name": "Bokita's Tapas Bar", "longitude": -84.534724, "has_menu": false, "awards": null, "user_review_count": 1}, {"business_operation_status": 1, "rating": null, "neighborhood": null, "image": null, "scorecard": null, "featured": false, "sample_categories": "Restaurants", "public_id": "townlake-diner-woodstock", "id": 672289320, "votes": null, "tagline": null, "has_video": false, "website": null, "offers": null, "latitude": 34.112372, "politanName": "Atlanta, GA Metro ", "phone_number": null, "tags": [{"primary": true, "id": 1722, "name": "Restaurants"}], "fax_number": null, "expansion": {"count": null, "uri": null}, "impression_id": "000b000000a5425b09614b4a4cae0b1648aebd03bb", "profile": "http://www.citysearch.com/profile/672289320/woodstock_ga/townlake_diner.html", "address": {"city": "Woodstock", "state": "GA", "street": "2990 eagle drive", "postal_code": "30189"}, "capProviderId": null, "distance": null, "has_offers": false, "name": "Townlake Diner", "longitude": -84.561077, "has_menu": false, "awards": null, "user_review_count": 0}, {"business_operation_status": 1, "rating": null, "neighborhood": null, "image": null, "scorecard": null, "featured": false, "sample_categories": "Restaurants", "public_id": "city-cafe-dallas-2", "id": 777759730, "votes": null, "tagline": null, "has_video": false, "website": null, "offers": null, "latitude": 34.02964, "politanName": "Atlanta, GA Metro ", "phone_number": "7704432610", "tags": [{"primary": true, "id": 1722, "name": "Restaurants"}], "fax_number": null, "expansion": {"count": null, "uri": null}, "impression_id": "000b00000008e4db89f2554b23830ab5d82ff4c979", "profile": "http://www.citysearch.com/profile/777759730/dallas_ga/city_cafe.html", "address": {"city": "Dallas", "state": "GA", "street": "8164 Cartersville Hwy", "postal_code": "30132"}, "capProviderId": null, "distance": null, "has_offers": false, "name": "City Cafe", "longitude": -84.848102, "has_menu": false, "awards": null, "user_review_count": 0}, {"business_operation_status": 1, "rating": null, "neighborhood": null, "image": null, "scorecard": null, "featured": false, "sample_categories": "Restaurants, Mexican", "public_id": "taqueria-tsunami-woodstock", "id": 793252160, "votes": null, "tagline": null, "has_video": false, "website": null, "offers": null, "latitude": 34.119763, "politanName": "Atlanta, GA Metro ", "phone_number": "7704853586", "tags": [{"primary": false, "id": 11208, "name": "Mexican"}, {"primary": true, "id": 1722, "name": "Restaurants"}], "fax_number": null, "expansion": {"count": null, "uri": null}, "impression_id": "000b0000007c3a9b8e2783493fa71c6f057b267820", "profile": "http://www.citysearch.com/profile/793252160/woodstock_ga/taqueria_tsunami.html", "address": {"city": "Woodstock", "state": "GA", "street": "915 Ridgewalk Pkwy", "postal_code": "30188"}, "capProviderId": null, "distance": null, "has_offers": false, "name": "Taqueria Tsunami", "longitude": -84.518527, "has_menu": false, "awards": null, "user_review_count": 0}, {"business_operation_status": 1, "rating": null, "neighborhood": null, "image": null, "scorecard": null, "featured": false, "sample_categories": "Restaurants, Carry Out, Hamburgers", "public_id": "wendys-woodstock-7", "id": 787134330, "votes": null, "tagline": null, "has_video": false, "website": null, "offers": null, "latitude": 34.112447, "politanName": "Atlanta, GA Metro ", "phone_number": "7705925656", "tags": [{"primary": false, "id": 11247, "name": "Carry Out"}, {"primary": false, "id": 11270, "name": "Hamburgers"}, {"primary": true, "id": 1722, "name": "Restaurants"}], "fax_number": null, "expansion": {"count": null, "uri": null}, "impression_id": "000b00000058b70686159f42f5bbd703d72930082a", "profile": "http://www.citysearch.com/profile/787134330/woodstock_ga/wendy_s.html", "address": {"city": "Woodstock", "state": "GA", "street": "230 Towne Lake Pkwy", "postal_code": "30189"}, "capProviderId": null, "distance": null, "has_offers": false, "name": "Wendy's", "longitude": -84.552535, "has_menu": true, "awards": null, "user_review_count": 0}, {"business_operation_status": 1, "rating": null, "neighborhood": null, "image": null, "scorecard": null, "featured": false, "sample_categories": "Restaurants, Seafood", "public_id": "a-js-famous-seafood-poboys-marietta", "id": 793361500, "votes": null, "tagline": null, "has_video": false, "website": null, "offers": null, "latitude": 33.968758, "politanName": "Atlanta, GA Metro ", "phone_number": "6786273971", "tags": [{"primary": false, "id": 11228, "name": "Seafood"}, {"primary": true, "id": 1722, "name": "Restaurants"}], "fax_number": null, "expansion": {"count": null, "uri": null}, "impression_id": "000b00000096ae5ea8aaea4aafa3260c19920e34d7", "profile": "http://www.citysearch.com/profile/793361500/marietta_ga/a_j_s_famous_seafood_poboys.html", "address": {"city": "Marietta", "state": "GA", "street": "2100 Roswell Rd", "postal_code": "30062"}, "capProviderId": null, "distance": null, "has_offers": false, "name": "A J's Famous Seafood & Poboys", "longitude": -84.488447, "has_menu": false, "awards": null, "user_review_count": 0}, {"business_operation_status": 1, "rating": null, "neighborhood": null, "image": null, "scorecard": null, "featured": false, "sample_categories": "Restaurants", "public_id": "hoof-ale-marietta", "id": 796118290, "votes": null, "tagline": null, "has_video": false, "website": null, "offers": null, "latitude": 33.968758, "politanName": "Atlanta, GA Metro ", "phone_number": "7709710334", "tags": [{"primary": true, "id": 1722, "name": "Restaurants"}], "fax_number": null, "expansion": {"count": null, "uri": null}, "impression_id": "000b000000444645d3f7554d9abcc671dbdcf58fce", "profile": "http://www.citysearch.com/profile/796118290/marietta_ga/hoof_ale.html", "address": {"city": "Marietta", "state": "GA", "street": "2100 Roswell Rd", "postal_code": "30062"}, "capProviderId": null, "distance": null, "has_offers": false, "name": "Hoof & Ale", "longitude": -84.488447, "has_menu": false, "awards": null, "user_review_count": 0}, {"business_operation_status": 1, "rating": null, "neighborhood": null, "image": null, "scorecard": null, "featured": false, "sample_categories": "Restaurants", "public_id": "juan-j-garcia-woodstock", "id": 807710220, "votes": null, "tagline": null, "has_video": false, "website": null, "offers": null, "latitude": 34.101487, "politanName": "Atlanta, GA Metro ", "phone_number": "6784457635", "tags": [{"primary": true, "id": 1722, "name": "Restaurants"}], "fax_number": null, "expansion": {"count": null, "uri": null}, "impression_id": "000b0000007cc815187e284804b9eb90592c6457e3", "profile": "http://www.citysearch.com/profile/807710220/woodstock_ga/juan_j_garcia.html", "address": {"city": "Woodstock", "state": "GA", "street": "5016 River Road Way", "postal_code": "30188"}, "capProviderId": null, "distance": null, "has_offers": false, "name": "Juan J Garcia", "longitude": -84.519375, "has_menu": false, "awards": null, "user_review_count": 0}, {"business_operation_status": 1, "rating": null, "neighborhood": null, "image": null, "scorecard": null, "featured": false, "sample_categories": "Coffeehouses", "public_id": "ashley-cooper-coffee-marietta", "id": 816560520, "votes": null, "tagline": null, "has_video": false, "website": null, "offers": null, "latitude": 33.970881, "politanName": "Atlanta, GA Metro ", "phone_number": "7704229615", "tags": [{"primary": true, "id": 1726, "name": "Coffeehouses"}], "fax_number": null, "expansion": {"count": null, "uri": null}, "impression_id": "000b000000eda7b4d978ee419e884de6e6a1b8c002", "profile": "http://www.citysearch.com/profile/816560520/marietta_ga/ashley_cooper_coffee.html", "address": {"city": "Marietta", "state": "GA", "street": "829 Pickens Industrial Dr # 11", "postal_code": "30062"}, "capProviderId": null, "distance": null, "has_offers": false, "name": "Ashley Cooper Coffee", "longitude": -84.525365, "has_menu": false, "awards": null, "user_review_count": 0}, {"business_operation_status": 1, "rating": null, "neighborhood": null, "image": null, "scorecard": null, "featured": false, "sample_categories": "Restaurants", "public_id": "jps-oyster-bar-woodstock", "id": 817161350, "votes": null, "tagline": null, "has_video": false, "website": null, "offers": null, "latitude": 34.107712, "politanName": "Atlanta, GA Metro ", "phone_number": "7705919879", "tags": [{"primary": true, "id": 1722, "name": "Restaurants"}], "fax_number": null, "expansion": {"count": null, "uri": null}, "impression_id": "000b0000005495a03fda4f406aa5025d1c04871743", "profile": "http://www.citysearch.com/profile/817161350/woodstock_ga/jp_s_oyster_bar.html", "address": {"city": "Woodstock", "state": "GA", "street": "1105 Parkside Ln", "postal_code": "30189"}, "capProviderId": null, "distance": null, "has_offers": false, "name": "Jp's Oyster Bar", "longitude": -84.553184, "has_menu": false, "awards": null, "user_review_count": 0}, {"business_operation_status": 1, "rating": null, "neighborhood": null, "image": null, "scorecard": null, "featured": false, "sample_categories": "Restaurants", "public_id": "mediterranean-buffet-acworth", "id": 824951910, "votes": null, "tagline": null, "has_video": false, "website": null, "offers": null, "latitude": 34.081615, "politanName": "Atlanta, GA Metro ", "phone_number": "7705171340", "tags": [{"primary": true, "id": 1722, "name": "Restaurants"}], "fax_number": null, "expansion": {"count": null, "uri": null}, "impression_id": "000b000000da2ab3dccb1346a1a0ca283db1316bd3", "profile": "http://www.citysearch.com/profile/824951910/acworth_ga/mediterranean_buffet.html", "address": {"city": "Acworth", "state": "GA", "street": "5399 Bells Ferry Rd # 100", "postal_code": "30102"}, "capProviderId": null, "distance": null, "has_offers": false, "name": "Mediterranean Buffet", "longitude": -84.575225, "has_menu": false, "awards": null, "user_review_count": 0}, {"business_operation_status": 1, "rating": null, "neighborhood": null, "image": null, "scorecard": null, "featured": false, "sample_categories": "Restaurants", "public_id": "el-herradero-mexican-rstrnt-kennesaw", "id": 824483720, "votes": null, "tagline": null, "has_video": false, "website": null, "offers": null, "latitude": 34.014345, "politanName": "Atlanta, GA Metro ", "phone_number": "7704231213", "tags": [{"primary": true, "id": 1722, "name": "Restaurants"}], "fax_number": null, "expansion": {"count": null, "uri": null}, "impression_id": "000b000000e8c746b3948e45acbd12626c1d2ec0e0", "profile": "http://www.citysearch.com/profile/824483720/kennesaw_ga/el_herradero_mexican_rstrnt.html", "address": {"city": "Kennesaw", "state": "GA", "street": "2479 Cobb Pkwy NW", "postal_code": "30152"}, "capProviderId": null, "distance": null, "has_offers": false, "name": "El Herradero Mexican Rstrnt", "longitude": -84.614253, "has_menu": false, "awards": null, "user_review_count": 0}, {"business_operation_status": 0, "rating": null, "neighborhood": null, "image": null, "scorecard": null, "featured": false, "sample_categories": "Restaurants, Convenience Stores", "public_id": "pantry-marietta", "id": 777697380, "votes": null, "tagline": null, "has_video": false, "website": null, "offers": null, "latitude": 33.970591, "politanName": "Atlanta, GA Metro ", "phone_number": "7704198988", "tags": [{"primary": false, "id": 1714, "name": "Convenience Stores"}, {"primary": true, "id": 1722, "name": "Restaurants"}], "fax_number": null, "expansion": {"count": null, "uri": null}, "impression_id": "000b000000f60a4a2750c846868a5693c840010574", "profile": "http://www.citysearch.com/profile/777697380/marietta_ga/pantry.html", "address": {"city": "Marietta", "state": "GA", "street": "790 Church St Ne # 210", "postal_code": "30060"}, "capProviderId": null, "distance": null, "has_offers": false, "name": "Pantry", "longitude": -84.550288, "has_menu": false, "awards": null, "user_review_count": 0}, {"business_operation_status": 1, "rating": null, "neighborhood": null, "image": null, "scorecard": null, "featured": false, "sample_categories": "Restaurants, Barbecue Restaurants, Carry Out", "public_id": "gem-city-wings-marietta", "id": 777757950, "votes": null, "tagline": null, "has_video": false, "website": null, "offers": null, "latitude": 33.95115, "politanName": "Atlanta, GA Metro ", "phone_number": "6784027331", "tags": [{"primary": false, "id": 1724, "name": "Barbecue Restaurants"}, {"primary": false, "id": 11247, "name": "Carry Out"}, {"primary": true, "id": 1722, "name": "Restaurants"}], "fax_number": null, "expansion": {"count": null, "uri": null}, "impression_id": "000b000000802611eea53045e38ae8e71f609d3b0f", "profile": "http://www.citysearch.com/profile/777757950/marietta_ga/gem_city_wings.html", "address": {"city": "Marietta", "state": "GA", "street": "20 N Fairground St Ne", "postal_code": "30060"}, "capProviderId": null, "distance": null, "has_offers": false, "name": "Gem City Wings", "longitude": -84.535474, "has_menu": false, "awards": null, "user_review_count": 0}, {"business_operation_status": 1, "rating": null, "neighborhood": null, "image": null, "scorecard": null, "featured": false, "sample_categories": "Restaurants, Traditional American", "public_id": "buffalos-southwest-cafe-kennesaw", "id": 787114370, "votes": null, "tagline": null, "has_video": false, "website": null, "offers": null, "latitude": 34.004386, "politanName": "Atlanta, GA Metro ", "phone_number": "7704392831", "tags": [{"primary": false, "id": 11190, "name": "Traditional American"}, {"primary": true, "id": 1722, "name": "Restaurants"}], "fax_number": null, "expansion": {"count": null, "uri": null}, "impression_id": "000b000000b3331ffb0445468ab1b88620cf7f6fc3", "profile": "http://www.citysearch.com/profile/787114370/kennesaw_ga/buffalo_s_southwest_cafe.html", "address": {"city": "Kennesaw", "state": "GA", "street": "4079 Stephanie Ct NW", "postal_code": "30152"}, "capProviderId": null, "distance": null, "has_offers": false, "name": "Buffalo's Southwest Cafe", "longitude": -84.670496, "has_menu": false, "awards": null, "user_review_count": 0}, {"business_operation_status": 1, "rating": null, "neighborhood": null, "image": null, "scorecard": null, "featured": false, "sample_categories": "Cafes", "public_id": "market-cafe-acworth", "id": 787133180, "votes": null, "tagline": null, "has_video": false, "website": null, "offers": null, "latitude": 34.08686, "politanName": "Atlanta, GA Metro ", "phone_number": "6783601802", "tags": [{"primary": true, "id": 6190, "name": "Cafes"}], "fax_number": null, "expansion": {"count": null, "uri": null}, "impression_id": "000b00000069e2869cdf2f4eaabdc76c3f0838bc2e", "profile": "http://www.citysearch.com/profile/787133180/acworth_ga/market_cafe.html", "address": {"city": "Acworth", "state": "GA", "street": "5500 Bells Ferry Rd", "postal_code": "30102"}, "capProviderId": null, "distance": null, "has_offers": false, "name": "Market Cafe", "longitude": -84.576418, "has_menu": false, "awards": null, "user_review_count": 0}, {"business_operation_status": 1, "rating": null, "neighborhood": null, "image": null, "scorecard": null, "featured": false, "sample_categories": "Restaurants, Barbecue Restaurants, Carry Out", "public_id": "wings-street-woodstock", "id": 787133900, "votes": null, "tagline": null, "has_video": false, "website": "http://www.citysearch.com/profile/external/787133900/woodstock_ga/wings_street.html", "offers": null, "latitude": 34.129085, "politanName": "Atlanta, GA Metro ", "phone_number": "7705167700", "tags": [{"primary": false, "id": 1724, "name": "Barbecue Restaurants"}, {"primary": false, "id": 11247, "name": "Carry Out"}, {"primary": true, "id": 1722, "name": "Restaurants"}], "fax_number": null, "expansion": {"count": null, "uri": null}, "impression_id": "000b0000009671abc29ce04cbca45a7dec0c1d5214", "profile": "http://www.citysearch.com/profile/787133900/woodstock_ga/wings_street.html", "address": {"city": "Woodstock", "state": "GA", "street": "4451 Towne Lake Pkwy # 310", "postal_code": "30189"}, "capProviderId": null, "distance": null, "has_offers": false, "name": "Wings Street", "longitude": -84.576054, "has_menu": false, "awards": null, "user_review_count": 0}, {"business_operation_status": 1, "rating": null, "neighborhood": null, "image": null, "scorecard": null, "featured": false, "sample_categories": "Grocery Stores, Bakeries, Delis And Delicatessens, Pharmacies, Florists", "public_id": "kroger-dallas-5", "id": 45010075, "votes": null, "tagline": null, "has_video": false, "website": "http://www.citysearch.com/profile/external/45010075/dallas_ga/kroger.html", "offers": null, "latitude": 33.985034, "politanName": "Atlanta, GA Metro ", "phone_number": "6784393372", "tags": [{"primary": false, "id": 1685, "name": "Bakeries"}, {"primary": false, "id": 1727, "name": "Delis And Delicatessens"}, {"primary": false, "id": 1930, "name": "Pharmacies"}, {"primary": false, "id": 3921, "name": "Florists"}, {"primary": false, "id": 3924, "name": "Department Stores"}, {"primary": true, "id": 1713, "name": "Grocery Stores"}], "fax_number": null, "expansion": {"count": null, "uri": null}, "impression_id": "000b000000030785b60d6b4e24adb336fe922a939d", "profile": "http://www.citysearch.com/profile/45010075/dallas_ga/kroger.html", "address": {"city": "Dallas", "state": "GA", "street": "8876 Dallas Acworth Hwy", "postal_code": "30132"}, "capProviderId": null, "distance": null, "has_offers": false, "name": "Kroger", "longitude": -84.771736, "has_menu": false, "awards": null, "user_review_count": 0}, {"business_operation_status": 1, "rating": null, "neighborhood": null, "image": null, "scorecard": null, "featured": false, "sample_categories": "Restaurants", "public_id": "taqueria-la-villa-marietta", "id": 816057700, "votes": null, "tagline": null, "has_video": false, "website": null, "offers": null, "latitude": 33.969085, "politanName": "Atlanta, GA Metro ", "phone_number": "7705908887", "tags": [{"primary": true, "id": 1722, "name": "Restaurants"}], "fax_number": null, "expansion": {"count": null, "uri": null}, "impression_id": "000b000000ac9d8b38af1f419ba0c909e7bd4bb8eb", "profile": "http://www.citysearch.com/profile/816057700/marietta_ga/taqueria_la_villa.html", "address": {"city": "Marietta", "state": "GA", "street": "745 Cobb Pkwy N", "postal_code": "30062"}, "capProviderId": null, "distance": null, "has_offers": false, "name": "Taqueria La Villa", "longitude": -84.538349, "has_menu": false, "awards": null, "user_review_count": 0}, {"business_operation_status": 1, "rating": null, "neighborhood": null, "image": null, "scorecard": null, "featured": false, "sample_categories": "Restaurants", "public_id": "c-gs-deli-dallas", "id": 826657680, "votes": null, "tagline": null, "has_video": false, "website": null, "offers": null, "latitude": 33.956809, "politanName": "Atlanta, GA Metro ", "phone_number": "7705053500", "tags": [{"primary": true, "id": 1722, "name": "Restaurants"}], "fax_number": null, "expansion": {"count": null, "uri": null}, "impression_id": "000b000000948f58822a774cbe8822e0f263039614", "profile": "http://www.citysearch.com/profile/826657680/dallas_ga/c_g_s_deli.html", "address": {"city": "Dallas", "state": "GA", "street": "4201 Dallas Acworth Hwy", "postal_code": "30132"}, "capProviderId": null, "distance": null, "has_offers": false, "name": "C & G's Deli", "longitude": -84.791704, "has_menu": false, "awards": null, "user_review_count": 0}, {"business_operation_status": 0, "rating": null, "neighborhood": null, "image": null, "scorecard": null, "featured": false, "sample_categories": "Restaurants", "public_id": "big-daddy-q-woodstock", "id": 713381470, "votes": null, "tagline": null, "has_video": false, "website": null, "offers": null, "latitude": 34.117933, "politanName": "Atlanta, GA Metro ", "phone_number": "7706931099", "tags": [{"primary": true, "id": 1722, "name": "Restaurants"}], "fax_number": null, "expansion": {"count": null, "uri": null}, "impression_id": "000b000000c07d95dd81ed42a990ebb0adf912fa2d", "profile": "http://www.citysearch.com/profile/713381470/woodstock_ga/big_daddy_q.html", "address": {"city": "Woodstock", "state": "GA", "street": "514 Arnold Mill Rd # C", "postal_code": "30188"}, "capProviderId": null, "distance": null, "has_offers": false, "name": "Big Daddy Q", "longitude": -84.469363, "has_menu": false, "awards": null, "user_review_count": 0}, {"business_operation_status": 1, "rating": null, "neighborhood": null, "image": null, "scorecard": null, "featured": false, "sample_categories": "Restaurants, Seafood", "public_id": "fish-time-restaurant-bar-acworth", "id": 713647060, "votes": null, "tagline": null, "has_video": false, "website": null, "offers": null, "latitude": 34.050728, "politanName": "Atlanta, GA Metro ", "phone_number": "7709742323", "tags": [{"primary": false, "id": 11228, "name": "Seafood"}, {"primary": true, "id": 1722, "name": "Restaurants"}], "fax_number": null, "expansion": {"count": null, "uri": null}, "impression_id": "000b000000ef56d61a085b4f3dac1169dda58cdc70", "profile": "http://www.citysearch.com/profile/713647060/acworth_ga/fish_time_restaurant_bar.html", "address": {"city": "Acworth", "state": "GA", "street": "3979 S Main St", "postal_code": "30101"}, "capProviderId": null, "distance": null, "has_offers": false, "name": "Fish Time Restaurant & Bar", "longitude": -84.663654, "has_menu": false, "awards": null, "user_review_count": 0}], "histograms": [], "tag_ids": [1722], "uri": "http://api.citygridmedia.com:8080/search/places/v2/search/where?has_offers=false&type=restaurant&format=json&page=28&where=30144&rpp=50&histograms=false&publisher=10000009598&region_type=circle", "did_you_mean": "", "regions": [{"latitude": 34.037076, "default_radius": 4.72, "type": "postal_code", "name": "30144", "longitude": -84.591034}], "call_id": "000b000000f357cb41cad54a899c997251b038abd2", "first_hit": 1351, "total_hits": 1696, "geo_ids": [26310], "page": 28, "last_hit": 1400}}