{"results": {"rpp": 50, "locations": [{"business_operation_status": 1, "rating": null, "neighborhood": null, "image": null, "scorecard": null, "featured": false, "sample_categories": "Restaurants, Barbecue Restaurants", "public_id": "city-wings-marietta", "id": 45550254, "votes": null, "tagline": null, "has_video": false, "website": null, "offers": null, "latitude": 34.03261, "politanName": "Atlanta, GA Metro ", "phone_number": "6783543412", "tags": [{"primary": false, "id": 1724, "name": "Barbecue Restaurants"}, {"primary": true, "id": 1722, "name": "Restaurants"}], "fax_number": null, "expansion": {"count": null, "uri": null}, "impression_id": "000b00000022be2cfd389246c9a8e5d868468081d1", "profile": "http://www.citysearch.com/profile/45550254/marietta_ga/city_wings.html", "address": {"city": "Marietta", "state": "GA", "street": "3349 Canton Rd Ste 8", "postal_code": "30066"}, "capProviderId": null, "distance": null, "has_offers": false, "name": "City Wings", "longitude": -84.528907, "has_menu": true, "awards": null, "user_review_count": 0}, {"business_operation_status": 1, "rating": 10.0, "neighborhood": null, "image": null, "scorecard": null, "featured": false, "sample_categories": "Restaurants", "public_id": "stilesboro-biscuits-kennesaw", "id": 45561009, "votes": null, "tagline": null, "has_video": false, "website": null, "offers": null, "latitude": 33.997874, "politanName": "Atlanta, GA Metro ", "phone_number": "7704295552", "tags": [{"primary": true, "id": 1722, "name": "Restaurants"}], "fax_number": null, "expansion": {"count": null, "uri": null}, "impression_id": "000b000000cb7fac44f22d4a2bb26fb4cdcdb15fd5", "profile": "http://www.citysearch.com/profile/45561009/kennesaw_ga/stilesboro_biscuits.html", "address": {"city": "Kennesaw", "state": "GA", "street": "3545 Stilesboro Rd NW", "postal_code": "30152"}, "capProviderId": null, "distance": null, "has_offers": false, "name": "Stilesboro Biscuits", "longitude": -84.655238, "has_menu": false, "awards": null, "user_review_count": 3}, {"business_operation_status": 1, "rating": null, "neighborhood": null, "image": null, "scorecard": null, "featured": false, "sample_categories": "Delis And Delicatessens", "public_id": "kroger-deli-woodstock-3", "id": 695122070, "votes": null, "tagline": null, "has_video": false, "website": null, "offers": null, "latitude": 34.140017, "politanName": "Atlanta, GA Metro ", "phone_number": "7709242557", "tags": [{"primary": true, "id": 1727, "name": "Delis And Delicatessens"}], "fax_number": null, "expansion": {"count": null, "uri": null}, "impression_id": "000b000000a70881ae8ce04ceeab7e64c2355077ce", "profile": "http://www.citysearch.com/profile/695122070/woodstock_ga/kroger_deli.html", "address": {"city": "Woodstock", "state": "GA", "street": "5339 Old Highway 5", "postal_code": "30188"}, "capProviderId": null, "distance": null, "has_offers": false, "name": "Kroger Deli", "longitude": -84.50415, "has_menu": false, "awards": null, "user_review_count": 0}, {"business_operation_status": 1, "rating": null, "neighborhood": null, "image": null, "scorecard": null, "featured": false, "sample_categories": "Restaurants, Pizza, Carry Out", "public_id": "dominos-pizza-dallas-38", "id": 682657320, "votes": null, "tagline": null, "has_video": false, "website": "http://www.citysearch.com/profile/external/682657320/dallas_ga/domino_s_pizza.html", "offers": null, "latitude": 34.016676, "politanName": "Atlanta, GA Metro ", "phone_number": "7705053030", "tags": [{"primary": false, "id": 1722, "name": "Restaurants"}, {"primary": false, "id": 11247, "name": "Carry Out"}, {"primary": true, "id": 11299, "name": "Pizza"}], "fax_number": null, "expansion": {"count": null, "uri": null}, "impression_id": "000b00000072d376adb8f7451690887903fbcae905", "profile": "http://www.citysearch.com/profile/682657320/dallas_ga/domino_s_pizza.html", "address": {"city": "Dallas", "state": "GA", "street": "423 Old Dallas Acworth Rd N", "postal_code": "30132"}, "capProviderId": null, "distance": null, "has_offers": false, "name": "Domino's Pizza", "longitude": -84.753746, "has_menu": false, "awards": null, "user_review_count": 0}, {"business_operation_status": 1, "rating": null, "neighborhood": null, "image": null, "scorecard": null, "featured": false, "sample_categories": "Restaurants, Coffeehouses", "public_id": "copper-coin-coffee-woodstock", "id": 766784630, "votes": null, "tagline": null, "has_video": false, "website": null, "offers": null, "latitude": 34.100005, "politanName": "Atlanta, GA Metro ", "phone_number": "6788314179", "tags": [{"primary": false, "id": 1726, "name": "Coffeehouses"}, {"primary": true, "id": 1722, "name": "Restaurants"}], "fax_number": null, "expansion": {"count": null, "uri": null}, "impression_id": "000b000000ea5c64d4358641b9a8e491113547bb98", "profile": "http://www.citysearch.com/profile/766784630/woodstock_ga/copper_coin_coffee.html", "address": {"city": "Woodstock", "state": "GA", "street": "400 Chambers St", "postal_code": "30188"}, "capProviderId": null, "distance": null, "has_offers": false, "name": "Copper Coin Coffee", "longitude": -84.51909, "has_menu": false, "awards": null, "user_review_count": 0}, {"business_operation_status": 1, "rating": null, "neighborhood": null, "image": null, "scorecard": null, "featured": false, "sample_categories": "Restaurants", "public_id": "mineos-italian-restaurant-acworth", "id": 821749900, "votes": null, "tagline": null, "has_video": false, "website": null, "offers": null, "latitude": 33.997403, "politanName": "Atlanta, GA Metro ", "phone_number": "7704247746", "tags": [{"primary": true, "id": 1722, "name": "Restaurants"}], "fax_number": null, "expansion": {"count": null, "uri": null}, "impression_id": "000b00000029f528086ea84968b84d910e956988dd", "profile": "http://www.citysearch.com/profile/821749900/acworth_ga/mineo_s_italian_restaurant.html", "address": {"city": "Acworth", "state": "GA", "street": "1727 Mars Hill Rd NW # 6", "postal_code": "30101"}, "capProviderId": null, "distance": null, "has_offers": false, "name": "Mineo's Italian Restaurant", "longitude": -84.707837, "has_menu": false, "awards": null, "user_review_count": 1}, {"business_operation_status": 1, "rating": null, "neighborhood": null, "image": null, "scorecard": null, "featured": false, "sample_categories": "Restaurants, Carry Out", "public_id": "kfc-woodstock-2", "id": 834049220, "votes": null, "tagline": null, "has_video": false, "website": null, "offers": null, "latitude": 34.113853, "politanName": "Atlanta, GA Metro ", "phone_number": "6784451331", "tags": [{"primary": false, "id": 11247, "name": "Carry Out"}, {"primary": true, "id": 1722, "name": "Restaurants"}], "fax_number": null, "expansion": {"count": null, "uri": null}, "impression_id": "000b0000004ba495f12ca94c738450205e6c9130db", "profile": "http://www.citysearch.com/profile/834049220/woodstock_ga/kfc.html", "address": {"city": "Woodstock", "state": "GA", "street": "2455 Towne Lake Pkwy", "postal_code": "30189"}, "capProviderId": null, "distance": null, "has_offers": false, "name": "Kfc", "longitude": -84.554184, "has_menu": true, "awards": null, "user_review_count": 0}, {"business_operation_status": 1, "rating": null, "neighborhood": null, "image": null, "scorecard": null, "featured": false, "sample_categories": "Restaurants, Delis And Delicatessens", "public_id": "sub-city-kennesaw", "id": 793292830, "votes": null, "tagline": null, "has_video": false, "website": null, "offers": null, "latitude": 34.029977, "politanName": "Atlanta, GA Metro ", "phone_number": "6784014659", "tags": [{"primary": false, "id": 1727, "name": "Delis And Delicatessens"}, {"primary": true, "id": 1722, "name": "Restaurants"}], "fax_number": null, "expansion": {"count": null, "uri": null}, "impression_id": "000b0000009b3832b5f5984150adfe1e6b03bc7ef4", "profile": "http://www.citysearch.com/profile/793292830/kennesaw_ga/sub_city.html", "address": {"city": "Kennesaw", "state": "GA", "street": "3103 Cobb Pkwy NW # 114", "postal_code": "30152"}, "capProviderId": null, "distance": null, "has_offers": false, "name": "Sub City", "longitude": -84.656263, "has_menu": false, "awards": null, "user_review_count": 0}, {"business_operation_status": 1, "rating": null, "neighborhood": null, "image": null, "scorecard": null, "featured": false, "sample_categories": "Bakeries, Restaurants", "public_id": "lapepite-france-bakery-marietta", "id": 793328380, "votes": null, "tagline": null, "has_video": false, "website": null, "offers": null, "latitude": 33.978482, "politanName": "Atlanta, GA Metro ", "phone_number": "7707904140", "tags": [{"primary": false, "id": 1722, "name": "Restaurants"}, {"primary": true, "id": 1685, "name": "Bakeries"}], "fax_number": null, "expansion": {"count": null, "uri": null}, "impression_id": "000b000000ee6aca687bb844aea61edff003a4f808", "profile": "http://www.citysearch.com/profile/793328380/marietta_ga/lapepite_france_bakery.html", "address": {"city": "Marietta", "state": "GA", "street": "1070 Atlanta Industrial Dr", "postal_code": "30066"}, "capProviderId": null, "distance": null, "has_offers": false, "name": "Lapepite France Bakery", "longitude": -84.532674, "has_menu": false, "awards": null, "user_review_count": 0}, {"business_operation_status": 1, "rating": null, "neighborhood": null, "image": null, "scorecard": null, "featured": false, "sample_categories": "Restaurants", "public_id": "artuzzis-italian-kitchen-woodstock", "id": 806215050, "votes": null, "tagline": null, "has_video": false, "website": null, "offers": null, "latitude": 34.086912, "politanName": "Atlanta, GA Metro ", "phone_number": "7705926522", "tags": [{"primary": true, "id": 1722, "name": "Restaurants"}], "fax_number": null, "expansion": {"count": null, "uri": null}, "impression_id": "000b000000e69cf3e9c7974eb2912392c522be6e6e", "profile": "http://www.citysearch.com/profile/806215050/woodstock_ga/artuzzi_s_italian_kitchen.html", "address": {"city": "Woodstock", "state": "GA", "street": "9745 Highway 92 # F", "postal_code": "30188"}, "capProviderId": null, "distance": null, "has_offers": false, "name": "Artuzzi's Italian Kitchen", "longitude": -84.528611, "has_menu": false, "awards": null, "user_review_count": 0}, {"business_operation_status": 1, "rating": null, "neighborhood": null, "image": null, "scorecard": null, "featured": false, "sample_categories": "Restaurants", "public_id": "supreme-grill-cartersville", "id": 811244140, "votes": null, "tagline": null, "has_video": false, "website": null, "offers": null, "latitude": 34.151195, "politanName": "Atlanta, GA Metro ", "phone_number": "7703824822", "tags": [{"primary": true, "id": 1722, "name": "Restaurants"}], "fax_number": null, "expansion": {"count": null, "uri": null}, "impression_id": "000b000000371a34fe935f4c87930858355b5f87d0", "profile": "http://www.citysearch.com/profile/811244140/cartersville_ga/supreme_grill.html", "address": {"city": "Cartersville", "state": "GA", "street": "122 Old Mill Rd", "postal_code": "30120"}, "capProviderId": null, "distance": null, "has_offers": false, "name": "Supreme Grill", "longitude": -84.785543, "has_menu": false, "awards": null, "user_review_count": 0}, {"business_operation_status": 1, "rating": null, "neighborhood": null, "image": null, "scorecard": null, "featured": false, "sample_categories": "Restaurants", "public_id": "freight-kitchen-tap-woodstock", "id": 764832080, "votes": null, "tagline": null, "has_video": false, "website": null, "offers": null, "latitude": 34.101887, "politanName": "Atlanta, GA Metro ", "phone_number": "7709240144", "tags": [{"primary": true, "id": 1722, "name": "Restaurants"}], "fax_number": null, "expansion": {"count": null, "uri": null}, "impression_id": "000b000000ac8cfedc28ca40389ec5b39e803ed713", "profile": "http://www.citysearch.com/profile/764832080/woodstock_ga/freight_kitchen_tap.html", "address": {"city": "Woodstock", "state": "GA", "street": "251 E Main St", "postal_code": "30188"}, "capProviderId": null, "distance": null, "has_offers": false, "name": "Freight Kitchen & Tap", "longitude": -84.519107, "has_menu": false, "awards": null, "user_review_count": 0}, {"business_operation_status": 1, "rating": null, "neighborhood": null, "image": null, "scorecard": null, "featured": false, "sample_categories": "Restaurants, Carry Out", "public_id": "long-john-silvers-marietta-3", "id": 764851430, "votes": null, "tagline": null, "has_video": false, "website": null, "offers": null, "latitude": 33.950876, "politanName": "Atlanta, GA Metro ", "phone_number": "7704247755", "tags": [{"primary": false, "id": 11247, "name": "Carry Out"}, {"primary": true, "id": 1722, "name": "Restaurants"}], "fax_number": null, "expansion": {"count": null, "uri": null}, "impression_id": "000b0000004ff5b33897974464af596f3f580d6416", "profile": "http://www.citysearch.com/profile/764851430/marietta_ga/long_john_silver_s.html", "address": {"city": "Marietta", "state": "GA", "street": "1176 Roswell Rd", "postal_code": "30062"}, "capProviderId": null, "distance": null, "has_offers": false, "name": "Long John Silver's", "longitude": -84.518285, "has_menu": true, "awards": null, "user_review_count": 0}, {"business_operation_status": 1, "rating": 10.0, "neighborhood": null, "image": null, "scorecard": null, "featured": false, "sample_categories": "Restaurants, Asian, MasterCard, Visa", "public_id": "bamboo-garden-acworth", "id": 2939263, "votes": null, "tagline": null, "has_video": false, "website": "http://www.citysearch.com/profile/external/2939263/acworth_ga/bamboo_garden.html", "offers": null, "latitude": 34.075979, "politanName": "Atlanta, GA Metro ", "phone_number": "7705299828", "tags": [{"primary": false, "id": 11235, "name": "Asian"}, {"primary": false, "id": 11361, "name": "MasterCard"}, {"primary": false, "id": 11382, "name": "Visa"}, {"primary": true, "id": 1722, "name": "Restaurants"}], "fax_number": null, "expansion": {"count": null, "uri": null}, "impression_id": "000b0000005ce1cdd46ee846ba98c1c1831606db66", "profile": "http://www.citysearch.com/profile/2939263/acworth_ga/bamboo_garden.html", "address": {"city": "Acworth", "state": "GA", "street": "3509 Baker Rd NW", "postal_code": "30101"}, "capProviderId": null, "distance": null, "has_offers": false, "name": "Bamboo Garden", "longitude": -84.651965, "has_menu": true, "awards": null, "user_review_count": 1}, {"business_operation_status": 1, "rating": null, "neighborhood": null, "image": null, "scorecard": null, "featured": false, "sample_categories": "Restaurants", "public_id": "dogfathers-marietta", "id": 793344660, "votes": null, "tagline": null, "has_video": false, "website": null, "offers": null, "latitude": 34.017341, "politanName": "Atlanta, GA Metro ", "phone_number": "6783543223", "tags": [{"primary": true, "id": 1722, "name": "Restaurants"}], "fax_number": null, "expansion": {"count": null, "uri": null}, "impression_id": "000b0000002f1af635eb7741e49106152d781cfad1", "profile": "http://www.citysearch.com/profile/793344660/marietta_ga/dogfathers.html", "address": {"city": "Marietta", "state": "GA", "street": "2769 Chastain Meadows Pkwy", "postal_code": "30066"}, "capProviderId": null, "distance": null, "has_offers": false, "name": "Dogfathers", "longitude": -84.555709, "has_menu": false, "awards": null, "user_review_count": 0}, {"business_operation_status": 1, "rating": null, "neighborhood": null, "image": null, "scorecard": null, "featured": false, "sample_categories": "Restaurants", "public_id": "hollie-guacamole-marietta", "id": 806226200, "votes": null, "tagline": null, "has_video": false, "website": null, "offers": null, "latitude": 33.952258, "politanName": "Atlanta, GA Metro ", "phone_number": "6782732403", "tags": [{"primary": true, "id": 1722, "name": "Restaurants"}], "fax_number": null, "expansion": {"count": null, "uri": null}, "impression_id": "000b000000f75c1be15fba4d14a8803cf7de7b6ef9", "profile": "http://www.citysearch.com/profile/806226200/marietta_ga/hollie_guacamole_.html", "address": {"city": "Marietta", "state": "GA", "street": "154 Roswell St SE", "postal_code": "30060"}, "capProviderId": null, "distance": null, "has_offers": false, "name": "Hollie Guacamole!", "longitude": -84.54874, "has_menu": false, "awards": null, "user_review_count": 0}, {"business_operation_status": 1, "rating": null, "neighborhood": null, "image": null, "scorecard": null, "featured": false, "sample_categories": "Restaurants", "public_id": "cafe-amazonia-marietta", "id": 808265410, "votes": null, "tagline": null, "has_video": false, "website": null, "offers": null, "latitude": 33.952198, "politanName": "Atlanta, GA Metro ", "phone_number": "7705796773", "tags": [{"primary": true, "id": 1722, "name": "Restaurants"}], "fax_number": null, "expansion": {"count": null, "uri": null}, "impression_id": "000b0000002818674aa3614c0288ad3d5b77b7017e", "profile": "http://www.citysearch.com/profile/808265410/marietta_ga/cafe_amazonia.html", "address": {"city": "Marietta", "state": "GA", "street": "1355 Roswell Rd # 152", "postal_code": "30062"}, "capProviderId": null, "distance": null, "has_offers": false, "name": "Cafe Amazonia", "longitude": -84.512302, "has_menu": false, "awards": null, "user_review_count": 0}, {"business_operation_status": 1, "rating": null, "neighborhood": null, "image": null, "scorecard": null, "featured": false, "sample_categories": "Restaurants", "public_id": "county-club-cafe-acworth", "id": 808921420, "votes": null, "tagline": null, "has_video": false, "website": null, "offers": null, "latitude": 34.071465, "politanName": "Atlanta, GA Metro ", "phone_number": "7709171466", "tags": [{"primary": true, "id": 1722, "name": "Restaurants"}], "fax_number": null, "expansion": {"count": null, "uri": null}, "impression_id": "000b0000007eafbce722bc4c03ad9fbd26009afa5b", "profile": "http://www.citysearch.com/profile/808921420/acworth_ga/county_club_cafe.html", "address": {"city": "Acworth", "state": "GA", "street": "5250 Cherokee St", "postal_code": "30101"}, "capProviderId": null, "distance": null, "has_offers": false, "name": "County Club Cafe", "longitude": -84.676084, "has_menu": false, "awards": null, "user_review_count": 0}, {"business_operation_status": 1, "rating": null, "neighborhood": null, "image": null, "scorecard": null, "featured": false, "sample_categories": "Restaurants", "public_id": "sweetbriar-partners-llc-woodstock", "id": 811360230, "votes": null, "tagline": null, "has_video": false, "website": null, "offers": null, "latitude": 34.112606, "politanName": "Atlanta, GA Metro ", "phone_number": "7062658927", "tags": [{"primary": true, "id": 1722, "name": "Restaurants"}], "fax_number": null, "expansion": {"count": null, "uri": null}, "impression_id": "000b0000007ccd1a19473746169977f82327e64b16", "profile": "http://www.citysearch.com/profile/811360230/woodstock_ga/sweetbriar_partners_llc.html", "address": {"city": "Woodstock", "state": "GA", "street": "2295 Towne Lake Pkwy # 116", "postal_code": "30189"}, "capProviderId": null, "distance": null, "has_offers": false, "name": "Sweetbriar Partners LLC", "longitude": -84.555426, "has_menu": false, "awards": null, "user_review_count": 0}, {"business_operation_status": 0, "rating": null, "neighborhood": null, "image": null, "scorecard": null, "featured": false, "sample_categories": "Ice Cream Parlors", "public_id": "ritas-water-ice-marietta-3", "id": 627647380, "votes": null, "tagline": null, "has_video": false, "website": "http://www.citysearch.com/profile/external/627647380/marietta_ga/rita_s_water_ice.html", "offers": null, "latitude": 34.011742, "politanName": "Atlanta, GA Metro ", "phone_number": "7706946029", "tags": [{"primary": true, "id": 1730, "name": "Ice Cream Parlors"}], "fax_number": null, "expansion": {"count": null, "uri": null}, "impression_id": "000b0000005eefc310e5d945de89e7a5655b2b5f7b", "profile": "http://www.citysearch.com/profile/627647380/marietta_ga/rita_s_water_ice.html", "address": {"city": "Marietta", "state": "GA", "street": "2550 Sandy Plains Rd", "postal_code": "30066"}, "capProviderId": null, "distance": null, "has_offers": false, "name": "Rita's Water Ice", "longitude": -84.495056, "has_menu": false, "awards": null, "user_review_count": 0}, {"business_operation_status": 1, "rating": null, "neighborhood": null, "image": null, "scorecard": null, "featured": false, "sample_categories": "Restaurants, Delis And Delicatessens, Sandwich Shops, Carry Out, Soups", "public_id": "subway-dallas-125", "id": 43861470, "votes": null, "tagline": null, "has_video": false, "website": "http://www.citysearch.com/profile/external/43861470/dallas_ga/subway.html", "offers": null, "latitude": 33.985034, "politanName": "Atlanta, GA Metro ", "phone_number": "6785747185", "tags": [{"primary": false, "id": 1727, "name": "Delis And Delicatessens"}, {"primary": false, "id": 1736, "name": "Sandwich Shops"}, {"primary": false, "id": 11247, "name": "Carry Out"}, {"primary": false, "id": 11311, "name": "Soups"}, {"primary": false, "id": 11361, "name": "MasterCard"}, {"primary": false, "id": 11382, "name": "Visa"}, {"primary": true, "id": 1722, "name": "Restaurants"}], "fax_number": null, "expansion": {"count": null, "uri": null}, "impression_id": "000b000000656b34fda95f4d5e883c8c643a23ddf3", "profile": "http://www.citysearch.com/profile/43861470/dallas_ga/subway.html", "address": {"city": "Dallas", "state": "GA", "street": "8876 Dallas Acworth HwySte 134", "postal_code": "30132"}, "capProviderId": null, "distance": null, "has_offers": false, "name": "Subway", "longitude": -84.771736, "has_menu": true, "awards": null, "user_review_count": 0}, {"business_operation_status": 1, "rating": null, "neighborhood": null, "image": null, "scorecard": null, "featured": false, "sample_categories": "Restaurants", "public_id": "volcano-steak-sushi-acworth", "id": 625431904, "votes": null, "tagline": null, "has_video": false, "website": null, "offers": null, "latitude": 33.99646, "politanName": "Atlanta, GA Metro ", "phone_number": "7704209888", "tags": [{"primary": true, "id": 1722, "name": "Restaurants"}], "fax_number": null, "expansion": {"count": null, "uri": null}, "impression_id": "000b000000442c9117aec342499a99b99c270d8942", "profile": "http://www.citysearch.com/profile/625431904/acworth_ga/volcano_steak_sushi.html", "address": {"city": "Acworth", "state": "GA", "street": "1720 Mars Hill Rd NW", "postal_code": "30101"}, "capProviderId": null, "distance": null, "has_offers": false, "name": "Volcano Steak & Sushi", "longitude": -84.70439, "has_menu": false, "awards": null, "user_review_count": 0}, {"business_operation_status": 1, "rating": null, "neighborhood": null, "image": null, "scorecard": null, "featured": false, "sample_categories": "Restaurants, Barbecue Restaurants", "public_id": "longhorns-wings-marietta", "id": 653586150, "votes": null, "tagline": null, "has_video": false, "website": null, "offers": null, "latitude": 34.068476, "politanName": "Atlanta, GA Metro ", "phone_number": "6784944424", "tags": [{"primary": false, "id": 1724, "name": "Barbecue Restaurants"}, {"primary": true, "id": 1722, "name": "Restaurants"}], "fax_number": null, "expansion": {"count": null, "uri": null}, "impression_id": "000b000000c6cc6d682c67404a94173a13821adfd8", "profile": "http://www.citysearch.com/profile/653586150/marietta_ga/longhorn_s_wings.html", "address": {"city": "Marietta", "state": "GA", "street": "4796 Canton Rd", "postal_code": "30066"}, "capProviderId": null, "distance": null, "has_offers": false, "name": "Longhorn's Wings", "longitude": -84.520809, "has_menu": false, "awards": null, "user_review_count": 0}, {"business_operation_status": 1, "rating": null, "neighborhood": null, "image": null, "scorecard": null, "featured": false, "sample_categories": "Restaurants", "public_id": "mythos-pizzeria-marietta", "id": 627338904, "votes": null, "tagline": null, "has_video": false, "website": null, "offers": null, "latitude": 33.953414, "politanName": "Atlanta, GA Metro ", "phone_number": "7704255100", "tags": [{"primary": true, "id": 1722, "name": "Restaurants"}], "fax_number": null, "expansion": {"count": null, "uri": null}, "impression_id": "000b000000444407a921c94ddda8c9154ef60010a9", "profile": "http://www.citysearch.com/profile/627338904/marietta_ga/mythos_pizzeria.html", "address": {"city": "Marietta", "state": "GA", "street": "1000 Whitlock Ave NW", "postal_code": "30064"}, "capProviderId": null, "distance": null, "has_offers": false, "name": "Mythos Pizzeria", "longitude": -84.581304, "has_menu": false, "awards": null, "user_review_count": 0}, {"business_operation_status": 1, "rating": null, "neighborhood": null, "image": null, "scorecard": null, "featured": false, "sample_categories": "Restaurants", "public_id": "suniece-cafe-marietta", "id": 655897070, "votes": null, "tagline": null, "has_video": false, "website": null, "offers": null, "latitude": 33.972386, "politanName": "Atlanta, GA Metro ", "phone_number": "7704272005", "tags": [{"primary": true, "id": 1722, "name": "Restaurants"}], "fax_number": null, "expansion": {"count": null, "uri": null}, "impression_id": "000b000000092e0f7908e242ac98b7a2a29fab3702", "profile": "http://www.citysearch.com/profile/655897070/marietta_ga/suniece_cafe.html", "address": {"city": "Marietta", "state": "GA", "street": "833 Campbell Hill St Nw", "postal_code": "30060"}, "capProviderId": null, "distance": null, "has_offers": false, "name": "Suniece Cafe", "longitude": -84.552023, "has_menu": false, "awards": null, "user_review_count": 0}, {"business_operation_status": 1, "rating": null, "neighborhood": null, "image": null, "scorecard": null, "featured": false, "sample_categories": "Restaurants, American Express, Debit Card, MasterCard, Visa", "public_id": "sidelines-grill-woodstock", "id": 655868180, "votes": null, "tagline": null, "has_video": false, "website": "http://www.citysearch.com/profile/external/655868180/woodstock_ga/sidelines_grill.html", "offers": null, "latitude": 34.140062, "politanName": "Atlanta, GA Metro ", "phone_number": "7703848244", "tags": [{"primary": false, "id": 11333, "name": "American Express"}, {"primary": false, "id": 11347, "name": "Debit Card"}, {"primary": false, "id": 11361, "name": "MasterCard"}, {"primary": false, "id": 11382, "name": "Visa"}, {"primary": true, "id": 1722, "name": "Restaurants"}], "fax_number": null, "expansion": {"count": null, "uri": null}, "impression_id": "000b00000033234bdf187340bdacc31603d1f8fd2d", "profile": "http://www.citysearch.com/profile/655868180/woodstock_ga/sidelines_grill.html", "address": {"city": "Woodstock", "state": "GA", "street": "5343 Old Highway 5Ste 301", "postal_code": "30188"}, "capProviderId": null, "distance": null, "has_offers": false, "name": "Sidelines Grill", "longitude": -84.503991, "has_menu": false, "awards": null, "user_review_count": 1}, {"business_operation_status": 1, "rating": null, "neighborhood": null, "image": null, "scorecard": null, "featured": false, "sample_categories": "Restaurants, Mexican", "public_id": "tortilla-el-maizal-inc-kennesaw", "id": 601313166, "votes": null, "tagline": null, "has_video": false, "website": null, "offers": null, "latitude": 34.056577, "politanName": "Atlanta, GA Metro ", "phone_number": "7704270187", "tags": [{"primary": false, "id": 11208, "name": "Mexican"}, {"primary": true, "id": 1722, "name": "Restaurants"}], "fax_number": null, "expansion": {"count": null, "uri": null}, "impression_id": "000b000000240f79b449a34180965ba215432456fc", "profile": "http://www.citysearch.com/profile/601313166/kennesaw_ga/tortilla_el_maizal_inc.html", "address": {"city": "Kennesaw", "state": "GA", "street": "1920 Shiloh Rd Nw", "postal_code": "30144"}, "capProviderId": null, "distance": null, "has_offers": false, "name": "Tortilla El Maizal Inc", "longitude": -84.606862, "has_menu": false, "awards": null, "user_review_count": 0}, {"business_operation_status": 1, "rating": null, "neighborhood": null, "image": null, "scorecard": null, "featured": false, "sample_categories": "Restaurants", "public_id": "vaqueros-marietta", "id": 672714020, "votes": null, "tagline": null, "has_video": false, "website": null, "offers": null, "latitude": 33.953033, "politanName": "Atlanta, GA Metro ", "phone_number": "6787385431", "tags": [{"primary": true, "id": 1722, "name": "Restaurants"}], "fax_number": null, "expansion": {"count": null, "uri": null}, "impression_id": "000b000000e115cf972d7643dbbf5b8076ecfebf22", "profile": "http://www.citysearch.com/profile/672714020/marietta_ga/vaqueros.html", "address": {"city": "Marietta", "state": "GA", "street": "1000 Whitlock Ave. #400", "postal_code": "30064"}, "capProviderId": null, "distance": null, "has_offers": false, "name": "Vaqueros", "longitude": -84.581202, "has_menu": false, "awards": null, "user_review_count": 0}, {"business_operation_status": 1, "rating": null, "neighborhood": null, "image": null, "scorecard": null, "featured": false, "sample_categories": "Restaurants", "public_id": "elite-kitchen-couture-kennesaw", "id": 632940880, "votes": null, "tagline": null, "has_video": false, "website": null, "offers": null, "latitude": 33.983459, "politanName": "Atlanta, GA Metro ", "phone_number": "7704218807", "tags": [{"primary": true, "id": 1722, "name": "Restaurants"}], "fax_number": null, "expansion": {"count": null, "uri": null}, "impression_id": "000b00000044aa0dd16c674ace956414dc822f5530", "profile": "http://www.citysearch.com/profile/632940880/kennesaw_ga/elite_kitchen_couture.html", "address": {"city": "Kennesaw", "state": "GA", "street": "2004 Ector Ct Nw", "postal_code": "30152"}, "capProviderId": null, "distance": null, "has_offers": false, "name": "Elite Kitchen Couture", "longitude": -84.613208, "has_menu": false, "awards": null, "user_review_count": 0}, {"business_operation_status": 1, "rating": null, "neighborhood": null, "image": null, "scorecard": null, "featured": false, "sample_categories": "Restaurants, Carry Out, American Express, Discover, MasterCard", "public_id": "zaxbys-kennesaw-5", "id": 682680850, "votes": null, "tagline": null, "has_video": false, "website": "http://www.citysearch.com/profile/external/682680850/kennesaw_ga/zaxby_s.html", "offers": null, "latitude": 33.994982, "politanName": "Atlanta, GA Metro ", "phone_number": "7704288789", "tags": [{"primary": false, "id": 11247, "name": "Carry Out"}, {"primary": false, "id": 11333, "name": "American Express"}, {"primary": false, "id": 11349, "name": "Discover"}, {"primary": false, "id": 11361, "name": "MasterCard"}, {"primary": false, "id": 11382, "name": "Visa"}, {"primary": false, "id": 12839, "name": "Chicken"}, {"primary": true, "id": 1722, "name": "Restaurants"}], "fax_number": null, "expansion": {"count": null, "uri": null}, "impression_id": "000b0000009fa24eb0deb54142aefa52b933f67a83", "profile": "http://www.citysearch.com/profile/682680850/kennesaw_ga/zaxby_s.html", "address": {"city": "Kennesaw", "state": "GA", "street": "1640 Old 41 Hwy NW", "postal_code": "30152"}, "capProviderId": null, "distance": null, "has_offers": false, "name": "Zaxby's", "longitude": -84.596653, "has_menu": true, "awards": null, "user_review_count": 1}, {"business_operation_status": 1, "rating": null, "neighborhood": null, "image": null, "scorecard": null, "featured": false, "sample_categories": "Restaurants", "public_id": "presto-latin-restaurant-marietta", "id": 672230170, "votes": null, "tagline": null, "has_video": false, "website": null, "offers": null, "latitude": 33.951248, "politanName": "Atlanta, GA Metro ", "phone_number": "7709731282", "tags": [{"primary": true, "id": 1722, "name": "Restaurants"}], "fax_number": null, "expansion": {"count": null, "uri": null}, "impression_id": "000b000000eda8686c2e5c47b290d32799a92b6523", "profile": "http://www.citysearch.com/profile/672230170/marietta_ga/presto_latin_restaurant.html", "address": {"city": "Marietta", "state": "GA", "street": "1392-B Roswell Road", "postal_code": "30062"}, "capProviderId": null, "distance": null, "has_offers": false, "name": "Presto Latin Restaurant", "longitude": -84.508172, "has_menu": false, "awards": null, "user_review_count": 0}, {"business_operation_status": 1, "rating": null, "neighborhood": null, "image": null, "scorecard": null, "featured": false, "sample_categories": "Restaurants, Carry Out, American Express, Discover, MasterCard", "public_id": "churchs-chicken-marietta-4", "id": 682647720, "votes": null, "tagline": null, "has_video": false, "website": "http://www.citysearch.com/profile/external/682647720/marietta_ga/church_s_chicken.html", "offers": null, "latitude": 33.94964, "politanName": "Atlanta, GA Metro ", "phone_number": "7704241193", "tags": [{"primary": false, "id": 11247, "name": "Carry Out"}, {"primary": false, "id": 11333, "name": "American Express"}, {"primary": false, "id": 11349, "name": "Discover"}, {"primary": false, "id": 11361, "name": "MasterCard"}, {"primary": false, "id": 11382, "name": "Visa"}, {"primary": false, "id": 12839, "name": "Chicken"}, {"primary": true, "id": 1722, "name": "Restaurants"}], "fax_number": null, "expansion": {"count": null, "uri": null}, "impression_id": "000b00000007865219493045f08ca978fdba3839b1", "profile": "http://www.citysearch.com/profile/682647720/marietta_ga/church_s_chicken.html", "address": {"city": "Marietta", "state": "GA", "street": "75 S Marietta Pkwy Sw", "postal_code": "30064"}, "capProviderId": null, "distance": null, "has_offers": false, "name": "Church's Chicken", "longitude": -84.55079, "has_menu": false, "awards": null, "user_review_count": 0}, {"business_operation_status": 1, "rating": null, "neighborhood": null, "image": null, "scorecard": null, "featured": false, "sample_categories": "Restaurants", "public_id": "niks-place-marietta", "id": 618038054, "votes": null, "tagline": null, "has_video": false, "website": "http://www.citysearch.com/profile/external/618038054/marietta_ga/niks_place.html", "offers": null, "latitude": 33.952096, "politanName": "Atlanta, GA Metro ", "phone_number": "7707926666", "tags": [{"primary": true, "id": 1722, "name": "Restaurants"}], "fax_number": null, "expansion": {"count": null, "uri": null}, "impression_id": "000b000000c20230f9b31f4af897343fa3748a78ff", "profile": "http://www.citysearch.com/profile/618038054/marietta_ga/niks_place.html", "address": {"city": "Marietta", "state": "GA", "street": "Whitlock Ave NW", "postal_code": "30064"}, "capProviderId": null, "distance": null, "has_offers": false, "name": "Niks Place", "longitude": -84.576903, "has_menu": true, "awards": null, "user_review_count": 0}, {"business_operation_status": 1, "rating": null, "neighborhood": null, "image": null, "scorecard": null, "featured": false, "sample_categories": "Restaurants", "public_id": "stoner-burger-llc-acworth", "id": 620965964, "votes": null, "tagline": null, "has_video": false, "website": null, "offers": null, "latitude": 34.074364, "politanName": "Atlanta, GA Metro ", "phone_number": "7705290009", "tags": [{"primary": true, "id": 1722, "name": "Restaurants"}], "fax_number": null, "expansion": {"count": null, "uri": null}, "impression_id": "000b000000b873549fb9c64bdfb06cfc45d365ed3c", "profile": "http://www.citysearch.com/profile/620965964/acworth_ga/stoner_burger_llc.html", "address": {"city": "Acworth", "state": "GA", "street": "3365 Acworth Oaks Dr NW", "postal_code": "30101"}, "capProviderId": null, "distance": null, "has_offers": false, "name": "Stoner Burger LLC", "longitude": -84.649151, "has_menu": false, "awards": null, "user_review_count": 0}, {"business_operation_status": 1, "rating": null, "neighborhood": null, "image": null, "scorecard": null, "featured": false, "sample_categories": "Restaurants, Japanese", "public_id": "takeya-japanese-steak-sushi-woodstock", "id": 732185290, "votes": null, "tagline": null, "has_video": false, "website": null, "offers": null, "latitude": 34.129895, "politanName": "Atlanta, GA Metro ", "phone_number": "6784455599", "tags": [{"primary": false, "id": 11202, "name": "Japanese"}, {"primary": true, "id": 1722, "name": "Restaurants"}], "fax_number": null, "expansion": {"count": null, "uri": null}, "impression_id": "000b000000010b072da82a4023aca6386a0a15cfca", "profile": "http://www.citysearch.com/profile/732185290/woodstock_ga/takeya_japanese_steak_sushi.html", "address": {"city": "Woodstock", "state": "GA", "street": "6242 Old Highway 5", "postal_code": "30188"}, "capProviderId": null, "distance": null, "has_offers": false, "name": "Takeya Japanese Steak & Sushi", "longitude": -84.497801, "has_menu": false, "awards": null, "user_review_count": 0}, {"business_operation_status": 1, "rating": null, "neighborhood": null, "image": null, "scorecard": null, "featured": false, "sample_categories": "Restaurants, Ice Cream Parlors, Carry Out", "public_id": "churchs-chicken-marietta-6", "id": 812139520, "votes": null, "tagline": null, "has_video": false, "website": null, "offers": null, "latitude": 33.95153, "politanName": "Atlanta, GA Metro ", "phone_number": "7704228166", "tags": [{"primary": false, "id": 1730, "name": "Ice Cream Parlors"}, {"primary": false, "id": 11247, "name": "Carry Out"}, {"primary": true, "id": 1722, "name": "Restaurants"}], "fax_number": null, "expansion": {"count": null, "uri": null}, "impression_id": "000b000000e498b3a5cc704193a554e2c723ceeb3a", "profile": "http://www.citysearch.com/profile/812139520/marietta_ga/church_s_chicken.html", "address": {"city": "Marietta", "state": "GA", "street": "23 Powder Springs St", "postal_code": "30064"}, "capProviderId": null, "distance": null, "has_offers": false, "name": "Church's Chicken", "longitude": -84.550217, "has_menu": false, "awards": null, "user_review_count": 0}, {"business_operation_status": 1, "rating": 6.0, "neighborhood": null, "image": null, "scorecard": null, "featured": false, "sample_categories": "Restaurants", "public_id": "back-porch-of-marietta-marietta", "id": 37646043, "votes": null, "tagline": null, "has_video": false, "website": "http://www.citysearch.com/profile/external/37646043/marietta_ga/back_porch_of_marietta.html", "offers": null, "latitude": 33.951281, "politanName": "Atlanta, GA Metro ", "phone_number": "7707926666", "tags": [{"primary": true, "id": 1722, "name": "Restaurants"}], "fax_number": null, "expansion": {"count": null, "uri": null}, "impression_id": "000b000000f6c54dcdccef42a9bd59947e77902bf4", "profile": "http://www.citysearch.com/profile/37646043/marietta_ga/back_porch_of_marietta.html", "address": {"city": "Marietta", "state": "GA", "street": "645 Whitlock Ave SW", "postal_code": "30064"}, "capProviderId": null, "distance": null, "has_offers": false, "name": "Back Porch Of Marietta", "longitude": -84.571275, "has_menu": false, "awards": null, "user_review_count": 1}, {"business_operation_status": 1, "rating": null, "neighborhood": null, "image": null, "scorecard": null, "featured": false, "sample_categories": "Restaurants", "public_id": "planet-smoothie-marietta-3", "id": 37646124, "votes": null, "tagline": null, "has_video": false, "website": null, "offers": null, "latitude": 34.030276, "politanName": "Atlanta, GA Metro ", "phone_number": "7705786970", "tags": [{"primary": true, "id": 1722, "name": "Restaurants"}], "fax_number": null, "expansion": {"count": null, "uri": null}, "impression_id": "000b0000006cb69befce7549c6897c4d194b39f470", "profile": "http://www.citysearch.com/profile/37646124/marietta_ga/planet_smoothie.html", "address": {"city": "Marietta", "state": "GA", "street": "3300 Lynhurst Dr", "postal_code": "30062"}, "capProviderId": null, "distance": null, "has_offers": false, "name": "Planet Smoothie", "longitude": -84.440104, "has_menu": true, "awards": null, "user_review_count": 0}, {"business_operation_status": 1, "rating": null, "neighborhood": null, "image": null, "scorecard": null, "featured": false, "sample_categories": "Restaurants, Pizza", "public_id": "rickashaz-pizzeria-acworth", "id": 764905940, "votes": null, "tagline": null, "has_video": false, "website": null, "offers": null, "latitude": 34.073721, "politanName": "Atlanta, GA Metro ", "phone_number": "7709667258", "tags": [{"primary": false, "id": 11299, "name": "Pizza"}, {"primary": true, "id": 1722, "name": "Restaurants"}], "fax_number": null, "expansion": {"count": null, "uri": null}, "impression_id": "000b000000cf756380cf00463e86a13015f6de80f1", "profile": "http://www.citysearch.com/profile/764905940/acworth_ga/rickashaz_pizzeria.html", "address": {"city": "Acworth", "state": "GA", "street": "1824 Lightwood Ln NW", "postal_code": "30102"}, "capProviderId": null, "distance": null, "has_offers": false, "name": "Rickashaz Pizzeria", "longitude": -84.604165, "has_menu": false, "awards": null, "user_review_count": 0}, {"business_operation_status": 1, "rating": null, "neighborhood": null, "image": null, "scorecard": null, "featured": false, "sample_categories": "Restaurants, Bars & Pubs", "public_id": "breaking-point-sports-bar-marietta", "id": 764906570, "votes": null, "tagline": null, "has_video": false, "website": null, "offers": null, "latitude": 33.936757, "politanName": "Atlanta, GA Metro ", "phone_number": "7704264199", "tags": [{"primary": false, "id": 1686, "name": "Bars & Pubs"}, {"primary": true, "id": 1722, "name": "Restaurants"}], "fax_number": null, "expansion": {"count": null, "uri": null}, "impression_id": "000b000000d0ea5ea8f7414d6bb1d02cece243743e", "profile": "http://www.citysearch.com/profile/764906570/marietta_ga/breaking_point_sports_bar.html", "address": {"city": "Marietta", "state": "GA", "street": "680 Powder Springs St", "postal_code": "30064"}, "capProviderId": null, "distance": null, "has_offers": false, "name": "Breaking Point Sports Bar", "longitude": -84.557357, "has_menu": false, "awards": null, "user_review_count": 0}, {"business_operation_status": 1, "rating": null, "neighborhood": null, "image": null, "scorecard": null, "featured": false, "sample_categories": "Restaurants, Pizza", "public_id": "pizza-wings-factory-acworth", "id": 790619080, "votes": null, "tagline": null, "has_video": false, "website": null, "offers": null, "latitude": 34.063964, "politanName": "Atlanta, GA Metro ", "phone_number": "6785747554", "tags": [{"primary": false, "id": 1722, "name": "Restaurants"}, {"primary": true, "id": 11299, "name": "Pizza"}], "fax_number": null, "expansion": {"count": null, "uri": null}, "impression_id": "000b0000007d51d83d566f4befbe5f4f12ad801afd", "profile": "http://www.citysearch.com/profile/790619080/acworth_ga/pizza_wings_factory.html", "address": {"city": "Acworth", "state": "GA", "street": "4628 S Main St", "postal_code": "30101"}, "capProviderId": null, "distance": null, "has_offers": false, "name": "Pizza & Wings Factory", "longitude": -84.671776, "has_menu": false, "awards": null, "user_review_count": 0}, {"business_operation_status": 1, "rating": null, "neighborhood": null, "image": null, "scorecard": null, "featured": false, "sample_categories": "Restaurants, Pizza", "public_id": "gondolier-pizza-italian-restaurant-woodstock", "id": 808982050, "votes": null, "tagline": null, "has_video": false, "website": null, "offers": null, "latitude": 34.111672, "politanName": "Atlanta, GA Metro ", "phone_number": "7704191141", "tags": [{"primary": false, "id": 1722, "name": "Restaurants"}, {"primary": true, "id": 11299, "name": "Pizza"}], "fax_number": null, "expansion": {"count": null, "uri": null}, "impression_id": "000b000000643611da13ea46ea8a041e25045e2248", "profile": "http://www.citysearch.com/profile/808982050/woodstock_ga/gondolier_pizza_italian_restaurant.html", "address": {"city": "Woodstock", "state": "GA", "street": "601 Torree Cv", "postal_code": "30189"}, "capProviderId": null, "distance": null, "has_offers": false, "name": "Gondolier Pizza Italian Restaurant", "longitude": -84.544556, "has_menu": false, "awards": null, "user_review_count": 0}, {"business_operation_status": 1, "rating": null, "neighborhood": null, "image": null, "scorecard": null, "featured": false, "sample_categories": "Restaurants, Carry Out, Hamburgers, American Express, Discover", "public_id": "krystal-marietta-3", "id": 43852561, "votes": null, "tagline": null, "has_video": false, "website": "http://www.citysearch.com/profile/external/43852561/marietta_ga/krystal.html", "offers": null, "latitude": 33.944405, "politanName": "Atlanta, GA Metro ", "phone_number": "7707929020", "tags": [{"primary": false, "id": 11247, "name": "Carry Out"}, {"primary": false, "id": 11270, "name": "Hamburgers"}, {"primary": false, "id": 11333, "name": "American Express"}, {"primary": false, "id": 11349, "name": "Discover"}, {"primary": false, "id": 11361, "name": "MasterCard"}, {"primary": false, "id": 11382, "name": "Visa"}, {"primary": true, "id": 1722, "name": "Restaurants"}], "fax_number": null, "expansion": {"count": null, "uri": null}, "impression_id": "000b0000005ea15b909d9045e0b3e6871a689903f9", "profile": "http://www.citysearch.com/profile/43852561/marietta_ga/krystal.html", "address": {"city": "Marietta", "state": "GA", "street": "3520 Ernest W Barrett Pkwy SW", "postal_code": "30064"}, "capProviderId": null, "distance": null, "has_offers": false, "name": "Krystal", "longitude": -84.624735, "has_menu": true, "awards": null, "user_review_count": 0}, {"business_operation_status": 0, "rating": null, "neighborhood": null, "image": null, "scorecard": null, "featured": false, "sample_categories": "Restaurants", "public_id": "vegetable-seafood-restaurant-woodstock", "id": 43858123, "votes": null, "tagline": null, "has_video": false, "website": null, "offers": null, "latitude": 34.085114, "politanName": "Atlanta, GA Metro ", "phone_number": "6784940828", "tags": [{"primary": true, "id": 1722, "name": "Restaurants"}], "fax_number": null, "expansion": {"count": null, "uri": null}, "impression_id": "000b00000019db22e681824c0eaf523bb1d05a6264", "profile": "http://www.citysearch.com/profile/43858123/woodstock_ga/vegetable_seafood_restaurant.html", "address": {"city": "Woodstock", "state": "GA", "street": "6789 Highway 92", "postal_code": "30189"}, "capProviderId": null, "distance": null, "has_offers": false, "name": "Vegetable Seafood Restaurant", "longitude": -84.553927, "has_menu": false, "awards": null, "user_review_count": 0}, {"business_operation_status": 1, "rating": null, "neighborhood": null, "image": null, "scorecard": null, "featured": false, "sample_categories": "Restaurants", "public_id": "vito-goldbergs-marietta", "id": 814374650, "votes": null, "tagline": null, "has_video": false, "website": "http://www.citysearch.com/profile/external/814374650/marietta_ga/vito_goldberg_s.html", "offers": null, "latitude": 33.951001, "politanName": "Atlanta, GA Metro ", "phone_number": "7707958631", "tags": [{"primary": true, "id": 1722, "name": "Restaurants"}], "fax_number": null, "expansion": {"count": null, "uri": null}, "impression_id": "000b00000085db9ddbbe5742e9b49556286d4bc4d0", "profile": "http://www.citysearch.com/profile/814374650/marietta_ga/vito_goldberg_s.html", "address": {"city": "Marietta", "state": "GA", "street": "999 Whitlock Ave SW", "postal_code": "30064"}, "capProviderId": null, "distance": null, "has_offers": false, "name": "Vito Goldberg's", "longitude": -84.57917, "has_menu": false, "awards": null, "user_review_count": 0}, {"business_operation_status": 1, "rating": null, "neighborhood": null, "image": null, "scorecard": null, "featured": false, "sample_categories": "Catering, Restaurants, Sandwich Shops, Ham, Pork", "public_id": "honeybaked-ham-marietta-2", "id": 45112957, "votes": null, "tagline": null, "has_video": false, "website": "http://www.citysearch.com/profile/external/45112957/marietta_ga/honeybaked_ham.html", "offers": null, "latitude": 33.944997, "politanName": "Atlanta, GA Metro ", "phone_number": "7707950196", "tags": [{"primary": false, "id": 1705, "name": "Catering"}, {"primary": false, "id": 1722, "name": "Restaurants"}, {"primary": false, "id": 1736, "name": "Sandwich Shops"}, {"primary": false, "id": 11125, "name": "Pork"}, {"primary": false, "id": 11333, "name": "American Express"}, {"primary": false, "id": 11347, "name": "Debit Card"}, {"primary": false, "id": 11349, "name": "Discover"}, {"primary": false, "id": 11361, "name": "MasterCard"}, {"primary": false, "id": 11382, "name": "Visa"}, {"primary": true, "id": 11124, "name": "Ham"}], "fax_number": null, "expansion": {"count": null, "uri": null}, "impression_id": "000b00000012c7e5110778475193508ed86aa8216d", "profile": "http://www.citysearch.com/profile/45112957/marietta_ga/honeybaked_ham.html", "address": {"city": "Marietta", "state": "GA", "street": "3405 Dallas Hwy SW 408", "postal_code": "30064"}, "capProviderId": null, "distance": null, "has_offers": false, "name": "Honeybaked Ham", "longitude": -84.623325, "has_menu": true, "awards": null, "user_review_count": 0}, {"business_operation_status": 1, "rating": null, "neighborhood": null, "image": null, "scorecard": null, "featured": false, "sample_categories": "Restaurants, Chinese", "public_id": "china-barn-marietta", "id": 45550258, "votes": null, "tagline": null, "has_video": false, "website": null, "offers": null, "latitude": 34.032335, "politanName": "Atlanta, GA Metro ", "phone_number": "7705164541", "tags": [{"primary": false, "id": 11252, "name": "Chinese"}, {"primary": true, "id": 1722, "name": "Restaurants"}], "fax_number": null, "expansion": {"count": null, "uri": null}, "impression_id": "000b00000097660680a16d4b3ea4be624d477218f3", "profile": "http://www.citysearch.com/profile/45550258/marietta_ga/china_barn.html", "address": {"city": "Marietta", "state": "GA", "street": "886 Blackwell Rd", "postal_code": "30066"}, "capProviderId": null, "distance": null, "has_offers": false, "name": "China Barn", "longitude": -84.525558, "has_menu": false, "awards": null, "user_review_count": 0}, {"business_operation_status": 1, "rating": null, "neighborhood": null, "image": null, "scorecard": null, "featured": false, "sample_categories": "Restaurants", "public_id": "ernies-steakhouse-acworth", "id": 823081000, "votes": null, "tagline": null, "has_video": false, "website": null, "offers": null, "latitude": 34.03595, "politanName": "Atlanta, GA Metro ", "phone_number": "7709746186", "tags": [{"primary": true, "id": 1722, "name": "Restaurants"}], "fax_number": null, "expansion": {"count": null, "uri": null}, "impression_id": "000b000000950cc70b2d2a40768036b3970d48f46c", "profile": "http://www.citysearch.com/profile/823081000/acworth_ga/ernies_steakhouse.html", "address": {"city": "Acworth", "state": "GA", "street": "3330 Cobb Pkwy NW # 100", "postal_code": "30101"}, "capProviderId": null, "distance": null, "has_offers": false, "name": "Ernies Steakhouse", "longitude": -84.676991, "has_menu": false, "awards": null, "user_review_count": 0}, {"business_operation_status": 1, "rating": 8.0, "neighborhood": null, "image": null, "scorecard": null, "featured": false, "sample_categories": "Restaurants", "public_id": "folks-restaurant-woodstock-woodstock", "id": 2964178, "votes": null, "tagline": null, "has_video": false, "website": null, "offers": null, "latitude": 34.091839, "politanName": "Atlanta, GA Metro ", "phone_number": "7705160308", "tags": [{"primary": true, "id": 1722, "name": "Restaurants"}], "fax_number": null, "expansion": {"count": null, "uri": null}, "impression_id": "000b0000003d26d415c0034ce2ae2fb806b94fd3c4", "profile": "http://www.citysearch.com/profile/2964178/woodstock_ga/folks_restaurant_woodstock.html", "address": {"city": "Woodstock", "state": "GA", "street": "180 Parkway 575 Ste 100", "postal_code": "30188"}, "capProviderId": null, "distance": null, "has_offers": false, "name": "Folks Restaurant Woodstock", "longitude": -84.531482, "has_menu": false, "awards": null, "user_review_count": 0}, {"business_operation_status": 1, "rating": null, "neighborhood": null, "image": null, "scorecard": null, "featured": false, "sample_categories": "Restaurants", "public_id": "roadside-cafe-marietta", "id": 809569360, "votes": null, "tagline": null, "has_video": false, "website": null, "offers": null, "latitude": 33.973353, "politanName": "Atlanta, GA Metro ", "phone_number": "6782908551", "tags": [{"primary": true, "id": 1722, "name": "Restaurants"}], "fax_number": null, "expansion": {"count": null, "uri": null}, "impression_id": "000b0000001cfdaaf443234a35815d618001b1de54", "profile": "http://www.citysearch.com/profile/809569360/marietta_ga/roadside_cafe.html", "address": {"city": "Marietta", "state": "GA", "street": "915 Cobb Pkwy N", "postal_code": "30062"}, "capProviderId": null, "distance": null, "has_offers": false, "name": "Roadside Cafe", "longitude": -84.54318, "has_menu": false, "awards": null, "user_review_count": 0}], "histograms": [], "tag_ids": [1722], "uri": "http://api.citygridmedia.com:8080/search/places/v2/search/where?has_offers=false&type=restaurant&format=json&page=22&where=30144&rpp=50&histograms=false&publisher=10000009598&region_type=circle", "did_you_mean": "", "regions": [{"latitude": 34.037076, "default_radius": 4.72, "type": "postal_code", "name": "30144", "longitude": -84.591034}], "call_id": "000b0000000a1c9620fefa4776923ed92d50f0ae39", "first_hit": 1051, "total_hits": 1696, "geo_ids": [26310], "page": 22, "last_hit": 1100}}