{"results": {"rpp": 50, "locations": [{"business_operation_status": 1, "rating": 6.0, "neighborhood": null, "image": null, "scorecard": null, "featured": false, "sample_categories": "Restaurants, Pizza", "public_id": "uncle-kennys-pizza-subs-woodstock", "id": 2965392, "votes": null, "tagline": null, "has_video": false, "website": null, "offers": null, "latitude": 34.130884, "politanName": "Atlanta, GA Metro ", "phone_number": "7705911119", "tags": [{"primary": false, "id": 1722, "name": "Restaurants"}, {"primary": true, "id": 11299, "name": "Pizza"}], "fax_number": null, "expansion": {"count": null, "uri": null}, "impression_id": "000b000000ddf29ff462be4d5ca4d8630e1daa5483", "profile": "http://www.citysearch.com/profile/2965392/woodstock_ga/uncle_kennys_pizza_subs.html", "address": {"city": "Woodstock", "state": "GA", "street": "6687 Bells Ferry Rd", "postal_code": "30189"}, "capProviderId": null, "distance": null, "has_offers": false, "name": "Uncle Kennys Pizza & Subs", "longitude": -84.586697, "has_menu": false, "awards": null, "user_review_count": 0}, {"business_operation_status": 0, "rating": null, "neighborhood": null, "image": null, "scorecard": null, "featured": false, "sample_categories": "Restaurants", "public_id": "scooters-kennesaw", "id": 632003970, "votes": null, "tagline": null, "has_video": false, "website": null, "offers": null, "latitude": 34.004435, "politanName": "Atlanta, GA Metro ", "phone_number": "7709179909", "tags": [{"primary": true, "id": 1722, "name": "Restaurants"}], "fax_number": null, "expansion": {"count": null, "uri": null}, "impression_id": "000b00000028447df6224b4d8cadc4600af9e1e98b", "profile": "http://www.citysearch.com/profile/632003970/kennesaw_ga/scooter_s.html", "address": {"city": "Kennesaw", "state": "GA", "street": "3161 Cobb Pkwy Nw", "postal_code": "30152"}, "capProviderId": null, "distance": null, "has_offers": false, "name": "Scooter's", "longitude": -84.612627, "has_menu": false, "awards": null, "user_review_count": 0}, {"business_operation_status": 1, "rating": null, "neighborhood": null, "image": null, "scorecard": null, "featured": false, "sample_categories": "Restaurants, Bars & Clubs, Bars & Pubs, General Government Offices, Traditional American", "public_id": "pub-marietta", "id": 764931910, "votes": null, "tagline": null, "has_video": false, "website": null, "offers": null, "latitude": 33.943645, "politanName": "Atlanta, GA Metro ", "phone_number": "7704272500", "tags": [{"primary": false, "id": 1722, "name": "Restaurants"}, {"primary": false, "id": 164, "name": "Bars & Clubs"}, {"primary": false, "id": 1686, "name": "Bars & Pubs"}, {"primary": false, "id": 1756, "name": "General Government Offices"}, {"primary": false, "id": 11190, "name": "Traditional American"}, {"primary": false, "id": 12736, "name": "Wedding Supplies"}], "fax_number": null, "expansion": {"count": null, "uri": null}, "impression_id": "000b000000747e447a90fa4e7e87e5707c46e5c17b", "profile": "http://www.citysearch.com/profile/764931910/marietta_ga/pub.html", "address": {"city": "Marietta", "state": "GA", "street": "500 Powder Springs St", "postal_code": "30064"}, "capProviderId": null, "distance": null, "has_offers": false, "name": "Pub", "longitude": -84.552498, "has_menu": true, "awards": null, "user_review_count": 0}, {"business_operation_status": 1, "rating": null, "neighborhood": null, "image": null, "scorecard": null, "featured": false, "sample_categories": "Restaurants", "public_id": "tme-enterprises-i-ltd-marietta-2", "id": 787135780, "votes": null, "tagline": null, "has_video": false, "website": null, "offers": null, "latitude": 33.968654, "politanName": "Atlanta, GA Metro ", "phone_number": "7705652051", "tags": [{"primary": true, "id": 1722, "name": "Restaurants"}], "fax_number": null, "expansion": {"count": null, "uri": null}, "impression_id": "000b000000aefd1880517e411683cab8ec8c69dbfa", "profile": "http://www.citysearch.com/profile/787135780/marietta_ga/tme_enterprises_i_ltd.html", "address": {"city": "Marietta", "state": "GA", "street": "2169 Roswell Rd", "postal_code": "30062"}, "capProviderId": null, "distance": null, "has_offers": false, "name": "Tme Enterprises I LTD", "longitude": -84.48981, "has_menu": false, "awards": null, "user_review_count": 0}, {"business_operation_status": 1, "rating": 7.0, "neighborhood": null, "image": null, "scorecard": null, "featured": false, "sample_categories": "Restaurants, Family-Friendly Dining", "public_id": "fowl-play-cafe-kennesaw", "id": 2957534, "votes": null, "tagline": null, "has_video": false, "website": null, "offers": null, "latitude": 34.004435, "politanName": "Atlanta, GA Metro ", "phone_number": "7709669686", "tags": [{"primary": false, "id": 11263, "name": "Family-Friendly Dining"}, {"primary": true, "id": 1722, "name": "Restaurants"}], "fax_number": null, "expansion": {"count": null, "uri": null}, "impression_id": "000b0000002b4166f25b2940069f221d58320f796f", "profile": "http://www.citysearch.com/profile/2957534/kennesaw_ga/fowl_play_cafe.html", "address": {"city": "Kennesaw", "state": "GA", "street": "3161 Cobb Pkwy NW Ste 410", "postal_code": "30152"}, "capProviderId": null, "distance": null, "has_offers": false, "name": "Fowl Play Cafe", "longitude": -84.612627, "has_menu": false, "awards": null, "user_review_count": 0}, {"business_operation_status": 1, "rating": null, "neighborhood": null, "image": null, "scorecard": null, "featured": false, "sample_categories": "Restaurants, Catering, Delis And Delicatessens, Sandwich Shops, Carry Out", "public_id": "blimpie-subs-salads-cartersville", "id": 777810100, "votes": null, "tagline": null, "has_video": false, "website": "http://www.citysearch.com/profile/external/777810100/cartersville_ga/blimpie_subs_salads.html", "offers": null, "latitude": 34.082722, "politanName": "Atlanta, GA Metro ", "phone_number": "7703871440", "tags": [{"primary": false, "id": 1705, "name": "Catering"}, {"primary": false, "id": 1727, "name": "Delis And Delicatessens"}, {"primary": false, "id": 1736, "name": "Sandwich Shops"}, {"primary": false, "id": 11247, "name": "Carry Out"}, {"primary": true, "id": 1722, "name": "Restaurants"}], "fax_number": null, "expansion": {"count": null, "uri": null}, "impression_id": "000b000000bb30dfb35eee478bb166f82be1762713", "profile": "http://www.citysearch.com/profile/777810100/cartersville_ga/blimpie_subs_salads.html", "address": {"city": "Cartersville", "state": "GA", "street": "921 Joe Frank Harris Pky Se #a", "postal_code": "30120"}, "capProviderId": null, "distance": null, "has_offers": false, "name": "Blimpie Subs & Salads", "longitude": -84.731632, "has_menu": true, "awards": null, "user_review_count": 0}, {"business_operation_status": 1, "rating": null, "neighborhood": null, "image": null, "scorecard": null, "featured": false, "sample_categories": "Restaurants, Pizza, Carry Out, American Express, Discover", "public_id": "papa-johns-pizza-powder-2", "id": 707383910, "votes": null, "tagline": null, "has_video": false, "website": null, "offers": null, "latitude": 33.940822, "politanName": "Atlanta, GA Metro ", "phone_number": "7705141444", "tags": [{"primary": false, "id": 1722, "name": "Restaurants"}, {"primary": false, "id": 11247, "name": "Carry Out"}, {"primary": false, "id": 11333, "name": "American Express"}, {"primary": false, "id": 11349, "name": "Discover"}, {"primary": false, "id": 11361, "name": "MasterCard"}, {"primary": false, "id": 11382, "name": "Visa"}, {"primary": true, "id": 11299, "name": "Pizza"}], "fax_number": null, "expansion": {"count": null, "uri": null}, "impression_id": "000b00000097afd9e781a247fba664a37d11ffaf09", "profile": "http://www.citysearch.com/profile/707383910/powder_springs_ga/papa_john_s_pizza.html", "address": {"city": "Powder Springs", "state": "GA", "street": "5100 Dallas Hwy Ste 330", "postal_code": "30127"}, "capProviderId": null, "distance": null, "has_offers": false, "name": "Papa John's Pizza", "longitude": -84.703029, "has_menu": false, "awards": null, "user_review_count": 0}, {"business_operation_status": 1, "rating": null, "neighborhood": null, "image": null, "scorecard": null, "featured": false, "sample_categories": "Ice Cream Parlors", "public_id": "yogurt-fresco-acworth", "id": 713649060, "votes": null, "tagline": null, "has_video": false, "website": null, "offers": null, "latitude": 33.998646, "politanName": "Atlanta, GA Metro ", "phone_number": "7704227979", "tags": [{"primary": true, "id": 1730, "name": "Ice Cream Parlors"}], "fax_number": null, "expansion": {"count": null, "uri": null}, "impression_id": "000b000000c748e28da357447ba6f9057c98938ff4", "profile": "http://www.citysearch.com/profile/713649060/acworth_ga/yogurt_fresco.html", "address": {"city": "Acworth", "state": "GA", "street": "5340 Brookstone Dr NW", "postal_code": "30101"}, "capProviderId": null, "distance": null, "has_offers": false, "name": "Yogurt Fresco", "longitude": -84.707915, "has_menu": false, "awards": null, "user_review_count": 0}, {"business_operation_status": 1, "rating": null, "neighborhood": null, "image": null, "scorecard": null, "featured": false, "sample_categories": "Coffeehouses", "public_id": "main-street-coffee-wine-bar-acworth", "id": 611266694, "votes": null, "tagline": null, "has_video": false, "website": null, "offers": null, "latitude": 34.066772, "politanName": "Atlanta, GA Metro ", "phone_number": "6786953667", "tags": [{"primary": true, "id": 1726, "name": "Coffeehouses"}], "fax_number": null, "expansion": {"count": null, "uri": null}, "impression_id": "000b0000006082be6e19034daf86b188d9cb760711", "profile": "http://www.citysearch.com/profile/611266694/acworth_ga/main_street_coffee_wine_bar.html", "address": {"city": "Acworth", "state": "GA", "street": "4843 N Main St", "postal_code": "30101"}, "capProviderId": null, "distance": null, "has_offers": false, "name": "Main Street Coffee & Wine Bar", "longitude": -84.67914, "has_menu": false, "awards": null, "user_review_count": 0}, {"business_operation_status": 1, "rating": null, "neighborhood": null, "image": null, "scorecard": null, "featured": false, "sample_categories": "Restaurants, Bars & Clubs", "public_id": "ronnie-johns-beach-cafe-marietta", "id": 732176830, "votes": null, "tagline": null, "has_video": false, "website": "http://www.citysearch.com/profile/external/732176830/marietta_ga/ronnie_johns_beach_cafe.html", "offers": null, "latitude": 33.997727, "politanName": "Atlanta, GA Metro ", "phone_number": "7703565251", "tags": [{"primary": false, "id": 164, "name": "Bars & Clubs"}, {"primary": true, "id": 1722, "name": "Restaurants"}], "fax_number": null, "expansion": {"count": null, "uri": null}, "impression_id": "000b000000ccd80db9a05d48bfaf42219a1297eff5", "profile": "http://www.citysearch.com/profile/732176830/marietta_ga/ronnie_johns_beach_cafe.html", "address": {"city": "Marietta", "state": "GA", "street": "1951 Canton Rd # 330", "postal_code": "30066"}, "capProviderId": null, "distance": null, "has_offers": false, "name": "Ronnie Johns Beach Cafe", "longitude": -84.525055, "has_menu": false, "awards": null, "user_review_count": 0}, {"business_operation_status": 1, "rating": null, "neighborhood": null, "image": null, "scorecard": null, "featured": false, "sample_categories": "Restaurants, Barbecue Restaurants", "public_id": "dickeys-barbecue-pit-kennesaw", "id": 732187360, "votes": null, "tagline": null, "has_video": false, "website": "http://www.citysearch.com/profile/external/732187360/kennesaw_ga/dickey_s_barbecue_pit.html", "offers": null, "latitude": 33.994278, "politanName": "Atlanta, GA Metro ", "phone_number": "7704277655", "tags": [{"primary": false, "id": 1724, "name": "Barbecue Restaurants"}, {"primary": true, "id": 1722, "name": "Restaurants"}], "fax_number": null, "expansion": {"count": null, "uri": null}, "impression_id": "000b000000bd81edc5488d4563a432a26edcb69874", "profile": "http://www.citysearch.com/profile/732187360/kennesaw_ga/dickey_s_barbecue_pit.html", "address": {"city": "Kennesaw", "state": "GA", "street": "1610 Ridenour Blvd NW", "postal_code": "30152"}, "capProviderId": null, "distance": null, "has_offers": false, "name": "Dickey's Barbecue Pit", "longitude": -84.592498, "has_menu": true, "awards": null, "user_review_count": 0}, {"business_operation_status": 1, "rating": null, "neighborhood": null, "image": null, "scorecard": null, "featured": false, "sample_categories": "Pubs, Bars & Clubs, Bars & Pubs, Restaurants", "public_id": "center-street-tavern-acworth", "id": 732185820, "votes": null, "tagline": null, "has_video": false, "website": null, "offers": null, "latitude": 34.065933, "politanName": "Atlanta, GA Metro ", "phone_number": "7709170004", "tags": [{"primary": false, "id": 164, "name": "Bars & Clubs"}, {"primary": false, "id": 1686, "name": "Bars & Pubs"}, {"primary": false, "id": 1722, "name": "Restaurants"}, {"primary": true, "id": 1687, "name": "Pubs"}], "fax_number": null, "expansion": {"count": null, "uri": null}, "impression_id": "000b000000c8924e88febb4da4996905db20768372", "profile": "http://www.citysearch.com/profile/732185820/acworth_ga/center_street_tavern.html", "address": {"city": "Acworth", "state": "GA", "street": "4381 Senator Richard B Russell Sq", "postal_code": "30101"}, "capProviderId": null, "distance": null, "has_offers": false, "name": "Center Street Tavern", "longitude": -84.67688, "has_menu": false, "awards": null, "user_review_count": 0}, {"business_operation_status": 1, "rating": null, "neighborhood": null, "image": null, "scorecard": null, "featured": false, "sample_categories": "Restaurants, Carry Out", "public_id": "checkers-drivein-restaurant-woodstock-2", "id": 764848750, "votes": null, "tagline": null, "has_video": false, "website": null, "offers": null, "latitude": 34.086684, "politanName": "Atlanta, GA Metro ", "phone_number": "4045161595", "tags": [{"primary": false, "id": 11247, "name": "Carry Out"}, {"primary": true, "id": 1722, "name": "Restaurants"}], "fax_number": null, "expansion": {"count": null, "uri": null}, "impression_id": "000b000000fa6e9965facb452d90c05d79c3f6974d", "profile": "http://www.citysearch.com/profile/764848750/woodstock_ga/checkers_drive_in_restaurant.html", "address": {"city": "Woodstock", "state": "GA", "street": "6970 E Alabama", "postal_code": "30188"}, "capProviderId": null, "distance": null, "has_offers": false, "name": "Checkers Drive-In Restaurant", "longitude": -84.571911, "has_menu": false, "awards": null, "user_review_count": 0}, {"business_operation_status": 1, "rating": null, "neighborhood": null, "image": null, "scorecard": null, "featured": false, "sample_categories": "Restaurants, Delis And Delicatessens, Sandwich Shops, Carry Out", "public_id": "blimpie-subs-salads-woodstock-3", "id": 764855860, "votes": null, "tagline": null, "has_video": false, "website": null, "offers": null, "latitude": 34.108546, "politanName": "Atlanta, GA Metro ", "phone_number": "7705162231", "tags": [{"primary": false, "id": 1727, "name": "Delis And Delicatessens"}, {"primary": false, "id": 1736, "name": "Sandwich Shops"}, {"primary": false, "id": 11247, "name": "Carry Out"}, {"primary": true, "id": 1722, "name": "Restaurants"}], "fax_number": null, "expansion": {"count": null, "uri": null}, "impression_id": "000b00000085a6dbd678c544c8876b3c6c8c79f32c", "profile": "http://www.citysearch.com/profile/764855860/woodstock_ga/blimpie_subs_salads.html", "address": {"city": "Woodstock", "state": "GA", "street": "2045 Towne Lake Pkwy # 110", "postal_code": "30189"}, "capProviderId": null, "distance": null, "has_offers": false, "name": "Blimpie Subs & Salads", "longitude": -84.552291, "has_menu": true, "awards": null, "user_review_count": 0}, {"business_operation_status": 1, "rating": null, "neighborhood": null, "image": null, "scorecard": null, "featured": false, "sample_categories": "Doughnut Shops", "public_id": "paradise-donuts-of-ga-llc-dallas", "id": 764878810, "votes": null, "tagline": null, "has_video": false, "website": "http://www.citysearch.com/profile/external/764878810/dallas_ga/paradise_donuts_of_ga_llc.html", "offers": null, "latitude": 34.002114, "politanName": "Atlanta, GA Metro ", "phone_number": "7709668977", "tags": [{"primary": true, "id": 1734, "name": "Doughnut Shops"}], "fax_number": null, "expansion": {"count": null, "uri": null}, "impression_id": "000b000000457113023fbc4a18b70144712efb1a7e", "profile": "http://www.citysearch.com/profile/764878810/dallas_ga/paradise_donuts_of_ga_llc.html", "address": {"city": "Dallas", "state": "GA", "street": "8492 Hiram Acworth Hwy", "postal_code": "30157"}, "capProviderId": null, "distance": null, "has_offers": false, "name": "Paradise Donuts of Ga LLC", "longitude": -84.751276, "has_menu": true, "awards": null, "user_review_count": 1}, {"business_operation_status": 1, "rating": null, "neighborhood": null, "image": null, "scorecard": null, "featured": false, "sample_categories": "Restaurants, Barbecue Restaurants", "public_id": "shanes-rib-shack-acworth", "id": 764895820, "votes": null, "tagline": null, "has_video": false, "website": "http://www.citysearch.com/profile/external/764895820/acworth_ga/shanes_rib_shack.html", "offers": null, "latitude": 34.036773, "politanName": "Atlanta, GA Metro ", "phone_number": "7705299742", "tags": [{"primary": false, "id": 1724, "name": "Barbecue Restaurants"}, {"primary": true, "id": 1722, "name": "Restaurants"}], "fax_number": null, "expansion": {"count": null, "uri": null}, "impression_id": "000b000000824273f19a35438489627c76e23a9e3f", "profile": "http://www.citysearch.com/profile/764895820/acworth_ga/shanes_rib_shack.html", "address": {"city": "Acworth", "state": "GA", "street": "3348 Cobb Pkwy NW # 100", "postal_code": "30101"}, "capProviderId": null, "distance": null, "has_offers": false, "name": "Shanes Rib Shack", "longitude": -84.68004, "has_menu": true, "awards": null, "user_review_count": 0}, {"business_operation_status": 1, "rating": null, "neighborhood": null, "image": null, "scorecard": null, "featured": false, "sample_categories": "Restaurants, Barbecue Restaurants, Carry Out, Pizza", "public_id": "wing-street-marietta", "id": 764937850, "votes": null, "tagline": null, "has_video": false, "website": "http://www.citysearch.com/profile/external/764937850/marietta_ga/wing_street.html", "offers": null, "latitude": 34.012753, "politanName": "Atlanta, GA Metro ", "phone_number": "7705784200", "tags": [{"primary": false, "id": 1724, "name": "Barbecue Restaurants"}, {"primary": false, "id": 11247, "name": "Carry Out"}, {"primary": false, "id": 11299, "name": "Pizza"}, {"primary": true, "id": 1722, "name": "Restaurants"}], "fax_number": null, "expansion": {"count": null, "uri": null}, "impression_id": "000b0000006af5695a24594b898a0af29608fbd7b9", "profile": "http://www.citysearch.com/profile/764937850/marietta_ga/wing_street.html", "address": {"city": "Marietta", "state": "GA", "street": "2565 E Piedmont Rd", "postal_code": "30062"}, "capProviderId": null, "distance": null, "has_offers": false, "name": "Wing Street", "longitude": -84.494027, "has_menu": false, "awards": null, "user_review_count": 0}, {"business_operation_status": 1, "rating": null, "neighborhood": null, "image": null, "scorecard": null, "featured": false, "sample_categories": "Restaurants, MasterCard, Visa", "public_id": "windy-city-grill-marietta", "id": 764935950, "votes": null, "tagline": null, "has_video": false, "website": "http://www.citysearch.com/profile/external/764935950/marietta_ga/windy_city_grill.html", "offers": null, "latitude": 34.048278, "politanName": "Atlanta, GA Metro ", "phone_number": "6784017735", "tags": [{"primary": false, "id": 11361, "name": "MasterCard"}, {"primary": false, "id": 11382, "name": "Visa"}, {"primary": true, "id": 1722, "name": "Restaurants"}], "fax_number": null, "expansion": {"count": null, "uri": null}, "impression_id": "000b0000005d1a52becb2646bf9f7c952567d250c7", "profile": "http://www.citysearch.com/profile/764935950/marietta_ga/windy_city_grill.html", "address": {"city": "Marietta", "state": "GA", "street": "4017 Canton Rd", "postal_code": "30066"}, "capProviderId": null, "distance": null, "has_offers": false, "name": "Windy City Grill", "longitude": -84.52851, "has_menu": false, "awards": null, "user_review_count": 0}, {"business_operation_status": 1, "rating": null, "neighborhood": null, "image": null, "scorecard": null, "featured": false, "sample_categories": "Restaurants, Traditional American", "public_id": "red-eyed-mule-marietta", "id": 655819920, "votes": null, "tagline": null, "has_video": false, "website": "http://www.citysearch.com/profile/external/655819920/marietta_ga/red_eyed_mule.html", "offers": null, "latitude": 33.974961, "politanName": "Atlanta, GA Metro ", "phone_number": "6788094546", "tags": [{"primary": false, "id": 11190, "name": "Traditional American"}, {"primary": true, "id": 1722, "name": "Restaurants"}], "fax_number": null, "expansion": {"count": null, "uri": null}, "impression_id": "000b0000009902d06b69cc4c1fac87c74bc4d7b6fd", "profile": "http://www.citysearch.com/profile/655819920/marietta_ga/red_eyed_mule.html", "address": {"city": "Marietta", "state": "GA", "street": "1405 Church Street Ext Ne", "postal_code": "30060"}, "capProviderId": null, "distance": null, "has_offers": false, "name": "Red Eyed Mule", "longitude": -84.552997, "has_menu": true, "awards": null, "user_review_count": 0}, {"business_operation_status": 1, "rating": null, "neighborhood": null, "image": null, "scorecard": null, "featured": false, "sample_categories": "Restaurants, Mexican", "public_id": "publanos-mexican-grill-acworth", "id": 655926840, "votes": null, "tagline": null, "has_video": false, "website": "http://www.citysearch.com/profile/external/655926840/acworth_ga/publanos_mexican_grill.html", "offers": null, "latitude": 34.036897, "politanName": "Atlanta, GA Metro ", "phone_number": "7709750993", "tags": [{"primary": false, "id": 11208, "name": "Mexican"}, {"primary": true, "id": 1722, "name": "Restaurants"}], "fax_number": null, "expansion": {"count": null, "uri": null}, "impression_id": "000b000000d6d343271219498aacab2d213389d8f2", "profile": "http://www.citysearch.com/profile/655926840/acworth_ga/publanos_mexican_grill.html", "address": {"city": "Acworth", "state": "GA", "street": "3344 Cobb Pkwy Nw", "postal_code": "30101"}, "capProviderId": null, "distance": null, "has_offers": false, "name": "Publanos Mexican Grill", "longitude": -84.67988, "has_menu": false, "awards": null, "user_review_count": 0}, {"business_operation_status": 0, "rating": null, "neighborhood": null, "image": null, "scorecard": null, "featured": false, "sample_categories": "Restaurants", "public_id": "montana-waffle-co-marietta", "id": 775224500, "votes": null, "tagline": null, "has_video": false, "website": null, "offers": null, "latitude": 33.972274, "politanName": "Atlanta, GA Metro ", "phone_number": "7702182707", "tags": [{"primary": true, "id": 1722, "name": "Restaurants"}], "fax_number": null, "expansion": {"count": null, "uri": null}, "impression_id": "000b000000f010b2ef36aa4c59beb6657c67a72e55", "profile": "http://www.citysearch.com/profile/775224500/marietta_ga/montana_waffle_co.html", "address": {"city": "Marietta", "state": "GA", "street": "140 Vann St NE", "postal_code": "30060"}, "capProviderId": null, "distance": null, "has_offers": false, "name": "Montana Waffle Co", "longitude": -84.548786, "has_menu": false, "awards": null, "user_review_count": 0}, {"business_operation_status": 1, "rating": null, "neighborhood": null, "image": null, "scorecard": null, "featured": false, "sample_categories": "Restaurants, Chinese", "public_id": "china-moon-marietta", "id": 777713620, "votes": null, "tagline": null, "has_video": false, "website": null, "offers": null, "latitude": 33.952602, "politanName": "Atlanta, GA Metro ", "phone_number": "6782752350", "tags": [{"primary": false, "id": 11252, "name": "Chinese"}, {"primary": true, "id": 1722, "name": "Restaurants"}], "fax_number": null, "expansion": {"count": null, "uri": null}, "impression_id": "000b0000002f78d2bfb41143f783695d84ab5a919d", "profile": "http://www.citysearch.com/profile/777713620/marietta_ga/china_moon.html", "address": {"city": "Marietta", "state": "GA", "street": "3960 Mary Eliza Trce NW", "postal_code": "30064"}, "capProviderId": null, "distance": null, "has_offers": false, "name": "China Moon", "longitude": -84.549933, "has_menu": false, "awards": null, "user_review_count": 0}, {"business_operation_status": 1, "rating": null, "neighborhood": null, "image": null, "scorecard": null, "featured": false, "sample_categories": "Restaurants, Mexican", "public_id": "jumping-beans-marietta", "id": 681338130, "votes": null, "tagline": null, "has_video": false, "website": null, "offers": null, "latitude": 33.951322, "politanName": "Atlanta, GA Metro ", "phone_number": "7704209092", "tags": [{"primary": false, "id": 11208, "name": "Mexican"}, {"primary": true, "id": 1722, "name": "Restaurants"}], "fax_number": null, "expansion": {"count": null, "uri": null}, "impression_id": "000b0000006457e78d85c9403380412d4cbc4a71bb", "profile": "http://www.citysearch.com/profile/681338130/marietta_ga/jumping_beans.html", "address": {"city": "Marietta", "state": "GA", "street": "749 Roswell St NE", "postal_code": "30060"}, "capProviderId": null, "distance": null, "has_offers": false, "name": "Jumping Beans", "longitude": -84.530069, "has_menu": false, "awards": null, "user_review_count": 0}, {"business_operation_status": 1, "rating": null, "neighborhood": null, "image": null, "scorecard": null, "featured": false, "sample_categories": "Restaurants, Bars & Clubs, American Express, Discover, MasterCard", "public_id": "hemingways-marietta", "id": 682627370, "votes": null, "tagline": null, "has_video": false, "website": "http://www.citysearch.com/profile/external/682627370/marietta_ga/hemingway_s.html", "offers": null, "latitude": 33.952683, "politanName": "Atlanta, GA Metro ", "phone_number": "7704275445", "tags": [{"primary": false, "id": 164, "name": "Bars & Clubs"}, {"primary": false, "id": 11333, "name": "American Express"}, {"primary": false, "id": 11349, "name": "Discover"}, {"primary": false, "id": 11361, "name": "MasterCard"}, {"primary": false, "id": 11382, "name": "Visa"}, {"primary": true, "id": 1722, "name": "Restaurants"}], "fax_number": null, "expansion": {"count": null, "uri": null}, "impression_id": "000b000000282be7b6f0ff423cb130a584388990a6", "profile": "http://www.citysearch.com/profile/682627370/marietta_ga/hemingway_s.html", "address": {"city": "Marietta", "state": "GA", "street": "29 W Park Sq Ne", "postal_code": "30060"}, "capProviderId": null, "distance": null, "has_offers": false, "name": "Hemingway's", "longitude": -84.550462, "has_menu": true, "awards": null, "user_review_count": 12}, {"business_operation_status": 1, "rating": null, "neighborhood": null, "image": null, "scorecard": null, "featured": false, "sample_categories": "Ice Cream Parlors", "public_id": "jimmies-ice-cream-co-marietta", "id": 802518500, "votes": null, "tagline": null, "has_video": false, "website": null, "offers": null, "latitude": 34.013992, "politanName": "Atlanta, GA Metro ", "phone_number": "7706720051", "tags": [{"primary": true, "id": 1730, "name": "Ice Cream Parlors"}], "fax_number": null, "expansion": {"count": null, "uri": null}, "impression_id": "000b00000036da514d9eb34c5081fd1809498c9476", "profile": "http://www.citysearch.com/profile/802518500/marietta_ga/jimmie_s_ice_cream_co.html", "address": {"city": "Marietta", "state": "GA", "street": "2595 Sandy Plains Rd", "postal_code": "30066"}, "capProviderId": null, "distance": null, "has_offers": false, "name": "Jimmie's Ice Cream Co", "longitude": -84.495703, "has_menu": false, "awards": null, "user_review_count": 0}, {"business_operation_status": 1, "rating": null, "neighborhood": null, "image": null, "scorecard": null, "featured": false, "sample_categories": "Restaurants", "public_id": "aramark-marietta-2", "id": 805946400, "votes": null, "tagline": null, "has_video": false, "website": null, "offers": null, "latitude": 33.984208, "politanName": "Atlanta, GA Metro ", "phone_number": "7705785577", "tags": [{"primary": true, "id": 1722, "name": "Restaurants"}], "fax_number": null, "expansion": {"count": null, "uri": null}, "impression_id": "000b0000003ea61d8c03c4465291148f2a6578b6b1", "profile": "http://www.citysearch.com/profile/805946400/marietta_ga/aramark.html", "address": {"city": "Marietta", "state": "GA", "street": "901 Sawyer Rd", "postal_code": "30062"}, "capProviderId": null, "distance": null, "has_offers": false, "name": "Aramark", "longitude": -84.529003, "has_menu": false, "awards": null, "user_review_count": 0}, {"business_operation_status": 1, "rating": null, "neighborhood": null, "image": null, "scorecard": null, "featured": false, "sample_categories": "Restaurants", "public_id": "all-atlanta-catering-marietta", "id": 732174150, "votes": null, "tagline": null, "has_video": false, "website": null, "offers": null, "latitude": 34.019875, "politanName": "Atlanta, GA Metro ", "phone_number": "6789780338", "tags": [{"primary": true, "id": 1722, "name": "Restaurants"}], "fax_number": null, "expansion": {"count": null, "uri": null}, "impression_id": "000b000000dcf594c676a1410991927eff223f9c93", "profile": "http://www.citysearch.com/profile/732174150/marietta_ga/all_atlanta_catering.html", "address": {"city": "Marietta", "state": "GA", "street": "2854 Water Wheel Ct NE", "postal_code": "30062"}, "capProviderId": null, "distance": null, "has_offers": false, "name": "All Atlanta Catering", "longitude": -84.471664, "has_menu": false, "awards": null, "user_review_count": 0}, {"business_operation_status": 1, "rating": null, "neighborhood": null, "image": null, "scorecard": null, "featured": false, "sample_categories": "Coffeehouses", "public_id": "m-e-coffee-canton", "id": 732238140, "votes": null, "tagline": null, "has_video": false, "website": null, "offers": null, "latitude": 34.153202, "politanName": "Atlanta, GA Metro ", "phone_number": "7707208244", "tags": [{"primary": true, "id": 1726, "name": "Coffeehouses"}], "fax_number": null, "expansion": {"count": null, "uri": null}, "impression_id": "000b000000d750d5c25abc458db27ad2079a129424", "profile": "http://www.citysearch.com/profile/732238140/canton_ga/m_e_coffee.html", "address": {"city": "Canton", "state": "GA", "street": "745 Cherokee Point Dr", "postal_code": "30114"}, "capProviderId": null, "distance": null, "has_offers": false, "name": "M E Coffee", "longitude": -84.569688, "has_menu": false, "awards": null, "user_review_count": 0}, {"business_operation_status": 1, "rating": null, "neighborhood": null, "image": null, "scorecard": null, "featured": false, "sample_categories": "Grocery Stores, Restaurants", "public_id": "royal-groceries-rstrnt-llc-marietta", "id": 764910880, "votes": null, "tagline": null, "has_video": false, "website": null, "offers": null, "latitude": 33.95073, "politanName": "Atlanta, GA Metro ", "phone_number": "7709738414", "tags": [{"primary": false, "id": 1722, "name": "Restaurants"}, {"primary": true, "id": 1713, "name": "Grocery Stores"}], "fax_number": null, "expansion": {"count": null, "uri": null}, "impression_id": "000b000000b9b9024b71cf44fdac4eb8d5b0e23cfc", "profile": "http://www.citysearch.com/profile/764910880/marietta_ga/royal_groceries_rstrnt_llc.html", "address": {"city": "Marietta", "state": "GA", "street": "1392 Roswell Rd", "postal_code": "30062"}, "capProviderId": null, "distance": null, "has_offers": false, "name": "Royal Groceries & Rstrnt Llc", "longitude": -84.511253, "has_menu": false, "awards": null, "user_review_count": 0}, {"business_operation_status": 1, "rating": null, "neighborhood": null, "image": null, "scorecard": null, "featured": false, "sample_categories": "Restaurants, Grocery Stores", "public_id": "sugar-shack-snacks-marietta", "id": 766798620, "votes": null, "tagline": null, "has_video": false, "website": null, "offers": null, "latitude": 33.952602, "politanName": "Atlanta, GA Metro ", "phone_number": "7704850847", "tags": [{"primary": false, "id": 1713, "name": "Grocery Stores"}, {"primary": true, "id": 1722, "name": "Restaurants"}], "fax_number": null, "expansion": {"count": null, "uri": null}, "impression_id": "000b000000ae50697b3606425aa3fa1ba23ffc4a63", "profile": "http://www.citysearch.com/profile/766798620/marietta_ga/sugar_shack_snacks.html", "address": {"city": "Marietta", "state": "GA", "street": "3901 Mary Eliza Trce NW # 120", "postal_code": "30064"}, "capProviderId": null, "distance": null, "has_offers": false, "name": "Sugar Shack Snacks", "longitude": -84.549933, "has_menu": false, "awards": null, "user_review_count": 0}, {"business_operation_status": 1, "rating": null, "neighborhood": null, "image": null, "scorecard": null, "featured": false, "sample_categories": "Restaurants, Diners", "public_id": "towne-lake-diner-woodstock", "id": 655857120, "votes": null, "tagline": null, "has_video": false, "website": null, "offers": null, "latitude": 34.112372, "politanName": "Atlanta, GA Metro ", "phone_number": "6784014259", "tags": [{"primary": false, "id": 1732, "name": "Diners"}, {"primary": true, "id": 1722, "name": "Restaurants"}], "fax_number": null, "expansion": {"count": null, "uri": null}, "impression_id": "000b00000013ba581cf8e045c897ebc06feb34e60c", "profile": "http://www.citysearch.com/profile/655857120/woodstock_ga/towne_lake_diner.html", "address": {"city": "Woodstock", "state": "GA", "street": "2990 Eagle Dr", "postal_code": "30189"}, "capProviderId": null, "distance": null, "has_offers": false, "name": "Towne Lake Diner", "longitude": -84.561077, "has_menu": false, "awards": null, "user_review_count": 0}, {"business_operation_status": 1, "rating": null, "neighborhood": null, "image": null, "scorecard": null, "featured": false, "sample_categories": "Restaurants, Traditional American", "public_id": "all-american-coney-island-dallas", "id": 781204740, "votes": null, "tagline": null, "has_video": false, "website": null, "offers": null, "latitude": 34.012752, "politanName": "Atlanta, GA Metro ", "phone_number": "6785058920", "tags": [{"primary": false, "id": 11190, "name": "Traditional American"}, {"primary": true, "id": 1722, "name": "Restaurants"}], "fax_number": null, "expansion": {"count": null, "uri": null}, "impression_id": "000b00000012e01b786a8642cdb8ff1a1e8c0f06b7", "profile": "http://www.citysearch.com/profile/781204740/dallas_ga/all_american_coney_island.html", "address": {"city": "Dallas", "state": "GA", "street": "8879 Dallas Acworth Hwy", "postal_code": "30132"}, "capProviderId": null, "distance": null, "has_offers": false, "name": "All American Coney Island", "longitude": -84.754548, "has_menu": false, "awards": null, "user_review_count": 0}, {"business_operation_status": 1, "rating": null, "neighborhood": null, "image": null, "scorecard": null, "featured": false, "sample_categories": "Restaurants, Mexican", "public_id": "el-taco-azteco-bar-grill-marietta", "id": 779707060, "votes": null, "tagline": null, "has_video": false, "website": null, "offers": null, "latitude": 33.976739, "politanName": "Atlanta, GA Metro ", "phone_number": "6782752349", "tags": [{"primary": false, "id": 11208, "name": "Mexican"}, {"primary": true, "id": 1722, "name": "Restaurants"}], "fax_number": null, "expansion": {"count": null, "uri": null}, "impression_id": "000b000000e0b7d4c7b9e94c15bf3b181f7698e259", "profile": "http://www.citysearch.com/profile/779707060/marietta_ga/el_taco_azteco_bar_grill.html", "address": {"city": "Marietta", "state": "GA", "street": "1050 E Piedmont Rd", "postal_code": "30062"}, "capProviderId": null, "distance": null, "has_offers": false, "name": "El Taco Azteco Bar & Grill", "longitude": -84.479676, "has_menu": false, "awards": null, "user_review_count": 0}, {"business_operation_status": 1, "rating": null, "neighborhood": null, "image": null, "scorecard": null, "featured": false, "sample_categories": "Restaurants, Seafood", "public_id": "catfish-jims-seafood-chicken-kennesaw", "id": 779708410, "votes": null, "tagline": null, "has_video": false, "website": null, "offers": null, "latitude": 34.00159, "politanName": "Atlanta, GA Metro ", "phone_number": "6782908808", "tags": [{"primary": false, "id": 11228, "name": "Seafood"}, {"primary": true, "id": 1722, "name": "Restaurants"}], "fax_number": null, "expansion": {"count": null, "uri": null}, "impression_id": "000b000000b4ac159b90a94390a2a4b7a8d6d2ec73", "profile": "http://www.citysearch.com/profile/779708410/kennesaw_ga/catfish_jim_s_seafood_chicken.html", "address": {"city": "Kennesaw", "state": "GA", "street": "1997 Cobb Pkwy NW", "postal_code": "30152"}, "capProviderId": null, "distance": null, "has_offers": false, "name": "Catfish Jim's Seafood Chicken", "longitude": -84.597118, "has_menu": false, "awards": null, "user_review_count": 3}, {"business_operation_status": 1, "rating": null, "neighborhood": null, "image": null, "scorecard": null, "featured": false, "sample_categories": "Restaurants", "public_id": "karlas-kafe-acworth", "id": 764927070, "votes": null, "tagline": null, "has_video": false, "website": null, "offers": null, "latitude": 34.038484, "politanName": "Atlanta, GA Metro ", "phone_number": "6784584876", "tags": [{"primary": true, "id": 1722, "name": "Restaurants"}], "fax_number": null, "expansion": {"count": null, "uri": null}, "impression_id": "000b0000001ab06fde83694a979e8e1ecc96941d5e", "profile": "http://www.citysearch.com/profile/764927070/acworth_ga/karla_s_kafe.html", "address": {"city": "Acworth", "state": "GA", "street": "3459 Cobb Pkwy NW", "postal_code": "30101"}, "capProviderId": null, "distance": null, "has_offers": false, "name": "Karla's Kafe", "longitude": -84.691795, "has_menu": false, "awards": null, "user_review_count": 0}, {"business_operation_status": 1, "rating": null, "neighborhood": null, "image": null, "scorecard": null, "featured": false, "sample_categories": "Restaurants, Pizza", "public_id": "luckys-new-york-style-pizza-dallas", "id": 790692420, "votes": null, "tagline": null, "has_video": false, "website": null, "offers": null, "latitude": 34.027382, "politanName": "Atlanta, GA Metro ", "phone_number": "6785747499", "tags": [{"primary": false, "id": 11299, "name": "Pizza"}, {"primary": true, "id": 1722, "name": "Restaurants"}], "fax_number": null, "expansion": {"count": null, "uri": null}, "impression_id": "000b0000006fc3706e8eb349e8ba99cd5b040f45d2", "profile": "http://www.citysearch.com/profile/790692420/dallas_ga/lucky_s_new_york_style_pizza.html", "address": {"city": "Dallas", "state": "GA", "street": "51 Seven Hills Blvd", "postal_code": "30132"}, "capProviderId": null, "distance": null, "has_offers": false, "name": "Lucky's New York Style Pizza", "longitude": -84.776854, "has_menu": false, "awards": null, "user_review_count": 0}, {"business_operation_status": 0, "rating": null, "neighborhood": null, "image": null, "scorecard": null, "featured": false, "sample_categories": "Health Food Stores, Restaurants, American Express, MasterCard, Visa", "public_id": "planet-smoothie-marietta-5", "id": 682245710, "votes": null, "tagline": null, "has_video": false, "website": "http://www.citysearch.com/profile/external/682245710/marietta_ga/planet_smoothie.html", "offers": null, "latitude": 33.958324, "politanName": "Atlanta, GA Metro ", "phone_number": "7704272700", "tags": [{"primary": false, "id": 1722, "name": "Restaurants"}, {"primary": false, "id": 11333, "name": "American Express"}, {"primary": false, "id": 11361, "name": "MasterCard"}, {"primary": false, "id": 11382, "name": "Visa"}, {"primary": true, "id": 1716, "name": "Health Food Stores"}], "fax_number": null, "expansion": {"count": null, "uri": null}, "impression_id": "000b000000d9d2acdd29c24227892cbfb943bbf176", "profile": "http://www.citysearch.com/profile/682245710/marietta_ga/planet_smoothie.html", "address": {"city": "Marietta", "state": "GA", "street": "245 Ernest W Barrett NW # 145", "postal_code": "30060"}, "capProviderId": null, "distance": null, "has_offers": false, "name": "Planet Smoothie", "longitude": -84.621625, "has_menu": false, "awards": null, "user_review_count": 0}, {"business_operation_status": 1, "rating": null, "neighborhood": null, "image": null, "scorecard": null, "featured": false, "sample_categories": "Restaurants, Traditional American, Carry Out, American Express, Discover", "public_id": "arbys-austell", "id": 682522910, "votes": null, "tagline": null, "has_video": false, "website": "http://www.citysearch.com/profile/external/682522910/austell_ga/arby_s.html", "offers": null, "latitude": 33.802759, "politanName": "Atlanta, GA Metro ", "phone_number": "7707390339", "tags": [{"primary": false, "id": 11190, "name": "Traditional American"}, {"primary": false, "id": 11247, "name": "Carry Out"}, {"primary": false, "id": 11333, "name": "American Express"}, {"primary": false, "id": 11349, "name": "Discover"}, {"primary": false, "id": 11361, "name": "MasterCard"}, {"primary": false, "id": 11382, "name": "Visa"}, {"primary": true, "id": 1722, "name": "Restaurants"}], "fax_number": null, "expansion": {"count": null, "uri": null}, "impression_id": "000b000000a229a19f9cc745b8abec1bda1ffdb899", "profile": "http://www.citysearch.com/profile/682522910/austell_ga/arby_s.html", "address": {"city": "Austell", "state": "GA", "street": "3060 Bankhead Hwy", "postal_code": "30168"}, "capProviderId": null, "distance": null, "has_offers": false, "name": "Arby's", "longitude": -84.638393, "has_menu": true, "awards": null, "user_review_count": 0}, {"business_operation_status": 1, "rating": null, "neighborhood": null, "image": null, "scorecard": null, "featured": false, "sample_categories": "Restaurants, Mexican", "public_id": "hacienda-vieja-woodstock", "id": 779682120, "votes": null, "tagline": null, "has_video": false, "website": null, "offers": null, "latitude": 34.084509, "politanName": "Atlanta, GA Metro ", "phone_number": "7705177958", "tags": [{"primary": false, "id": 11208, "name": "Mexican"}, {"primary": true, "id": 1722, "name": "Restaurants"}], "fax_number": null, "expansion": {"count": null, "uri": null}, "impression_id": "000b0000007f8cccf6ee80494cbf9fdc36cb3a1435", "profile": "http://www.citysearch.com/profile/779682120/woodstock_ga/hacienda_vieja.html", "address": {"city": "Woodstock", "state": "GA", "street": "290 Molly Ln", "postal_code": "30189"}, "capProviderId": null, "distance": null, "has_offers": false, "name": "Hacienda Vieja", "longitude": -84.540278, "has_menu": false, "awards": null, "user_review_count": 0}, {"business_operation_status": 1, "rating": null, "neighborhood": null, "image": null, "scorecard": null, "featured": false, "sample_categories": "Restaurants, Diners", "public_id": "cobb-diner-marietta", "id": 781263410, "votes": null, "tagline": null, "has_video": false, "website": null, "offers": null, "latitude": 33.950808, "politanName": "Atlanta, GA Metro ", "phone_number": "7705149700", "tags": [{"primary": false, "id": 1732, "name": "Diners"}, {"primary": true, "id": 1722, "name": "Restaurants"}], "fax_number": null, "expansion": {"count": null, "uri": null}, "impression_id": "000b000000f18231bd0a6f48bea7f1fd92b858e8b7", "profile": "http://www.citysearch.com/profile/781263410/marietta_ga/cobb_diner.html", "address": {"city": "Marietta", "state": "GA", "street": "749 Roswell St Ne", "postal_code": "30060"}, "capProviderId": null, "distance": null, "has_offers": false, "name": "Cobb Diner", "longitude": -84.53017, "has_menu": false, "awards": null, "user_review_count": 1}, {"business_operation_status": 1, "rating": null, "neighborhood": null, "image": null, "scorecard": null, "featured": false, "sample_categories": "Restaurants, Barbecue Restaurants", "public_id": "birdies-wings-more-dallas", "id": 793298080, "votes": null, "tagline": null, "has_video": false, "website": "http://www.citysearch.com/profile/external/793298080/dallas_ga/birdie_s_wings_more.html", "offers": null, "latitude": 34.010309, "politanName": "Atlanta, GA Metro ", "phone_number": "6785747470", "tags": [{"primary": false, "id": 1724, "name": "Barbecue Restaurants"}, {"primary": true, "id": 1722, "name": "Restaurants"}], "fax_number": null, "expansion": {"count": null, "uri": null}, "impression_id": "000b00000014ecce1b7b6144e19ddfdc248c1b1bad", "profile": "http://www.citysearch.com/profile/793298080/dallas_ga/birdie_s_wings_more.html", "address": {"city": "Dallas", "state": "GA", "street": "8876 Dallas Acworth Hwy", "postal_code": "30132"}, "capProviderId": null, "distance": null, "has_offers": false, "name": "Birdie's Wings & More", "longitude": -84.753348, "has_menu": false, "awards": null, "user_review_count": 0}, {"business_operation_status": 1, "rating": null, "neighborhood": null, "image": null, "scorecard": null, "featured": false, "sample_categories": "Delis And Delicatessens", "public_id": "kroger-deli-acworth-3", "id": 706509510, "votes": null, "tagline": null, "has_video": false, "website": "http://www.citysearch.com/profile/external/706509510/acworth_ga/kroger_deli.html", "offers": null, "latitude": 34.060456, "politanName": "Atlanta, GA Metro ", "phone_number": "7709758652", "tags": [{"primary": true, "id": 1727, "name": "Delis And Delicatessens"}], "fax_number": null, "expansion": {"count": null, "uri": null}, "impression_id": "000b000000ca6ca3ce52c844f8934816e3c940627a", "profile": "http://www.citysearch.com/profile/706509510/acworth_ga/kroger_deli.html", "address": {"city": "Acworth", "state": "GA", "street": "3330 Cobb Pkwy NW # 30", "postal_code": "30101"}, "capProviderId": null, "distance": null, "has_offers": false, "name": "Kroger Deli", "longitude": -84.721428, "has_menu": false, "awards": null, "user_review_count": 0}, {"business_operation_status": 1, "rating": null, "neighborhood": null, "image": null, "scorecard": null, "featured": false, "sample_categories": "Restaurants", "public_id": "international-restaurant-management-kennesaw", "id": 806008710, "votes": null, "tagline": null, "has_video": false, "website": null, "offers": null, "latitude": 33.984991, "politanName": "Atlanta, GA Metro ", "phone_number": "7702180369", "tags": [{"primary": true, "id": 1722, "name": "Restaurants"}], "fax_number": null, "expansion": {"count": null, "uri": null}, "impression_id": "000b000000987ae1444a524aa9882dbec7761b4687", "profile": "http://www.citysearch.com/profile/806008710/kennesaw_ga/international_restaurant_management.html", "address": {"city": "Kennesaw", "state": "GA", "street": "3409 Paisley Trce NW", "postal_code": "30152"}, "capProviderId": null, "distance": null, "has_offers": false, "name": "International Restaurant Management", "longitude": -84.648405, "has_menu": false, "awards": null, "user_review_count": 0}, {"business_operation_status": 1, "rating": null, "neighborhood": null, "image": null, "scorecard": null, "featured": false, "sample_categories": "Restaurants", "public_id": "georgia-cuisine-bakery-dallas", "id": 806701170, "votes": null, "tagline": null, "has_video": false, "website": null, "offers": null, "latitude": 34.008729, "politanName": "Atlanta, GA Metro ", "phone_number": "7709665204", "tags": [{"primary": true, "id": 1722, "name": "Restaurants"}], "fax_number": null, "expansion": {"count": null, "uri": null}, "impression_id": "000b00000095e9c5a2d39047b791d9a652128fb6c0", "profile": "http://www.citysearch.com/profile/806701170/dallas_ga/georgia_cuisine_bakery.html", "address": {"city": "Dallas", "state": "GA", "street": "8492 Hiram Acworth Hwy", "postal_code": "30157"}, "capProviderId": null, "distance": null, "has_offers": false, "name": "Georgia Cuisine & Bakery", "longitude": -84.752437, "has_menu": false, "awards": null, "user_review_count": 0}, {"business_operation_status": 1, "rating": null, "neighborhood": null, "image": null, "scorecard": null, "featured": false, "sample_categories": "Restaurants, Asian, Chinese", "public_id": "hibachi-buffet-marietta", "id": 713488530, "votes": null, "tagline": null, "has_video": false, "website": "http://www.citysearch.com/profile/external/713488530/marietta_ga/hibachi_buffet.html", "offers": null, "latitude": 33.968527, "politanName": "Atlanta, GA Metro ", "phone_number": "7703218202", "tags": [{"primary": false, "id": 11235, "name": "Asian"}, {"primary": false, "id": 11252, "name": "Chinese"}, {"primary": true, "id": 1722, "name": "Restaurants"}], "fax_number": null, "expansion": {"count": null, "uri": null}, "impression_id": "000b000000b276a683a38b4ac3a46a9ade90bc9935", "profile": "http://www.citysearch.com/profile/713488530/marietta_ga/hibachi_buffet.html", "address": {"city": "Marietta", "state": "GA", "street": "2145 Roswell Rd # 260", "postal_code": "30062"}, "capProviderId": null, "distance": null, "has_offers": false, "name": "Hibachi Buffet", "longitude": -84.491622, "has_menu": false, "awards": null, "user_review_count": 0}, {"business_operation_status": 1, "rating": 6.0, "neighborhood": null, "image": null, "scorecard": null, "featured": false, "sample_categories": "Restaurants, Diners", "public_id": "ogas-diners-marietta", "id": 2906488, "votes": null, "tagline": null, "has_video": false, "website": null, "offers": null, "latitude": 33.936031, "politanName": "Atlanta, GA Metro ", "phone_number": "7704230098", "tags": [{"primary": false, "id": 1732, "name": "Diners"}, {"primary": true, "id": 1722, "name": "Restaurants"}], "fax_number": null, "expansion": {"count": null, "uri": null}, "impression_id": "000b0000009272e359231045f594919512fe09f472", "profile": "http://www.citysearch.com/profile/2906488/marietta_ga/oga_s_diners.html", "address": {"city": "Marietta", "state": "GA", "street": "690 Powder Springs St SW", "postal_code": "30064"}, "capProviderId": null, "distance": null, "has_offers": false, "name": "Oga's Diners", "longitude": -84.556041, "has_menu": false, "awards": null, "user_review_count": 1}, {"business_operation_status": 1, "rating": 7.0, "neighborhood": null, "image": null, "scorecard": null, "featured": false, "sample_categories": "Restaurants, Chinese", "public_id": "mr-wok-chinese-delivery-marietta", "id": 2908288, "votes": null, "tagline": null, "has_video": false, "website": null, "offers": null, "latitude": 33.993514, "politanName": "Atlanta, GA Metro ", "phone_number": "7705141477", "tags": [{"primary": false, "id": 11252, "name": "Chinese"}, {"primary": true, "id": 1722, "name": "Restaurants"}], "fax_number": null, "expansion": {"count": null, "uri": null}, "impression_id": "000b0000007ffebb9d54724c2c915461aa71663860", "profile": "http://www.citysearch.com/profile/2908288/marietta_ga/mr_wok_chinese_delivery.html", "address": {"city": "Marietta", "state": "GA", "street": "1750 Bells Ferry Rd Ste B", "postal_code": "30066"}, "capProviderId": null, "distance": null, "has_offers": false, "name": "Mr Wok Chinese Delivery", "longitude": -84.549161, "has_menu": true, "awards": null, "user_review_count": 4}, {"business_operation_status": 1, "rating": null, "neighborhood": null, "image": null, "scorecard": null, "featured": false, "sample_categories": "Restaurants", "public_id": "american-cinema-group-inc-marietta", "id": 810463060, "votes": null, "tagline": null, "has_video": false, "website": null, "offers": null, "latitude": 33.952602, "politanName": "Atlanta, GA Metro ", "phone_number": "7709198182", "tags": [{"primary": true, "id": 1722, "name": "Restaurants"}], "fax_number": null, "expansion": {"count": null, "uri": null}, "impression_id": "000b0000006b28af57872349748eb077bdeded816c", "profile": "http://www.citysearch.com/profile/810463060/marietta_ga/american_cinema_group_inc.html", "address": {"city": "Marietta", "state": "GA", "street": "4520 Blackwater Trl", "postal_code": "30066"}, "capProviderId": null, "distance": null, "has_offers": false, "name": "American Cinema Group Inc", "longitude": -84.549933, "has_menu": false, "awards": null, "user_review_count": 0}, {"business_operation_status": 1, "rating": null, "neighborhood": null, "image": null, "scorecard": null, "featured": false, "sample_categories": "Restaurants", "public_id": "jocks-jill-canton", "id": 810518500, "votes": null, "tagline": null, "has_video": false, "website": null, "offers": null, "latitude": 34.195494, "politanName": "Atlanta, GA Metro ", "phone_number": "7707045455", "tags": [{"primary": true, "id": 1722, "name": "Restaurants"}], "fax_number": null, "expansion": {"count": null, "uri": null}, "impression_id": "000b000000e7a232d4c982493894789ada98f28f13", "profile": "http://www.citysearch.com/profile/810518500/canton_ga/jocks_jill.html", "address": {"city": "Canton", "state": "GA", "street": "303 Lakebridge Xing", "postal_code": "30114"}, "capProviderId": null, "distance": null, "has_offers": false, "name": "Jocks & Jill", "longitude": -84.545654, "has_menu": false, "awards": null, "user_review_count": 0}, {"business_operation_status": 1, "rating": 2.0, "neighborhood": null, "image": null, "scorecard": null, "featured": false, "sample_categories": "Restaurants", "public_id": "jiffy-freeze-canton", "id": 2942767, "votes": null, "tagline": null, "has_video": false, "website": null, "offers": null, "latitude": 34.213746, "politanName": "Atlanta, GA Metro ", "phone_number": "7704791124", "tags": [{"primary": true, "id": 1722, "name": "Restaurants"}], "fax_number": null, "expansion": {"count": null, "uri": null}, "impression_id": "000b0000009f251e00a33c48acbb4c0b325597057d", "profile": "http://www.citysearch.com/profile/2942767/canton_ga/jiffy_freeze.html", "address": {"city": "Canton", "state": "GA", "street": "8046 Knox Bridge Hwy", "postal_code": "30114"}, "capProviderId": null, "distance": null, "has_offers": false, "name": "Jiffy Freeze", "longitude": -84.531929, "has_menu": false, "awards": null, "user_review_count": 2}], "histograms": [], "tag_ids": [1722], "uri": "http://api.citygridmedia.com:8080/search/places/v2/search/where?has_offers=false&type=restaurant&format=json&page=31&where=30144&rpp=50&histograms=false&publisher=10000009598&region_type=circle", "did_you_mean": "", "regions": [{"latitude": 34.037076, "default_radius": 4.72, "type": "postal_code", "name": "30144", "longitude": -84.591034}], "call_id": "000b0000001eda022554a64077a553d9b9e6738011", "first_hit": 1501, "total_hits": 1696, "geo_ids": [26310], "page": 31, "last_hit": 1550}}