{"results": {"rpp": 50, "locations": [{"business_operation_status": 1, "rating": null, "neighborhood": null, "image": null, "scorecard": null, "featured": false, "sample_categories": "Restaurants, Bars & Clubs", "public_id": "slapshots-sports-bar-grille-woodstock", "id": 811303660, "votes": null, "tagline": null, "has_video": false, "website": null, "offers": null, "latitude": 34.103724, "politanName": "Atlanta, GA Metro ", "phone_number": "7709245855", "tags": [{"primary": false, "id": 164, "name": "Bars & Clubs"}, {"primary": true, "id": 1722, "name": "Restaurants"}], "fax_number": null, "expansion": {"count": null, "uri": null}, "impression_id": "000b0000007e2f079d0e784efcae00e0dcf4c7536a", "profile": "http://www.citysearch.com/profile/811303660/woodstock_ga/slapshots_sports_bar_grille.html", "address": {"city": "Woodstock", "state": "GA", "street": "185 Woodstock Pkwy", "postal_code": "30188"}, "capProviderId": null, "distance": null, "has_offers": false, "name": "Slapshots Sports Bar & Grille", "longitude": -84.529103, "has_menu": false, "awards": null, "user_review_count": 1}, {"business_operation_status": 1, "rating": null, "neighborhood": null, "image": null, "scorecard": null, "featured": false, "sample_categories": "Restaurants, Ice Cream Parlors", "public_id": "tcby-marietta-3", "id": 814186530, "votes": null, "tagline": null, "has_video": false, "website": "http://www.citysearch.com/profile/external/814186530/marietta_ga/tcby.html", "offers": null, "latitude": 33.969806, "politanName": "Atlanta, GA Metro ", "phone_number": "7705798833", "tags": [{"primary": false, "id": 1730, "name": "Ice Cream Parlors"}, {"primary": true, "id": 1722, "name": "Restaurants"}], "fax_number": null, "expansion": {"count": null, "uri": null}, "impression_id": "000b000000e5f1d381c3ed470daf2d0fa5eda0417b", "profile": "http://www.citysearch.com/profile/814186530/marietta_ga/tcby.html", "address": {"city": "Marietta", "state": "GA", "street": "2200 Roswell Rd", "postal_code": "30062"}, "capProviderId": null, "distance": null, "has_offers": false, "name": "TCBY", "longitude": -84.487911, "has_menu": true, "awards": null, "user_review_count": 0}, {"business_operation_status": 1, "rating": null, "neighborhood": null, "image": null, "scorecard": null, "featured": false, "sample_categories": "Restaurants, Mexican", "public_id": "my-viejo-marietta", "id": 43840166, "votes": null, "tagline": null, "has_video": false, "website": null, "offers": null, "latitude": 34.068476, "politanName": "Atlanta, GA Metro ", "phone_number": "7703848009", "tags": [{"primary": false, "id": 11208, "name": "Mexican"}, {"primary": true, "id": 1722, "name": "Restaurants"}], "fax_number": null, "expansion": {"count": null, "uri": null}, "impression_id": "000b000000a760a2c792d94d0d96af89b5d92c8dea", "profile": "http://www.citysearch.com/profile/43840166/marietta_ga/my_viejo.html", "address": {"city": "Marietta", "state": "GA", "street": "4796 Canton Rd Ste 700", "postal_code": "30066"}, "capProviderId": null, "distance": null, "has_offers": false, "name": "My Viejo", "longitude": -84.520809, "has_menu": true, "awards": null, "user_review_count": 0}, {"business_operation_status": 1, "rating": null, "neighborhood": null, "image": null, "scorecard": null, "featured": false, "sample_categories": "Restaurants", "public_id": "roadhouse-grill-woodstock", "id": 834240490, "votes": null, "tagline": null, "has_video": false, "website": null, "offers": null, "latitude": 34.084509, "politanName": "Atlanta, GA Metro ", "phone_number": "7705162417", "tags": [{"primary": true, "id": 1722, "name": "Restaurants"}], "fax_number": null, "expansion": {"count": null, "uri": null}, "impression_id": "000b00000077733fab9e7043c3a8e87e975df14334", "profile": "http://www.citysearch.com/profile/834240490/woodstock_ga/roadhouse_grill.html", "address": {"city": "Woodstock", "state": "GA", "street": "290 Molly Ln", "postal_code": "30189"}, "capProviderId": null, "distance": null, "has_offers": false, "name": "Roadhouse Grill", "longitude": -84.540278, "has_menu": true, "awards": null, "user_review_count": 5}, {"business_operation_status": 1, "rating": null, "neighborhood": null, "image": null, "scorecard": null, "featured": false, "sample_categories": "Restaurants, Fast Food, Carry Out, Hamburgers, American Express", "public_id": "mc-donalds-canton-17", "id": 45561227, "votes": null, "tagline": null, "has_video": false, "website": "http://www.citysearch.com/profile/external/45561227/canton_ga/mc_donald_s.html", "offers": null, "latitude": 34.1985, "politanName": "Atlanta, GA Metro ", "phone_number": "7707206060", "tags": [{"primary": false, "id": 11199, "name": "Fast Food"}, {"primary": false, "id": 11247, "name": "Carry Out"}, {"primary": false, "id": 11270, "name": "Hamburgers"}, {"primary": false, "id": 11333, "name": "American Express"}, {"primary": false, "id": 11349, "name": "Discover"}, {"primary": false, "id": 11361, "name": "MasterCard"}, {"primary": false, "id": 11382, "name": "Visa"}, {"primary": true, "id": 1722, "name": "Restaurants"}], "fax_number": null, "expansion": {"count": null, "uri": null}, "impression_id": "000b000000394812634dac44f9a0ecd84803cdb95d", "profile": "http://www.citysearch.com/profile/45561227/canton_ga/mc_donald_s.html", "address": {"city": "Canton", "state": "GA", "street": "3240 Rdg Rd", "postal_code": "30114"}, "capProviderId": null, "distance": null, "has_offers": false, "name": "Mc Donald's", "longitude": -84.5095, "has_menu": true, "awards": null, "user_review_count": 0}, {"business_operation_status": 1, "rating": null, "neighborhood": null, "image": null, "scorecard": null, "featured": false, "sample_categories": "Restaurants, Mexican", "public_id": "el-jinette-woodstock", "id": 790624090, "votes": null, "tagline": null, "has_video": false, "website": null, "offers": null, "latitude": 34.119877, "politanName": "Atlanta, GA Metro ", "phone_number": "7705918722", "tags": [{"primary": false, "id": 11208, "name": "Mexican"}, {"primary": true, "id": 1722, "name": "Restaurants"}], "fax_number": null, "expansion": {"count": null, "uri": null}, "impression_id": "000b000000a88ff37171b7451a9c6fa01c394f5e02", "profile": "http://www.citysearch.com/profile/790624090/woodstock_ga/el_jinette.html", "address": {"city": "Woodstock", "state": "GA", "street": "Kellogg Creek Rd", "postal_code": "30189"}, "capProviderId": null, "distance": null, "has_offers": false, "name": "El Jinette", "longitude": -84.58557, "has_menu": false, "awards": null, "user_review_count": 0}, {"business_operation_status": 1, "rating": null, "neighborhood": null, "image": null, "scorecard": null, "featured": false, "sample_categories": "Restaurants, Sandwich Shops, Gourmet Foods, Organic Foods, Hamburgers", "public_id": "yumm-burger-marietta", "id": 793386180, "votes": null, "tagline": null, "has_video": false, "website": "http://www.citysearch.com/profile/external/793386180/marietta_ga/yumm_burger.html", "offers": null, "latitude": 33.967001, "politanName": "Atlanta, GA Metro ", "phone_number": "7704855681", "tags": [{"primary": false, "id": 1736, "name": "Sandwich Shops"}, {"primary": false, "id": 11169, "name": "Gourmet Foods"}, {"primary": false, "id": 11173, "name": "Organic Foods"}, {"primary": false, "id": 11270, "name": "Hamburgers"}, {"primary": true, "id": 1722, "name": "Restaurants"}], "fax_number": null, "expansion": {"count": null, "uri": null}, "impression_id": "000b000000914a664bf4504716a1ca1186f6111ee4", "profile": "http://www.citysearch.com/profile/793386180/marietta_ga/yumm_burger.html", "address": {"city": "Marietta", "state": "GA", "street": "3901 Mary Eliza Trce NW 120", "postal_code": "30064"}, "capProviderId": null, "distance": null, "has_offers": false, "name": "Yumm Burger", "longitude": -84.665447, "has_menu": false, "awards": null, "user_review_count": 0}, {"business_operation_status": 1, "rating": null, "neighborhood": null, "image": null, "scorecard": null, "featured": false, "sample_categories": "Restaurants, Carry Out", "public_id": "arbys-woodstock-4", "id": 607158654, "votes": null, "tagline": null, "has_video": false, "website": "http://www.citysearch.com/profile/external/607158654/woodstock_ga/arby_s.html", "offers": null, "latitude": 34.101487, "politanName": "Atlanta, GA Metro ", "phone_number": "5404595915", "tags": [{"primary": false, "id": 11247, "name": "Carry Out"}, {"primary": true, "id": 1722, "name": "Restaurants"}], "fax_number": null, "expansion": {"count": null, "uri": null}, "impression_id": "000b000000e0ef4c72cbfb47678b34e923017fa94e", "profile": "http://www.citysearch.com/profile/607158654/woodstock_ga/arby_s.html", "address": {"city": "Woodstock", "state": "GA", "street": "320 W Reservoir Rd", "postal_code": "30188"}, "capProviderId": null, "distance": null, "has_offers": false, "name": "Arby's", "longitude": -84.519375, "has_menu": false, "awards": null, "user_review_count": 0}, {"business_operation_status": 1, "rating": null, "neighborhood": null, "image": null, "scorecard": null, "featured": false, "sample_categories": "Restaurants", "public_id": "dineout-inc-marietta", "id": 807939100, "votes": null, "tagline": null, "has_video": false, "website": null, "offers": null, "latitude": 34.021269, "politanName": "Atlanta, GA Metro ", "phone_number": "7705656984", "tags": [{"primary": true, "id": 1722, "name": "Restaurants"}], "fax_number": null, "expansion": {"count": null, "uri": null}, "impression_id": "000b0000009d0a011468cf40abb1299a2a108b8ea7", "profile": "http://www.citysearch.com/profile/807939100/marietta_ga/dineout_inc.html", "address": {"city": "Marietta", "state": "GA", "street": "1705 Macby Dr", "postal_code": "30066"}, "capProviderId": null, "distance": null, "has_offers": false, "name": "Dineout Inc", "longitude": -84.502556, "has_menu": false, "awards": null, "user_review_count": 0}, {"business_operation_status": 1, "rating": null, "neighborhood": null, "image": null, "scorecard": null, "featured": false, "sample_categories": "Restaurants, Pizza", "public_id": "decios-new-york-style-pizza-woodstock-2", "id": 812642400, "votes": null, "tagline": null, "has_video": false, "website": null, "offers": null, "latitude": 34.112606, "politanName": "Atlanta, GA Metro ", "phone_number": "7709269743", "tags": [{"primary": false, "id": 1722, "name": "Restaurants"}, {"primary": true, "id": 11299, "name": "Pizza"}], "fax_number": null, "expansion": {"count": null, "uri": null}, "impression_id": "000b000000a71e23e8f0c64706943d2eb4a457512d", "profile": "http://www.citysearch.com/profile/812642400/woodstock_ga/decio_s_new_york_style_pizza.html", "address": {"city": "Woodstock", "state": "GA", "street": "2295 Towne Lake Pkwy", "postal_code": "30189"}, "capProviderId": null, "distance": null, "has_offers": false, "name": "Decio's New York Style Pizza", "longitude": -84.555426, "has_menu": false, "awards": null, "user_review_count": 0}, {"business_operation_status": 1, "rating": null, "neighborhood": null, "image": null, "scorecard": null, "featured": false, "sample_categories": "Restaurants", "public_id": "out-of-the-box-gifts-marietta", "id": 812371140, "votes": null, "tagline": null, "has_video": false, "website": null, "offers": null, "latitude": 33.982834, "politanName": "Atlanta, GA Metro ", "phone_number": "7702185455", "tags": [{"primary": true, "id": 1722, "name": "Restaurants"}], "fax_number": null, "expansion": {"count": null, "uri": null}, "impression_id": "000b000000749a16349cd84c228d34b254f5bf31ab", "profile": "http://www.citysearch.com/profile/812371140/marietta_ga/out_of_the_box_gifts.html", "address": {"city": "Marietta", "state": "GA", "street": "1343 Canton Rd", "postal_code": "30066"}, "capProviderId": null, "distance": null, "has_offers": false, "name": "Out Of The Box Gifts", "longitude": -84.538604, "has_menu": false, "awards": null, "user_review_count": 0}, {"business_operation_status": 1, "rating": null, "neighborhood": null, "image": null, "scorecard": null, "featured": false, "sample_categories": "Restaurants", "public_id": "a-taste-of-puerto-rico-marietta-2", "id": 813840920, "votes": null, "tagline": null, "has_video": false, "website": null, "offers": null, "latitude": 34.017341, "politanName": "Atlanta, GA Metro ", "phone_number": "6787979992", "tags": [{"primary": true, "id": 1722, "name": "Restaurants"}], "fax_number": null, "expansion": {"count": null, "uri": null}, "impression_id": "000b0000004dede93f86f04961a8c8a2b856a3b473", "profile": "http://www.citysearch.com/profile/813840920/marietta_ga/a_taste_of_puerto_rico.html", "address": {"city": "Marietta", "state": "GA", "street": "2769 Chastn Mdws Pkwy # 90", "postal_code": "30066"}, "capProviderId": null, "distance": null, "has_offers": false, "name": "A Taste Of Puerto Rico", "longitude": -84.555709, "has_menu": false, "awards": null, "user_review_count": 0}, {"business_operation_status": 1, "rating": null, "neighborhood": null, "image": null, "scorecard": null, "featured": false, "sample_categories": "Restaurants", "public_id": "k-f-c-national-management-co-woodstock", "id": 817796490, "votes": null, "tagline": null, "has_video": false, "website": null, "offers": null, "latitude": 34.085885, "politanName": "Atlanta, GA Metro ", "phone_number": "7705919712", "tags": [{"primary": true, "id": 1722, "name": "Restaurants"}], "fax_number": null, "expansion": {"count": null, "uri": null}, "impression_id": "000b00000052e08e60a7cc403ea07f566e35102857", "profile": "http://www.citysearch.com/profile/817796490/woodstock_ga/k_f_c_national_management_co.html", "address": {"city": "Woodstock", "state": "GA", "street": "9980 Highway 92", "postal_code": "30188"}, "capProviderId": null, "distance": null, "has_offers": false, "name": "K F C National Management Co", "longitude": -84.522083, "has_menu": false, "awards": null, "user_review_count": 0}, {"business_operation_status": 1, "rating": null, "neighborhood": null, "image": null, "scorecard": null, "featured": false, "sample_categories": "Restaurants, Pizza, Carry Out", "public_id": "donatos-pizza-woodstock", "id": 819469590, "votes": null, "tagline": null, "has_video": false, "website": null, "offers": null, "latitude": 34.108838, "politanName": "Atlanta, GA Metro ", "phone_number": "6784943044", "tags": [{"primary": false, "id": 1722, "name": "Restaurants"}, {"primary": false, "id": 11247, "name": "Carry Out"}, {"primary": true, "id": 11299, "name": "Pizza"}], "fax_number": null, "expansion": {"count": null, "uri": null}, "impression_id": "000b00000034111d45180c449aaca6707dcfb3f42c", "profile": "http://www.citysearch.com/profile/819469590/woodstock_ga/donatos_pizza.html", "address": {"city": "Woodstock", "state": "GA", "street": "2075 Towne Lake Pkwy", "postal_code": "30189"}, "capProviderId": null, "distance": null, "has_offers": false, "name": "Donatos Pizza", "longitude": -84.55267, "has_menu": false, "awards": null, "user_review_count": 0}, {"business_operation_status": 1, "rating": null, "neighborhood": null, "image": null, "scorecard": null, "featured": false, "sample_categories": "Restaurants, Pizza, Carry Out", "public_id": "little-caesars-pizza-kennesaw-2", "id": 622110480, "votes": null, "tagline": null, "has_video": false, "website": "http://www.citysearch.com/profile/external/622110480/kennesaw_ga/little_caesars_pizza.html", "offers": null, "latitude": 33.992719, "politanName": "Atlanta, GA Metro ", "phone_number": "7707944633", "tags": [{"primary": false, "id": 1722, "name": "Restaurants"}, {"primary": false, "id": 11247, "name": "Carry Out"}, {"primary": true, "id": 11299, "name": "Pizza"}], "fax_number": null, "expansion": {"count": null, "uri": null}, "impression_id": "000b00000003735355cc7e43a48a4f3a3a1ad375eb", "profile": "http://www.citysearch.com/profile/622110480/kennesaw_ga/little_caesars_pizza.html", "address": {"city": "Kennesaw", "state": "GA", "street": "1600 Kennesaw Due West Rd Nw", "postal_code": "30152"}, "capProviderId": null, "distance": null, "has_offers": false, "name": "Little Caesars Pizza", "longitude": -84.627117, "has_menu": true, "awards": null, "user_review_count": 0}, {"business_operation_status": 1, "rating": null, "neighborhood": null, "image": null, "scorecard": null, "featured": false, "sample_categories": "Restaurants", "public_id": "extreme-cuisine-inc-marietta", "id": 820924170, "votes": null, "tagline": null, "has_video": false, "website": null, "offers": null, "latitude": 34.058557, "politanName": "Atlanta, GA Metro ", "phone_number": "7709281161", "tags": [{"primary": true, "id": 1722, "name": "Restaurants"}], "fax_number": null, "expansion": {"count": null, "uri": null}, "impression_id": "000b000000e710f3b4bb534922876e8573a25c9082", "profile": "http://www.citysearch.com/profile/820924170/marietta_ga/extreme_cuisine_inc.html", "address": {"city": "Marietta", "state": "GA", "street": "716 Dover St", "postal_code": "30066"}, "capProviderId": null, "distance": null, "has_offers": false, "name": "Extreme Cuisine Inc", "longitude": -84.529522, "has_menu": false, "awards": null, "user_review_count": 0}, {"business_operation_status": 1, "rating": null, "neighborhood": null, "image": null, "scorecard": null, "featured": false, "sample_categories": "Restaurants, Delis And Delicatessens", "public_id": "roly-poly-sandwiches-woodstock", "id": 622150800, "votes": null, "tagline": null, "has_video": false, "website": "http://www.citysearch.com/profile/external/622150800/woodstock_ga/roly_poly_sandwiches.html", "offers": null, "latitude": 34.104277, "politanName": "Atlanta, GA Metro ", "phone_number": "7709287659", "tags": [{"primary": false, "id": 1727, "name": "Delis And Delicatessens"}, {"primary": true, "id": 1722, "name": "Restaurants"}], "fax_number": null, "expansion": {"count": null, "uri": null}, "impression_id": "000b000000085eda9a6bfb4870a70fec06f54d7ea6", "profile": "http://www.citysearch.com/profile/622150800/woodstock_ga/roly_poly_sandwiches.html", "address": {"city": "Woodstock", "state": "GA", "street": "900 Towne Lake Pkwy", "postal_code": "30189"}, "capProviderId": null, "distance": null, "has_offers": false, "name": "Roly Poly Sandwiches", "longitude": -84.534724, "has_menu": true, "awards": null, "user_review_count": 0}, {"business_operation_status": 1, "rating": null, "neighborhood": null, "image": null, "scorecard": null, "featured": false, "sample_categories": "Restaurants, Pizza", "public_id": "pizza-sorrento-buffet-marietta", "id": 814485390, "votes": null, "tagline": null, "has_video": false, "website": null, "offers": null, "latitude": 34.017913, "politanName": "Atlanta, GA Metro ", "phone_number": "6783834986", "tags": [{"primary": false, "id": 1722, "name": "Restaurants"}, {"primary": true, "id": 11299, "name": "Pizza"}], "fax_number": null, "expansion": {"count": null, "uri": null}, "impression_id": "000b00000001de6d04e4a04ddfb37ca4f934542502", "profile": "http://www.citysearch.com/profile/814485390/marietta_ga/pizza_sorrento_buffet.html", "address": {"city": "Marietta", "state": "GA", "street": "2745 Sandy Plains Rd # 106", "postal_code": "30066"}, "capProviderId": null, "distance": null, "has_offers": false, "name": "Pizza Sorrento Buffet", "longitude": -84.492683, "has_menu": false, "awards": null, "user_review_count": 0}, {"business_operation_status": 1, "rating": null, "neighborhood": null, "image": null, "scorecard": null, "featured": false, "sample_categories": "Restaurants", "public_id": "yummy-tummy-cafe-marietta", "id": 821388990, "votes": null, "tagline": null, "has_video": false, "website": null, "offers": null, "latitude": 34.068415, "politanName": "Atlanta, GA Metro ", "phone_number": "7705911200", "tags": [{"primary": true, "id": 1722, "name": "Restaurants"}], "fax_number": null, "expansion": {"count": null, "uri": null}, "impression_id": "000b00000087b827c2f57f475ba34382b05efa98a4", "profile": "http://www.citysearch.com/profile/821388990/marietta_ga/yummy_tummy_cafe.html", "address": {"city": "Marietta", "state": "GA", "street": "892 Jamerson Rd", "postal_code": "30066"}, "capProviderId": null, "distance": null, "has_offers": false, "name": "Yummy Tummy Cafe", "longitude": -84.524073, "has_menu": false, "awards": null, "user_review_count": 0}, {"business_operation_status": 1, "rating": null, "neighborhood": null, "image": null, "scorecard": null, "featured": false, "sample_categories": "Restaurants", "public_id": "papa-ps-woodstock", "id": 762721860, "votes": null, "tagline": null, "has_video": false, "website": "http://www.citysearch.com/profile/external/762721860/woodstock_ga/papa_p_s.html", "offers": null, "latitude": 34.113403, "politanName": "Atlanta, GA Metro ", "phone_number": "7705923100", "tags": [{"primary": true, "id": 1722, "name": "Restaurants"}], "fax_number": null, "expansion": {"count": null, "uri": null}, "impression_id": "000b00000028ba1616666549c0a02f2a62d9eb7112", "profile": "http://www.citysearch.com/profile/762721860/woodstock_ga/papa_p_s.html", "address": {"city": "Woodstock", "state": "GA", "street": "2295 Towne Lake Pkwy", "postal_code": "30189"}, "capProviderId": null, "distance": null, "has_offers": false, "name": "Papa P's", "longitude": -84.553614, "has_menu": true, "awards": null, "user_review_count": 0}, {"business_operation_status": 1, "rating": null, "neighborhood": null, "image": null, "scorecard": null, "featured": false, "sample_categories": "Restaurants", "public_id": "sam-soultran-eatery-kennesaw", "id": 764849810, "votes": null, "tagline": null, "has_video": false, "website": null, "offers": null, "latitude": 34.007783, "politanName": "Atlanta, GA Metro ", "phone_number": "7704207110", "tags": [{"primary": true, "id": 1722, "name": "Restaurants"}], "fax_number": null, "expansion": {"count": null, "uri": null}, "impression_id": "000b000000db360fdd7abb4f368bbdab929aafe8c6", "profile": "http://www.citysearch.com/profile/764849810/kennesaw_ga/sam_soultran_eatery.html", "address": {"city": "Kennesaw", "state": "GA", "street": "2010 Cobb Pkwy NW", "postal_code": "30152"}, "capProviderId": null, "distance": null, "has_offers": false, "name": "Sam Soultran Eatery", "longitude": -84.613832, "has_menu": false, "awards": null, "user_review_count": 0}, {"business_operation_status": 1, "rating": null, "neighborhood": null, "image": null, "scorecard": null, "featured": false, "sample_categories": "Restaurants", "public_id": "yogoday-marietta", "id": 828480390, "votes": null, "tagline": null, "has_video": false, "website": null, "offers": null, "latitude": 34.013868, "politanName": "Atlanta, GA Metro ", "phone_number": "7707951522", "tags": [{"primary": true, "id": 1722, "name": "Restaurants"}], "fax_number": null, "expansion": {"count": null, "uri": null}, "impression_id": "000b0000000952b3a3c6a048ab87342cbb33f172e2", "profile": "http://www.citysearch.com/profile/828480390/marietta_ga/yogoday.html", "address": {"city": "Marietta", "state": "GA", "street": "125 Ernest W Barrett Pkwy NW", "postal_code": "30060"}, "capProviderId": null, "distance": null, "has_offers": false, "name": "Yogoday", "longitude": -84.55453, "has_menu": false, "awards": null, "user_review_count": 0}, {"business_operation_status": 1, "rating": null, "neighborhood": null, "image": null, "scorecard": null, "featured": false, "sample_categories": "Restaurants, Sandwich Shops, Hot Dogs", "public_id": "roys-royal-dogs-acworth", "id": 840479240, "votes": null, "tagline": null, "has_video": false, "website": "http://www.citysearch.com/profile/external/840479240/acworth_ga/roy_s_royal_dogs.html", "offers": null, "latitude": 34.036201, "politanName": "Atlanta, GA Metro ", "phone_number": "6783836294", "tags": [{"primary": false, "id": 1736, "name": "Sandwich Shops"}, {"primary": false, "id": 11274, "name": "Hot Dogs"}, {"primary": true, "id": 1722, "name": "Restaurants"}], "fax_number": null, "expansion": {"count": null, "uri": null}, "impression_id": "000b0000002fd1390004d84069bb8dd06149221473", "profile": "http://www.citysearch.com/profile/840479240/acworth_ga/roy_s_royal_dogs.html", "address": {"city": "Acworth", "state": "GA", "street": "3330 Cobb Pkwy NW 308", "postal_code": "30101"}, "capProviderId": null, "distance": null, "has_offers": false, "name": "Roy's Royal Dogs", "longitude": -84.67689, "has_menu": false, "awards": null, "user_review_count": 0}, {"business_operation_status": 1, "rating": null, "neighborhood": null, "image": null, "scorecard": null, "featured": false, "sample_categories": "Restaurants, Delis And Delicatessens, Sandwich Shops, Carry Out, Soups", "public_id": "subway-marietta-33", "id": 43851179, "votes": null, "tagline": null, "has_video": false, "website": "http://www.citysearch.com/profile/external/43851179/marietta_ga/subway.html", "offers": null, "latitude": 34.019217, "politanName": "Atlanta, GA Metro ", "phone_number": "7705289499", "tags": [{"primary": false, "id": 1727, "name": "Delis And Delicatessens"}, {"primary": false, "id": 1736, "name": "Sandwich Shops"}, {"primary": false, "id": 11247, "name": "Carry Out"}, {"primary": false, "id": 11311, "name": "Soups"}, {"primary": false, "id": 11361, "name": "MasterCard"}, {"primary": false, "id": 11382, "name": "Visa"}, {"primary": true, "id": 1722, "name": "Restaurants"}], "fax_number": null, "expansion": {"count": null, "uri": null}, "impression_id": "000b00000032aec311e4b449afb79fd03124183b82", "profile": "http://www.citysearch.com/profile/43851179/marietta_ga/subway.html", "address": {"city": "Marietta", "state": "GA", "street": "2795 Chastain Meadows Pkwy", "postal_code": "30066"}, "capProviderId": null, "distance": null, "has_offers": false, "name": "Subway", "longitude": -84.556431, "has_menu": true, "awards": null, "user_review_count": 0}, {"business_operation_status": 1, "rating": null, "neighborhood": null, "image": null, "scorecard": null, "featured": false, "sample_categories": "Restaurants, Delis And Delicatessens", "public_id": "philly-connection-woodstock", "id": 43862564, "votes": null, "tagline": null, "has_video": false, "website": "http://www.citysearch.com/profile/external/43862564/woodstock_ga/philly_connection.html", "offers": null, "latitude": 34.12992, "politanName": "Atlanta, GA Metro ", "phone_number": "7705163447", "tags": [{"primary": false, "id": 1727, "name": "Delis And Delicatessens"}, {"primary": true, "id": 1722, "name": "Restaurants"}], "fax_number": null, "expansion": {"count": null, "uri": null}, "impression_id": "000b00000063ff1ea9fde24ef1a3acbfb226a2c01c", "profile": "http://www.citysearch.com/profile/43862564/woodstock_ga/philly_connection.html", "address": {"city": "Woodstock", "state": "GA", "street": "6240 Old Highway 5", "postal_code": "30188"}, "capProviderId": null, "distance": null, "has_offers": false, "name": "Philly Connection", "longitude": -84.497797, "has_menu": true, "awards": null, "user_review_count": 0}, {"business_operation_status": 1, "rating": null, "neighborhood": null, "image": null, "scorecard": null, "featured": false, "sample_categories": "Restaurants", "public_id": "waynes-kitchen-marietta", "id": 809695950, "votes": null, "tagline": null, "has_video": false, "website": null, "offers": null, "latitude": 34.056558, "politanName": "Atlanta, GA Metro ", "phone_number": "7708527372", "tags": [{"primary": true, "id": 1722, "name": "Restaurants"}], "fax_number": null, "expansion": {"count": null, "uri": null}, "impression_id": "000b000000330bbf33616f4c5c9d5389fca7d71787", "profile": "http://www.citysearch.com/profile/809695950/marietta_ga/wayne_s_kitchen.html", "address": {"city": "Marietta", "state": "GA", "street": "3910 Remington Way", "postal_code": "30066"}, "capProviderId": null, "distance": null, "has_offers": false, "name": "Wayne's Kitchen", "longitude": -84.48619, "has_menu": false, "awards": null, "user_review_count": 0}, {"business_operation_status": 1, "rating": null, "neighborhood": null, "image": null, "scorecard": null, "featured": false, "sample_categories": "Restaurants", "public_id": "home-sphere-incorporated-marietta", "id": 37646261, "votes": null, "tagline": null, "has_video": false, "website": null, "offers": null, "latitude": 34.057885, "politanName": "Atlanta, GA Metro ", "phone_number": "7709247008", "tags": [{"primary": true, "id": 1722, "name": "Restaurants"}], "fax_number": null, "expansion": {"count": null, "uri": null}, "impression_id": "000b0000000b67e9f69d594ce98b9454476c0aa329", "profile": "http://www.citysearch.com/profile/37646261/marietta_ga/home_sphere_incorporated.html", "address": {"city": "Marietta", "state": "GA", "street": "4386 Windsor Oaks Cir", "postal_code": "30066"}, "capProviderId": null, "distance": null, "has_offers": false, "name": "Home Sphere Incorporated", "longitude": -84.45999, "has_menu": false, "awards": null, "user_review_count": 0}, {"business_operation_status": 1, "rating": null, "neighborhood": null, "image": null, "scorecard": null, "featured": false, "sample_categories": "Restaurants", "public_id": "commercial-restaurant-constr-woodstock", "id": 37649510, "votes": null, "tagline": null, "has_video": false, "website": null, "offers": null, "latitude": 34.084075, "politanName": "Atlanta, GA Metro ", "phone_number": "7709245477", "tags": [{"primary": true, "id": 1722, "name": "Restaurants"}], "fax_number": null, "expansion": {"count": null, "uri": null}, "impression_id": "000b0000001e0ef917c13740808bb4ca56271afc09", "profile": "http://www.citysearch.com/profile/37649510/woodstock_ga/commercial_restaurant_constr.html", "address": {"city": "Woodstock", "state": "GA", "street": "301 Heritage Walk", "postal_code": "30188"}, "capProviderId": null, "distance": null, "has_offers": false, "name": "Commercial Restaurant Constr", "longitude": -84.524218, "has_menu": false, "awards": null, "user_review_count": 0}, {"business_operation_status": 1, "rating": null, "neighborhood": null, "image": null, "scorecard": null, "featured": false, "sample_categories": "Restaurants, Fast Food, Carry Out, Hamburgers, American Express", "public_id": "mc-donalds-dallas-16", "id": 43860826, "votes": null, "tagline": null, "has_video": false, "website": "http://www.citysearch.com/profile/external/43860826/dallas_ga/mc_donald_s.html", "offers": null, "latitude": 33.985034, "politanName": "Atlanta, GA Metro ", "phone_number": "7709757395", "tags": [{"primary": false, "id": 11199, "name": "Fast Food"}, {"primary": false, "id": 11247, "name": "Carry Out"}, {"primary": false, "id": 11270, "name": "Hamburgers"}, {"primary": false, "id": 11333, "name": "American Express"}, {"primary": false, "id": 11349, "name": "Discover"}, {"primary": false, "id": 11361, "name": "MasterCard"}, {"primary": false, "id": 11382, "name": "Visa"}, {"primary": true, "id": 1722, "name": "Restaurants"}], "fax_number": null, "expansion": {"count": null, "uri": null}, "impression_id": "000b0000003670fb73d1224244b9ac8c367a8596d6", "profile": "http://www.citysearch.com/profile/43860826/dallas_ga/mc_donald_s.html", "address": {"city": "Dallas", "state": "GA", "street": "8872 Dallas Acworth Hwy", "postal_code": "30132"}, "capProviderId": null, "distance": null, "has_offers": false, "name": "Mc Donald's", "longitude": -84.771736, "has_menu": true, "awards": null, "user_review_count": 0}, {"business_operation_status": 1, "rating": null, "neighborhood": null, "image": null, "scorecard": null, "featured": false, "sample_categories": "Restaurants", "public_id": "moore-moore-investments-inc-dallas", "id": 601315709, "votes": null, "tagline": null, "has_video": false, "website": null, "offers": null, "latitude": 33.935025, "politanName": "Atlanta, GA Metro ", "phone_number": "7704432856", "tags": [{"primary": true, "id": 1722, "name": "Restaurants"}], "fax_number": null, "expansion": {"count": null, "uri": null}, "impression_id": "000b000000c9d63ee45c7546b4a76b82a88b99e6d6", "profile": "http://www.citysearch.com/profile/601315709/dallas_ga/moore_moore_investments_inc.html", "address": {"city": "Dallas", "state": "GA", "street": "3615 Marietta Hwy", "postal_code": "30157"}, "capProviderId": null, "distance": null, "has_offers": false, "name": "Moore & Moore Investments Inc", "longitude": -84.73087, "has_menu": false, "awards": null, "user_review_count": 0}, {"business_operation_status": 1, "rating": null, "neighborhood": null, "image": null, "scorecard": null, "featured": false, "sample_categories": "Restaurants", "public_id": "super-taco-acworth", "id": 823313050, "votes": null, "tagline": null, "has_video": false, "website": null, "offers": null, "latitude": 34.087401, "politanName": "Atlanta, GA Metro ", "phone_number": "7705178844", "tags": [{"primary": true, "id": 1722, "name": "Restaurants"}], "fax_number": null, "expansion": {"count": null, "uri": null}, "impression_id": "000b0000004f48aedd5ae24d51bbb39e3fa8fda952", "profile": "http://www.citysearch.com/profile/823313050/acworth_ga/super_taco.html", "address": {"city": "Acworth", "state": "GA", "street": "6822 Highway 92", "postal_code": "30102"}, "capProviderId": null, "distance": null, "has_offers": false, "name": "Super Taco", "longitude": -84.574301, "has_menu": false, "awards": null, "user_review_count": 0}, {"business_operation_status": 1, "rating": null, "neighborhood": null, "image": null, "scorecard": null, "featured": false, "sample_categories": "Restaurants", "public_id": "mcdonalds-restaurants-woodstock", "id": 611864144, "votes": null, "tagline": null, "has_video": false, "website": null, "offers": null, "latitude": 34.109466, "politanName": "Atlanta, GA Metro ", "phone_number": "7709288516", "tags": [{"primary": true, "id": 1722, "name": "Restaurants"}], "fax_number": null, "expansion": {"count": null, "uri": null}, "impression_id": "000b000000d62e7038bd044969bf60285c46be13fe", "profile": "http://www.citysearch.com/profile/611864144/woodstock_ga/mcdonald_s_restaurants.html", "address": {"city": "Woodstock", "state": "GA", "street": "2105 Towne Lake Pkwy", "postal_code": "30189"}, "capProviderId": null, "distance": null, "has_offers": false, "name": "Mcdonald's Restaurants", "longitude": -84.553078, "has_menu": false, "awards": null, "user_review_count": 0}, {"business_operation_status": 1, "rating": 8.0, "neighborhood": null, "image": null, "scorecard": null, "featured": false, "sample_categories": "Restaurants, American Express, Discover, MasterCard, Visa", "public_id": "carols-cafe-marietta", "id": 2908298, "votes": null, "tagline": null, "has_video": false, "website": null, "offers": null, "latitude": 34.013278, "politanName": "Atlanta, GA Metro ", "phone_number": "7704224641", "tags": [{"primary": false, "id": 11333, "name": "American Express"}, {"primary": false, "id": 11349, "name": "Discover"}, {"primary": false, "id": 11361, "name": "MasterCard"}, {"primary": false, "id": 11382, "name": "Visa"}, {"primary": true, "id": 1722, "name": "Restaurants"}], "fax_number": null, "expansion": {"count": null, "uri": null}, "impression_id": "000b00000087b90825c94b4e6aaf037019d2bc0421", "profile": "http://www.citysearch.com/profile/2908298/marietta_ga/carol_s_cafe.html", "address": {"city": "Marietta", "state": "GA", "street": "2543 Bells Ferry Rd", "postal_code": "30066"}, "capProviderId": null, "distance": null, "has_offers": false, "name": "Carol's Cafe", "longitude": -84.549897, "has_menu": false, "awards": null, "user_review_count": 2}, {"business_operation_status": 1, "rating": 10.0, "neighborhood": null, "image": null, "scorecard": null, "featured": false, "sample_categories": "Restaurants, Pizza", "public_id": "casa-mia-pizza-italian-restaurant-acworth", "id": 2939267, "votes": null, "tagline": null, "has_video": false, "website": null, "offers": null, "latitude": 34.076062, "politanName": "Atlanta, GA Metro ", "phone_number": "7709178400", "tags": [{"primary": false, "id": 1722, "name": "Restaurants"}, {"primary": true, "id": 11299, "name": "Pizza"}], "fax_number": null, "expansion": {"count": null, "uri": null}, "impression_id": "000b0000009d319b50745d444ab920a2aab68c596f", "profile": "http://www.citysearch.com/profile/2939267/acworth_ga/casa_mia_pizza_italian_restaurant.html", "address": {"city": "Acworth", "state": "GA", "street": "5092 Cherokee St", "postal_code": "30101"}, "capProviderId": null, "distance": null, "has_offers": false, "name": "Casa Mia Pizza Italian Restaurant", "longitude": -84.676745, "has_menu": false, "awards": null, "user_review_count": 2}, {"business_operation_status": 1, "rating": null, "neighborhood": null, "image": null, "scorecard": null, "featured": false, "sample_categories": "Restaurants", "public_id": "car-checkers-powder-spgs", "id": 2950697, "votes": null, "tagline": null, "has_video": false, "website": null, "offers": null, "latitude": 33.935913, "politanName": "Atlanta, GA Metro ", "phone_number": "7705148100", "tags": [{"primary": true, "id": 1722, "name": "Restaurants"}], "fax_number": null, "expansion": {"count": null, "uri": null}, "impression_id": "000b0000005f909accea1646079e1ae81bab76ae23", "profile": "http://www.citysearch.com/profile/2950697/powder_springs_ga/car_checkers.html", "address": {"city": "Powder Springs", "state": "GA", "street": "591 Leah Dr", "postal_code": "30127"}, "capProviderId": null, "distance": null, "has_offers": false, "name": "Car Checkers", "longitude": -84.663484, "has_menu": false, "awards": null, "user_review_count": 0}, {"business_operation_status": 1, "rating": 9.0, "neighborhood": null, "image": null, "scorecard": null, "featured": false, "sample_categories": "Restaurants, American Express, Discover, MasterCard, Visa", "public_id": "country-cottage-family-rstrnt-woodstock", "id": 2964179, "votes": null, "tagline": null, "has_video": false, "website": null, "offers": null, "latitude": 34.084441, "politanName": "Atlanta, GA Metro ", "phone_number": "7705160904", "tags": [{"primary": false, "id": 11333, "name": "American Express"}, {"primary": false, "id": 11349, "name": "Discover"}, {"primary": false, "id": 11361, "name": "MasterCard"}, {"primary": false, "id": 11382, "name": "Visa"}, {"primary": true, "id": 1722, "name": "Restaurants"}], "fax_number": null, "expansion": {"count": null, "uri": null}, "impression_id": "000b000000edcb4ec3f2ef41e9bcb1e8d74c5aeb65", "profile": "http://www.citysearch.com/profile/2964179/woodstock_ga/country_cottage_family_rstrnt.html", "address": {"city": "Woodstock", "state": "GA", "street": "9740 Main St", "postal_code": "30188"}, "capProviderId": null, "distance": null, "has_offers": false, "name": "Country Cottage Family Rstrnt", "longitude": -84.519818, "has_menu": false, "awards": null, "user_review_count": 2}, {"business_operation_status": 1, "rating": null, "neighborhood": null, "image": null, "scorecard": null, "featured": false, "sample_categories": "Delis And Delicatessens, Restaurants", "public_id": "deli-dellghts-marietta", "id": 764838340, "votes": null, "tagline": null, "has_video": false, "website": null, "offers": null, "latitude": 33.952594, "politanName": "Atlanta, GA Metro ", "phone_number": "6784016001", "tags": [{"primary": false, "id": 1722, "name": "Restaurants"}, {"primary": true, "id": 1727, "name": "Delis And Delicatessens"}], "fax_number": null, "expansion": {"count": null, "uri": null}, "impression_id": "000b00000005c0e9df9378481587ce30622160dfba", "profile": "http://www.citysearch.com/profile/764838340/marietta_ga/deli_dellghts.html", "address": {"city": "Marietta", "state": "GA", "street": "800 Whitlock Ave NW", "postal_code": "30064"}, "capProviderId": null, "distance": null, "has_offers": false, "name": "Deli Dellghts", "longitude": -84.575881, "has_menu": false, "awards": null, "user_review_count": 0}, {"business_operation_status": 1, "rating": null, "neighborhood": null, "image": null, "scorecard": null, "featured": false, "sample_categories": "Restaurants", "public_id": "yupk-llc-acworth", "id": 764935540, "votes": null, "tagline": null, "has_video": false, "website": null, "offers": null, "latitude": 34.06489, "politanName": "Atlanta, GA Metro ", "phone_number": "7706936770", "tags": [{"primary": true, "id": 1722, "name": "Restaurants"}], "fax_number": null, "expansion": {"count": null, "uri": null}, "impression_id": "000b000000493f97c0b61743f6802bce46b9d20ef9", "profile": "http://www.citysearch.com/profile/764935540/acworth_ga/yupk_llc.html", "address": {"city": "Acworth", "state": "GA", "street": "2535 Hickory Grove Rd NW", "postal_code": "30101"}, "capProviderId": null, "distance": null, "has_offers": false, "name": "YUPK Llc", "longitude": -84.624038, "has_menu": false, "awards": null, "user_review_count": 0}, {"business_operation_status": 1, "rating": null, "neighborhood": null, "image": null, "scorecard": null, "featured": false, "sample_categories": "Restaurants, Pizza", "public_id": "anthonys-pizza-pasta-acworth", "id": 764842840, "votes": null, "tagline": null, "has_video": false, "website": null, "offers": null, "latitude": 34.081615, "politanName": "Atlanta, GA Metro ", "phone_number": "7709248199", "tags": [{"primary": false, "id": 11299, "name": "Pizza"}, {"primary": true, "id": 1722, "name": "Restaurants"}], "fax_number": null, "expansion": {"count": null, "uri": null}, "impression_id": "000b000000bc8ee9c85c204951bbb842181e926c81", "profile": "http://www.citysearch.com/profile/764842840/acworth_ga/anthonys_pizza_pasta.html", "address": {"city": "Acworth", "state": "GA", "street": "5399 Bells Ferry Rd", "postal_code": "30102"}, "capProviderId": null, "distance": null, "has_offers": false, "name": "Anthonys Pizza & Pasta", "longitude": -84.575225, "has_menu": false, "awards": null, "user_review_count": 0}, {"business_operation_status": 1, "rating": null, "neighborhood": null, "image": null, "scorecard": null, "featured": false, "sample_categories": "Restaurants", "public_id": "vineyard-cafe-marietta", "id": 766766850, "votes": null, "tagline": null, "has_video": false, "website": null, "offers": null, "latitude": 33.950297, "politanName": "Atlanta, GA Metro ", "phone_number": "6785813771", "tags": [{"primary": true, "id": 1722, "name": "Restaurants"}], "fax_number": null, "expansion": {"count": null, "uri": null}, "impression_id": "000b000000d63782fee81f43e4af57dad13dd9d8b9", "profile": "http://www.citysearch.com/profile/766766850/marietta_ga/vineyard_cafe.html", "address": {"city": "Marietta", "state": "GA", "street": "21 Park St SE", "postal_code": "30060"}, "capProviderId": null, "distance": null, "has_offers": false, "name": "Vineyard Cafe", "longitude": -84.533173, "has_menu": true, "awards": null, "user_review_count": 0}, {"business_operation_status": 1, "rating": null, "neighborhood": null, "image": null, "scorecard": null, "featured": false, "sample_categories": "Restaurants, Carry Out, Hamburgers", "public_id": "mc-donalds-acworth-5", "id": 766781880, "votes": null, "tagline": null, "has_video": false, "website": null, "offers": null, "latitude": 34.058363, "politanName": "Atlanta, GA Metro ", "phone_number": "7709174645", "tags": [{"primary": false, "id": 11247, "name": "Carry Out"}, {"primary": false, "id": 11270, "name": "Hamburgers"}, {"primary": true, "id": 1722, "name": "Restaurants"}], "fax_number": null, "expansion": {"count": null, "uri": null}, "impression_id": "000b000000c8656464f2ec4043a847d97e6010c2a6", "profile": "http://www.citysearch.com/profile/766781880/acworth_ga/mc_donald_s.html", "address": {"city": "Acworth", "state": "GA", "street": "4381 Acworth Dallas Rd NW", "postal_code": "30101"}, "capProviderId": null, "distance": null, "has_offers": false, "name": "Mc Donald's", "longitude": -84.723405, "has_menu": false, "awards": null, "user_review_count": 0}, {"business_operation_status": 0, "rating": null, "neighborhood": null, "image": null, "scorecard": null, "featured": false, "sample_categories": "Restaurants", "public_id": "la-carreta-mexican-restaurant-woodstock", "id": 728128660, "votes": null, "tagline": null, "has_video": false, "website": null, "offers": null, "latitude": 34.123326, "politanName": "Atlanta, GA Metro ", "phone_number": "7709240232", "tags": [{"primary": true, "id": 1722, "name": "Restaurants"}], "fax_number": null, "expansion": {"count": null, "uri": null}, "impression_id": "000b000000f22042d66e0b4740a22960f69700ff97", "profile": "http://www.citysearch.com/profile/728128660/woodstock_ga/la_carreta_mexican_restaurant.html", "address": {"city": "Woodstock", "state": "GA", "street": "6557 Bells Ferry Rd", "postal_code": "30189"}, "capProviderId": null, "distance": null, "has_offers": false, "name": "La Carreta Mexican Restaurant", "longitude": -84.585926, "has_menu": false, "awards": null, "user_review_count": 0}, {"business_operation_status": 1, "rating": null, "neighborhood": null, "image": null, "scorecard": null, "featured": false, "sample_categories": "Restaurants", "public_id": "sun-dried-restaurant-marietta", "id": 790803840, "votes": null, "tagline": null, "has_video": false, "website": null, "offers": null, "latitude": 34.015118, "politanName": "Atlanta, GA Metro ", "phone_number": "6785406642", "tags": [{"primary": true, "id": 1722, "name": "Restaurants"}], "fax_number": null, "expansion": {"count": null, "uri": null}, "impression_id": "000b000000a3aebecc9e3d4c3d9847435622ae4d34", "profile": "http://www.citysearch.com/profile/790803840/marietta_ga/sun_dried_restaurant.html", "address": {"city": "Marietta", "state": "GA", "street": "2635 Sandy Plains Rd", "postal_code": "30066"}, "capProviderId": null, "distance": null, "has_offers": false, "name": "Sun Dried Restaurant", "longitude": -84.495187, "has_menu": true, "awards": null, "user_review_count": 0}, {"business_operation_status": 0, "rating": null, "neighborhood": null, "image": null, "scorecard": null, "featured": false, "sample_categories": "Restaurants", "public_id": "sweet-pea-cafe-deli-marietta", "id": 655825170, "votes": null, "tagline": null, "has_video": false, "website": null, "offers": null, "latitude": 33.951248, "politanName": "Atlanta, GA Metro ", "phone_number": "7709777167", "tags": [{"primary": true, "id": 1722, "name": "Restaurants"}], "fax_number": null, "expansion": {"count": null, "uri": null}, "impression_id": "000b0000008e3b0b7734ac422ea1df87fd22cd813c", "profile": "http://www.citysearch.com/profile/655825170/marietta_ga/sweet_pea_cafe_deli.html", "address": {"city": "Marietta", "state": "GA", "street": "1516 Roswell Rd", "postal_code": "30062"}, "capProviderId": null, "distance": null, "has_offers": false, "name": "Sweet Pea Cafe & Deli", "longitude": -84.508172, "has_menu": true, "awards": null, "user_review_count": 0}, {"business_operation_status": 1, "rating": null, "neighborhood": null, "image": null, "scorecard": null, "featured": false, "sample_categories": "Restaurants, Traditional American", "public_id": "charlies-philly-steaks-woodstock", "id": 802507100, "votes": null, "tagline": null, "has_video": false, "website": null, "offers": null, "latitude": 34.120722, "politanName": "Atlanta, GA Metro ", "phone_number": "7705929201", "tags": [{"primary": false, "id": 11190, "name": "Traditional American"}, {"primary": true, "id": 1722, "name": "Restaurants"}], "fax_number": null, "expansion": {"count": null, "uri": null}, "impression_id": "000b0000002631ad62c13049bdbd32738c58f862a1", "profile": "http://www.citysearch.com/profile/802507100/woodstock_ga/charlie_s_philly_steaks.html", "address": {"city": "Woodstock", "state": "GA", "street": "915 Ridgewalk Pkwy", "postal_code": "30188"}, "capProviderId": null, "distance": null, "has_offers": false, "name": "Charlie's Philly Steaks", "longitude": -84.525028, "has_menu": false, "awards": null, "user_review_count": 0}, {"business_operation_status": 1, "rating": null, "neighborhood": null, "image": null, "scorecard": null, "featured": false, "sample_categories": "Restaurants, Pizza", "public_id": "marcos-pizza-canton-2", "id": 682454510, "votes": null, "tagline": null, "has_video": false, "website": "http://www.citysearch.com/profile/external/682454510/canton_ga/marco_s_pizza.html", "offers": null, "latitude": 34.17855, "politanName": "Atlanta, GA Metro ", "phone_number": "7707201234", "tags": [{"primary": false, "id": 11299, "name": "Pizza"}, {"primary": true, "id": 1722, "name": "Restaurants"}], "fax_number": null, "expansion": {"count": null, "uri": null}, "impression_id": "000b000000dfbce02d558549dd883f7b679f9c1fa8", "profile": "http://www.citysearch.com/profile/682454510/canton_ga/marco_s_pizza.html", "address": {"city": "Canton", "state": "GA", "street": "3725 Sixes Rd", "postal_code": "30114"}, "capProviderId": null, "distance": null, "has_offers": false, "name": "Marco's Pizza", "longitude": -84.550377, "has_menu": true, "awards": null, "user_review_count": 0}, {"business_operation_status": 1, "rating": null, "neighborhood": null, "image": null, "scorecard": null, "featured": false, "sample_categories": "Barbecue Restaurants", "public_id": "stubbys-barbeque-acworth", "id": 810815150, "votes": null, "tagline": null, "has_video": false, "website": null, "offers": null, "latitude": 34.063964, "politanName": "Atlanta, GA Metro ", "phone_number": "7709748871", "tags": [{"primary": true, "id": 1724, "name": "Barbecue Restaurants"}], "fax_number": null, "expansion": {"count": null, "uri": null}, "impression_id": "000b00000084dcf362ade74cc793d23b348def3376", "profile": "http://www.citysearch.com/profile/810815150/acworth_ga/stubbys_barbeque.html", "address": {"city": "Acworth", "state": "GA", "street": "4628 S Main St", "postal_code": "30101"}, "capProviderId": null, "distance": null, "has_offers": false, "name": "Stubbys Barbeque", "longitude": -84.671776, "has_menu": false, "awards": null, "user_review_count": 0}, {"business_operation_status": 1, "rating": null, "neighborhood": null, "image": null, "scorecard": null, "featured": false, "sample_categories": "Restaurants, Carry Out", "public_id": "arbys-marietta-15", "id": 764873610, "votes": null, "tagline": null, "has_video": false, "website": null, "offers": null, "latitude": 33.967279, "politanName": "Atlanta, GA Metro ", "phone_number": "7704240784", "tags": [{"primary": false, "id": 11247, "name": "Carry Out"}, {"primary": true, "id": 1722, "name": "Restaurants"}], "fax_number": null, "expansion": {"count": null, "uri": null}, "impression_id": "000b000000dfa714db68934d1cb880997ed7572884", "profile": "http://www.citysearch.com/profile/764873610/marietta_ga/arby_s.html", "address": {"city": "Marietta", "state": "GA", "street": "643 Cobb Pkwy N", "postal_code": "30062"}, "capProviderId": null, "distance": null, "has_offers": false, "name": "Arby's", "longitude": -84.535738, "has_menu": false, "awards": null, "user_review_count": 0}, {"business_operation_status": 1, "rating": null, "neighborhood": null, "image": null, "scorecard": null, "featured": false, "sample_categories": "Restaurants, Traditional American, Carry Out", "public_id": "mr-philly-marietta", "id": 764893230, "votes": null, "tagline": null, "has_video": false, "website": null, "offers": null, "latitude": 33.953033, "politanName": "Atlanta, GA Metro ", "phone_number": "7705750615", "tags": [{"primary": false, "id": 11190, "name": "Traditional American"}, {"primary": false, "id": 11247, "name": "Carry Out"}, {"primary": true, "id": 1722, "name": "Restaurants"}], "fax_number": null, "expansion": {"count": null, "uri": null}, "impression_id": "000b0000009ba10c1964844638a5daf9ddb33a6c5c", "profile": "http://www.citysearch.com/profile/764893230/marietta_ga/mr_philly.html", "address": {"city": "Marietta", "state": "GA", "street": "1000 Whitlock Ave NW # 110", "postal_code": "30064"}, "capProviderId": null, "distance": null, "has_offers": false, "name": "Mr Philly", "longitude": -84.581202, "has_menu": false, "awards": null, "user_review_count": 0}, {"business_operation_status": 1, "rating": null, "neighborhood": null, "image": null, "scorecard": null, "featured": false, "sample_categories": "Restaurants, Carry Out, Chicken", "public_id": "popeyes-chicken-biscuits-marietta-3", "id": 764903940, "votes": null, "tagline": null, "has_video": false, "website": null, "offers": null, "latitude": 33.922747, "politanName": "Atlanta, GA Metro ", "phone_number": "7707947031", "tags": [{"primary": false, "id": 11247, "name": "Carry Out"}, {"primary": false, "id": 12839, "name": "Chicken"}, {"primary": true, "id": 1722, "name": "Restaurants"}], "fax_number": null, "expansion": {"count": null, "uri": null}, "impression_id": "000b000000eea9e5dd34f54bb192740f6cf285063f", "profile": "http://www.citysearch.com/profile/764903940/marietta_ga/popeye_s_chicken_biscuits.html", "address": {"city": "Marietta", "state": "GA", "street": "1444 Livingston Dr SW", "postal_code": "30064"}, "capProviderId": null, "distance": null, "has_offers": false, "name": "Popeye's Chicken & Biscuits", "longitude": -84.596038, "has_menu": false, "awards": null, "user_review_count": 0}], "histograms": [], "tag_ids": [1722], "uri": "http://api.citygridmedia.com:8080/search/places/v2/search/where?has_offers=false&type=restaurant&format=json&page=23&where=30144&rpp=50&histograms=false&publisher=10000009598&region_type=circle", "did_you_mean": "", "regions": [{"latitude": 34.037076, "default_radius": 4.72, "type": "postal_code", "name": "30144", "longitude": -84.591034}], "call_id": "000b000000c305562d9bec457eb0362d42b533d047", "first_hit": 1101, "total_hits": 1696, "geo_ids": [26310], "page": 23, "last_hit": 1150}}