{"results": {"rpp": 50, "locations": [{"business_operation_status": 1, "rating": null, "neighborhood": null, "image": null, "scorecard": null, "featured": false, "sample_categories": "Restaurants", "public_id": "stricks-southern-flavor-grill-marietta", "id": 728066170, "votes": null, "tagline": null, "has_video": false, "website": null, "offers": null, "latitude": 33.955558, "politanName": "Atlanta, GA Metro ", "phone_number": "6783555538", "tags": [{"primary": true, "id": 1722, "name": "Restaurants"}], "fax_number": null, "expansion": {"count": null, "uri": null}, "impression_id": "000b000000b3f969b5d6f8457e87e7a27b849b790b", "profile": "http://www.citysearch.com/profile/728066170/marietta_ga/strick_s_southern_flavor_grill.html", "address": {"city": "Marietta", "state": "GA", "street": "168 Hunt St Ne", "postal_code": "30060"}, "capProviderId": null, "distance": null, "has_offers": false, "name": "Strick's Southern Flavor Grill", "longitude": -84.544275, "has_menu": false, "awards": null, "user_review_count": 0}, {"business_operation_status": 1, "rating": null, "neighborhood": null, "image": null, "scorecard": null, "featured": false, "sample_categories": "Restaurants, Barbecue Restaurants", "public_id": "j-buffalo-house-atlanta", "id": 655913520, "votes": null, "tagline": null, "has_video": false, "website": null, "offers": null, "latitude": 34.111377, "politanName": "Atlanta, GA Metro ", "phone_number": "6788277613", "tags": [{"primary": false, "id": 1724, "name": "Barbecue Restaurants"}, {"primary": true, "id": 1722, "name": "Restaurants"}], "fax_number": null, "expansion": {"count": null, "uri": null}, "impression_id": "000b0000003c124cdf0f1946a0a65d1181226fabad", "profile": "http://www.citysearch.com/profile/655913520/atlanta_ga/j_buffalo_house.html", "address": {"city": "Atlanta", "state": "GA", "street": "5428 Riverstation Blvd", "postal_code": "30349"}, "capProviderId": null, "distance": null, "has_offers": false, "name": "J Buffalo House", "longitude": -84.462097, "has_menu": false, "awards": null, "user_review_count": 0}, {"business_operation_status": 1, "rating": null, "neighborhood": null, "image": null, "scorecard": null, "featured": false, "sample_categories": "Restaurants, Chinese, American Express, Discover, MasterCard", "public_id": "china-sun-restaurant-marietta", "id": 2906495, "votes": null, "tagline": null, "has_video": false, "website": null, "offers": null, "latitude": 33.926201, "politanName": "Atlanta, GA Metro ", "phone_number": "7704268780", "tags": [{"primary": false, "id": 11252, "name": "Chinese"}, {"primary": false, "id": 11333, "name": "American Express"}, {"primary": false, "id": 11349, "name": "Discover"}, {"primary": false, "id": 11361, "name": "MasterCard"}, {"primary": false, "id": 11382, "name": "Visa"}, {"primary": true, "id": 1722, "name": "Restaurants"}], "fax_number": null, "expansion": {"count": null, "uri": null}, "impression_id": "000b000000147c6dd5b45145c4baa5307a47ad4f70", "profile": "http://www.citysearch.com/profile/2906495/marietta_ga/china_sun_restaurant.html", "address": {"city": "Marietta", "state": "GA", "street": "1150 Powder Springs St Ste 20", "postal_code": "30064"}, "capProviderId": null, "distance": null, "has_offers": false, "name": "China Sun Restaurant", "longitude": -84.574094, "has_menu": false, "awards": null, "user_review_count": 1}, {"business_operation_status": 1, "rating": 10.0, "neighborhood": null, "image": null, "scorecard": null, "featured": false, "sample_categories": "Delis And Delicatessens, Restaurants, Sandwich Shops", "public_id": "blimpie-subs-sandwiches-acworth", "id": 2939723, "votes": null, "tagline": null, "has_video": false, "website": "http://www.citysearch.com/profile/external/2939723/acworth_ga/blimpie_subs_sandwiches.html", "offers": null, "latitude": 34.088626, "politanName": "Atlanta, GA Metro ", "phone_number": "7709241725", "tags": [{"primary": false, "id": 1722, "name": "Restaurants"}, {"primary": false, "id": 1736, "name": "Sandwich Shops"}, {"primary": true, "id": 1727, "name": "Delis And Delicatessens"}], "fax_number": null, "expansion": {"count": null, "uri": null}, "impression_id": "000b0000009ed74a779c8d476fa647279ba4de5273", "profile": "http://www.citysearch.com/profile/2939723/acworth_ga/blimpie_subs_sandwiches.html", "address": {"city": "Acworth", "state": "GA", "street": "6161 Highway 92", "postal_code": "30102"}, "capProviderId": null, "distance": null, "has_offers": false, "name": "Blimpie Subs & Sandwiches", "longitude": -84.586852, "has_menu": true, "awards": null, "user_review_count": 0}, {"business_operation_status": 1, "rating": null, "neighborhood": null, "image": null, "scorecard": null, "featured": false, "sample_categories": "Restaurants, Ice Cream Parlors, Carry Out", "public_id": "mc-donalds-marietta-21", "id": 764880600, "votes": null, "tagline": null, "has_video": false, "website": null, "offers": null, "latitude": 33.952602, "politanName": "Atlanta, GA Metro ", "phone_number": "4047846909", "tags": [{"primary": false, "id": 1730, "name": "Ice Cream Parlors"}, {"primary": false, "id": 11247, "name": "Carry Out"}, {"primary": true, "id": 1722, "name": "Restaurants"}], "fax_number": null, "expansion": {"count": null, "uri": null}, "impression_id": "000b000000503860eb095b4a89a24ef86d1c63bf95", "profile": "http://www.citysearch.com/profile/764880600/marietta_ga/mc_donald_s.html", "address": {"city": "Marietta", "state": "GA", "street": "PO Box 965370", "postal_code": "30066"}, "capProviderId": null, "distance": null, "has_offers": false, "name": "Mc Donald's", "longitude": -84.549933, "has_menu": false, "awards": null, "user_review_count": 0}, {"business_operation_status": 1, "rating": null, "neighborhood": null, "image": null, "scorecard": null, "featured": false, "sample_categories": "Restaurants", "public_id": "cinco-dmayo-mexican-rstrnt-acworth", "id": 742200990, "votes": null, "tagline": null, "has_video": false, "website": null, "offers": null, "latitude": 34.074986, "politanName": "Atlanta, GA Metro ", "phone_number": "7705297649", "tags": [{"primary": true, "id": 1722, "name": "Restaurants"}], "fax_number": null, "expansion": {"count": null, "uri": null}, "impression_id": "000b00000068c04f4b15014d8bbe3f05b80189a0d9", "profile": "http://www.citysearch.com/profile/742200990/acworth_ga/cinco_d_mayo_mexican_rstrnt.html", "address": {"city": "Acworth", "state": "GA", "street": "5050 Cherokee St", "postal_code": "30101"}, "capProviderId": null, "distance": null, "has_offers": false, "name": "Cinco D'Mayo Mexican Rstrnt", "longitude": -84.676954, "has_menu": false, "awards": null, "user_review_count": 0}, {"business_operation_status": 1, "rating": null, "neighborhood": null, "image": null, "scorecard": null, "featured": false, "sample_categories": "Food & Dining, Restaurants, Attorneys & Legal Services, Legal Services, German", "public_id": "frankfurt-doner-woodstock", "id": 750374840, "votes": null, "tagline": null, "has_video": false, "website": null, "offers": null, "latitude": 34.085329, "politanName": "Atlanta, GA Metro ", "phone_number": "6784014991", "tags": [{"primary": false, "id": 1722, "name": "Restaurants"}, {"primary": false, "id": 204, "name": "Attorneys & Legal Services"}, {"primary": false, "id": 232, "name": "Legal Services"}, {"primary": false, "id": 11220, "name": "German"}, {"primary": true, "id": 1684, "name": "Food & Dining"}], "fax_number": null, "expansion": {"count": null, "uri": null}, "impression_id": "000b000000d2756b6215384ab7b53a9c919a03cd1e", "profile": "http://www.citysearch.com/profile/750374840/woodstock_ga/frankfurt_doner.html", "address": {"city": "Woodstock", "state": "GA", "street": "6845 Hwy 92", "postal_code": "30189"}, "capProviderId": null, "distance": null, "has_offers": false, "name": "Frankfurt Doner", "longitude": -84.555916, "has_menu": false, "awards": null, "user_review_count": 0}, {"business_operation_status": 1, "rating": null, "neighborhood": null, "image": null, "scorecard": null, "featured": false, "sample_categories": "Restaurants, Pizza", "public_id": "pizza-314-woodstock-2", "id": 751319670, "votes": null, "tagline": null, "has_video": false, "website": null, "offers": null, "latitude": 34.113125, "politanName": "Atlanta, GA Metro ", "phone_number": "6784017250", "tags": [{"primary": false, "id": 11299, "name": "Pizza"}, {"primary": true, "id": 1722, "name": "Restaurants"}], "fax_number": null, "expansion": {"count": null, "uri": null}, "impression_id": "000b000000cc77752c967841f59ce9d17138745b03", "profile": "http://www.citysearch.com/profile/751319670/woodstock_ga/pizza_314.html", "address": {"city": "Woodstock", "state": "GA", "street": "6424 Bells Ferry Rd", "postal_code": "30189"}, "capProviderId": null, "distance": null, "has_offers": false, "name": "Pizza 314", "longitude": -84.582117, "has_menu": false, "awards": null, "user_review_count": 0}, {"business_operation_status": 1, "rating": null, "neighborhood": null, "image": null, "scorecard": null, "featured": false, "sample_categories": "Restaurants, Italian", "public_id": "martinos-italian-restaurant-dallas", "id": 766757000, "votes": null, "tagline": null, "has_video": false, "website": null, "offers": null, "latitude": 33.98438, "politanName": "Atlanta, GA Metro ", "phone_number": "6787385561", "tags": [{"primary": false, "id": 11279, "name": "Italian"}, {"primary": true, "id": 1722, "name": "Restaurants"}], "fax_number": null, "expansion": {"count": null, "uri": null}, "impression_id": "000b000000691a4a0502e44849a900c94381f95a10", "profile": "http://www.citysearch.com/profile/766757000/dallas_ga/martino_s_italian_restaurant.html", "address": {"city": "Dallas", "state": "GA", "street": "8877 Acwoth Dallas Hwy", "postal_code": "30132"}, "capProviderId": null, "distance": null, "has_offers": false, "name": "Martino's Italian Restaurant", "longitude": -84.772457, "has_menu": false, "awards": null, "user_review_count": 0}, {"business_operation_status": 1, "rating": null, "neighborhood": null, "image": null, "scorecard": null, "featured": false, "sample_categories": "Restaurants", "public_id": "la-tagliatellakennesaw-kennesaw", "id": 768794230, "votes": null, "tagline": null, "has_video": false, "website": null, "offers": null, "latitude": 34.002327, "politanName": "Atlanta, GA Metro ", "phone_number": "6789053611", "tags": [{"primary": true, "id": 1722, "name": "Restaurants"}], "fax_number": null, "expansion": {"count": null, "uri": null}, "impression_id": "000b000000ab2a945894934f16ba7d8f314af7412e", "profile": "http://www.citysearch.com/profile/768794230/kennesaw_ga/la_tagliatella_kennesaw.html", "address": {"city": "Kennesaw", "state": "GA", "street": "2045 Attic Pkwy NW", "postal_code": "30152"}, "capProviderId": null, "distance": null, "has_offers": false, "name": "La Tagliatella-Kennesaw", "longitude": -84.604376, "has_menu": false, "awards": null, "user_review_count": 0}, {"business_operation_status": 1, "rating": null, "neighborhood": null, "image": null, "scorecard": null, "featured": false, "sample_categories": "Restaurants, Barbecue Restaurants", "public_id": "wings-grill-woodstock", "id": 777797080, "votes": null, "tagline": null, "has_video": false, "website": null, "offers": null, "latitude": 34.087507, "politanName": "Atlanta, GA Metro ", "phone_number": "7709261919", "tags": [{"primary": false, "id": 1724, "name": "Barbecue Restaurants"}, {"primary": true, "id": 1722, "name": "Restaurants"}], "fax_number": null, "expansion": {"count": null, "uri": null}, "impression_id": "000b0000003c9219ec4ea744db830cb1923e7c6b78", "profile": "http://www.citysearch.com/profile/777797080/woodstock_ga/wings_grill.html", "address": {"city": "Woodstock", "state": "GA", "street": "12186 Highway 92 # 108", "postal_code": "30188"}, "capProviderId": null, "distance": null, "has_offers": false, "name": "Wings & Grill", "longitude": -84.480846, "has_menu": false, "awards": null, "user_review_count": 0}, {"business_operation_status": 1, "rating": null, "neighborhood": null, "image": null, "scorecard": null, "featured": false, "sample_categories": "Restaurants, Delis And Delicatessens, Sandwich Shops, Carry Out", "public_id": "reisner-restaurants-inc-woodstock", "id": 768829050, "votes": null, "tagline": null, "has_video": false, "website": "http://www.citysearch.com/profile/external/768829050/woodstock_ga/reisner_restaurants_inc.html", "offers": null, "latitude": 34.101487, "politanName": "Atlanta, GA Metro ", "phone_number": "7704852212", "tags": [{"primary": false, "id": 1727, "name": "Delis And Delicatessens"}, {"primary": false, "id": 1736, "name": "Sandwich Shops"}, {"primary": false, "id": 11247, "name": "Carry Out"}, {"primary": true, "id": 1722, "name": "Restaurants"}], "fax_number": null, "expansion": {"count": null, "uri": null}, "impression_id": "000b000000874dab80f95d4926bbbc8b55e881544c", "profile": "http://www.citysearch.com/profile/768829050/woodstock_ga/reisner_restaurants_inc.html", "address": {"city": "Woodstock", "state": "GA", "street": "8265 Highway Ninety Two Ste 10", "postal_code": "30189"}, "capProviderId": null, "distance": null, "has_offers": false, "name": "Reisner Restaurants Inc", "longitude": -84.519375, "has_menu": false, "awards": null, "user_review_count": 0}, {"business_operation_status": 1, "rating": null, "neighborhood": null, "image": null, "scorecard": null, "featured": false, "sample_categories": "Restaurants", "public_id": "featherstones-grille-woodstock", "id": 787102740, "votes": null, "tagline": null, "has_video": false, "website": null, "offers": null, "latitude": 34.117645, "politanName": "Atlanta, GA Metro ", "phone_number": "7709266097", "tags": [{"primary": true, "id": 1722, "name": "Restaurants"}], "fax_number": null, "expansion": {"count": null, "uri": null}, "impression_id": "000b00000032c8a1c7b1b047e7b21503b6e7922049", "profile": "http://www.citysearch.com/profile/787102740/woodstock_ga/featherstones_grille.html", "address": {"city": "Woodstock", "state": "GA", "street": "1003 Towne Lake Hls E", "postal_code": "30189"}, "capProviderId": null, "distance": null, "has_offers": false, "name": "Featherstones Grille", "longitude": -84.55336, "has_menu": false, "awards": null, "user_review_count": 0}, {"business_operation_status": 1, "rating": null, "neighborhood": null, "image": null, "scorecard": null, "featured": false, "sample_categories": "Restaurants, Bistros, Bars & Clubs", "public_id": "north-park-bistro-marietta", "id": 777790950, "votes": null, "tagline": null, "has_video": false, "website": "http://www.citysearch.com/profile/external/777790950/marietta_ga/kish_restaurant_bar.html", "offers": null, "latitude": 33.953606, "politanName": "Atlanta, GA Metro ", "phone_number": "7706726803", "tags": [{"primary": false, "id": 13690, "name": "Bistros"}, {"primary": false, "id": 164, "name": "Bars & Clubs"}, {"primary": true, "id": 1722, "name": "Restaurants"}], "fax_number": null, "expansion": {"count": null, "uri": null}, "impression_id": "000b000000ffdfc40fab62470b94f39e90f987c807", "profile": "http://www.citysearch.com/profile/777790950/marietta_ga/kish_restaurant_bar.html", "address": {"city": "Marietta", "state": "GA", "street": "105 N Park Sq NE", "postal_code": "30060"}, "capProviderId": null, "distance": null, "has_offers": false, "name": "Kish Restaurant & Bar", "longitude": -84.549403, "has_menu": false, "awards": null, "user_review_count": 0}, {"business_operation_status": 1, "rating": null, "neighborhood": null, "image": null, "scorecard": null, "featured": false, "sample_categories": "Restaurants, Carry Out, Hamburgers", "public_id": "mc-donalds-woodstock-7", "id": 796135750, "votes": null, "tagline": null, "has_video": false, "website": "http://www.citysearch.com/profile/external/796135750/woodstock_ga/mc_donald_s.html", "offers": null, "latitude": 34.119763, "politanName": "Atlanta, GA Metro ", "phone_number": "6784940736", "tags": [{"primary": false, "id": 11247, "name": "Carry Out"}, {"primary": false, "id": 11270, "name": "Hamburgers"}, {"primary": true, "id": 1722, "name": "Restaurants"}], "fax_number": null, "expansion": {"count": null, "uri": null}, "impression_id": "000b0000001ec99ff527be4336b912116b9043febc", "profile": "http://www.citysearch.com/profile/796135750/woodstock_ga/mc_donald_s.html", "address": {"city": "Woodstock", "state": "GA", "street": "931 Ridgewalk Pkwy", "postal_code": "30188"}, "capProviderId": null, "distance": null, "has_offers": false, "name": "Mc Donald's", "longitude": -84.518527, "has_menu": false, "awards": null, "user_review_count": 0}, {"business_operation_status": 1, "rating": null, "neighborhood": null, "image": null, "scorecard": null, "featured": false, "sample_categories": "Restaurants", "public_id": "gameday-woodstock", "id": 798851580, "votes": null, "tagline": null, "has_video": false, "website": null, "offers": null, "latitude": 34.112372, "politanName": "Atlanta, GA Metro ", "phone_number": "7706936754", "tags": [{"primary": true, "id": 1722, "name": "Restaurants"}], "fax_number": null, "expansion": {"count": null, "uri": null}, "impression_id": "000b0000002785fdd3a9df419b9dc42a5a127bed8f", "profile": "http://www.citysearch.com/profile/798851580/woodstock_ga/gameday.html", "address": {"city": "Woodstock", "state": "GA", "street": "2990 Eagle Dr", "postal_code": "30189"}, "capProviderId": null, "distance": null, "has_offers": false, "name": "Gameday", "longitude": -84.561077, "has_menu": false, "awards": null, "user_review_count": 0}, {"business_operation_status": 1, "rating": null, "neighborhood": null, "image": null, "scorecard": null, "featured": false, "sample_categories": "Restaurants", "public_id": "el-caporal-2-bar-grill-marietta", "id": 801060990, "votes": null, "tagline": null, "has_video": false, "website": null, "offers": null, "latitude": 33.955116, "politanName": "Atlanta, GA Metro ", "phone_number": "7704261422", "tags": [{"primary": true, "id": 1722, "name": "Restaurants"}], "fax_number": null, "expansion": {"count": null, "uri": null}, "impression_id": "000b00000088369b1e901548d08d0d1413c142b815", "profile": "http://www.citysearch.com/profile/801060990/marietta_ga/el_caporal_2_bar_grill.html", "address": {"city": "Marietta", "state": "GA", "street": "3600 Dallas Hwy Sw", "postal_code": "30064"}, "capProviderId": null, "distance": null, "has_offers": false, "name": "El Caporal 2 Bar & Grill", "longitude": -84.656027, "has_menu": false, "awards": null, "user_review_count": 0}, {"business_operation_status": 1, "rating": null, "neighborhood": null, "image": null, "scorecard": null, "featured": false, "sample_categories": "Restaurants", "public_id": "el-sarape-marietta", "id": 815403830, "votes": null, "tagline": null, "has_video": false, "website": null, "offers": null, "latitude": 33.969085, "politanName": "Atlanta, GA Metro ", "phone_number": "7705908887", "tags": [{"primary": true, "id": 1722, "name": "Restaurants"}], "fax_number": null, "expansion": {"count": null, "uri": null}, "impression_id": "000b0000000f4d1bd62ec34ef5951b2b76b959eaf8", "profile": "http://www.citysearch.com/profile/815403830/marietta_ga/el_sarape.html", "address": {"city": "Marietta", "state": "GA", "street": "745 Cobb Pkwy N", "postal_code": "30062"}, "capProviderId": null, "distance": null, "has_offers": false, "name": "El Sarape", "longitude": -84.538349, "has_menu": false, "awards": null, "user_review_count": 0}, {"business_operation_status": 1, "rating": null, "neighborhood": null, "image": null, "scorecard": null, "featured": false, "sample_categories": "Restaurants", "public_id": "j-mann-cafe-grille-marietta", "id": 815522810, "votes": null, "tagline": null, "has_video": false, "website": null, "offers": null, "latitude": 33.948544, "politanName": "Atlanta, GA Metro ", "phone_number": "7705280262", "tags": [{"primary": true, "id": 1722, "name": "Restaurants"}], "fax_number": null, "expansion": {"count": null, "uri": null}, "impression_id": "000b00000089d2f9c406894103a886a1b6b49fc694", "profile": "http://www.citysearch.com/profile/815522810/marietta_ga/j_mann_cafe_grille.html", "address": {"city": "Marietta", "state": "GA", "street": "191 S Marietta Pkwy SW", "postal_code": "30064"}, "capProviderId": null, "distance": null, "has_offers": false, "name": "J Mann Cafe & Grille", "longitude": -84.550204, "has_menu": false, "awards": null, "user_review_count": 0}, {"business_operation_status": 1, "rating": null, "neighborhood": null, "image": null, "scorecard": null, "featured": false, "sample_categories": "Doughnut Shops", "public_id": "dunkin-donuts-shirinathji-marietta", "id": 815095050, "votes": null, "tagline": null, "has_video": false, "website": null, "offers": null, "latitude": 34.046062, "politanName": "Atlanta, GA Metro ", "phone_number": "6783550473", "tags": [{"primary": true, "id": 1734, "name": "Doughnut Shops"}], "fax_number": null, "expansion": {"count": null, "uri": null}, "impression_id": "000b0000006441a2c7af834f8798451fb86775106c", "profile": "http://www.citysearch.com/profile/815095050/marietta_ga/dunkin_donuts_shirinathji.html", "address": {"city": "Marietta", "state": "GA", "street": "3926 Straton Hall Way", "postal_code": "30066"}, "capProviderId": null, "distance": null, "has_offers": false, "name": "Dunkin Donuts Shirinathji", "longitude": -84.477282, "has_menu": false, "awards": null, "user_review_count": 0}, {"business_operation_status": 1, "rating": null, "neighborhood": null, "image": null, "scorecard": null, "featured": false, "sample_categories": "Restaurants, Diners", "public_id": "your-diner-woodstock", "id": 801144940, "votes": null, "tagline": null, "has_video": false, "website": null, "offers": null, "latitude": 34.083699, "politanName": "Atlanta, GA Metro ", "phone_number": "6782527919", "tags": [{"primary": false, "id": 1732, "name": "Diners"}, {"primary": true, "id": 1722, "name": "Restaurants"}], "fax_number": null, "expansion": {"count": null, "uri": null}, "impression_id": "000b000000251718debfee45fe8fa317cb3d1f6f2b", "profile": "http://www.citysearch.com/profile/801144940/woodstock_ga/your_diner.html", "address": {"city": "Woodstock", "state": "GA", "street": "295 Molly Ln # 0", "postal_code": "30189"}, "capProviderId": null, "distance": null, "has_offers": false, "name": "Your Diner", "longitude": -84.540292, "has_menu": false, "awards": null, "user_review_count": 0}, {"business_operation_status": 1, "rating": null, "neighborhood": null, "image": null, "scorecard": null, "featured": false, "sample_categories": "Restaurants", "public_id": "b-a-b-smokehouse-marietta", "id": 818380670, "votes": null, "tagline": null, "has_video": false, "website": null, "offers": null, "latitude": 34.02684, "politanName": "Atlanta, GA Metro ", "phone_number": "7704220604", "tags": [{"primary": true, "id": 1722, "name": "Restaurants"}], "fax_number": null, "expansion": {"count": null, "uri": null}, "impression_id": "000b000000266ac067d2064c418016f5c2b9af9366", "profile": "http://www.citysearch.com/profile/818380670/marietta_ga/b_a_b_smokehouse.html", "address": {"city": "Marietta", "state": "GA", "street": "3050 Canton Rd", "postal_code": "30066"}, "capProviderId": null, "distance": null, "has_offers": false, "name": "B A B Smokehouse", "longitude": -84.527483, "has_menu": false, "awards": null, "user_review_count": 0}, {"business_operation_status": 1, "rating": null, "neighborhood": null, "image": null, "scorecard": null, "featured": false, "sample_categories": "Restaurants, Pizza", "public_id": "bella-bocca-marietta", "id": 822361720, "votes": null, "tagline": null, "has_video": false, "website": null, "offers": null, "latitude": 33.951001, "politanName": "Atlanta, GA Metro ", "phone_number": "7707958984", "tags": [{"primary": false, "id": 1722, "name": "Restaurants"}, {"primary": true, "id": 11299, "name": "Pizza"}], "fax_number": null, "expansion": {"count": null, "uri": null}, "impression_id": "000b0000003c2b2148867a42489e0395365d4ef922", "profile": "http://www.citysearch.com/profile/822361720/marietta_ga/bella_bocca.html", "address": {"city": "Marietta", "state": "GA", "street": "999 Whitlock Ave SW", "postal_code": "30064"}, "capProviderId": null, "distance": null, "has_offers": false, "name": "Bella Bocca", "longitude": -84.57917, "has_menu": false, "awards": null, "user_review_count": 1}, {"business_operation_status": 1, "rating": null, "neighborhood": null, "image": null, "scorecard": null, "featured": false, "sample_categories": "Ice Cream Parlors", "public_id": "phoenician-gyro-cafe-marietta", "id": 824983320, "votes": null, "tagline": null, "has_video": false, "website": null, "offers": null, "latitude": 34.068476, "politanName": "Atlanta, GA Metro ", "phone_number": "7705925158", "tags": [{"primary": true, "id": 1730, "name": "Ice Cream Parlors"}], "fax_number": null, "expansion": {"count": null, "uri": null}, "impression_id": "000b000000cbf4a344e7ce4f7991aaa972f1718d5c", "profile": "http://www.citysearch.com/profile/824983320/marietta_ga/phoenician_gyro_cafe.html", "address": {"city": "Marietta", "state": "GA", "street": "4796 Canton Rd # 700", "postal_code": "30066"}, "capProviderId": null, "distance": null, "has_offers": false, "name": "Phoenician Gyro Cafe", "longitude": -84.520809, "has_menu": false, "awards": null, "user_review_count": 0}, {"business_operation_status": 1, "rating": null, "neighborhood": null, "image": null, "scorecard": null, "featured": false, "sample_categories": "Restaurants", "public_id": "rumba-cuban-cafe-woodstock", "id": 830065690, "votes": null, "tagline": null, "has_video": false, "website": null, "offers": null, "latitude": 34.086211, "politanName": "Atlanta, GA Metro ", "phone_number": "7705915333", "tags": [{"primary": true, "id": 1722, "name": "Restaurants"}], "fax_number": null, "expansion": {"count": null, "uri": null}, "impression_id": "000b000000a05b4e31120d4654bd01c9fb050f5735", "profile": "http://www.citysearch.com/profile/830065690/woodstock_ga/rumba_cuban_cafe.html", "address": {"city": "Woodstock", "state": "GA", "street": "9550 Main St", "postal_code": "30188"}, "capProviderId": null, "distance": null, "has_offers": false, "name": "Rumba Cuban Cafe", "longitude": -84.519459, "has_menu": false, "awards": null, "user_review_count": 0}, {"business_operation_status": 1, "rating": null, "neighborhood": null, "image": null, "scorecard": null, "featured": false, "sample_categories": "Restaurants", "public_id": "los-sauces-restaurante-mxcn-woodstock", "id": 817033450, "votes": null, "tagline": null, "has_video": false, "website": null, "offers": null, "latitude": 34.085853, "politanName": "Atlanta, GA Metro ", "phone_number": "7709244999", "tags": [{"primary": true, "id": 1722, "name": "Restaurants"}], "fax_number": null, "expansion": {"count": null, "uri": null}, "impression_id": "000b000000cc4ece037b234b10b58bd478f2a80b5f", "profile": "http://www.citysearch.com/profile/817033450/woodstock_ga/los_sauces_restaurante_mxcn.html", "address": {"city": "Woodstock", "state": "GA", "street": "10010 Highway 92 # 198a", "postal_code": "30188"}, "capProviderId": null, "distance": null, "has_offers": false, "name": "Los Sauces Restaurante Mxcn", "longitude": -84.521582, "has_menu": false, "awards": null, "user_review_count": 0}, {"business_operation_status": 1, "rating": null, "neighborhood": null, "image": null, "scorecard": null, "featured": false, "sample_categories": "Restaurants", "public_id": "finca-bonita-mexican-grill-marietta", "id": 838631820, "votes": null, "tagline": null, "has_video": false, "website": null, "offers": null, "latitude": 33.951258, "politanName": "Atlanta, GA Metro ", "phone_number": "7704198290", "tags": [{"primary": true, "id": 1722, "name": "Restaurants"}], "fax_number": null, "expansion": {"count": null, "uri": null}, "impression_id": "000b00000018d5e9ec828346679e1668d541789176", "profile": "http://www.citysearch.com/profile/838631820/marietta_ga/finca_bonita_mexican_grill.html", "address": {"city": "Marietta", "state": "GA", "street": "1157 Roswell Rd", "postal_code": "30062"}, "capProviderId": null, "distance": null, "has_offers": false, "name": "Finca Bonita Mexican Grill", "longitude": -84.517723, "has_menu": false, "awards": null, "user_review_count": 1}, {"business_operation_status": 0, "rating": null, "neighborhood": null, "image": null, "scorecard": null, "featured": false, "sample_categories": "Restaurants, Carry Out", "public_id": "atlanta-bread-co-marietta-3", "id": 818761800, "votes": null, "tagline": null, "has_video": false, "website": null, "offers": null, "latitude": 33.947326, "politanName": "Atlanta, GA Metro ", "phone_number": "7704250442", "tags": [{"primary": false, "id": 11247, "name": "Carry Out"}, {"primary": true, "id": 1722, "name": "Restaurants"}], "fax_number": null, "expansion": {"count": null, "uri": null}, "impression_id": "000b000000e800b99295934d5ba612bc24a49f0dd0", "profile": "http://www.citysearch.com/profile/818761800/marietta_ga/atlanta_bread_co.html", "address": {"city": "Marietta", "state": "GA", "street": "3451 Ernest W Barrett NW # 200", "postal_code": "30064"}, "capProviderId": null, "distance": null, "has_offers": false, "name": "Atlanta Bread Co", "longitude": -84.622965, "has_menu": false, "awards": null, "user_review_count": 0}, {"business_operation_status": 1, "rating": null, "neighborhood": null, "image": null, "scorecard": null, "featured": false, "sample_categories": "Restaurants", "public_id": "sonic-restaurant-woodstock", "id": 713556510, "votes": null, "tagline": null, "has_video": false, "website": null, "offers": null, "latitude": 34.090863, "politanName": "Atlanta, GA Metro ", "phone_number": "7705910033", "tags": [{"primary": true, "id": 1722, "name": "Restaurants"}], "fax_number": null, "expansion": {"count": null, "uri": null}, "impression_id": "000b00000081fe360e0c984ccd94702fc161d81e2a", "profile": "http://www.citysearch.com/profile/713556510/woodstock_ga/sonic_restaurant.html", "address": {"city": "Woodstock", "state": "GA", "street": "777 Neese Rd", "postal_code": "30188"}, "capProviderId": null, "distance": null, "has_offers": false, "name": "Sonic Restaurant", "longitude": -84.492082, "has_menu": false, "awards": null, "user_review_count": 0}, {"business_operation_status": 1, "rating": null, "neighborhood": null, "image": null, "scorecard": null, "featured": false, "sample_categories": "Restaurants", "public_id": "whitcher-street-caf-marietta", "id": 713628600, "votes": null, "tagline": null, "has_video": false, "website": null, "offers": null, "latitude": 33.967469, "politanName": "Atlanta, GA Metro ", "phone_number": "6785813888", "tags": [{"primary": true, "id": 1722, "name": "Restaurants"}], "fax_number": null, "expansion": {"count": null, "uri": null}, "impression_id": "000b0000002830c8a3ea554a5390ca36d248187d39", "profile": "http://www.citysearch.com/profile/713628600/marietta_ga/whitcher_street_caf.html", "address": {"city": "Marietta", "state": "GA", "street": "55 Whitcher St Ne", "postal_code": "30060"}, "capProviderId": null, "distance": null, "has_offers": false, "name": "Whitcher Street Caf", "longitude": -84.551412, "has_menu": false, "awards": null, "user_review_count": 0}, {"business_operation_status": 1, "rating": null, "neighborhood": null, "image": null, "scorecard": null, "featured": false, "sample_categories": "Barbecue Restaurants, Catering, Restaurants, Discover, MasterCard", "public_id": "j-d-bbq-acworth", "id": 732211520, "votes": null, "tagline": null, "has_video": false, "website": "http://www.citysearch.com/profile/external/732211520/acworth_ga/j_d_bbq.html", "offers": null, "latitude": 34.062127, "politanName": "Atlanta, GA Metro ", "phone_number": "7709748016", "tags": [{"primary": false, "id": 1705, "name": "Catering"}, {"primary": false, "id": 1722, "name": "Restaurants"}, {"primary": false, "id": 11349, "name": "Discover"}, {"primary": false, "id": 11361, "name": "MasterCard"}, {"primary": false, "id": 11382, "name": "Visa"}, {"primary": true, "id": 1724, "name": "Barbecue Restaurants"}], "fax_number": null, "expansion": {"count": null, "uri": null}, "impression_id": "000b000000459cecb3f9164b818b9aefd10c3331fb", "profile": "http://www.citysearch.com/profile/732211520/acworth_ga/j_d_bbq.html", "address": {"city": "Acworth", "state": "GA", "street": "4424 S Main St", "postal_code": "30101"}, "capProviderId": null, "distance": null, "has_offers": false, "name": "J D BBQ", "longitude": -84.665654, "has_menu": false, "awards": null, "user_review_count": 0}, {"business_operation_status": 1, "rating": null, "neighborhood": null, "image": null, "scorecard": null, "featured": false, "sample_categories": "Restaurants, Delis And Delicatessens", "public_id": "d-w-cafe-marietta", "id": 775198490, "votes": null, "tagline": null, "has_video": false, "website": null, "offers": null, "latitude": 33.972386, "politanName": "Atlanta, GA Metro ", "phone_number": "6784018966", "tags": [{"primary": false, "id": 1727, "name": "Delis And Delicatessens"}, {"primary": true, "id": 1722, "name": "Restaurants"}], "fax_number": null, "expansion": {"count": null, "uri": null}, "impression_id": "000b0000002fa845dfa4ea445da8cf750171ada5a8", "profile": "http://www.citysearch.com/profile/775198490/marietta_ga/d_w_cafe.html", "address": {"city": "Marietta", "state": "GA", "street": "833 Campbell Hill St NW", "postal_code": "30060"}, "capProviderId": null, "distance": null, "has_offers": false, "name": "D W Cafe", "longitude": -84.552023, "has_menu": false, "awards": null, "user_review_count": 0}, {"business_operation_status": 1, "rating": null, "neighborhood": null, "image": null, "scorecard": null, "featured": false, "sample_categories": "Restaurants", "public_id": "standra-enterprises-inc-woodstock", "id": 825889670, "votes": null, "tagline": null, "has_video": false, "website": null, "offers": null, "latitude": 34.110969, "politanName": "Atlanta, GA Metro ", "phone_number": "7705917411", "tags": [{"primary": true, "id": 1722, "name": "Restaurants"}], "fax_number": null, "expansion": {"count": null, "uri": null}, "impression_id": "000b000000e2021acda4b04e8188118b53811cf6a5", "profile": "http://www.citysearch.com/profile/825889670/woodstock_ga/standra_enterprises_inc.html", "address": {"city": "Woodstock", "state": "GA", "street": "1018 Braddock Cir", "postal_code": "30189"}, "capProviderId": null, "distance": null, "has_offers": false, "name": "Standra Enterprises Inc", "longitude": -84.5902, "has_menu": false, "awards": null, "user_review_count": 0}, {"business_operation_status": 1, "rating": null, "neighborhood": null, "image": null, "scorecard": null, "featured": false, "sample_categories": "Restaurants", "public_id": "golden-choice-pet-foods-llc-kennesaw", "id": 787124940, "votes": null, "tagline": null, "has_video": false, "website": "http://www.citysearch.com/profile/external/787124940/kennesaw_ga/golden_choice_pet_foods_llc.html", "offers": null, "latitude": 34.003702, "politanName": "Atlanta, GA Metro ", "phone_number": "7704255412", "tags": [{"primary": true, "id": 1722, "name": "Restaurants"}], "fax_number": null, "expansion": {"count": null, "uri": null}, "impression_id": "000b000000c8de34ca946d4b5087f47ee7e9749cf7", "profile": "http://www.citysearch.com/profile/787124940/kennesaw_ga/golden_choice_pet_foods_llc.html", "address": {"city": "Kennesaw", "state": "GA", "street": "2084 Battlewood Dr NW", "postal_code": "30152"}, "capProviderId": null, "distance": null, "has_offers": false, "name": "Golden Choice Pet Foods LLC", "longitude": -84.622899, "has_menu": false, "awards": null, "user_review_count": 0}, {"business_operation_status": 1, "rating": null, "neighborhood": null, "image": null, "scorecard": null, "featured": false, "sample_categories": "Restaurants, Carry Out, Chicken", "public_id": "zaxbys-marietta-6", "id": 787134660, "votes": null, "tagline": null, "has_video": false, "website": "http://www.citysearch.com/profile/external/787134660/marietta_ga/zaxby_s.html", "offers": null, "latitude": 33.952602, "politanName": "Atlanta, GA Metro ", "phone_number": "6788521483", "tags": [{"primary": false, "id": 11247, "name": "Carry Out"}, {"primary": false, "id": 12839, "name": "Chicken"}, {"primary": true, "id": 1722, "name": "Restaurants"}], "fax_number": null, "expansion": {"count": null, "uri": null}, "impression_id": "000b0000002332ba05e9b9498d997cdb0b729a7f7e", "profile": "http://www.citysearch.com/profile/787134660/marietta_ga/zaxby_s.html", "address": {"city": "Marietta", "state": "GA", "street": "2756 Sandy Plains Rd", "postal_code": "30066"}, "capProviderId": null, "distance": null, "has_offers": false, "name": "Zaxby's", "longitude": -84.549933, "has_menu": true, "awards": null, "user_review_count": 0}, {"business_operation_status": 1, "rating": 8.0, "neighborhood": null, "image": null, "scorecard": null, "featured": false, "sample_categories": "Restaurants, Chinese", "public_id": "new-china-house-marietta", "id": 2904692, "votes": null, "tagline": null, "has_video": false, "website": "http://www.citysearch.com/profile/external/2904692/marietta_ga/new_china_house.html", "offers": null, "latitude": 33.971616, "politanName": "Atlanta, GA Metro ", "phone_number": "7704286409", "tags": [{"primary": false, "id": 11252, "name": "Chinese"}, {"primary": true, "id": 1722, "name": "Restaurants"}], "fax_number": null, "expansion": {"count": null, "uri": null}, "impression_id": "000b00000060d0a840fc414ae69d8436bc222ea6e7", "profile": "http://www.citysearch.com/profile/2904692/marietta_ga/new_china_house.html", "address": {"city": "Marietta", "state": "GA", "street": "803 Cobb Pkwy N", "postal_code": "30062"}, "capProviderId": null, "distance": null, "has_offers": false, "name": "New China House", "longitude": -84.540539, "has_menu": true, "awards": null, "user_review_count": 1}, {"business_operation_status": 1, "rating": null, "neighborhood": null, "image": null, "scorecard": null, "featured": false, "sample_categories": "Restaurants", "public_id": "dos-equis-rstrnt-sportsbar-2-acworth", "id": 807672200, "votes": null, "tagline": null, "has_video": false, "website": null, "offers": null, "latitude": 34.061116, "politanName": "Atlanta, GA Metro ", "phone_number": "7705298842", "tags": [{"primary": true, "id": 1722, "name": "Restaurants"}], "fax_number": null, "expansion": {"count": null, "uri": null}, "impression_id": "000b00000005006052a7094cb9b67410af2878ae94", "profile": "http://www.citysearch.com/profile/807672200/acworth_ga/dos_equis_rstrnt_sportsbar_2.html", "address": {"city": "Acworth", "state": "GA", "street": "186 Thorncliff Lndg", "postal_code": "30101"}, "capProviderId": null, "distance": null, "has_offers": false, "name": "Dos Equis Rstrnt & Sportsbar 2", "longitude": -84.749701, "has_menu": false, "awards": null, "user_review_count": 0}, {"business_operation_status": 1, "rating": null, "neighborhood": null, "image": null, "scorecard": null, "featured": false, "sample_categories": "Luaus", "public_id": "strombolie-s-italian-rest-acworth", "id": 811113340, "votes": null, "tagline": null, "has_video": false, "website": null, "offers": null, "latitude": 34.074364, "politanName": "Atlanta, GA Metro ", "phone_number": "7709745369", "tags": [{"primary": true, "id": 11285, "name": "Luaus"}], "fax_number": null, "expansion": {"count": null, "uri": null}, "impression_id": "000b000000376ee7a785294d909c4b7bda62c8f869", "profile": "http://www.citysearch.com/profile/811113340/acworth_ga/strombolie_s_italian_rest.html", "address": {"city": "Acworth", "state": "GA", "street": "3365 Acworth Oaks Dr S", "postal_code": "30101"}, "capProviderId": null, "distance": null, "has_offers": false, "name": "Strombolie S Italian Rest", "longitude": -84.649151, "has_menu": false, "awards": null, "user_review_count": 0}, {"business_operation_status": 1, "rating": null, "neighborhood": null, "image": null, "scorecard": null, "featured": false, "sample_categories": "Restaurants, Delis And Delicatessens, Sandwich Shops, Carry Out", "public_id": "quiznos-woodstock-4", "id": 815271770, "votes": null, "tagline": null, "has_video": false, "website": null, "offers": null, "latitude": 34.086137, "politanName": "Atlanta, GA Metro ", "phone_number": "6782171717", "tags": [{"primary": false, "id": 1727, "name": "Delis And Delicatessens"}, {"primary": false, "id": 1736, "name": "Sandwich Shops"}, {"primary": false, "id": 11247, "name": "Carry Out"}, {"primary": true, "id": 1722, "name": "Restaurants"}], "fax_number": null, "expansion": {"count": null, "uri": null}, "impression_id": "000b000000e104a9a6931a4aa1908fbe7cacb1e781", "profile": "http://www.citysearch.com/profile/815271770/woodstock_ga/quiznos.html", "address": {"city": "Woodstock", "state": "GA", "street": "9539 Highway 92 # 110", "postal_code": "30188"}, "capProviderId": null, "distance": null, "has_offers": false, "name": "Quiznos", "longitude": -84.529849, "has_menu": false, "awards": null, "user_review_count": 0}, {"business_operation_status": 1, "rating": null, "neighborhood": null, "image": null, "scorecard": null, "featured": false, "sample_categories": "Restaurants", "public_id": "sunrise-biscuit-co-acworth", "id": 816529700, "votes": null, "tagline": null, "has_video": false, "website": null, "offers": null, "latitude": 34.050562, "politanName": "Atlanta, GA Metro ", "phone_number": "7705294550", "tags": [{"primary": true, "id": 1722, "name": "Restaurants"}], "fax_number": null, "expansion": {"count": null, "uri": null}, "impression_id": "000b0000000071ead9198342caa98c9c46953d8aba", "profile": "http://www.citysearch.com/profile/816529700/acworth_ga/sunrise_biscuit_co.html", "address": {"city": "Acworth", "state": "GA", "street": "3732 Cedarcrest Rd # 100", "postal_code": "30101"}, "capProviderId": null, "distance": null, "has_offers": false, "name": "Sunrise Biscuit Co", "longitude": -84.762189, "has_menu": false, "awards": null, "user_review_count": 0}, {"business_operation_status": 1, "rating": null, "neighborhood": null, "image": null, "scorecard": null, "featured": false, "sample_categories": "Restaurants, Mexican", "public_id": "pappasitos-cantina-marietta-2", "id": 787083440, "votes": null, "tagline": null, "has_video": false, "website": "http://www.citysearch.com/profile/external/787083440/marietta_ga/pappasito_s_cantina.html", "offers": null, "latitude": 34.019839, "politanName": "Atlanta, GA Metro ", "phone_number": "7709518409", "tags": [{"primary": false, "id": 11208, "name": "Mexican"}, {"primary": true, "id": 1722, "name": "Restaurants"}], "fax_number": null, "expansion": {"count": null, "uri": null}, "impression_id": "000b0000004ec15daaa3b74b51aa8a24bd325d161f", "profile": "http://www.citysearch.com/profile/787083440/marietta_ga/pappasito_s_cantina.html", "address": {"city": "Marietta", "state": "GA", "street": "2788 Wendy Ln", "postal_code": "30062"}, "capProviderId": null, "distance": null, "has_offers": false, "name": "Pappasito's Cantina", "longitude": -84.459525, "has_menu": false, "awards": null, "user_review_count": 0}, {"business_operation_status": 1, "rating": 10.0, "neighborhood": null, "image": null, "scorecard": null, "featured": false, "sample_categories": "Catering, Restaurants", "public_id": "williamson-brothers-catering-marietta", "id": 2901685, "votes": null, "tagline": null, "has_video": false, "website": "http://www.citysearch.com/profile/external/2901685/marietta_ga/williamson_brothers_catering.html", "offers": null, "latitude": 33.942617, "politanName": "Atlanta, GA Metro ", "phone_number": "7704251739", "tags": [{"primary": false, "id": 1705, "name": "Catering"}, {"primary": true, "id": 1722, "name": "Restaurants"}], "fax_number": null, "expansion": {"count": null, "uri": null}, "impression_id": "000b0000007483d534f3654a658248d7e37c3f83ce", "profile": "http://www.citysearch.com/profile/2901685/marietta_ga/williamson_brothers_catering.html", "address": {"city": "Marietta", "state": "GA", "street": "403 Sycamore St SE", "postal_code": "30060"}, "capProviderId": null, "distance": null, "has_offers": false, "name": "Williamson Brothers Catering", "longitude": -84.541082, "has_menu": false, "awards": null, "user_review_count": 1}, {"business_operation_status": 1, "rating": null, "neighborhood": null, "image": null, "scorecard": null, "featured": false, "sample_categories": "Restaurants, Chinese, MasterCard, Visa", "public_id": "mr-won-ton-marietta", "id": 2908318, "votes": null, "tagline": null, "has_video": false, "website": "http://www.citysearch.com/profile/external/2908318/marietta_ga/mr_won_ton.html", "offers": null, "latitude": 34.038928, "politanName": "Atlanta, GA Metro ", "phone_number": "7705917706", "tags": [{"primary": false, "id": 11252, "name": "Chinese"}, {"primary": false, "id": 11361, "name": "MasterCard"}, {"primary": false, "id": 11382, "name": "Visa"}, {"primary": true, "id": 1722, "name": "Restaurants"}], "fax_number": null, "expansion": {"count": null, "uri": null}, "impression_id": "000b000000225f1730570142ed8a10f6f3afaf49e7", "profile": "http://www.citysearch.com/profile/2908318/marietta_ga/mr_won_ton.html", "address": {"city": "Marietta", "state": "GA", "street": "3595 Canton Rd # Ste 328", "postal_code": "30066"}, "capProviderId": null, "distance": null, "has_offers": false, "name": "Mr Won Ton", "longitude": -84.530249, "has_menu": false, "awards": null, "user_review_count": 0}, {"business_operation_status": 1, "rating": null, "neighborhood": null, "image": null, "scorecard": null, "featured": false, "sample_categories": "Restaurants, Pizza", "public_id": "marcos-pizza-woodstock", "id": 839845340, "votes": null, "tagline": null, "has_video": false, "website": "http://www.citysearch.com/profile/external/839845340/woodstock_ga/marco_s_pizza.html", "offers": null, "latitude": 34.112656, "politanName": "Atlanta, GA Metro ", "phone_number": "6782132100", "tags": [{"primary": false, "id": 11299, "name": "Pizza"}, {"primary": true, "id": 1722, "name": "Restaurants"}], "fax_number": null, "expansion": {"count": null, "uri": null}, "impression_id": "000b000000115c8bfd824449559d4fe802ccad9597", "profile": "http://www.citysearch.com/profile/839845340/woodstock_ga/marco_s_pizza.html", "address": {"city": "Woodstock", "state": "GA", "street": "2068 Eagle Dr", "postal_code": "30189"}, "capProviderId": null, "distance": null, "has_offers": false, "name": "Marco's Pizza", "longitude": -84.56326, "has_menu": false, "awards": null, "user_review_count": 0}, {"business_operation_status": 1, "rating": null, "neighborhood": null, "image": null, "scorecard": null, "featured": false, "sample_categories": "Restaurants, Mexican, Carry Out", "public_id": "acworth-taco-dallas", "id": 801077680, "votes": null, "tagline": null, "has_video": false, "website": "http://www.citysearch.com/profile/external/801077680/dallas_ga/acworth_taco.html", "offers": null, "latitude": 34.010309, "politanName": "Atlanta, GA Metro ", "phone_number": "6785743774", "tags": [{"primary": false, "id": 11208, "name": "Mexican"}, {"primary": false, "id": 11247, "name": "Carry Out"}, {"primary": true, "id": 1722, "name": "Restaurants"}], "fax_number": null, "expansion": {"count": null, "uri": null}, "impression_id": "000b00000044d1bf4876e94137bc53fccf3ce86812", "profile": "http://www.citysearch.com/profile/801077680/dallas_ga/acworth_taco.html", "address": {"city": "Dallas", "state": "GA", "street": "8876 Dallas Acworth Hwy", "postal_code": "30132"}, "capProviderId": null, "distance": null, "has_offers": false, "name": "Acworth Taco", "longitude": -84.753348, "has_menu": false, "awards": null, "user_review_count": 0}, {"business_operation_status": 1, "rating": null, "neighborhood": null, "image": null, "scorecard": null, "featured": false, "sample_categories": "Restaurants", "public_id": "tip-top-tea-shoppe-llc-dallas", "id": 632994140, "votes": null, "tagline": null, "has_video": false, "website": "http://www.citysearch.com/profile/external/632994140/dallas_ga/tip_top_tea_shoppe_llc.html", "offers": null, "latitude": 33.991564, "politanName": "Atlanta, GA Metro ", "phone_number": "7704850240", "tags": [{"primary": true, "id": 1722, "name": "Restaurants"}], "fax_number": null, "expansion": {"count": null, "uri": null}, "impression_id": "000b000000cd30e542a2f64c8a8fda639894c97b3a", "profile": "http://www.citysearch.com/profile/632994140/dallas_ga/tip_top_tea_shoppe_llc.html", "address": {"city": "Dallas", "state": "GA", "street": "92 Richaven Pl", "postal_code": "30132"}, "capProviderId": null, "distance": null, "has_offers": false, "name": "Tip Top Tea Shoppe Llc", "longitude": -84.780151, "has_menu": false, "awards": null, "user_review_count": 0}, {"business_operation_status": 1, "rating": null, "neighborhood": null, "image": null, "scorecard": null, "featured": false, "sample_categories": "Restaurants, Pizza, Carry Out", "public_id": "little-caesars-pizza-marietta-2", "id": 653582070, "votes": null, "tagline": null, "has_video": false, "website": "http://www.citysearch.com/profile/external/653582070/marietta_ga/little_caesars_pizza.html", "offers": null, "latitude": 33.952972, "politanName": "Atlanta, GA Metro ", "phone_number": "6784014181", "tags": [{"primary": false, "id": 1722, "name": "Restaurants"}, {"primary": false, "id": 11247, "name": "Carry Out"}, {"primary": true, "id": 11299, "name": "Pizza"}], "fax_number": null, "expansion": {"count": null, "uri": null}, "impression_id": "000b000000ebbb16d9acb04cca8f12a4f711c14c75", "profile": "http://www.citysearch.com/profile/653582070/marietta_ga/little_caesars_pizza.html", "address": {"city": "Marietta", "state": "GA", "street": "3405 Dallas Hwy Sw", "postal_code": "30064"}, "capProviderId": null, "distance": null, "has_offers": false, "name": "Little Caesars Pizza", "longitude": -84.651096, "has_menu": false, "awards": null, "user_review_count": 0}, {"business_operation_status": 1, "rating": null, "neighborhood": null, "image": null, "scorecard": null, "featured": false, "sample_categories": "Restaurants, Mexican", "public_id": "tacos-el-don-acworth", "id": 655861490, "votes": null, "tagline": null, "has_video": false, "website": null, "offers": null, "latitude": 34.087005, "politanName": "Atlanta, GA Metro ", "phone_number": "6784455383", "tags": [{"primary": false, "id": 11208, "name": "Mexican"}, {"primary": true, "id": 1722, "name": "Restaurants"}], "fax_number": null, "expansion": {"count": null, "uri": null}, "impression_id": "000b0000001a918a6368e64806bfbf533baa4866c5", "profile": "http://www.citysearch.com/profile/655861490/acworth_ga/tacos_el_don.html", "address": {"city": "Acworth", "state": "GA", "street": "5603 Bells Ferry Rd", "postal_code": "30102"}, "capProviderId": null, "distance": null, "has_offers": false, "name": "Tacos El Don", "longitude": -84.576689, "has_menu": false, "awards": null, "user_review_count": 0}, {"business_operation_status": 1, "rating": null, "neighborhood": null, "image": null, "scorecard": null, "featured": false, "sample_categories": "Restaurants, Pizza", "public_id": "pizza-pilot-woodstock", "id": 672380000, "votes": null, "tagline": null, "has_video": false, "website": null, "offers": null, "latitude": 34.111794, "politanName": "Atlanta, GA Metro ", "phone_number": "7709241150", "tags": [{"primary": false, "id": 11299, "name": "Pizza"}, {"primary": true, "id": 1722, "name": "Restaurants"}], "fax_number": null, "expansion": {"count": null, "uri": null}, "impression_id": "000b0000006688b42efc064436afe9855ecd2adadb", "profile": "http://www.citysearch.com/profile/672380000/woodstock_ga/pizza_pilot.html", "address": {"city": "Woodstock", "state": "GA", "street": "200 Parkbrooke Dr", "postal_code": "30189"}, "capProviderId": null, "distance": null, "has_offers": false, "name": "Pizza Pilot", "longitude": -84.558668, "has_menu": false, "awards": null, "user_review_count": 0}, {"business_operation_status": 1, "rating": null, "neighborhood": null, "image": null, "scorecard": null, "featured": false, "sample_categories": "Restaurants, Traditional American, American Express, Debit Card, Diners Club", "public_id": "grill-depot-acworth", "id": 627670830, "votes": null, "tagline": null, "has_video": false, "website": null, "offers": null, "latitude": 34.083477, "politanName": "Atlanta, GA Metro ", "phone_number": "7709740014", "tags": [{"primary": false, "id": 11190, "name": "Traditional American"}, {"primary": false, "id": 11333, "name": "American Express"}, {"primary": false, "id": 11347, "name": "Debit Card"}, {"primary": false, "id": 11348, "name": "Diners Club"}, {"primary": false, "id": 11349, "name": "Discover"}, {"primary": false, "id": 11361, "name": "MasterCard"}, {"primary": false, "id": 11382, "name": "Visa"}, {"primary": true, "id": 1722, "name": "Restaurants"}], "fax_number": null, "expansion": {"count": null, "uri": null}, "impression_id": "000b000000c5fa71af67cc4b2489f82b63e9ad9370", "profile": "http://www.citysearch.com/profile/627670830/acworth_ga/grill_depot.html", "address": {"city": "Acworth", "state": "GA", "street": "5265 Glade Rd Se", "postal_code": "30102"}, "capProviderId": null, "distance": null, "has_offers": false, "name": "Grill Depot", "longitude": -84.676955, "has_menu": false, "awards": null, "user_review_count": 0}], "histograms": [], "tag_ids": [1722], "uri": "http://api.citygridmedia.com:8080/search/places/v2/search/where?has_offers=false&type=restaurant&format=json&page=21&where=30144&rpp=50&histograms=false&publisher=10000009598&region_type=circle", "did_you_mean": "", "regions": [{"latitude": 34.037076, "default_radius": 4.72, "type": "postal_code", "name": "30144", "longitude": -84.591034}], "call_id": "000b000000c2125fb64038491fb78e913a0e08079b", "first_hit": 1001, "total_hits": 1696, "geo_ids": [26310], "page": 21, "last_hit": 1050}}