{"results": {"rpp": 50, "locations": [{"business_operation_status": 1, "rating": null, "neighborhood": null, "image": null, "scorecard": null, "featured": false, "sample_categories": "Restaurants", "public_id": "negril-caribbean-grille-kennesaw", "id": 828728610, "votes": null, "tagline": null, "has_video": false, "website": null, "offers": null, "latitude": 34.057627, "politanName": "Atlanta, GA Metro ", "phone_number": "7704232816", "tags": [{"primary": true, "id": 1722, "name": "Restaurants"}], "fax_number": null, "expansion": {"count": null, "uri": null}, "impression_id": "000b0000005fe9246f791441e89ec7cd835085c7e9", "profile": "http://www.citysearch.com/profile/828728610/kennesaw_ga/negril_caribbean_grille.html", "address": {"city": "Kennesaw", "state": "GA", "street": "4200 Wade Green Rd NW", "postal_code": "30144"}, "capProviderId": null, "distance": null, "has_offers": false, "name": "Negril Caribbean Grille", "longitude": -84.590928, "has_menu": true, "awards": null, "user_review_count": 0}, {"business_operation_status": 0, "rating": null, "neighborhood": null, "image": null, "scorecard": null, "featured": false, "sample_categories": "Restaurants", "public_id": "gradys-american-grill-kennesaw", "id": 831505820, "votes": null, "tagline": null, "has_video": false, "website": null, "offers": null, "latitude": 34.012667, "politanName": "Atlanta, GA Metro ", "phone_number": "7709190090", "tags": [{"primary": true, "id": 1722, "name": "Restaurants"}], "fax_number": null, "expansion": {"count": null, "uri": null}, "impression_id": "000b000000983c5331568349b38ffff2d5b42a6cfb", "profile": "http://www.citysearch.com/profile/831505820/kennesaw_ga/grady_s_american_grill.html", "address": {"city": "Kennesaw", "state": "GA", "street": "2475 George Busbee Pkwy NW", "postal_code": "30144"}, "capProviderId": null, "distance": null, "has_offers": false, "name": "Grady's American Grill", "longitude": -84.565651, "has_menu": false, "awards": null, "user_review_count": 0}, {"business_operation_status": 1, "rating": null, "neighborhood": null, "image": null, "scorecard": null, "featured": false, "sample_categories": "Restaurants, Mexican, Carry Out", "public_id": "taco-bell-kennesaw-6", "id": 757949530, "votes": null, "tagline": null, "has_video": false, "website": "http://www.citysearch.com/profile/external/757949530/kennesaw_ga/taco_bell.html", "offers": null, "latitude": 34.031419, "politanName": "Atlanta, GA Metro ", "phone_number": "6787979946", "tags": [{"primary": false, "id": 11208, "name": "Mexican"}, {"primary": false, "id": 11247, "name": "Carry Out"}, {"primary": true, "id": 1722, "name": "Restaurants"}], "fax_number": null, "expansion": {"count": null, "uri": null}, "impression_id": "000b0000008026250f2e6a44e4ae58b284fc0f3fb3", "profile": "http://www.citysearch.com/profile/757949530/kennesaw_ga/taco_bell.html", "address": {"city": "Kennesaw", "state": "GA", "street": "3240 Barrett Lakes Blvd NW", "postal_code": "30144"}, "capProviderId": null, "distance": null, "has_offers": false, "name": "Taco Bell", "longitude": -84.578157, "has_menu": false, "awards": null, "user_review_count": 0}, {"business_operation_status": 1, "rating": null, "neighborhood": null, "image": null, "scorecard": null, "featured": false, "sample_categories": "Restaurants, Delis And Delicatessens, Sandwich Shops, Carry Out, American Express", "public_id": "schlotzskys-deli-kennesaw", "id": 2955979, "votes": null, "tagline": null, "has_video": false, "website": "http://www.citysearch.com/profile/external/2955979/kennesaw_ga/schlotzsky_s_deli.html", "offers": null, "latitude": 34.014321, "politanName": "Atlanta, GA Metro ", "phone_number": "7705140571", "tags": [{"primary": false, "id": 1727, "name": "Delis And Delicatessens"}, {"primary": false, "id": 1736, "name": "Sandwich Shops"}, {"primary": false, "id": 11247, "name": "Carry Out"}, {"primary": false, "id": 11333, "name": "American Express"}, {"primary": false, "id": 11349, "name": "Discover"}, {"primary": false, "id": 11361, "name": "MasterCard"}, {"primary": false, "id": 11382, "name": "Visa"}, {"primary": true, "id": 1722, "name": "Restaurants"}], "fax_number": null, "expansion": {"count": null, "uri": null}, "impression_id": "000b000000172e2143b96d4078b5aaeeb1c8379571", "profile": "http://www.citysearch.com/profile/2955979/kennesaw_ga/schlotzsky_s_deli.html", "address": {"city": "Kennesaw", "state": "GA", "street": "440 Ernest W Barrett Pkwy NW", "postal_code": "30144"}, "capProviderId": null, "distance": null, "has_offers": false, "name": "Schlotzsky's Deli", "longitude": -84.562111, "has_menu": true, "awards": null, "user_review_count": 0}, {"business_operation_status": 1, "rating": null, "neighborhood": null, "image": null, "scorecard": null, "featured": false, "sample_categories": "Restaurants, Mexican, Carry Out, American Express, MasterCard", "public_id": "taco-bell-kennesaw-4", "id": 682713980, "votes": null, "tagline": null, "has_video": false, "website": "http://www.citysearch.com/profile/external/682713980/kennesaw_ga/taco_bell.html", "offers": null, "latitude": 34.018145, "politanName": "Atlanta, GA Metro ", "phone_number": "7704240007", "tags": [{"primary": false, "id": 11208, "name": "Mexican"}, {"primary": false, "id": 11247, "name": "Carry Out"}, {"primary": false, "id": 11333, "name": "American Express"}, {"primary": false, "id": 11361, "name": "MasterCard"}, {"primary": false, "id": 11382, "name": "Visa"}, {"primary": true, "id": 1722, "name": "Restaurants"}], "fax_number": null, "expansion": {"count": null, "uri": null}, "impression_id": "000b000000a352c003604148a390d714dda236bb8f", "profile": "http://www.citysearch.com/profile/682713980/kennesaw_ga/taco_bell.html", "address": {"city": "Kennesaw", "state": "GA", "street": "400 Barrett Pkwy # 127", "postal_code": "30144"}, "capProviderId": null, "distance": null, "has_offers": false, "name": "Taco Bell", "longitude": -84.561896, "has_menu": false, "awards": null, "user_review_count": 0}, {"business_operation_status": 1, "rating": null, "neighborhood": null, "image": null, "scorecard": null, "featured": false, "sample_categories": "Restaurants", "public_id": "chuys-restaurant-kennesaw", "id": 611300334, "votes": null, "tagline": null, "has_video": false, "website": null, "offers": null, "latitude": 34.007528, "politanName": "Atlanta, GA Metro ", "phone_number": "7707921345", "tags": [{"primary": true, "id": 1722, "name": "Restaurants"}], "fax_number": null, "expansion": {"count": null, "uri": null}, "impression_id": "000b000000562fe02ee32649cf9b5fd9c281bbd9ec", "profile": "http://www.citysearch.com/profile/611300334/kennesaw_ga/chuy_s_restaurant.html", "address": {"city": "Kennesaw", "state": "GA", "street": "585 Ernest W Barrett Pkwy NW", "postal_code": "30144"}, "capProviderId": null, "distance": null, "has_offers": false, "name": "Chuy's Restaurant", "longitude": -84.571547, "has_menu": false, "awards": null, "user_review_count": 0}, {"business_operation_status": 1, "rating": null, "neighborhood": null, "image": null, "scorecard": null, "featured": false, "sample_categories": "Restaurants, Chinese, American Express, Discover, MasterCard", "public_id": "hong-kong-chinese-restaurant-marietta", "id": 775206160, "votes": null, "tagline": null, "has_video": false, "website": null, "offers": null, "latitude": 33.993754, "politanName": "Atlanta, GA Metro ", "phone_number": "7704256212", "tags": [{"primary": false, "id": 11252, "name": "Chinese"}, {"primary": false, "id": 11333, "name": "American Express"}, {"primary": false, "id": 11349, "name": "Discover"}, {"primary": false, "id": 11361, "name": "MasterCard"}, {"primary": false, "id": 11382, "name": "Visa"}, {"primary": true, "id": 1722, "name": "Restaurants"}], "fax_number": null, "expansion": {"count": null, "uri": null}, "impression_id": "000b00000027d92b2becce4fea837d27b73f82e8e0", "profile": "http://www.citysearch.com/profile/775206160/marietta_ga/hong_kong_chinese_restaurant.html", "address": {"city": "Marietta", "state": "GA", "street": "2774 Cobb Pkwy NW", "postal_code": "30060"}, "capProviderId": null, "distance": null, "has_offers": false, "name": "Hong Kong Chinese Restaurant", "longitude": -84.581248, "has_menu": false, "awards": null, "user_review_count": 0}, {"business_operation_status": 1, "rating": null, "neighborhood": null, "image": null, "scorecard": null, "featured": false, "sample_categories": "Restaurants", "public_id": "onlinedotcom-internet-cafe-kennesaw", "id": 810949730, "votes": null, "tagline": null, "has_video": false, "website": null, "offers": null, "latitude": 34.005458, "politanName": "Atlanta, GA Metro ", "phone_number": "7704267770", "tags": [{"primary": true, "id": 1722, "name": "Restaurants"}], "fax_number": null, "expansion": {"count": null, "uri": null}, "impression_id": "000b000000a1c1b953453543a89512c659ac73f51a", "profile": "http://www.citysearch.com/profile/810949730/kennesaw_ga/onlinedotcom_internet_cafe.html", "address": {"city": "Kennesaw", "state": "GA", "street": "840 Ernest W Barrett Pkwy NW", "postal_code": "30144"}, "capProviderId": null, "distance": null, "has_offers": false, "name": "Onlinedotcom Internet Cafe", "longitude": -84.575497, "has_menu": false, "awards": null, "user_review_count": 0}, {"business_operation_status": 1, "rating": null, "neighborhood": null, "image": null, "scorecard": null, "featured": false, "sample_categories": "Restaurants", "public_id": "nat-norms-island-cuisine-kennesaw", "id": 831534950, "votes": null, "tagline": null, "has_video": false, "website": null, "offers": null, "latitude": 34.040493, "politanName": "Atlanta, GA Metro ", "phone_number": "7705145110", "tags": [{"primary": true, "id": 1722, "name": "Restaurants"}], "fax_number": null, "expansion": {"count": null, "uri": null}, "impression_id": "000b000000df6c9ba9fd5e402ba812ae00b85acea3", "profile": "http://www.citysearch.com/profile/831534950/kennesaw_ga/nat_norm_s_island_cuisine.html", "address": {"city": "Kennesaw", "state": "GA", "street": "3600 Cherokee St NW # 115", "postal_code": "30144"}, "capProviderId": null, "distance": null, "has_offers": false, "name": "Nat & Norm's Island Cuisine", "longitude": -84.604027, "has_menu": false, "awards": null, "user_review_count": 1}, {"business_operation_status": 1, "rating": null, "neighborhood": null, "image": null, "scorecard": null, "featured": false, "sample_categories": "Restaurants, Pizza", "public_id": "whata-bouta-pizza-kennesaw", "id": 803557230, "votes": null, "tagline": null, "has_video": false, "website": null, "offers": null, "latitude": 34.047379, "politanName": "Atlanta, GA Metro ", "phone_number": "6784025168", "tags": [{"primary": false, "id": 1722, "name": "Restaurants"}, {"primary": true, "id": 11299, "name": "Pizza"}], "fax_number": null, "expansion": {"count": null, "uri": null}, "impression_id": "000b000000a59338c2c515472582218ed5fd592c97", "profile": "http://www.citysearch.com/profile/803557230/kennesaw_ga/whata_bouta_pizza.html", "address": {"city": "Kennesaw", "state": "GA", "street": "4240 Jiles Rd NW", "postal_code": "30144"}, "capProviderId": null, "distance": null, "has_offers": false, "name": "Whata Bouta Pizza", "longitude": -84.601698, "has_menu": false, "awards": null, "user_review_count": 0}, {"business_operation_status": 1, "rating": null, "neighborhood": null, "image": null, "scorecard": null, "featured": false, "sample_categories": "Restaurants", "public_id": "ricks-italian-beefsandwich-kennesaw", "id": 819024900, "votes": null, "tagline": null, "has_video": false, "website": null, "offers": null, "latitude": 34.019119, "politanName": "Atlanta, GA Metro ", "phone_number": "7704209500", "tags": [{"primary": true, "id": 1722, "name": "Restaurants"}], "fax_number": null, "expansion": {"count": null, "uri": null}, "impression_id": "000b0000008b068fcdccec416399f3d7844a8fef03", "profile": "http://www.citysearch.com/profile/819024900/kennesaw_ga/ricks_italian_beef_sandwich.html", "address": {"city": "Kennesaw", "state": "GA", "street": "2689 Summers St NW", "postal_code": "30144"}, "capProviderId": null, "distance": null, "has_offers": false, "name": "Ricks Italian Beef-Sandwich", "longitude": -84.61395, "has_menu": false, "awards": null, "user_review_count": 0}, {"business_operation_status": 1, "rating": null, "neighborhood": null, "image": null, "scorecard": null, "featured": false, "sample_categories": "Restaurants, Food Service Management", "public_id": "eurest-dining-svc-kennesaw", "id": 713450320, "votes": null, "tagline": null, "has_video": false, "website": "http://www.citysearch.com/profile/external/713450320/kennesaw_ga/eurest_dining_svc.html", "offers": null, "latitude": 34.042682, "politanName": "Atlanta, GA Metro ", "phone_number": "7704204166", "tags": [{"primary": false, "id": 11120, "name": "Food Service Management"}, {"primary": true, "id": 1722, "name": "Restaurants"}], "fax_number": null, "expansion": {"count": null, "uri": null}, "impression_id": "000b0000007895d228acef4a2d8ee9ec45f86d2ebf", "profile": "http://www.citysearch.com/profile/713450320/kennesaw_ga/eurest_dining_svc.html", "address": {"city": "Kennesaw", "state": "GA", "street": "210 Townpark Dr NW", "postal_code": "30144"}, "capProviderId": null, "distance": null, "has_offers": false, "name": "Eurest Dining SVC", "longitude": -84.569868, "has_menu": false, "awards": null, "user_review_count": 0}, {"business_operation_status": 0, "rating": null, "neighborhood": null, "image": null, "scorecard": null, "featured": false, "sample_categories": "Restaurants", "public_id": "froots-kennesaw", "id": 672730530, "votes": null, "tagline": null, "has_video": false, "website": null, "offers": null, "latitude": 34.035364, "politanName": "Atlanta, GA Metro ", "phone_number": "7704998200", "tags": [{"primary": true, "id": 1722, "name": "Restaurants"}], "fax_number": null, "expansion": {"count": null, "uri": null}, "impression_id": "000b000000f30d8c4968824f4599ef0bb2a5d0a9a0", "profile": "http://www.citysearch.com/profile/672730530/kennesaw_ga/froots.html", "address": {"city": "Kennesaw", "state": "GA", "street": "745 Chastain Road NW", "postal_code": "30144"}, "capProviderId": null, "distance": null, "has_offers": false, "name": "Froots", "longitude": -84.570141, "has_menu": false, "awards": null, "user_review_count": 3}, {"business_operation_status": 1, "rating": null, "neighborhood": null, "image": null, "scorecard": null, "featured": false, "sample_categories": "Restaurants, Pizza", "public_id": "chicago-dough-pizza-factory-kennesaw", "id": 812159770, "votes": null, "tagline": null, "has_video": false, "website": null, "offers": null, "latitude": 34.048653, "politanName": "Atlanta, GA Metro ", "phone_number": "6787971888", "tags": [{"primary": false, "id": 1722, "name": "Restaurants"}, {"primary": true, "id": 11299, "name": "Pizza"}], "fax_number": null, "expansion": {"count": null, "uri": null}, "impression_id": "000b0000001204c2dc28e64b3aa65ef04a4f1ddabe", "profile": "http://www.citysearch.com/profile/812159770/kennesaw_ga/chicago_dough_pizza_factory.html", "address": {"city": "Kennesaw", "state": "GA", "street": "3875 Cherokee St NW", "postal_code": "30144"}, "capProviderId": null, "distance": null, "has_offers": false, "name": "Chicago Dough Pizza Factory", "longitude": -84.598621, "has_menu": false, "awards": null, "user_review_count": 0}, {"business_operation_status": 1, "rating": null, "neighborhood": null, "image": null, "scorecard": null, "featured": false, "sample_categories": "Restaurants", "public_id": "p-js-kennesaw", "id": 815756710, "votes": null, "tagline": null, "has_video": false, "website": null, "offers": null, "latitude": 34.035079, "politanName": "Atlanta, GA Metro ", "phone_number": "7704235939", "tags": [{"primary": true, "id": 1722, "name": "Restaurants"}], "fax_number": null, "expansion": {"count": null, "uri": null}, "impression_id": "000b000000bf10f9737623481f808812f423d71198", "profile": "http://www.citysearch.com/profile/815756710/kennesaw_ga/p_j_s.html", "address": {"city": "Kennesaw", "state": "GA", "street": "3400 Busbee Dr NW", "postal_code": "30144"}, "capProviderId": null, "distance": null, "has_offers": false, "name": "P J's", "longitude": -84.574368, "has_menu": false, "awards": null, "user_review_count": 0}, {"business_operation_status": 1, "rating": null, "neighborhood": null, "image": null, "scorecard": null, "featured": false, "sample_categories": "Restaurants, Pizza", "public_id": "rock-solid-security-solutions-kennesaw", "id": 45560530, "votes": null, "tagline": null, "has_video": false, "website": null, "offers": null, "latitude": 34.024398, "politanName": "Atlanta, GA Metro ", "phone_number": "7706932354", "tags": [{"primary": false, "id": 1722, "name": "Restaurants"}, {"primary": true, "id": 11299, "name": "Pizza"}], "fax_number": null, "expansion": {"count": null, "uri": null}, "impression_id": "000b0000001a8d0f8056894b59aad53285c12a19e4", "profile": "http://www.citysearch.com/profile/45560530/kennesaw_ga/rock_solid_security_solutions.html", "address": {"city": "Kennesaw", "state": "GA", "street": "2914 Cherokee St NW", "postal_code": "30144"}, "capProviderId": null, "distance": null, "has_offers": false, "name": "Rock Solid Security Solutions", "longitude": -84.611629, "has_menu": false, "awards": null, "user_review_count": 0}, {"business_operation_status": 1, "rating": 6.0, "neighborhood": null, "image": null, "scorecard": null, "featured": false, "sample_categories": "Dessert Shops, Restaurants", "public_id": "dollys-frozen-custard-kennesaw", "id": 45561007, "votes": null, "tagline": null, "has_video": false, "website": null, "offers": null, "latitude": 34.017774, "politanName": "Atlanta, GA Metro ", "phone_number": "7709198858", "tags": [{"primary": false, "id": 1722, "name": "Restaurants"}, {"primary": true, "id": 1728, "name": "Dessert Shops"}], "fax_number": null, "expansion": {"count": null, "uri": null}, "impression_id": "000b000000a452c815c7a9416f9e506f1ddaf0a2f9", "profile": "http://www.citysearch.com/profile/45561007/kennesaw_ga/dolly_s_frozen_custard.html", "address": {"city": "Kennesaw", "state": "GA", "street": "2680 Cobb Pkwy NW Ste D", "postal_code": "30152"}, "capProviderId": null, "distance": null, "has_offers": false, "name": "Dolly's Frozen Custard", "longitude": -84.617896, "has_menu": false, "awards": null, "user_review_count": 0}, {"business_operation_status": 1, "rating": null, "neighborhood": null, "image": null, "scorecard": null, "featured": false, "sample_categories": "Restaurants", "public_id": "tom-chee-kennesaw", "id": 626960404, "votes": null, "tagline": null, "has_video": false, "website": null, "offers": null, "latitude": 34.000514, "politanName": "Atlanta, GA Metro ", "phone_number": "6784988321", "tags": [{"primary": true, "id": 1722, "name": "Restaurants"}], "fax_number": null, "expansion": {"count": null, "uri": null}, "impression_id": "000b000000c9bbcb6641d74e4eb18719491e790faf", "profile": "http://www.citysearch.com/profile/626960404/kennesaw_ga/tom_chee.html", "address": {"city": "Kennesaw", "state": "GA", "street": "1200 Ernest W Barrett Pkwy NW 208", "postal_code": "30144"}, "capProviderId": null, "distance": null, "has_offers": false, "name": "Tom + Chee", "longitude": -84.587423, "has_menu": false, "awards": null, "user_review_count": 0}, {"business_operation_status": 1, "rating": null, "neighborhood": null, "image": null, "scorecard": null, "featured": false, "sample_categories": "Grocery Stores, Restaurants", "public_id": "hoover-foods-kennesaw", "id": 655893410, "votes": null, "tagline": null, "has_video": false, "website": null, "offers": null, "latitude": 34.050688, "politanName": "Atlanta, GA Metro ", "phone_number": "6785810388", "tags": [{"primary": false, "id": 1722, "name": "Restaurants"}, {"primary": true, "id": 1713, "name": "Grocery Stores"}], "fax_number": null, "expansion": {"count": null, "uri": null}, "impression_id": "000b000000ca35352ae9c84ee093d8b210c0747cdb", "profile": "http://www.citysearch.com/profile/655893410/kennesaw_ga/hoover_foods.html", "address": {"city": "Kennesaw", "state": "GA", "street": "4065 Cherokee St Nw", "postal_code": "30144"}, "capProviderId": null, "distance": null, "has_offers": false, "name": "Hoover Foods", "longitude": -84.596657, "has_menu": false, "awards": null, "user_review_count": 0}, {"business_operation_status": 1, "rating": null, "neighborhood": null, "image": null, "scorecard": null, "featured": false, "sample_categories": "Restaurants", "public_id": "saporitos-kennesaw", "id": 682453180, "votes": null, "tagline": null, "has_video": false, "website": null, "offers": null, "latitude": 33.999345, "politanName": "Atlanta, GA Metro ", "phone_number": "7704251970", "tags": [{"primary": true, "id": 1722, "name": "Restaurants"}], "fax_number": null, "expansion": {"count": null, "uri": null}, "impression_id": "000b0000002434ba5ab04c46f8b30aa5a386174791", "profile": "http://www.citysearch.com/profile/682453180/kennesaw_ga/saporito_s.html", "address": {"city": "Kennesaw", "state": "GA", "street": "1200 Ernest W Barrett Pkwy NW", "postal_code": "30144"}, "capProviderId": null, "distance": null, "has_offers": false, "name": "Saporito's", "longitude": -84.586888, "has_menu": false, "awards": null, "user_review_count": 0}, {"business_operation_status": 1, "rating": null, "neighborhood": null, "image": null, "scorecard": null, "featured": false, "sample_categories": "Restaurants, Delis And Delicatessens, American Express, Debit Card, Discover", "public_id": "great-wraps-kennesaw", "id": 682599740, "votes": null, "tagline": null, "has_video": false, "website": null, "offers": null, "latitude": 34.018145, "politanName": "Atlanta, GA Metro ", "phone_number": "7704287788", "tags": [{"primary": false, "id": 1727, "name": "Delis And Delicatessens"}, {"primary": false, "id": 11333, "name": "American Express"}, {"primary": false, "id": 11347, "name": "Debit Card"}, {"primary": false, "id": 11349, "name": "Discover"}, {"primary": false, "id": 11361, "name": "MasterCard"}, {"primary": false, "id": 11382, "name": "Visa"}, {"primary": true, "id": 1722, "name": "Restaurants"}], "fax_number": null, "expansion": {"count": null, "uri": null}, "impression_id": "000b000000f38fa2000e4d4bb38d0aac85eedc2636", "profile": "http://www.citysearch.com/profile/682599740/kennesaw_ga/great_wraps.html", "address": {"city": "Kennesaw", "state": "GA", "street": "400 Barrett Pkwy # 130", "postal_code": "30144"}, "capProviderId": null, "distance": null, "has_offers": false, "name": "Great Wraps", "longitude": -84.561896, "has_menu": false, "awards": null, "user_review_count": 2}, {"business_operation_status": 1, "rating": null, "neighborhood": null, "image": null, "scorecard": null, "featured": false, "sample_categories": "Restaurants, Italian, Pizza", "public_id": "gondolier-pizza-italian-rstrnt-kennesaw", "id": 777744770, "votes": null, "tagline": null, "has_video": false, "website": null, "offers": null, "latitude": 34.006194, "politanName": "Atlanta, GA Metro ", "phone_number": "7704191141", "tags": [{"primary": false, "id": 11279, "name": "Italian"}, {"primary": false, "id": 11299, "name": "Pizza"}, {"primary": true, "id": 1722, "name": "Restaurants"}], "fax_number": null, "expansion": {"count": null, "uri": null}, "impression_id": "000b000000162dda27f6ea4e29b71dc75a4f557f7a", "profile": "http://www.citysearch.com/profile/777744770/kennesaw_ga/gondolier_pizza_italian_rstrnt.html", "address": {"city": "Kennesaw", "state": "GA", "street": "725 Ernest W Barrett Pkwy NW", "postal_code": "30144"}, "capProviderId": null, "distance": null, "has_offers": false, "name": "Gondolier Pizza Italian Rstrnt", "longitude": -84.573858, "has_menu": true, "awards": null, "user_review_count": 3}, {"business_operation_status": 1, "rating": null, "neighborhood": null, "image": null, "scorecard": null, "featured": false, "sample_categories": "Restaurants", "public_id": "thai-surak-thai-restaurant-kennesaw", "id": 806598640, "votes": null, "tagline": null, "has_video": false, "website": null, "offers": null, "latitude": 34.025304, "politanName": "Atlanta, GA Metro ", "phone_number": "6785811888", "tags": [{"primary": true, "id": 1722, "name": "Restaurants"}], "fax_number": null, "expansion": {"count": null, "uri": null}, "impression_id": "000b000000e2f9760836224a749ae85b2d1acdb9f1", "profile": "http://www.citysearch.com/profile/806598640/kennesaw_ga/thai_surak_thai_restaurant.html", "address": {"city": "Kennesaw", "state": "GA", "street": "2950 George Busbee Pkwy NW", "postal_code": "30144"}, "capProviderId": null, "distance": null, "has_offers": false, "name": "Thai Surak Thai Restaurant", "longitude": -84.5671, "has_menu": false, "awards": null, "user_review_count": 0}, {"business_operation_status": 1, "rating": null, "neighborhood": null, "image": null, "scorecard": null, "featured": false, "sample_categories": "Restaurants", "public_id": "buffalos-southwest-cafe-kennesaw-2", "id": 808032200, "votes": null, "tagline": null, "has_video": false, "website": "http://www.citysearch.com/profile/external/808032200/kennesaw_ga/buffalo_s_southwest_cafe.html", "offers": null, "latitude": 33.99979, "politanName": "Atlanta, GA Metro ", "phone_number": "7704249464", "tags": [{"primary": true, "id": 1722, "name": "Restaurants"}], "fax_number": null, "expansion": {"count": null, "uri": null}, "impression_id": "000b000000e128dc64db004062842fcd1ac4e7c8b0", "profile": "http://www.citysearch.com/profile/808032200/kennesaw_ga/buffalo_s_southwest_cafe.html", "address": {"city": "Kennesaw", "state": "GA", "street": "1200 Ernest W Barrett Pkwy NW", "postal_code": "30144"}, "capProviderId": null, "distance": null, "has_offers": false, "name": "Buffalo's Southwest Cafe", "longitude": -84.585399, "has_menu": false, "awards": null, "user_review_count": 0}, {"business_operation_status": 1, "rating": null, "neighborhood": null, "image": null, "scorecard": null, "featured": false, "sample_categories": "Restaurants, Pizza", "public_id": "uncle-maddios-pizza-joint-kennesaw", "id": 777683550, "votes": null, "tagline": null, "has_video": false, "website": "http://www.citysearch.com/profile/external/777683550/kennesaw_ga/uncle_maddio_s_pizza_joint.html", "offers": null, "latitude": 34.035456, "politanName": "Atlanta, GA Metro ", "phone_number": "7705731694", "tags": [{"primary": false, "id": 1722, "name": "Restaurants"}, {"primary": true, "id": 11299, "name": "Pizza"}], "fax_number": null, "expansion": {"count": null, "uri": null}, "impression_id": "000b0000002a0db1e8bb3c4c3c8aa92547eeb3f84e", "profile": "http://www.citysearch.com/profile/777683550/kennesaw_ga/uncle_maddio_s_pizza_joint.html", "address": {"city": "Kennesaw", "state": "GA", "street": "745 Chastain Rd NW", "postal_code": "30144"}, "capProviderId": null, "distance": null, "has_offers": false, "name": "Uncle Maddio's Pizza Joint", "longitude": -84.56996, "has_menu": true, "awards": null, "user_review_count": 1}, {"business_operation_status": 1, "rating": null, "neighborhood": null, "image": null, "scorecard": null, "featured": false, "sample_categories": "Restaurants", "public_id": "reagans-kennesaw", "id": 817217110, "votes": null, "tagline": null, "has_video": false, "website": null, "offers": null, "latitude": 34.023434, "politanName": "Atlanta, GA Metro ", "phone_number": "7704261010", "tags": [{"primary": true, "id": 1722, "name": "Restaurants"}], "fax_number": null, "expansion": {"count": null, "uri": null}, "impression_id": "000b0000001136e9026a3149baa17dc83a36e645f5", "profile": "http://www.citysearch.com/profile/817217110/kennesaw_ga/reagan_s.html", "address": {"city": "Kennesaw", "state": "GA", "street": "3900 Leg Pk Blvd NW # B100", "postal_code": "30144"}, "capProviderId": null, "distance": null, "has_offers": false, "name": "Reagan's", "longitude": -84.61549, "has_menu": false, "awards": null, "user_review_count": 0}, {"business_operation_status": 1, "rating": 9.0, "neighborhood": null, "image": "http://images.citysearch.net/assets/imgdb/merchant/2010/2/1/0/XGFGRqdH1.jpeg", "scorecard": null, "featured": false, "sample_categories": "Catering, Restaurants, Barbecue Restaurants, $, Cheap Eats", "public_id": "williamson-brothers-barbq-marietta", "id": 11340779, "votes": null, "tagline": "Country barbecue smoked up just right in Marietta.", "has_video": false, "website": "http://www.citysearch.com/profile/external/11340779/marietta_ga/williamson_bros_bar_b_q.html", "offers": null, "latitude": 33.950897, "politanName": "Atlanta, GA Metro ", "phone_number": "7709713201", "tags": [{"primary": false, "id": 1722, "name": "Restaurants"}, {"primary": false, "id": 1724, "name": "Barbecue Restaurants"}, {"primary": false, "id": 11231, "name": "$"}, {"primary": false, "id": 11249, "name": "Cheap Eats"}, {"primary": false, "id": 11263, "name": "Family-Friendly Dining"}, {"primary": false, "id": 11269, "name": "Group Dining"}, {"primary": false, "id": 11286, "name": "Lunch Spot"}, {"primary": false, "id": 11333, "name": "American Express"}, {"primary": false, "id": 11349, "name": "Discover"}, {"primary": false, "id": 11361, "name": "MasterCard"}, {"primary": false, "id": 11382, "name": "Visa"}, {"primary": true, "id": 1705, "name": "Catering"}], "fax_number": null, "expansion": {"count": null, "uri": null}, "impression_id": "000b00000065364e35d0f540249b6de45dfd9ce1c0", "profile": "http://www.citysearch.com/profile/11340779/marietta_ga/williamson_bros_bar_b_q.html", "address": {"city": "Marietta", "state": "GA", "street": "1425 Roswell Rd", "postal_code": "30062"}, "capProviderId": null, "distance": null, "has_offers": false, "name": "Williamson Bros. Bar-B-Q", "longitude": -84.510219, "has_menu": true, "awards": null, "user_review_count": 65}, {"business_operation_status": 1, "rating": 8.0, "neighborhood": null, "image": "http://images.citysearch.net/assets/imgdb/merchant/2015/3/18/0/zKAXTjbf208.jpeg", "scorecard": null, "featured": true, "sample_categories": "Restaurants, New American, Traditional American, Seafood, $$", "public_id": "longhorn-steakhouse-woodstock", "id": 33571775, "votes": null, "tagline": "Come in today & enjoy what we call a \"cut-above\" experience", "has_video": false, "website": "http://www.citysearch.com/profile/external/33571775/woodstock_ga/longhorn_steakhouse.html", "offers": null, "latitude": 34.104501, "politanName": "Atlanta, GA Metro ", "phone_number": "7704509047", "tags": [{"primary": false, "id": 11189, "name": "New American"}, {"primary": false, "id": 11190, "name": "Traditional American"}, {"primary": false, "id": 11228, "name": "Seafood"}, {"primary": false, "id": 11232, "name": "$$"}, {"primary": false, "id": 11247, "name": "Carry Out"}, {"primary": false, "id": 11258, "name": "Dine At The Bar"}, {"primary": false, "id": 11263, "name": "Family-Friendly Dining"}, {"primary": false, "id": 11269, "name": "Group Dining"}, {"primary": false, "id": 11316, "name": "Steakhouse"}, {"primary": false, "id": 11333, "name": "American Express"}, {"primary": false, "id": 11349, "name": "Discover"}, {"primary": false, "id": 11361, "name": "MasterCard"}, {"primary": false, "id": 11382, "name": "Visa"}, {"primary": true, "id": 1722, "name": "Restaurants"}], "fax_number": null, "expansion": {"count": null, "uri": null}, "impression_id": "000b000000fa0111b62bb641758104cba3f7110e92", "profile": "http://www.citysearch.com/profile/33571775/woodstock_ga/longhorn_steakhouse.html", "address": {"city": "Woodstock", "state": "GA", "street": "1420 Towne Lake Pkwy", "postal_code": "30189"}, "capProviderId": 1, "distance": null, "has_offers": false, "name": "LongHorn Steakhouse", "longitude": -84.539409, "has_menu": true, "awards": null, "user_review_count": 1}, {"business_operation_status": 1, "rating": 8.0, "neighborhood": null, "image": "http://images.citysearch.net/assets/imgdb/merchant/2015/3/18/0/zKAXTjbf208.jpeg", "scorecard": null, "featured": true, "sample_categories": "Restaurants, New American, Traditional American, Seafood, $$", "public_id": "longhorn-steakhouse-marietta-2", "id": 2906120, "votes": null, "tagline": "Come in today & enjoy what we call a \"cut-above\" experience", "has_video": false, "website": "http://www.citysearch.com/profile/external/2906120/marietta_ga/longhorn_steakhouse.html", "offers": null, "latitude": 33.947061, "politanName": "Atlanta, GA Metro ", "phone_number": "6787019006", "tags": [{"primary": false, "id": 11189, "name": "New American"}, {"primary": false, "id": 11190, "name": "Traditional American"}, {"primary": false, "id": 11228, "name": "Seafood"}, {"primary": false, "id": 11232, "name": "$$"}, {"primary": false, "id": 11247, "name": "Carry Out"}, {"primary": false, "id": 11258, "name": "Dine At The Bar"}, {"primary": false, "id": 11263, "name": "Family-Friendly Dining"}, {"primary": false, "id": 11269, "name": "Group Dining"}, {"primary": false, "id": 11316, "name": "Steakhouse"}, {"primary": false, "id": 11333, "name": "American Express"}, {"primary": false, "id": 11349, "name": "Discover"}, {"primary": false, "id": 11361, "name": "MasterCard"}, {"primary": false, "id": 11382, "name": "Visa"}, {"primary": true, "id": 1722, "name": "Restaurants"}], "fax_number": null, "expansion": {"count": null, "uri": null}, "impression_id": "000b0000009b1bff2bea894bfc8a770b6606f5cbe3", "profile": "http://www.citysearch.com/profile/2906120/marietta_ga/longhorn_steakhouse.html", "address": {"city": "Marietta", "state": "GA", "street": "2636 Dallas Hwy. SW", "postal_code": "30064"}, "capProviderId": 1, "distance": null, "has_offers": false, "name": "LongHorn Steakhouse", "longitude": -84.628665, "has_menu": true, "awards": null, "user_review_count": 2}, {"business_operation_status": 1, "rating": null, "neighborhood": null, "image": "http://images.citysearch.net/assets/imgdb/merchant/2015/3/18/0/zKAXTjbf208.jpeg", "scorecard": null, "featured": true, "sample_categories": "Restaurants, New American, Seafood, Carry Out, Steakhouse", "public_id": "longhorn-steakhouse-acworth", "id": 43858745, "votes": null, "tagline": "Come in today & enjoy what we call a \"cut-above\" experience", "has_video": false, "website": "http://www.citysearch.com/profile/external/43858745/acworth_ga/longhorn_steakhouse.html", "offers": null, "latitude": 34.036752, "politanName": "Atlanta, GA Metro ", "phone_number": "4048574290", "tags": [{"primary": false, "id": 11189, "name": "New American"}, {"primary": false, "id": 11228, "name": "Seafood"}, {"primary": false, "id": 11247, "name": "Carry Out"}, {"primary": false, "id": 11316, "name": "Steakhouse"}, {"primary": false, "id": 11333, "name": "American Express"}, {"primary": false, "id": 11349, "name": "Discover"}, {"primary": false, "id": 11361, "name": "MasterCard"}, {"primary": false, "id": 11382, "name": "Visa"}, {"primary": true, "id": 1722, "name": "Restaurants"}], "fax_number": null, "expansion": {"count": null, "uri": null}, "impression_id": "000b000000167ef12b71e54ad59c426a3b920c502f", "profile": "http://www.citysearch.com/profile/43858745/acworth_ga/longhorn_steakhouse.html", "address": {"city": "Acworth", "state": "GA", "street": "3366 Cobb Parkway NW", "postal_code": "30101"}, "capProviderId": 1, "distance": null, "has_offers": false, "name": "LongHorn Steakhouse", "longitude": -84.684185, "has_menu": true, "awards": null, "user_review_count": 0}, {"business_operation_status": 1, "rating": 9.0, "neighborhood": null, "image": "http://images.citysearch.net/assets/imgdb/merchant/2010/12/15/0/sdOYfRSY93.jpeg", "scorecard": null, "featured": false, "sample_categories": "Restaurants, Bars & Pubs, Pubs, Irish Pubs, English Pubs", "public_id": "keegans-public-house-kennesaw", "id": 622065270, "votes": null, "tagline": "\" Kennesaw's Best Pub\"", "has_video": false, "website": "http://www.citysearch.com/profile/external/622065270/kennesaw_ga/keegans_public_house.html", "offers": null, "latitude": 33.994278, "politanName": "Atlanta, GA Metro ", "phone_number": "6782132460", "tags": [{"primary": false, "id": 1686, "name": "Bars & Pubs"}, {"primary": false, "id": 1687, "name": "Pubs"}, {"primary": false, "id": 1688, "name": "Irish Pubs"}, {"primary": false, "id": 1689, "name": "English Pubs"}, {"primary": false, "id": 1698, "name": "Neighborhood Bars"}, {"primary": false, "id": 1701, "name": "Sports Bars"}, {"primary": false, "id": 1702, "name": "Taverns"}, {"primary": false, "id": 10034, "name": "Late-Night Scene"}, {"primary": false, "id": 10035, "name": "Live Music"}, {"primary": false, "id": 10037, "name": "Outdoor Seating"}, {"primary": false, "id": 11070, "name": "Darts"}, {"primary": false, "id": 11086, "name": "Drink Specials"}, {"primary": false, "id": 11090, "name": "Happy Hour"}, {"primary": false, "id": 11102, "name": "Notable Beer List"}, {"primary": false, "id": 11221, "name": "Irish"}, {"primary": false, "id": 11232, "name": "$$"}, {"primary": false, "id": 11269, "name": "Group Dining"}, {"primary": false, "id": 11283, "name": "Live Music"}, {"primary": false, "id": 11284, "name": "Local Favorite"}, {"primary": false, "id": 11286, "name": "Lunch Spot"}, {"primary": false, "id": 11296, "name": "Outdoor Dining"}, {"primary": false, "id": 11324, "name": "Upscale Casual Dining"}, {"primary": false, "id": 11333, "name": "American Express"}, {"primary": false, "id": 11339, "name": "Cash"}, {"primary": false, "id": 11349, "name": "Discover"}, {"primary": false, "id": 11361, "name": "MasterCard"}, {"primary": false, "id": 11382, "name": "Visa"}, {"primary": false, "id": 12821, "name": "Casual Date Spot"}, {"primary": false, "id": 14890, "name": "Comfort Food"}, {"primary": true, "id": 1722, "name": "Restaurants"}], "fax_number": null, "expansion": {"count": null, "uri": null}, "impression_id": "000b000000bec566c7f83646f39bff808fbeedea7c", "profile": "http://www.citysearch.com/profile/622065270/kennesaw_ga/keegans_public_house.html", "address": {"city": "Kennesaw", "state": "GA", "street": "1625 Ridenour Blvd NW 301", "postal_code": "30152"}, "capProviderId": null, "distance": null, "has_offers": false, "name": "Keegans Public House", "longitude": -84.592498, "has_menu": true, "awards": null, "user_review_count": 3}, {"business_operation_status": 1, "rating": 9.0, "neighborhood": null, "image": "http://o3.aolcdn.com/dims-shared/dims3/PATCH/resize/600x450/http://hss-prod.hss.aol.com/hss/storage/patch/e86137254c4247e4ca79b2ad9f3cd25d", "scorecard": null, "featured": false, "sample_categories": "Restaurants, Bars & Clubs, Bars & Pubs, Traditional American, Seafood", "public_id": "whitlocks-grill-marietta", "id": 2906507, "votes": null, "tagline": "Voted \"Amazing Food!\"", "has_video": false, "website": "http://www.citysearch.com/profile/external/2906507/marietta_ga/whitlock_s_grill.html", "offers": null, "latitude": 33.952132, "politanName": "Atlanta, GA Metro ", "phone_number": "7705901500", "tags": [{"primary": false, "id": 164, "name": "Bars & Clubs"}, {"primary": false, "id": 1686, "name": "Bars & Pubs"}, {"primary": false, "id": 11190, "name": "Traditional American"}, {"primary": false, "id": 11228, "name": "Seafood"}, {"primary": false, "id": 11265, "name": "Fine Dining"}, {"primary": false, "id": 11316, "name": "Steakhouse"}, {"primary": false, "id": 11333, "name": "American Express"}, {"primary": false, "id": 11348, "name": "Diners Club"}, {"primary": false, "id": 11349, "name": "Discover"}, {"primary": false, "id": 11361, "name": "MasterCard"}, {"primary": false, "id": 11382, "name": "Visa"}, {"primary": true, "id": 1722, "name": "Restaurants"}], "fax_number": null, "expansion": {"count": null, "uri": null}, "impression_id": "000b0000007a263e22b67f4ddb954b36977b1cc459", "profile": "http://www.citysearch.com/profile/2906507/marietta_ga/whitlock_s_grill.html", "address": {"city": "Marietta", "state": "GA", "street": "990 Whitlock Ave NW", "postal_code": "30064"}, "capProviderId": null, "distance": null, "has_offers": false, "name": "Whitlock's Grill", "longitude": -84.578568, "has_menu": false, "awards": null, "user_review_count": 13}, {"business_operation_status": 1, "rating": 8.0, "neighborhood": null, "image": "http://images.citysearch.net/assets/imgdb/merchant/2009/12/3/0/EyDaZhGu3.jpeg", "scorecard": null, "featured": false, "sample_categories": "Restaurants, Sushi, Japanese, $$, Date Spot", "public_id": "kani-house-woodstock", "id": 2965396, "votes": null, "tagline": "Japanese Steakhouse and Sushi/Valentines Day Specials", "has_video": false, "website": null, "offers": null, "latitude": 34.113853, "politanName": "Atlanta, GA Metro ", "phone_number": "7705925264", "tags": [{"primary": false, "id": 11201, "name": "Sushi"}, {"primary": false, "id": 11202, "name": "Japanese"}, {"primary": false, "id": 11232, "name": "$$"}, {"primary": false, "id": 11256, "name": "Date Spot"}, {"primary": false, "id": 11263, "name": "Family-Friendly Dining"}, {"primary": false, "id": 11269, "name": "Group Dining"}, {"primary": false, "id": 11284, "name": "Local Favorite"}, {"primary": false, "id": 11286, "name": "Lunch Spot"}, {"primary": false, "id": 11316, "name": "Steakhouse"}, {"primary": false, "id": 11333, "name": "American Express"}, {"primary": false, "id": 11339, "name": "Cash"}, {"primary": false, "id": 11347, "name": "Debit Card"}, {"primary": false, "id": 11349, "name": "Discover"}, {"primary": false, "id": 11361, "name": "MasterCard"}, {"primary": false, "id": 11367, "name": "Open 7 Days"}, {"primary": false, "id": 11382, "name": "Visa"}, {"primary": true, "id": 1722, "name": "Restaurants"}], "fax_number": null, "expansion": {"count": null, "uri": null}, "impression_id": "000b00000096ba90855d4c42b8b1b88352d91f9bf9", "profile": "http://www.citysearch.com/profile/2965396/woodstock_ga/kani_house_japanese_steakhouse.html", "address": {"city": "Woodstock", "state": "GA", "street": "2455 Towne Lake Pkwy", "postal_code": "30189"}, "capProviderId": null, "distance": null, "has_offers": false, "name": "Kani House Japanese Steakhouse", "longitude": -84.554184, "has_menu": true, "awards": null, "user_review_count": 15}, {"business_operation_status": 1, "rating": null, "neighborhood": null, "image": "http://images.citysearch.net/assets/imgdb/merchant/2010/7/26/0/JrllVRzI48.jpeg", "scorecard": null, "featured": false, "sample_categories": "Restaurants, Bars & Clubs, Bars & Pubs, Grill Restaurants, Traditional American", "public_id": "chilis-grill-bar-acworth", "id": 45993088, "votes": null, "tagline": "$20 Dinner For Two: Now At Chili's, Get An Appetizer & Two Full-Size Entrees For Just $20!", "has_video": false, "website": "http://www.citysearch.com/profile/external/45993088/acworth_ga/chili_s_grill_bar.html", "offers": null, "latitude": 34.035595, "politanName": "Atlanta, GA Metro ", "phone_number": "7709744558", "tags": [{"primary": false, "id": 164, "name": "Bars & Clubs"}, {"primary": false, "id": 1686, "name": "Bars & Pubs"}, {"primary": false, "id": 6191, "name": "Grill Restaurants"}, {"primary": false, "id": 11190, "name": "Traditional American"}, {"primary": false, "id": 11208, "name": "Mexican"}, {"primary": false, "id": 11231, "name": "$"}, {"primary": false, "id": 11232, "name": "$$"}, {"primary": false, "id": 11237, "name": "Bar Menu"}, {"primary": false, "id": 11247, "name": "Carry Out"}, {"primary": false, "id": 11249, "name": "Cheap Eats"}, {"primary": false, "id": 11258, "name": "Dine At The Bar"}, {"primary": false, "id": 11262, "name": "Family Style Dining"}, {"primary": false, "id": 11263, "name": "Family-Friendly Dining"}, {"primary": false, "id": 11269, "name": "Group Dining"}, {"primary": false, "id": 11270, "name": "Hamburgers"}, {"primary": false, "id": 11271, "name": "Happy Hour"}, {"primary": false, "id": 11284, "name": "Local Favorite"}, {"primary": false, "id": 11286, "name": "Lunch Spot"}, {"primary": false, "id": 11313, "name": "Southwestern"}, {"primary": false, "id": 11333, "name": "American Express"}, {"primary": false, "id": 11349, "name": "Discover"}, {"primary": false, "id": 11361, "name": "MasterCard"}, {"primary": false, "id": 11382, "name": "Visa"}, {"primary": false, "id": 12821, "name": "Casual Date Spot"}, {"primary": false, "id": 12822, "name": "Dining Discounts"}, {"primary": false, "id": 12824, "name": "Margaritas"}, {"primary": true, "id": 1722, "name": "Restaurants"}], "fax_number": null, "expansion": {"count": null, "uri": null}, "impression_id": "000b000000ae6df89d3cbb4004989d799aff18ade8", "profile": "http://www.citysearch.com/profile/45993088/acworth_ga/chili_s_grill_bar.html", "address": {"city": "Acworth", "state": "GA", "street": "3339 Cobb Pkwy NW", "postal_code": "30101"}, "capProviderId": null, "distance": null, "has_offers": false, "name": "Chili's Grill & Bar", "longitude": -84.682609, "has_menu": false, "awards": null, "user_review_count": 0}, {"business_operation_status": 1, "rating": 10.0, "neighborhood": null, "image": "http://images.citysearch.net/assets/imgdb/merchant/2009/12/11/0/swDCBkEv77.jpeg", "scorecard": null, "featured": false, "sample_categories": "Restaurants, Catering, Brunch, Fine Dining, Group Dining", "public_id": "the-magnolia-thomas-restaurant-woodstock", "id": 43861949, "votes": null, "tagline": "Cozy Historic Fine Dining Gem in Woodstock", "has_video": false, "website": "http://www.citysearch.com/profile/external/43861949/woodstock_ga/the_magnolia_thomas_restaurant.html", "offers": "Sunday Brunch at The Magnolia Thomas Restaurant!", "latitude": 34.100553, "politanName": "Atlanta, GA Metro ", "phone_number": "6784455789", "tags": [{"primary": false, "id": 1705, "name": "Catering"}, {"primary": false, "id": 11240, "name": "Brunch"}, {"primary": false, "id": 11265, "name": "Fine Dining"}, {"primary": false, "id": 11269, "name": "Group Dining"}, {"primary": false, "id": 11294, "name": "Notable Wine List"}, {"primary": false, "id": 11312, "name": "Southern"}, {"primary": false, "id": 11339, "name": "Cash"}, {"primary": false, "id": 11361, "name": "MasterCard"}, {"primary": false, "id": 11382, "name": "Visa"}, {"primary": true, "id": 1722, "name": "Restaurants"}], "fax_number": null, "expansion": {"count": null, "uri": null}, "impression_id": "000b00000014ba6cba16364d22ab9343436d221a07", "profile": "http://www.citysearch.com/profile/43861949/woodstock_ga/the_magnolia_thomas_restaurant.html", "address": {"city": "Woodstock", "state": "GA", "street": "108 Arnold Mill Rd", "postal_code": "30188"}, "capProviderId": null, "distance": null, "has_offers": true, "name": "The Magnolia Thomas Restaurant", "longitude": -84.515984, "has_menu": true, "awards": null, "user_review_count": 4}, {"business_operation_status": 1, "rating": 10.0, "neighborhood": null, "image": "http://images.citysearch.net/assets/imgdb/merchant/2011/1/20/0/UsWNQgew42.jpeg", "scorecard": null, "featured": false, "sample_categories": "Catering, Restaurants, Pizza, Carry Out, Italian", "public_id": "johnnys-new-york-style-pizza-kennesaw", "id": 622133260, "votes": null, "tagline": "Your Neighborhood Pizzeria in Kennesaw, GA", "has_video": false, "website": null, "offers": "Lunch Specials, $5 off any orders over $25 ", "latitude": 33.99449, "politanName": "Atlanta, GA Metro ", "phone_number": "6789960911", "tags": [{"primary": false, "id": 1705, "name": "Catering"}, {"primary": false, "id": 1722, "name": "Restaurants"}, {"primary": false, "id": 11247, "name": "Carry Out"}, {"primary": false, "id": 11279, "name": "Italian"}, {"primary": false, "id": 11286, "name": "Lunch Spot"}, {"primary": false, "id": 12821, "name": "Casual Date Spot"}, {"primary": false, "id": 12822, "name": "Dining Discounts"}, {"primary": true, "id": 11299, "name": "Pizza"}], "fax_number": null, "expansion": {"count": null, "uri": null}, "impression_id": "000b000000c69bc0dbcb4f4032846f51e025d3e215", "profile": "http://www.citysearch.com/profile/622133260/kennesaw_ga/johnny_s_new_york_style_pizza.html", "address": {"city": "Kennesaw", "state": "GA", "street": "1615 Ridenour Blvd NW", "postal_code": "30152"}, "capProviderId": null, "distance": null, "has_offers": true, "name": "Johnny's New York Style Pizza", "longitude": -84.592515, "has_menu": true, "awards": null, "user_review_count": 3}, {"business_operation_status": 1, "rating": 9.0, "neighborhood": null, "image": "http://images.citysearch.net/assets/imgdb/merchant/2010/10/22/0/RKurtdmV199.jpeg", "scorecard": null, "featured": false, "sample_categories": "Bakeries, Coffee & Tea Shops, Restaurants, Dessert Shops, Sandwich Shops", "public_id": "australian-bakery-cafe-marietta", "id": 37645588, "votes": null, "tagline": "Come enjoy a great dessert or Australian meat pies.", "has_video": false, "website": "http://www.citysearch.com/profile/external/37645588/marietta_ga/australian_bakery_cafe.html", "offers": "Mixed Pie Pack", "latitude": 33.952294, "politanName": "Atlanta, GA Metro ", "phone_number": "6787976222", "tags": [{"primary": false, "id": 1711, "name": "Coffee & Tea Shops"}, {"primary": false, "id": 1722, "name": "Restaurants"}, {"primary": false, "id": 1728, "name": "Dessert Shops"}, {"primary": false, "id": 1736, "name": "Sandwich Shops"}, {"primary": false, "id": 11046, "name": "Bread"}, {"primary": false, "id": 11047, "name": "Breakfast"}, {"primary": false, "id": 11048, "name": "Cake"}, {"primary": false, "id": 11051, "name": "Lunch Spot"}, {"primary": false, "id": 11052, "name": "Muffins"}, {"primary": false, "id": 11053, "name": "Outdoor Dining"}, {"primary": false, "id": 11054, "name": "Pastries"}, {"primary": false, "id": 11055, "name": "Pies"}, {"primary": false, "id": 11231, "name": "$"}, {"primary": false, "id": 11259, "name": "Eclectic & International"}, {"primary": false, "id": 11311, "name": "Soups"}, {"primary": false, "id": 11333, "name": "American Express"}, {"primary": false, "id": 11339, "name": "Cash"}, {"primary": false, "id": 11349, "name": "Discover"}, {"primary": false, "id": 11352, "name": "Gift Certificate"}, {"primary": false, "id": 11361, "name": "MasterCard"}, {"primary": false, "id": 11377, "name": "Street Parking"}, {"primary": false, "id": 11382, "name": "Visa"}, {"primary": true, "id": 1685, "name": "Bakeries"}], "fax_number": null, "expansion": {"count": null, "uri": null}, "impression_id": "000b000000dcf0adf5d9fa4656979e8bf794f8bd32", "profile": "http://www.citysearch.com/profile/37645588/marietta_ga/australian_bakery_cafe.html", "address": {"city": "Marietta", "state": "GA", "street": "48 S Park Sq Ne", "postal_code": "30060"}, "capProviderId": null, "distance": null, "has_offers": true, "name": "Australian Bakery Cafe", "longitude": -84.549988, "has_menu": true, "awards": null, "user_review_count": 8}, {"business_operation_status": 1, "rating": 10.0, "neighborhood": null, "image": "http://images.citysearch.net/assets/imgdb/merchant/2011/9/20/0/Iqyqodtc148.jpeg", "scorecard": null, "featured": false, "sample_categories": "Restaurants, Carry Out", "public_id": "sammys-new-south-kitchen-woodstock", "id": 605196432, "votes": null, "tagline": "Our mission is to have every customer who comes through our doors leave impressed by Sammy's and excited to come back again.", "has_video": false, "website": "http://www.citysearch.com/profile/external/605196432/woodstock_ga/sammy_s_new_south_kitchen.html", "offers": null, "latitude": 34.089184, "politanName": "Atlanta, GA Metro ", "phone_number": "7708522700", "tags": [{"primary": false, "id": 11247, "name": "Carry Out"}, {"primary": true, "id": 1722, "name": "Restaurants"}], "fax_number": null, "expansion": {"count": null, "uri": null}, "impression_id": "000b000000affeb939bcb045c88955a40049d41df7", "profile": "http://www.citysearch.com/profile/605196432/woodstock_ga/sammy_s_new_south_kitchen.html", "address": {"city": "Woodstock", "state": "GA", "street": "12195 Highway 92", "postal_code": "30188"}, "capProviderId": null, "distance": null, "has_offers": false, "name": "Sammy's New South Kitchen", "longitude": -84.483229, "has_menu": false, "awards": null, "user_review_count": 9}, {"business_operation_status": 1, "rating": 10.0, "neighborhood": null, "image": "http://images.citysearch.net/assets/imgdb/merchant/2010/12/9/0/eOCwLsLW128.jpeg", "scorecard": null, "featured": false, "sample_categories": "Restaurants, Corporate Catering, Bistros, Catering, Banquets", "public_id": "the-dogwood-terrace-restaurant-catering-acworth", "id": 622060330, "votes": null, "tagline": "Acworth's Best Wedding and Special Occassion Restaurant and Event Space", "has_video": false, "website": "http://www.citysearch.com/profile/external/622060330/acworth_ga/the_dogwood_terrace_restaurant_catering.html", "offers": "Buy One Appetizer, Get One Appetizer FREE", "latitude": 34.066753, "politanName": "Atlanta, GA Metro ", "phone_number": "7706274069", "tags": [{"primary": false, "id": 13670, "name": "Corporate Catering"}, {"primary": false, "id": 13690, "name": "Bistros"}, {"primary": false, "id": 1705, "name": "Catering"}, {"primary": false, "id": 11119, "name": "Banquets"}, {"primary": false, "id": 11123, "name": "Wedding Banquets"}, {"primary": false, "id": 11189, "name": "New American"}, {"primary": false, "id": 11266, "name": "Fireplace"}, {"primary": false, "id": 11296, "name": "Outdoor Dining"}, {"primary": false, "id": 11315, "name": "Special Occasion Dining"}, {"primary": false, "id": 11339, "name": "Cash"}, {"primary": false, "id": 11349, "name": "Discover"}, {"primary": false, "id": 11361, "name": "MasterCard"}, {"primary": false, "id": 11369, "name": "Parking Lot"}, {"primary": false, "id": 11382, "name": "Visa"}, {"primary": true, "id": 1722, "name": "Restaurants"}], "fax_number": null, "expansion": {"count": null, "uri": null}, "impression_id": "000b000000c06cb4631dc44ee79407e159e26feb88", "profile": "http://www.citysearch.com/profile/622060330/acworth_ga/the_dogwood_terrace_restaurant_catering.html", "address": {"city": "Acworth", "state": "GA", "street": "4975 N Main St", "postal_code": "30101"}, "capProviderId": null, "distance": null, "has_offers": true, "name": "The Dogwood Terrace Restaurant & Catering", "longitude": -84.682171, "has_menu": false, "awards": null, "user_review_count": 2}, {"business_operation_status": 1, "rating": 8.0, "neighborhood": null, "image": "http://images.citysearch.net/assets/imgdb/merchant/2010/8/13/0/QnBUvXuT46.jpeg", "scorecard": null, "featured": false, "sample_categories": "Restaurants, Carry Out, Cheap Eats, Food Delivery, Pizza", "public_id": "papa-johns-pizza-marietta-5", "id": 2903740, "votes": null, "tagline": "Better Ingredients.  Better Pizza.  Papa John's.", "has_video": false, "website": "http://www.citysearch.com/profile/external/2903740/marietta_ga/papa_john_s_pizza.html", "offers": null, "latitude": 33.993849, "politanName": "Atlanta, GA Metro ", "phone_number": "7705653599", "tags": [{"primary": false, "id": 11247, "name": "Carry Out"}, {"primary": false, "id": 11249, "name": "Cheap Eats"}, {"primary": false, "id": 11267, "name": "Food Delivery"}, {"primary": false, "id": 11299, "name": "Pizza"}, {"primary": false, "id": 11333, "name": "American Express"}, {"primary": false, "id": 11349, "name": "Discover"}, {"primary": false, "id": 11361, "name": "MasterCard"}, {"primary": false, "id": 11382, "name": "Visa"}, {"primary": true, "id": 1722, "name": "Restaurants"}], "fax_number": null, "expansion": {"count": null, "uri": null}, "impression_id": "000b000000f9dd23a4173c4628be2505a135703669", "profile": "http://www.citysearch.com/profile/2903740/marietta_ga/papa_john_s_pizza.html", "address": {"city": "Marietta", "state": "GA", "street": "1860 Sandy Plains Rd", "postal_code": "30066"}, "capProviderId": null, "distance": null, "has_offers": false, "name": "Papa John's Pizza", "longitude": -84.509193, "has_menu": true, "awards": null, "user_review_count": 0}, {"business_operation_status": 1, "rating": 10.0, "neighborhood": null, "image": "http://images.citysearch.net/assets/imgdb/merchant/2010/1/4/0/WzUzeFwS102.jpeg", "scorecard": null, "featured": false, "sample_categories": "Restaurants, Mexican, Family-Friendly Dining, Outdoor Dining, Southwestern", "public_id": "mojave-southwestern-grill-margarita-bar-acworth", "id": 603369572, "votes": null, "tagline": "Southwestern Cuisine with 60 Tequilas Margarita Bar", "has_video": false, "website": null, "offers": null, "latitude": 34.050728, "politanName": "Atlanta, GA Metro ", "phone_number": "6784025322", "tags": [{"primary": false, "id": 11208, "name": "Mexican"}, {"primary": false, "id": 11263, "name": "Family-Friendly Dining"}, {"primary": false, "id": 11296, "name": "Outdoor Dining"}, {"primary": false, "id": 11313, "name": "Southwestern"}, {"primary": true, "id": 1722, "name": "Restaurants"}], "fax_number": null, "expansion": {"count": null, "uri": null}, "impression_id": "000b0000009017bfe44b57421f89c4d0d1fa5b9660", "profile": "http://www.citysearch.com/profile/603369572/acworth_ga/mojave_southwestern_grill_margarita_bar.html", "address": {"city": "Acworth", "state": "GA", "street": "3979 S Main St", "postal_code": "30101"}, "capProviderId": null, "distance": null, "has_offers": false, "name": "Mojave Southwestern Grill & Margarita Bar", "longitude": -84.663654, "has_menu": false, "awards": null, "user_review_count": 4}, {"business_operation_status": 0, "rating": 10.0, "neighborhood": null, "image": "http://images.citysearch.net/assets/imgdb/b7/11/e1/25/2e/46/4d/70/bd/cd/94/07/61/9c/45/a1.jpg", "scorecard": null, "featured": false, "sample_categories": "Spanish", "public_id": "a-taste-of-puerto-rico-marietta", "id": 47566700, "votes": null, "tagline": "Marietta's Puerto Rican Experience!", "has_video": false, "website": null, "offers": null, "latitude": 34.0531, "politanName": "Atlanta, GA Metro ", "phone_number": "6787979992", "tags": [{"primary": true, "id": 11314, "name": "Spanish"}], "fax_number": null, "expansion": {"count": null, "uri": null}, "impression_id": "000b000000e1bc6400638f4c35af1caec71c1cb2ca", "profile": "http://www.citysearch.com/profile/47566700/marietta_ga/a_taste_of_puerto_rico.html", "address": {"city": "Marietta", "state": "GA", "street": "2769 Chastain Meadow Pkwy", "postal_code": "30066"}, "capProviderId": null, "distance": null, "has_offers": false, "name": "A Taste of Puerto Rico", "longitude": -84.512148, "has_menu": false, "awards": null, "user_review_count": 4}, {"business_operation_status": 1, "rating": null, "neighborhood": null, "image": "http://images.citysearch.net/assets/imgdb/merchant/2010/12/23/0/PJvPGMvM24.jpeg", "scorecard": null, "featured": false, "sample_categories": "Restaurants, Chicken Wings, Neighborhood Bars, Sports Bars, Catering", "public_id": "otters-chicken-sports-bar-grill-marietta", "id": 604423012, "votes": null, "tagline": "Otter's Chicken Sports Bar & Grill, Marrietta | If The Kernel Had Our Chicken, He'd Be A General By Now", "has_video": false, "website": "http://www.citysearch.com/profile/external/604423012/marietta_ga/otter_s_chicken_sports_bar_grill.html", "offers": "$2 Draft Beer Specials", "latitude": 33.952164, "politanName": "Atlanta, GA Metro ", "phone_number": "7704288333", "tags": [{"primary": false, "id": 13700, "name": "Chicken Wings"}, {"primary": false, "id": 1698, "name": "Neighborhood Bars"}, {"primary": false, "id": 1701, "name": "Sports Bars"}, {"primary": false, "id": 1705, "name": "Catering"}, {"primary": false, "id": 11085, "name": "Draft Beer"}, {"primary": false, "id": 11190, "name": "Traditional American"}, {"primary": false, "id": 11231, "name": "$"}, {"primary": false, "id": 11237, "name": "Bar Menu"}, {"primary": false, "id": 11245, "name": "Cajun & Creole"}, {"primary": false, "id": 11247, "name": "Carry Out"}, {"primary": false, "id": 11263, "name": "Family-Friendly Dining"}, {"primary": false, "id": 11284, "name": "Local Favorite"}, {"primary": false, "id": 11286, "name": "Lunch Spot"}, {"primary": false, "id": 11292, "name": "Notable Beer List"}, {"primary": false, "id": 11296, "name": "Outdoor Dining"}, {"primary": false, "id": 11333, "name": "American Express"}, {"primary": false, "id": 11339, "name": "Cash"}, {"primary": false, "id": 11340, "name": "Casual"}, {"primary": false, "id": 11361, "name": "MasterCard"}, {"primary": false, "id": 11369, "name": "Parking Lot"}, {"primary": false, "id": 11382, "name": "Visa"}, {"primary": false, "id": 12821, "name": "Casual Date Spot"}, {"primary": false, "id": 12839, "name": "Chicken"}, {"primary": true, "id": 1722, "name": "Restaurants"}], "fax_number": null, "expansion": {"count": null, "uri": null}, "impression_id": "000b00000055a8bfe7234d4ad4ba8b96ed6bc9f920", "profile": "http://www.citysearch.com/profile/604423012/marietta_ga/otter_s_chicken_sports_bar_grill.html", "address": {"city": "Marietta", "state": "GA", "street": "3625 Dallas Hwy SW Ste 690", "postal_code": "30064"}, "capProviderId": null, "distance": null, "has_offers": true, "name": "Otter's Chicken Sports Bar & Grill", "longitude": -84.657799, "has_menu": false, "awards": null, "user_review_count": 0}, {"business_operation_status": 1, "rating": 10.0, "neighborhood": null, "image": "http://images.citysearch.net/assets/imgdb/merchant/2010/8/19/0/ZenXAKOc169.jpeg", "scorecard": null, "featured": false, "sample_categories": "Restaurants, Sandwich Shops, Pizza, $, Carry Out", "public_id": "g-angelos-marietta", "id": 2908297, "votes": null, "tagline": "We Deliver the Best Pizza, in Marietta, to Your Door Step!", "has_video": false, "website": "http://www.citysearch.com/profile/external/2908297/marietta_ga/g_angelo_s.html", "offers": "Carry Out Special!", "latitude": 34.030179, "politanName": "Atlanta, GA Metro ", "phone_number": "7704241800", "tags": [{"primary": false, "id": 1722, "name": "Restaurants"}, {"primary": false, "id": 1736, "name": "Sandwich Shops"}, {"primary": false, "id": 11231, "name": "$"}, {"primary": false, "id": 11247, "name": "Carry Out"}, {"primary": false, "id": 11249, "name": "Cheap Eats"}, {"primary": false, "id": 11256, "name": "Date Spot"}, {"primary": false, "id": 11262, "name": "Family Style Dining"}, {"primary": false, "id": 11263, "name": "Family-Friendly Dining"}, {"primary": false, "id": 11267, "name": "Food Delivery"}, {"primary": false, "id": 11269, "name": "Group Dining"}, {"primary": false, "id": 11279, "name": "Italian"}, {"primary": false, "id": 11284, "name": "Local Favorite"}, {"primary": false, "id": 11286, "name": "Lunch Spot"}, {"primary": false, "id": 11333, "name": "American Express"}, {"primary": false, "id": 11339, "name": "Cash"}, {"primary": false, "id": 11340, "name": "Casual"}, {"primary": false, "id": 11349, "name": "Discover"}, {"primary": false, "id": 11361, "name": "MasterCard"}, {"primary": false, "id": 11369, "name": "Parking Lot"}, {"primary": false, "id": 11382, "name": "Visa"}, {"primary": false, "id": 12821, "name": "Casual Date Spot"}, {"primary": false, "id": 14890, "name": "Comfort Food"}, {"primary": true, "id": 11299, "name": "Pizza"}], "fax_number": null, "expansion": {"count": null, "uri": null}, "impression_id": "000b000000230b97e979a7451a8fe1d216a308742d", "profile": "http://www.citysearch.com/profile/2908297/marietta_ga/g_angelo_s.html", "address": {"city": "Marietta", "state": "GA", "street": "3205 Canton Rd 108", "postal_code": "30066"}, "capProviderId": null, "distance": null, "has_offers": true, "name": "G' Angelo's", "longitude": -84.528473, "has_menu": true, "awards": null, "user_review_count": 5}, {"business_operation_status": 1, "rating": 8.0, "neighborhood": null, "image": "http://images.citysearch.net/assets/imgdb/merchant/2010/8/13/0/QnBUvXuT46.jpeg", "scorecard": null, "featured": false, "sample_categories": "Restaurants, Carry Out, Cheap Eats, Food Delivery, Pizza", "public_id": "papa-johns-pizza-woodstock-2", "id": 2964977, "votes": null, "tagline": "Better Ingredients.  Better Pizza.  Papa John's.", "has_video": false, "website": "http://www.citysearch.com/profile/external/2964977/woodstock_ga/papa_john_s_pizza.html", "offers": null, "latitude": 34.108667, "politanName": "Atlanta, GA Metro ", "phone_number": "7705917272", "tags": [{"primary": false, "id": 11247, "name": "Carry Out"}, {"primary": false, "id": 11249, "name": "Cheap Eats"}, {"primary": false, "id": 11267, "name": "Food Delivery"}, {"primary": false, "id": 11299, "name": "Pizza"}, {"primary": false, "id": 11333, "name": "American Express"}, {"primary": false, "id": 11349, "name": "Discover"}, {"primary": false, "id": 11361, "name": "MasterCard"}, {"primary": false, "id": 11382, "name": "Visa"}, {"primary": true, "id": 1722, "name": "Restaurants"}], "fax_number": null, "expansion": {"count": null, "uri": null}, "impression_id": "000b000000ef0d23bee72a4086afeb9284e3154dac", "profile": "http://www.citysearch.com/profile/2964977/woodstock_ga/papa_john_s_pizza.html", "address": {"city": "Woodstock", "state": "GA", "street": "2035 Towne Lake Pkwy", "postal_code": "30189"}, "capProviderId": null, "distance": null, "has_offers": false, "name": "Papa John's Pizza", "longitude": -84.551604, "has_menu": true, "awards": null, "user_review_count": 1}, {"business_operation_status": 1, "rating": 9.0, "neighborhood": null, "image": "http://images.citysearch.net/assets/imgdb/merchant/2010/10/18/0/huqXlNtg302.jpeg", "scorecard": null, "featured": false, "sample_categories": "Restaurants, Catering, Colombian, Latin American, $$", "public_id": "kiosco-marietta", "id": 43845722, "votes": null, "tagline": "The Best Kept Secret in Marietta.", "has_video": false, "website": "http://www.citysearch.com/profile/external/43845722/marietta_ga/kiosco.html", "offers": "Weekend Special for Two! ", "latitude": 33.950909, "politanName": "Atlanta, GA Metro ", "phone_number": "6783377999", "tags": [{"primary": false, "id": 1705, "name": "Catering"}, {"primary": false, "id": 11206, "name": "Colombian"}, {"primary": false, "id": 11212, "name": "Latin American"}, {"primary": false, "id": 11232, "name": "$$"}, {"primary": false, "id": 11296, "name": "Outdoor Dining"}, {"primary": false, "id": 11303, "name": "Private Parties"}, {"primary": false, "id": 11333, "name": "American Express"}, {"primary": false, "id": 11349, "name": "Discover"}, {"primary": false, "id": 11361, "name": "MasterCard"}, {"primary": false, "id": 11382, "name": "Visa"}, {"primary": true, "id": 1722, "name": "Restaurants"}], "fax_number": null, "expansion": {"count": null, "uri": null}, "impression_id": "000b0000006ca943f30477474cb600228bb2d1a72a", "profile": "http://www.citysearch.com/profile/43845722/marietta_ga/kiosco.html", "address": {"city": "Marietta", "state": "GA", "street": "48 Powder Springs St", "postal_code": "30064"}, "capProviderId": null, "distance": null, "has_offers": true, "name": "Kiosco", "longitude": -84.550496, "has_menu": true, "awards": null, "user_review_count": 2}, {"business_operation_status": 1, "rating": null, "neighborhood": null, "image": "http://images.citysearch.net/assets/imgdb/merchant/2010/8/13/0/QnBUvXuT46.jpeg", "scorecard": null, "featured": false, "sample_categories": "Restaurants, Carry Out, Cheap Eats, Food Delivery, Pizza", "public_id": "papa-johns-pizza-woodstock", "id": 2963637, "votes": null, "tagline": "Better Ingredients.  Better Pizza.  Papa John's.", "has_video": false, "website": "http://www.citysearch.com/profile/external/2963637/woodstock_ga/papa_john_s_pizza.html", "offers": null, "latitude": 34.086739, "politanName": "Atlanta, GA Metro ", "phone_number": "7705926560", "tags": [{"primary": false, "id": 11247, "name": "Carry Out"}, {"primary": false, "id": 11249, "name": "Cheap Eats"}, {"primary": false, "id": 11267, "name": "Food Delivery"}, {"primary": false, "id": 11299, "name": "Pizza"}, {"primary": false, "id": 11333, "name": "American Express"}, {"primary": false, "id": 11349, "name": "Discover"}, {"primary": false, "id": 11361, "name": "MasterCard"}, {"primary": false, "id": 11382, "name": "Visa"}, {"primary": true, "id": 1722, "name": "Restaurants"}], "fax_number": null, "expansion": {"count": null, "uri": null}, "impression_id": "000b0000008f08727bfa24432cb323391d3de4c268", "profile": "http://www.citysearch.com/profile/2963637/woodstock_ga/papa_john_s_pizza.html", "address": {"city": "Woodstock", "state": "GA", "street": "3351 Trickum Rd", "postal_code": "30188"}, "capProviderId": null, "distance": null, "has_offers": false, "name": "Papa John's Pizza", "longitude": -84.48434, "has_menu": true, "awards": null, "user_review_count": 0}, {"business_operation_status": 1, "rating": null, "neighborhood": null, "image": "http://images.citysearch.net/assets/imgdb/merchant/2009/11/19/0/LxacavSr134.jpeg", "scorecard": null, "featured": false, "sample_categories": "Restaurants, Pizza, MasterCard, Visa", "public_id": "saporitos-pizza-marietta", "id": 602690322, "votes": null, "tagline": "Marietta's Authentic Pizza!", "has_video": false, "website": "http://www.citysearch.com/profile/external/602690322/marietta_ga/saporito_s_pizza.html", "offers": null, "latitude": 33.969965, "politanName": "Atlanta, GA Metro ", "phone_number": "7705097797", "tags": [{"primary": false, "id": 11299, "name": "Pizza"}, {"primary": false, "id": 11361, "name": "MasterCard"}, {"primary": false, "id": 11382, "name": "Visa"}, {"primary": true, "id": 1722, "name": "Restaurants"}], "fax_number": null, "expansion": {"count": null, "uri": null}, "impression_id": "000b0000008be09cbf91a545f9aca3e60561232eac", "profile": "http://www.citysearch.com/profile/602690322/marietta_ga/saporito_s_pizza.html", "address": {"city": "Marietta", "state": "GA", "street": "2201 Roswell Rd 100", "postal_code": "30062"}, "capProviderId": null, "distance": null, "has_offers": false, "name": "Saporito's Pizza", "longitude": -84.489161, "has_menu": true, "awards": null, "user_review_count": 3}, {"business_operation_status": 1, "rating": null, "neighborhood": null, "image": "http://images.citysearch.net/assets/imgdb/merchant/2010/8/13/0/QnBUvXuT46.jpeg", "scorecard": null, "featured": false, "sample_categories": "Restaurants, Carry Out, Cheap Eats, Food Delivery, Pizza", "public_id": "papa-johns-pizza-acworth-2", "id": 37647989, "votes": null, "tagline": "Better Ingredients. Better Pizza. Papa John's.", "has_video": false, "website": "http://www.citysearch.com/profile/external/37647989/acworth_ga/papa_john_s_pizza.html", "offers": null, "latitude": 34.074565, "politanName": "Atlanta, GA Metro ", "phone_number": "6785744411", "tags": [{"primary": false, "id": 11247, "name": "Carry Out"}, {"primary": false, "id": 11249, "name": "Cheap Eats"}, {"primary": false, "id": 11267, "name": "Food Delivery"}, {"primary": false, "id": 11299, "name": "Pizza"}, {"primary": false, "id": 11333, "name": "American Express"}, {"primary": false, "id": 11349, "name": "Discover"}, {"primary": false, "id": 11361, "name": "MasterCard"}, {"primary": false, "id": 11382, "name": "Visa"}, {"primary": true, "id": 1722, "name": "Restaurants"}], "fax_number": null, "expansion": {"count": null, "uri": null}, "impression_id": "000b00000094d331f1b8824c838bd8efca14232594", "profile": "http://www.citysearch.com/profile/37647989/acworth_ga/papa_john_s_pizza.html", "address": {"city": "Acworth", "state": "GA", "street": "5020 Cherokee St 300", "postal_code": "30101"}, "capProviderId": null, "distance": null, "has_offers": false, "name": "Papa John's Pizza", "longitude": -84.676523, "has_menu": true, "awards": null, "user_review_count": 0}, {"business_operation_status": 1, "rating": null, "neighborhood": null, "image": "http://images.citysearch.net/assets/imgdb/c7/65/a7/46/05/48/42/f1/8d/df/02/14/66/11/15/f9.JPG", "scorecard": null, "featured": false, "sample_categories": "Neighborhood Bars, Restaurants, After Work, Notable Beer List, Mexican", "public_id": "taco-mac-marietta-marietta", "id": 602949692, "votes": null, "tagline": "Atlanta's original Buffalo wings & largest draught selection in town!", "has_video": false, "website": "http://www.citysearch.com/profile/external/602949692/marietta_ga/taco_mac_marietta.html", "offers": null, "latitude": 33.953449, "politanName": "Atlanta, GA Metro ", "phone_number": "7707951144", "tags": [{"primary": false, "id": 1722, "name": "Restaurants"}, {"primary": false, "id": 10015, "name": "After Work"}, {"primary": false, "id": 11102, "name": "Notable Beer List"}, {"primary": false, "id": 11208, "name": "Mexican"}, {"primary": false, "id": 11237, "name": "Bar Menu"}, {"primary": false, "id": 11238, "name": "Bar Scene"}, {"primary": false, "id": 11258, "name": "Dine At The Bar"}, {"primary": false, "id": 11263, "name": "Family-Friendly Dining"}, {"primary": false, "id": 11292, "name": "Notable Beer List"}, {"primary": false, "id": 11313, "name": "Southwestern"}, {"primary": false, "id": 11333, "name": "American Express"}, {"primary": false, "id": 11361, "name": "MasterCard"}, {"primary": false, "id": 11382, "name": "Visa"}, {"primary": false, "id": 12821, "name": "Casual Date Spot"}, {"primary": true, "id": 1698, "name": "Neighborhood Bars"}], "fax_number": "7707958736", "expansion": {"count": null, "uri": null}, "impression_id": "000b000000671802f8aa724fdfaba13dbb156ccfd1", "profile": "http://www.citysearch.com/profile/602949692/marietta_ga/taco_mac_marietta.html", "address": {"city": "Marietta", "state": "GA", "street": "2650 Dallas Highway, Suite 110", "postal_code": "30064"}, "capProviderId": null, "distance": null, "has_offers": false, "name": "Taco Mac Marietta", "longitude": -84.658913, "has_menu": true, "awards": null, "user_review_count": 1}], "histograms": [], "tag_ids": [1722], "uri": "http://api.citygridmedia.com:8080/search/places/v2/search/where?has_offers=false&type=restaurant&format=json&page=8&where=30144&rpp=50&histograms=false&publisher=10000009598&region_type=circle", "did_you_mean": "", "regions": [{"latitude": 34.037076, "default_radius": 4.72, "type": "postal_code", "name": "30144", "longitude": -84.591034}], "call_id": "000b0000002b419075420c4ae9975758f566648889", "first_hit": 351, "total_hits": 1696, "geo_ids": [26310], "page": 8, "last_hit": 400}}