{"results": {"rpp": 50, "locations": [{"business_operation_status": 0, "rating": null, "neighborhood": null, "image": null, "scorecard": null, "featured": false, "sample_categories": "Restaurants", "public_id": "taco-loco-marietta-3", "id": 672859520, "votes": null, "tagline": null, "has_video": false, "website": null, "offers": null, "latitude": 34.038538, "politanName": "Atlanta, GA Metro ", "phone_number": "7709288060", "tags": [{"primary": true, "id": 1722, "name": "Restaurants"}], "fax_number": null, "expansion": {"count": null, "uri": null}, "impression_id": "000b000000006c619bc15241c79c7e8555580578a5", "profile": "http://www.citysearch.com/profile/672859520/marietta_ga/taco_loco.html", "address": {"city": "Marietta", "state": "GA", "street": "3545 Canton Road", "postal_code": "30066"}, "capProviderId": null, "distance": null, "has_offers": false, "name": "Taco Loco", "longitude": -84.528373, "has_menu": true, "awards": null, "user_review_count": 0}, {"business_operation_status": 1, "rating": null, "neighborhood": null, "image": null, "scorecard": null, "featured": false, "sample_categories": "Restaurants", "public_id": "georges-grill-bbq-marietta", "id": 672294490, "votes": null, "tagline": null, "has_video": false, "website": null, "offers": null, "latitude": 33.997727, "politanName": "Atlanta, GA Metro ", "phone_number": null, "tags": [{"primary": true, "id": 1722, "name": "Restaurants"}], "fax_number": null, "expansion": {"count": null, "uri": null}, "impression_id": "000b000000a1a6faa25b614c62abad95867b648ffb", "profile": "http://www.citysearch.com/profile/672294490/marietta_ga/george_s_grill_bbq.html", "address": {"city": "Marietta", "state": "GA", "street": "1951 Canton Rd NE", "postal_code": "30066"}, "capProviderId": null, "distance": null, "has_offers": false, "name": "George's Grill & BBQ", "longitude": -84.525055, "has_menu": false, "awards": null, "user_review_count": 0}, {"business_operation_status": 1, "rating": null, "neighborhood": null, "image": null, "scorecard": null, "featured": false, "sample_categories": "Ice Cream Parlors", "public_id": "tios-mexican-grill-marietta", "id": 830806670, "votes": null, "tagline": null, "has_video": false, "website": null, "offers": null, "latitude": 33.970818, "politanName": "Atlanta, GA Metro ", "phone_number": "7709779727", "tags": [{"primary": true, "id": 1730, "name": "Ice Cream Parlors"}], "fax_number": null, "expansion": {"count": null, "uri": null}, "impression_id": "000b000000c8a8522c197142f89180042d96f78f6a", "profile": "http://www.citysearch.com/profile/830806670/marietta_ga/tios_mexican_grill.html", "address": {"city": "Marietta", "state": "GA", "street": "821 Woodmont Dr", "postal_code": "30062"}, "capProviderId": null, "distance": null, "has_offers": false, "name": "Tios Mexican Grill", "longitude": -84.49593, "has_menu": true, "awards": null, "user_review_count": 0}, {"business_operation_status": 1, "rating": null, "neighborhood": null, "image": null, "scorecard": null, "featured": false, "sample_categories": "Restaurants", "public_id": "eat-smart-solutions-marietta", "id": 613912764, "votes": null, "tagline": null, "has_video": false, "website": null, "offers": null, "latitude": 34.041728, "politanName": "Atlanta, GA Metro ", "phone_number": "6782478574", "tags": [{"primary": true, "id": 1722, "name": "Restaurants"}], "fax_number": null, "expansion": {"count": null, "uri": null}, "impression_id": "000b0000002533dab8acc04e81baa7b8de04f1d03d", "profile": "http://www.citysearch.com/profile/613912764/marietta_ga/eat_smart_solutions.html", "address": {"city": "Marietta", "state": "GA", "street": "3653 Canton Rd", "postal_code": "30066"}, "capProviderId": null, "distance": null, "has_offers": false, "name": "Eat Smart Solutions", "longitude": -84.529523, "has_menu": false, "awards": null, "user_review_count": 0}, {"business_operation_status": 1, "rating": null, "neighborhood": null, "image": null, "scorecard": null, "featured": false, "sample_categories": "Restaurants", "public_id": "legacy-park-of-georgia-llc-kennesaw", "id": 617695724, "votes": null, "tagline": null, "has_video": false, "website": null, "offers": null, "latitude": 34.048612, "politanName": "Atlanta, GA Metro ", "phone_number": "6783248865", "tags": [{"primary": true, "id": 1722, "name": "Restaurants"}], "fax_number": null, "expansion": {"count": null, "uri": null}, "impression_id": "000b00000026e184fd244944af85cc555435043ac8", "profile": "http://www.citysearch.com/profile/617695724/kennesaw_ga/the_grille_at_legacy_park.html", "address": {"city": "Kennesaw", "state": "GA", "street": "3900 Legacy Park Blvd NW", "postal_code": "30144"}, "capProviderId": null, "distance": null, "has_offers": false, "name": "The Grille At Legacy Park", "longitude": -84.622496, "has_menu": false, "awards": null, "user_review_count": 0}, {"business_operation_status": 1, "rating": null, "neighborhood": null, "image": null, "scorecard": null, "featured": false, "sample_categories": "Restaurants, Delis And Delicatessens, Sandwich Shops, Carry Out", "public_id": "subway-marietta-36", "id": 655943030, "votes": null, "tagline": null, "has_video": false, "website": "http://www.citysearch.com/profile/external/655943030/marietta_ga/subway.html", "offers": null, "latitude": 33.995879, "politanName": "Atlanta, GA Metro ", "phone_number": "7703212546", "tags": [{"primary": false, "id": 1727, "name": "Delis And Delicatessens"}, {"primary": false, "id": 1736, "name": "Sandwich Shops"}, {"primary": false, "id": 11247, "name": "Carry Out"}, {"primary": true, "id": 1722, "name": "Restaurants"}], "fax_number": null, "expansion": {"count": null, "uri": null}, "impression_id": "000b0000007d0d805133fe4864ad63c8581923fcba", "profile": "http://www.citysearch.com/profile/655943030/marietta_ga/subway.html", "address": {"city": "Marietta", "state": "GA", "street": "1860 Sandy Plains Rd # 301", "postal_code": "30066"}, "capProviderId": null, "distance": null, "has_offers": false, "name": "Subway", "longitude": -84.507715, "has_menu": false, "awards": null, "user_review_count": 0}, {"business_operation_status": 1, "rating": null, "neighborhood": null, "image": null, "scorecard": null, "featured": false, "sample_categories": "Restaurants", "public_id": "mamas-cafe-acworth", "id": 682266100, "votes": null, "tagline": null, "has_video": false, "website": null, "offers": null, "latitude": 34.081615, "politanName": "Atlanta, GA Metro ", "phone_number": "7708527100", "tags": [{"primary": true, "id": 1722, "name": "Restaurants"}], "fax_number": null, "expansion": {"count": null, "uri": null}, "impression_id": "000b000000c28f17d2952a496399b5a7cc38068327", "profile": "http://www.citysearch.com/profile/682266100/acworth_ga/mama_s_cafe.html", "address": {"city": "Acworth", "state": "GA", "street": "5399 Bells Ferry Rd", "postal_code": "30102"}, "capProviderId": null, "distance": null, "has_offers": false, "name": "Mama's Cafe", "longitude": -84.575225, "has_menu": false, "awards": null, "user_review_count": 0}, {"business_operation_status": 1, "rating": null, "neighborhood": null, "image": null, "scorecard": null, "featured": false, "sample_categories": "Restaurants, Delis And Delicatessens, Carry Out, American Express, Debit Card", "public_id": "panera-bread-acworth", "id": 682416040, "votes": null, "tagline": null, "has_video": false, "website": "http://www.citysearch.com/profile/external/682416040/acworth_ga/panera_bread.html", "offers": null, "latitude": 34.036329, "politanName": "Atlanta, GA Metro ", "phone_number": "7709741861", "tags": [{"primary": false, "id": 1727, "name": "Delis And Delicatessens"}, {"primary": false, "id": 11247, "name": "Carry Out"}, {"primary": false, "id": 11333, "name": "American Express"}, {"primary": false, "id": 11347, "name": "Debit Card"}, {"primary": false, "id": 11349, "name": "Discover"}, {"primary": false, "id": 11361, "name": "MasterCard"}, {"primary": false, "id": 11382, "name": "Visa"}, {"primary": true, "id": 1722, "name": "Restaurants"}], "fax_number": null, "expansion": {"count": null, "uri": null}, "impression_id": "000b000000e776931c8cf84a89a0a74b6414196b58", "profile": "http://www.citysearch.com/profile/682416040/acworth_ga/panera_bread.html", "address": {"city": "Acworth", "state": "GA", "street": "3384 Cobb Pkwy NW # 160", "postal_code": "30101"}, "capProviderId": null, "distance": null, "has_offers": false, "name": "Panera Bread", "longitude": -84.685123, "has_menu": false, "awards": null, "user_review_count": 0}, {"business_operation_status": 1, "rating": null, "neighborhood": null, "image": null, "scorecard": null, "featured": false, "sample_categories": "Restaurants, Traditional American, Carry Out", "public_id": "ihop-restaurant-marietta-3", "id": 682450140, "votes": null, "tagline": null, "has_video": false, "website": "http://www.citysearch.com/profile/external/682450140/marietta_ga/ihop.html", "offers": null, "latitude": 33.94651, "politanName": "Atlanta, GA Metro ", "phone_number": "7704851267", "tags": [{"primary": false, "id": 11190, "name": "Traditional American"}, {"primary": false, "id": 11247, "name": "Carry Out"}, {"primary": true, "id": 1722, "name": "Restaurants"}], "fax_number": null, "expansion": {"count": null, "uri": null}, "impression_id": "000b000000fe2baa2d84304afea4e111454b270c9d", "profile": "http://www.citysearch.com/profile/682450140/marietta_ga/ihop.html", "address": {"city": "Marietta", "state": "GA", "street": "2390 Dallas Hwy SW", "postal_code": "30064"}, "capProviderId": null, "distance": null, "has_offers": false, "name": "IHOP", "longitude": -84.62155, "has_menu": false, "awards": null, "user_review_count": 0}, {"business_operation_status": 1, "rating": null, "neighborhood": null, "image": null, "scorecard": null, "featured": false, "sample_categories": "Restaurants, Delis And Delicatessens, Sandwich Shops, Carry Out, Shop Online", "public_id": "jimmy-johns-acworth", "id": 787102550, "votes": null, "tagline": null, "has_video": false, "website": "http://www.citysearch.com/profile/external/787102550/acworth_ga/jimmy_john_s.html", "offers": null, "latitude": 34.039365, "politanName": "Atlanta, GA Metro ", "phone_number": "6785016012", "tags": [{"primary": false, "id": 1727, "name": "Delis And Delicatessens"}, {"primary": false, "id": 1736, "name": "Sandwich Shops"}, {"primary": false, "id": 11247, "name": "Carry Out"}, {"primary": false, "id": 11375, "name": "Shop Online"}, {"primary": true, "id": 1722, "name": "Restaurants"}], "fax_number": null, "expansion": {"count": null, "uri": null}, "impression_id": "000b0000000b0a1ea8d6284a75b63d8bdb67360562", "profile": "http://www.citysearch.com/profile/787102550/acworth_ga/jimmy_john_s.html", "address": {"city": "Acworth", "state": "GA", "street": "3450 Cobb Pkwy NW", "postal_code": "30101"}, "capProviderId": null, "distance": null, "has_offers": false, "name": "Jimmy John's", "longitude": -84.689961, "has_menu": false, "awards": null, "user_review_count": 0}, {"business_operation_status": 1, "rating": null, "neighborhood": null, "image": null, "scorecard": null, "featured": false, "sample_categories": "Restaurants", "public_id": "daves-kennesaw", "id": 33571129, "votes": null, "tagline": null, "has_video": false, "website": null, "offers": null, "latitude": 34.048639, "politanName": "Atlanta, GA Metro ", "phone_number": "7704251010", "tags": [{"primary": true, "id": 1722, "name": "Restaurants"}], "fax_number": null, "expansion": {"count": null, "uri": null}, "impression_id": "000b0000007d9320812f844a559e13b4c9256cad3c", "profile": "http://www.citysearch.com/profile/33571129/kennesaw_ga/dave_s.html", "address": {"city": "Kennesaw", "state": "GA", "street": "3900 Legacy Park Blvd NW Ste B100", "postal_code": "30144"}, "capProviderId": null, "distance": null, "has_offers": false, "name": "Dave's", "longitude": -84.622471, "has_menu": true, "awards": null, "user_review_count": 0}, {"business_operation_status": 1, "rating": null, "neighborhood": null, "image": null, "scorecard": null, "featured": false, "sample_categories": "Restaurants", "public_id": "leo-franco-chef-marietta", "id": 824426470, "votes": null, "tagline": null, "has_video": false, "website": null, "offers": null, "latitude": 33.948481, "politanName": "Atlanta, GA Metro ", "phone_number": "7704999439", "tags": [{"primary": true, "id": 1722, "name": "Restaurants"}], "fax_number": null, "expansion": {"count": null, "uri": null}, "impression_id": "000b00000081d5ef5d6e38415ab912cf6c50c67b59", "profile": "http://www.citysearch.com/profile/824426470/marietta_ga/leo_franco_chef.html", "address": {"city": "Marietta", "state": "GA", "street": "20 Emerson Hill Sq", "postal_code": "30060"}, "capProviderId": null, "distance": null, "has_offers": false, "name": "Leo Franco Chef", "longitude": -84.542181, "has_menu": false, "awards": null, "user_review_count": 0}, {"business_operation_status": 1, "rating": null, "neighborhood": null, "image": null, "scorecard": null, "featured": false, "sample_categories": "Restaurants, Carry Out", "public_id": "jimmy-johns-kennesaw", "id": 612255804, "votes": null, "tagline": null, "has_video": false, "website": "http://www.citysearch.com/profile/external/612255804/kennesaw_ga/jimmy_john_s.html", "offers": null, "latitude": 34.030272, "politanName": "Atlanta, GA Metro ", "phone_number": "6783100766", "tags": [{"primary": false, "id": 11247, "name": "Carry Out"}, {"primary": true, "id": 1722, "name": "Restaurants"}], "fax_number": null, "expansion": {"count": null, "uri": null}, "impression_id": "000b000000720ef0f61ee34b8994eb6614e4d6c029", "profile": "http://www.citysearch.com/profile/612255804/kennesaw_ga/jimmy_john_s.html", "address": {"city": "Kennesaw", "state": "GA", "street": "1133 Chastain Rd NW # 300", "postal_code": "30144"}, "capProviderId": null, "distance": null, "has_offers": false, "name": "Jimmy John's", "longitude": -84.582584, "has_menu": false, "awards": null, "user_review_count": 0}, {"business_operation_status": 1, "rating": null, "neighborhood": null, "image": null, "scorecard": null, "featured": false, "sample_categories": "Restaurants, Carry Out, Chicken", "public_id": "chickfila-kennesaw-2", "id": 627656020, "votes": null, "tagline": null, "has_video": false, "website": null, "offers": null, "latitude": 34.034361, "politanName": "Atlanta, GA Metro ", "phone_number": "7704236448", "tags": [{"primary": false, "id": 11247, "name": "Carry Out"}, {"primary": false, "id": 12839, "name": "Chicken"}, {"primary": true, "id": 1722, "name": "Restaurants"}], "fax_number": null, "expansion": {"count": null, "uri": null}, "impression_id": "000b0000001c162b5efe484647a26eadd9795c1a2f", "profile": "http://www.citysearch.com/profile/627656020/kennesaw_ga/chick_fil_a.html", "address": {"city": "Kennesaw", "state": "GA", "street": "1000 Chastain Rd NW", "postal_code": "30144"}, "capProviderId": null, "distance": null, "has_offers": false, "name": "Chick-Fil-A", "longitude": -84.574216, "has_menu": false, "awards": null, "user_review_count": 0}, {"business_operation_status": 1, "rating": null, "neighborhood": null, "image": null, "scorecard": null, "featured": false, "sample_categories": "Ice Cream Parlors, Frozen Yogurt Shops", "public_id": "baskinrobbins-marietta", "id": 627670240, "votes": null, "tagline": null, "has_video": false, "website": "http://www.citysearch.com/profile/external/627670240/marietta_ga/baskin_robbins.html", "offers": null, "latitude": 34.021176, "politanName": "Atlanta, GA Metro ", "phone_number": "7704223375", "tags": [{"primary": false, "id": 1729, "name": "Frozen Yogurt Shops"}, {"primary": true, "id": 1730, "name": "Ice Cream Parlors"}], "fax_number": null, "expansion": {"count": null, "uri": null}, "impression_id": "000b000000737e7987ddb4469dabfb17f5debc39bf", "profile": "http://www.citysearch.com/profile/627670240/marietta_ga/baskin_robbins.html", "address": {"city": "Marietta", "state": "GA", "street": "2885 Canton Rd", "postal_code": "30066"}, "capProviderId": null, "distance": null, "has_offers": false, "name": "Baskin-Robbins", "longitude": -84.529098, "has_menu": true, "awards": null, "user_review_count": 2}, {"business_operation_status": 1, "rating": null, "neighborhood": null, "image": null, "scorecard": null, "featured": false, "sample_categories": "Restaurants, Bakeries", "public_id": "banbou-restaurant-bakery-kennesaw", "id": 653623320, "votes": null, "tagline": null, "has_video": false, "website": null, "offers": null, "latitude": 34.050651, "politanName": "Atlanta, GA Metro ", "phone_number": "6784018595", "tags": [{"primary": false, "id": 1685, "name": "Bakeries"}, {"primary": true, "id": 1722, "name": "Restaurants"}], "fax_number": null, "expansion": {"count": null, "uri": null}, "impression_id": "000b0000006a10ace46b95412eaf889a1147c9c333", "profile": "http://www.citysearch.com/profile/653623320/kennesaw_ga/banbou_restaurant_bakery.html", "address": {"city": "Kennesaw", "state": "GA", "street": "3600 Cherokee St Nw # 115", "postal_code": "30144"}, "capProviderId": null, "distance": null, "has_offers": false, "name": "Banbou Restaurant & Bakery", "longitude": -84.595684, "has_menu": false, "awards": null, "user_review_count": 0}, {"business_operation_status": 1, "rating": null, "neighborhood": null, "image": null, "scorecard": null, "featured": false, "sample_categories": "Restaurants", "public_id": "poblanoiis-mexican-grill-acworth", "id": 672389870, "votes": null, "tagline": null, "has_video": false, "website": null, "offers": null, "latitude": 34.036897, "politanName": "Atlanta, GA Metro ", "phone_number": null, "tags": [{"primary": true, "id": 1722, "name": "Restaurants"}], "fax_number": null, "expansion": {"count": null, "uri": null}, "impression_id": "000b00000038c4459fdbaf44f8bc25ee33a2fb618d", "profile": "http://www.citysearch.com/profile/672389870/acworth_ga/poblano_s_mexican_grill.html", "address": {"city": "Acworth", "state": "GA", "street": "3344 Cobb Parkway", "postal_code": "30101"}, "capProviderId": null, "distance": null, "has_offers": false, "name": "Poblano\ufffd\ufffd\u00f4s Mexican Grill", "longitude": -84.67988, "has_menu": false, "awards": null, "user_review_count": 0}, {"business_operation_status": 1, "rating": null, "neighborhood": null, "image": null, "scorecard": null, "featured": false, "sample_categories": "Restaurants, Mexican, Carry Out, American Express, Discover", "public_id": "taco-bell-marietta-7", "id": 682721700, "votes": null, "tagline": null, "has_video": false, "website": "http://www.citysearch.com/profile/external/682721700/marietta_ga/taco_bell.html", "offers": null, "latitude": 33.944909, "politanName": "Atlanta, GA Metro ", "phone_number": "7704218815", "tags": [{"primary": false, "id": 11208, "name": "Mexican"}, {"primary": false, "id": 11247, "name": "Carry Out"}, {"primary": false, "id": 11333, "name": "American Express"}, {"primary": false, "id": 11349, "name": "Discover"}, {"primary": false, "id": 11361, "name": "MasterCard"}, {"primary": false, "id": 11382, "name": "Visa"}, {"primary": true, "id": 1722, "name": "Restaurants"}], "fax_number": null, "expansion": {"count": null, "uri": null}, "impression_id": "000b000000e9e7ff118f144cb48e056b4f90a5744e", "profile": "http://www.citysearch.com/profile/682721700/marietta_ga/taco_bell.html", "address": {"city": "Marietta", "state": "GA", "street": "3480 Ernest W Barrett Pkwy Sw", "postal_code": "30064"}, "capProviderId": null, "distance": null, "has_offers": false, "name": "Taco Bell", "longitude": -84.624717, "has_menu": true, "awards": null, "user_review_count": 0}, {"business_operation_status": 1, "rating": null, "neighborhood": null, "image": null, "scorecard": null, "featured": false, "sample_categories": "Ice Cream Parlors, Restaurants", "public_id": "pino-gelalo-of-marietta-marietta", "id": 713581850, "votes": null, "tagline": null, "has_video": false, "website": null, "offers": null, "latitude": 33.952532, "politanName": "Atlanta, GA Metro ", "phone_number": "7702182525", "tags": [{"primary": false, "id": 1722, "name": "Restaurants"}, {"primary": true, "id": 1730, "name": "Ice Cream Parlors"}], "fax_number": null, "expansion": {"count": null, "uri": null}, "impression_id": "000b000000f8c45328e21c4fae96118e9fa1c742b3", "profile": "http://www.citysearch.com/profile/713581850/marietta_ga/pino_gelalo_of_marietta.html", "address": {"city": "Marietta", "state": "GA", "street": "21 W Park Sq Ne", "postal_code": "30060"}, "capProviderId": null, "distance": null, "has_offers": false, "name": "Pino Gelalo of Marietta", "longitude": -84.550467, "has_menu": false, "awards": null, "user_review_count": 0}, {"business_operation_status": 1, "rating": null, "neighborhood": null, "image": null, "scorecard": null, "featured": false, "sample_categories": "Ice Cream Parlors", "public_id": "haagendazs-shop-kennesaw", "id": 706821520, "votes": null, "tagline": null, "has_video": false, "website": "http://www.citysearch.com/profile/external/706821520/kennesaw_ga/haagen_dazs_shop.html", "offers": null, "latitude": 34.019128, "politanName": "Atlanta, GA Metro ", "phone_number": "7705903120", "tags": [{"primary": true, "id": 1730, "name": "Ice Cream Parlors"}], "fax_number": null, "expansion": {"count": null, "uri": null}, "impression_id": "000b00000032c0047128d540338e1c95cc720f7b9a", "profile": "http://www.citysearch.com/profile/706821520/kennesaw_ga/haagen_dazs_shop.html", "address": {"city": "Kennesaw", "state": "GA", "street": "400 Ernest W Barrett Pkwy NW", "postal_code": "30144"}, "capProviderId": null, "distance": null, "has_offers": false, "name": "Haagen-Dazs Shop", "longitude": -84.563608, "has_menu": true, "awards": null, "user_review_count": 0}, {"business_operation_status": 1, "rating": null, "neighborhood": null, "image": null, "scorecard": null, "featured": false, "sample_categories": "Restaurants", "public_id": "willamsonbros-marietta-2", "id": 609749214, "votes": null, "tagline": null, "has_video": false, "website": null, "offers": null, "latitude": 33.977691, "politanName": "Atlanta, GA Metro ", "phone_number": "7704999797", "tags": [{"primary": true, "id": 1722, "name": "Restaurants"}], "fax_number": null, "expansion": {"count": null, "uri": null}, "impression_id": "000b000000350b2dfe4d8443828638b218c7937fb4", "profile": "http://www.citysearch.com/profile/609749214/marietta_ga/willamsonbros.html", "address": {"city": "Marietta", "state": "GA", "street": "1160 Hayes Industrial Dr", "postal_code": "30062"}, "capProviderId": null, "distance": null, "has_offers": false, "name": "Willamsonbros", "longitude": -84.542327, "has_menu": false, "awards": null, "user_review_count": 0}, {"business_operation_status": 1, "rating": null, "neighborhood": null, "image": null, "scorecard": null, "featured": false, "sample_categories": "Restaurants, Food Stores, Grocery Stores, Asian, Chinese", "public_id": "happy-panda-kennesaw", "id": 732232180, "votes": null, "tagline": null, "has_video": false, "website": "http://www.citysearch.com/profile/external/732232180/kennesaw_ga/happy_panda.html", "offers": null, "latitude": 34.060235, "politanName": "Atlanta, GA Metro ", "phone_number": "7704269188", "tags": [{"primary": false, "id": 1706, "name": "Food Stores"}, {"primary": false, "id": 1713, "name": "Grocery Stores"}, {"primary": false, "id": 11235, "name": "Asian"}, {"primary": false, "id": 11252, "name": "Chinese"}, {"primary": false, "id": 11333, "name": "American Express"}, {"primary": false, "id": 11349, "name": "Discover"}, {"primary": false, "id": 11361, "name": "MasterCard"}, {"primary": false, "id": 11382, "name": "Visa"}, {"primary": true, "id": 1722, "name": "Restaurants"}], "fax_number": null, "expansion": {"count": null, "uri": null}, "impression_id": "000b000000d04bd63152af4e63880b18c3a70440f6", "profile": "http://www.citysearch.com/profile/732232180/kennesaw_ga/happy_panda.html", "address": {"city": "Kennesaw", "state": "GA", "street": "4430 Wade Green Rd NW", "postal_code": "30144"}, "capProviderId": null, "distance": null, "has_offers": false, "name": "Happy Panda", "longitude": -84.592066, "has_menu": true, "awards": null, "user_review_count": 1}, {"business_operation_status": 1, "rating": null, "neighborhood": null, "image": null, "scorecard": null, "featured": false, "sample_categories": "Restaurants, Carry Out", "public_id": "kfc-marietta-10", "id": 713491660, "votes": null, "tagline": null, "has_video": false, "website": "http://www.citysearch.com/profile/external/713491660/marietta_ga/kfc.html", "offers": null, "latitude": 33.999161, "politanName": "Atlanta, GA Metro ", "phone_number": "7704276866", "tags": [{"primary": false, "id": 11247, "name": "Carry Out"}, {"primary": true, "id": 1722, "name": "Restaurants"}], "fax_number": null, "expansion": {"count": null, "uri": null}, "impression_id": "000b000000a7fbc64098cb4ad096e6e07e77f4e4d2", "profile": "http://www.citysearch.com/profile/713491660/marietta_ga/kfc.html", "address": {"city": "Marietta", "state": "GA", "street": "2012 Canton Rd", "postal_code": "30066"}, "capProviderId": null, "distance": null, "has_offers": false, "name": "KFC", "longitude": -84.523794, "has_menu": false, "awards": null, "user_review_count": 0}, {"business_operation_status": 1, "rating": null, "neighborhood": null, "image": null, "scorecard": null, "featured": false, "sample_categories": "Restaurants", "public_id": "little-gumbas-acworth", "id": 817697620, "votes": null, "tagline": null, "has_video": false, "website": null, "offers": null, "latitude": 34.030244, "politanName": "Atlanta, GA Metro ", "phone_number": "6785748956", "tags": [{"primary": true, "id": 1722, "name": "Restaurants"}], "fax_number": null, "expansion": {"count": null, "uri": null}, "impression_id": "000b000000b7212be5e2f64e70b244f385cb8af877", "profile": "http://www.citysearch.com/profile/817697620/acworth_ga/little_gumbas.html", "address": {"city": "Acworth", "state": "GA", "street": "22 Old Stilesboro Rd", "postal_code": "30101"}, "capProviderId": null, "distance": null, "has_offers": false, "name": "Little Gumbas", "longitude": -84.741165, "has_menu": false, "awards": null, "user_review_count": 0}, {"business_operation_status": 1, "rating": null, "neighborhood": null, "image": null, "scorecard": null, "featured": false, "sample_categories": "Bars & Clubs, Restaurants", "public_id": "two-monkeys-llc-marietta", "id": 823894470, "votes": null, "tagline": null, "has_video": false, "website": null, "offers": null, "latitude": 33.951907, "politanName": "Atlanta, GA Metro ", "phone_number": "7704220108", "tags": [{"primary": false, "id": 1722, "name": "Restaurants"}, {"primary": true, "id": 164, "name": "Bars & Clubs"}], "fax_number": null, "expansion": {"count": null, "uri": null}, "impression_id": "000b000000a5c4dd40b66d47508df52733d780db0d", "profile": "http://www.citysearch.com/profile/823894470/marietta_ga/two_monkeys_llc.html", "address": {"city": "Marietta", "state": "GA", "street": "688 Whitlock Ave NW # G", "postal_code": "30064"}, "capProviderId": null, "distance": null, "has_offers": false, "name": "Two Monkeys LLC", "longitude": -84.572199, "has_menu": false, "awards": null, "user_review_count": 0}, {"business_operation_status": 1, "rating": null, "neighborhood": null, "image": null, "scorecard": null, "featured": false, "sample_categories": "Restaurants", "public_id": "new-china-buffet-kennesaw-2", "id": 830498290, "votes": null, "tagline": null, "has_video": false, "website": null, "offers": null, "latitude": 34.014631, "politanName": "Atlanta, GA Metro ", "phone_number": "7707922262", "tags": [{"primary": true, "id": 1722, "name": "Restaurants"}], "fax_number": null, "expansion": {"count": null, "uri": null}, "impression_id": "000b0000004e8f07eda7a84d62b80cfc0fae29180e", "profile": "http://www.citysearch.com/profile/830498290/kennesaw_ga/new_china_buffet.html", "address": {"city": "Kennesaw", "state": "GA", "street": "Town Center Plz", "postal_code": "30144"}, "capProviderId": null, "distance": null, "has_offers": false, "name": "New China Buffet", "longitude": -84.562889, "has_menu": false, "awards": null, "user_review_count": 0}, {"business_operation_status": 1, "rating": null, "neighborhood": null, "image": null, "scorecard": null, "featured": false, "sample_categories": "Juice & Smoothie Shops", "public_id": "energy-juice-bar-kennesaw", "id": 836019090, "votes": null, "tagline": null, "has_video": false, "website": null, "offers": null, "latitude": 33.999616, "politanName": "Atlanta, GA Metro ", "phone_number": "8622244594", "tags": [{"primary": true, "id": 1735, "name": "Juice & Smoothie Shops"}], "fax_number": null, "expansion": {"count": null, "uri": null}, "impression_id": "000b000000995c5fcd4abf45df8a9423af9c18522b", "profile": "http://www.citysearch.com/profile/836019090/kennesaw_ga/energy_juice_bar.html", "address": {"city": "Kennesaw", "state": "GA", "street": "1185 Ernest W Barrett Pkwy NW", "postal_code": "30144"}, "capProviderId": null, "distance": null, "has_offers": false, "name": "Energy Juice Bar", "longitude": -84.58372, "has_menu": false, "awards": null, "user_review_count": 0}, {"business_operation_status": 1, "rating": null, "neighborhood": null, "image": null, "scorecard": null, "featured": false, "sample_categories": "Restaurants, Delis And Delicatessens, Sandwich Shops, Carry Out, American Express", "public_id": "quiznos-marietta-3", "id": 43840232, "votes": null, "tagline": null, "has_video": false, "website": null, "offers": null, "latitude": 33.917126, "politanName": "Atlanta, GA Metro ", "phone_number": "6785947600", "tags": [{"primary": false, "id": 1727, "name": "Delis And Delicatessens"}, {"primary": false, "id": 1736, "name": "Sandwich Shops"}, {"primary": false, "id": 11247, "name": "Carry Out"}, {"primary": false, "id": 11333, "name": "American Express"}, {"primary": false, "id": 11347, "name": "Debit Card"}, {"primary": false, "id": 11349, "name": "Discover"}, {"primary": false, "id": 11361, "name": "MasterCard"}, {"primary": false, "id": 11382, "name": "Visa"}, {"primary": true, "id": 1722, "name": "Restaurants"}], "fax_number": null, "expansion": {"count": null, "uri": null}, "impression_id": "000b0000004439f92c84954c0cbe6ea887660dc0ab", "profile": "http://www.citysearch.com/profile/43840232/marietta_ga/quiznos.html", "address": {"city": "Marietta", "state": "GA", "street": "125 Barrett Pkwy Ste 104", "postal_code": "30066"}, "capProviderId": null, "distance": null, "has_offers": false, "name": "Quiznos", "longitude": -84.563854, "has_menu": true, "awards": null, "user_review_count": 0}, {"business_operation_status": 1, "rating": null, "neighborhood": null, "image": null, "scorecard": null, "featured": false, "sample_categories": "Restaurants, Asian", "public_id": "atami-grill-sushi-marietta", "id": 793235190, "votes": null, "tagline": null, "has_video": false, "website": null, "offers": null, "latitude": 33.955116, "politanName": "Atlanta, GA Metro ", "phone_number": "7706938260", "tags": [{"primary": false, "id": 11235, "name": "Asian"}, {"primary": true, "id": 1722, "name": "Restaurants"}], "fax_number": null, "expansion": {"count": null, "uri": null}, "impression_id": "000b000000d46ddd1f218a498f816f4e3d14dfc1d3", "profile": "http://www.citysearch.com/profile/793235190/marietta_ga/atami_grill_sushi.html", "address": {"city": "Marietta", "state": "GA", "street": "3600 Dallas Hwy Sw", "postal_code": "30064"}, "capProviderId": null, "distance": null, "has_offers": false, "name": "Atami Grill & Sushi", "longitude": -84.656027, "has_menu": false, "awards": null, "user_review_count": 0}, {"business_operation_status": 1, "rating": null, "neighborhood": null, "image": null, "scorecard": null, "featured": false, "sample_categories": "Barbecue Restaurants, Catering, Food Stores, Restaurants", "public_id": "wallace-foods-catering-dallas", "id": 2951275, "votes": null, "tagline": null, "has_video": false, "website": null, "offers": null, "latitude": 33.91823, "politanName": "Atlanta, GA Metro ", "phone_number": "7704458151", "tags": [{"primary": false, "id": 1724, "name": "Barbecue Restaurants"}, {"primary": false, "id": 1705, "name": "Catering"}, {"primary": false, "id": 1706, "name": "Food Stores"}, {"primary": true, "id": 1722, "name": "Restaurants"}], "fax_number": null, "expansion": {"count": null, "uri": null}, "impression_id": "000b000000b1bb486f17224d27b527b077b1cd19cf", "profile": "http://www.citysearch.com/profile/2951275/dallas_ga/wallace_foods_catering.html", "address": {"city": "Dallas", "state": "GA", "street": "86 Owens Rd", "postal_code": "30157"}, "capProviderId": null, "distance": null, "has_offers": false, "name": "Wallace Foods & Catering", "longitude": -84.777135, "has_menu": false, "awards": null, "user_review_count": 0}, {"business_operation_status": 1, "rating": null, "neighborhood": null, "image": null, "scorecard": null, "featured": false, "sample_categories": "Restaurants, Pizza, Carry Out", "public_id": "little-caesars-pizza-marietta-14", "id": 607327154, "votes": null, "tagline": null, "has_video": false, "website": "http://www.citysearch.com/profile/external/607327154/marietta_ga/little_caesars_pizza.html", "offers": null, "latitude": 33.951081, "politanName": "Atlanta, GA Metro ", "phone_number": "7709195595", "tags": [{"primary": false, "id": 1722, "name": "Restaurants"}, {"primary": false, "id": 11247, "name": "Carry Out"}, {"primary": true, "id": 11299, "name": "Pizza"}], "fax_number": null, "expansion": {"count": null, "uri": null}, "impression_id": "000b000000a82739946021419c9509a20873649be3", "profile": "http://www.citysearch.com/profile/607327154/marietta_ga/little_caesars_pizza.html", "address": {"city": "Marietta", "state": "GA", "street": "36 Powder Springs St", "postal_code": "30064"}, "capProviderId": null, "distance": null, "has_offers": false, "name": "Little Caesars Pizza", "longitude": -84.55027, "has_menu": false, "awards": null, "user_review_count": 0}, {"business_operation_status": 1, "rating": null, "neighborhood": null, "image": null, "scorecard": null, "featured": false, "sample_categories": "Restaurants", "public_id": "angels-burrito-on-the-square-marietta", "id": 609728344, "votes": null, "tagline": null, "has_video": false, "website": null, "offers": null, "latitude": 33.952259, "politanName": "Atlanta, GA Metro ", "phone_number": "6785943352", "tags": [{"primary": true, "id": 1722, "name": "Restaurants"}], "fax_number": null, "expansion": {"count": null, "uri": null}, "impression_id": "000b0000003e443319de2a4348a4b90f9580ec6339", "profile": "http://www.citysearch.com/profile/609728344/marietta_ga/angel_s_burrito_on_the_square.html", "address": {"city": "Marietta", "state": "GA", "street": "154 Roswell St SE", "postal_code": "30060"}, "capProviderId": null, "distance": null, "has_offers": false, "name": "Angel's Burrito On The Square", "longitude": -84.548687, "has_menu": false, "awards": null, "user_review_count": 0}, {"business_operation_status": 1, "rating": 8.0, "neighborhood": null, "image": null, "scorecard": null, "featured": false, "sample_categories": "Restaurants, Mexican", "public_id": "el-toro-marietta-2", "id": 2903732, "votes": null, "tagline": null, "has_video": false, "website": null, "offers": null, "latitude": 33.977237, "politanName": "Atlanta, GA Metro ", "phone_number": "7709733173", "tags": [{"primary": false, "id": 1722, "name": "Restaurants"}, {"primary": true, "id": 11208, "name": "Mexican"}], "fax_number": null, "expansion": {"count": null, "uri": null}, "impression_id": "000b000000a961e6c0b302423d8ee1558efd829ef4", "profile": "http://www.citysearch.com/profile/2903732/marietta_ga/el_toro.html", "address": {"city": "Marietta", "state": "GA", "street": "1060 E Piedmont Rd", "postal_code": "30062"}, "capProviderId": null, "distance": null, "has_offers": false, "name": "El Toro", "longitude": -84.479761, "has_menu": true, "awards": null, "user_review_count": 0}, {"business_operation_status": 1, "rating": null, "neighborhood": null, "image": null, "scorecard": null, "featured": false, "sample_categories": "Ice Cream Parlors, Restaurants, Carry Out", "public_id": "dairy-queen-kennesaw-3", "id": 777729670, "votes": null, "tagline": null, "has_video": false, "website": "http://www.citysearch.com/profile/external/777729670/kennesaw_ga/dairy_queen.html", "offers": null, "latitude": 34.014009, "politanName": "Atlanta, GA Metro ", "phone_number": "7704281468", "tags": [{"primary": false, "id": 1722, "name": "Restaurants"}, {"primary": false, "id": 11247, "name": "Carry Out"}, {"primary": true, "id": 1730, "name": "Ice Cream Parlors"}], "fax_number": null, "expansion": {"count": null, "uri": null}, "impression_id": "000b0000008cb3fa3a22fb47b1a6dbcae2bef35080", "profile": "http://www.citysearch.com/profile/777729670/kennesaw_ga/dairy_queen.html", "address": {"city": "Kennesaw", "state": "GA", "street": "400 Ernest W Barrett NW # 205", "postal_code": "30144"}, "capProviderId": null, "distance": null, "has_offers": false, "name": "Dairy Queen", "longitude": -84.561425, "has_menu": true, "awards": null, "user_review_count": 0}, {"business_operation_status": 1, "rating": null, "neighborhood": null, "image": null, "scorecard": null, "featured": false, "sample_categories": "Restaurants", "public_id": "city-cafe-dallas-2", "id": 777759730, "votes": null, "tagline": null, "has_video": false, "website": null, "offers": null, "latitude": 34.02964, "politanName": "Atlanta, GA Metro ", "phone_number": "7704432610", "tags": [{"primary": true, "id": 1722, "name": "Restaurants"}], "fax_number": null, "expansion": {"count": null, "uri": null}, "impression_id": "000b0000007012cd2099fb45de9b8f74da1520666c", "profile": "http://www.citysearch.com/profile/777759730/dallas_ga/city_cafe.html", "address": {"city": "Dallas", "state": "GA", "street": "8164 Cartersville Hwy", "postal_code": "30132"}, "capProviderId": null, "distance": null, "has_offers": false, "name": "City Cafe", "longitude": -84.848102, "has_menu": false, "awards": null, "user_review_count": 0}, {"business_operation_status": 1, "rating": null, "neighborhood": null, "image": null, "scorecard": null, "featured": false, "sample_categories": "Restaurants, Seafood", "public_id": "a-js-famous-seafood-poboys-marietta", "id": 793361500, "votes": null, "tagline": null, "has_video": false, "website": null, "offers": null, "latitude": 33.968758, "politanName": "Atlanta, GA Metro ", "phone_number": "6786273971", "tags": [{"primary": false, "id": 11228, "name": "Seafood"}, {"primary": true, "id": 1722, "name": "Restaurants"}], "fax_number": null, "expansion": {"count": null, "uri": null}, "impression_id": "000b0000003d0fd72195e04ec2b16667a336e5c42b", "profile": "http://www.citysearch.com/profile/793361500/marietta_ga/a_j_s_famous_seafood_poboys.html", "address": {"city": "Marietta", "state": "GA", "street": "2100 Roswell Rd", "postal_code": "30062"}, "capProviderId": null, "distance": null, "has_offers": false, "name": "A J's Famous Seafood & Poboys", "longitude": -84.488447, "has_menu": false, "awards": null, "user_review_count": 0}, {"business_operation_status": 1, "rating": null, "neighborhood": null, "image": null, "scorecard": null, "featured": false, "sample_categories": "Restaurants", "public_id": "hoof-ale-marietta", "id": 796118290, "votes": null, "tagline": null, "has_video": false, "website": null, "offers": null, "latitude": 33.968758, "politanName": "Atlanta, GA Metro ", "phone_number": "7709710334", "tags": [{"primary": true, "id": 1722, "name": "Restaurants"}], "fax_number": null, "expansion": {"count": null, "uri": null}, "impression_id": "000b000000c831157098db48889fdfc9280d17ee35", "profile": "http://www.citysearch.com/profile/796118290/marietta_ga/hoof_ale.html", "address": {"city": "Marietta", "state": "GA", "street": "2100 Roswell Rd", "postal_code": "30062"}, "capProviderId": null, "distance": null, "has_offers": false, "name": "Hoof & Ale", "longitude": -84.488447, "has_menu": false, "awards": null, "user_review_count": 0}, {"business_operation_status": 0, "rating": null, "neighborhood": null, "image": null, "scorecard": null, "featured": false, "sample_categories": "Restaurants, Traditional American", "public_id": "shoneys-marietta", "id": 2900905, "votes": null, "tagline": null, "has_video": false, "website": null, "offers": null, "latitude": 33.9485, "politanName": "Atlanta, GA Metro ", "phone_number": "7704225333", "tags": [{"primary": false, "id": 11190, "name": "Traditional American"}, {"primary": true, "id": 1722, "name": "Restaurants"}], "fax_number": null, "expansion": {"count": null, "uri": null}, "impression_id": "000b000000d36781f88b494267ac24f6231fc65d05", "profile": "http://www.citysearch.com/profile/2900905/marietta_ga/shoney_s.html", "address": {"city": "Marietta", "state": "GA", "street": "155 Cobb Pkwy S", "postal_code": "30060"}, "capProviderId": null, "distance": null, "has_offers": false, "name": "Shoney's", "longitude": -84.518323, "has_menu": true, "awards": null, "user_review_count": 0}, {"business_operation_status": 1, "rating": null, "neighborhood": null, "image": null, "scorecard": null, "featured": false, "sample_categories": "Coffeehouses", "public_id": "ashley-cooper-coffee-marietta", "id": 816560520, "votes": null, "tagline": null, "has_video": false, "website": null, "offers": null, "latitude": 33.970881, "politanName": "Atlanta, GA Metro ", "phone_number": "7704229615", "tags": [{"primary": true, "id": 1726, "name": "Coffeehouses"}], "fax_number": null, "expansion": {"count": null, "uri": null}, "impression_id": "000b000000ff5beb3e5327469ba3a0a9c6627b0ad4", "profile": "http://www.citysearch.com/profile/816560520/marietta_ga/ashley_cooper_coffee.html", "address": {"city": "Marietta", "state": "GA", "street": "829 Pickens Industrial Dr # 11", "postal_code": "30062"}, "capProviderId": null, "distance": null, "has_offers": false, "name": "Ashley Cooper Coffee", "longitude": -84.525365, "has_menu": false, "awards": null, "user_review_count": 0}, {"business_operation_status": 1, "rating": null, "neighborhood": null, "image": null, "scorecard": null, "featured": false, "sample_categories": "Restaurants", "public_id": "mediterranean-buffet-acworth", "id": 824951910, "votes": null, "tagline": null, "has_video": false, "website": null, "offers": null, "latitude": 34.081615, "politanName": "Atlanta, GA Metro ", "phone_number": "7705171340", "tags": [{"primary": true, "id": 1722, "name": "Restaurants"}], "fax_number": null, "expansion": {"count": null, "uri": null}, "impression_id": "000b0000003bf500bf54dc4fe984ef5e960e388cf2", "profile": "http://www.citysearch.com/profile/824951910/acworth_ga/mediterranean_buffet.html", "address": {"city": "Acworth", "state": "GA", "street": "5399 Bells Ferry Rd # 100", "postal_code": "30102"}, "capProviderId": null, "distance": null, "has_offers": false, "name": "Mediterranean Buffet", "longitude": -84.575225, "has_menu": false, "awards": null, "user_review_count": 0}, {"business_operation_status": 1, "rating": null, "neighborhood": null, "image": null, "scorecard": null, "featured": false, "sample_categories": "Restaurants", "public_id": "deli-planet-kennesaw", "id": 828070300, "votes": null, "tagline": null, "has_video": false, "website": null, "offers": null, "latitude": 34.012738, "politanName": "Atlanta, GA Metro ", "phone_number": "6783035062", "tags": [{"primary": true, "id": 1722, "name": "Restaurants"}], "fax_number": null, "expansion": {"count": null, "uri": null}, "impression_id": "000b00000097a51f6b1c974970997308addca16c03", "profile": "http://www.citysearch.com/profile/828070300/kennesaw_ga/deli_planet.html", "address": {"city": "Kennesaw", "state": "GA", "street": "440 Ernest W Barrett Pkwy NW", "postal_code": "30144"}, "capProviderId": null, "distance": null, "has_offers": false, "name": "Deli Planet", "longitude": -84.5643, "has_menu": false, "awards": null, "user_review_count": 0}, {"business_operation_status": 1, "rating": null, "neighborhood": null, "image": null, "scorecard": null, "featured": false, "sample_categories": "Doughnut Shops", "public_id": "devs-donuts-marietta", "id": 826828870, "votes": null, "tagline": null, "has_video": false, "website": null, "offers": null, "latitude": 33.901077, "politanName": "Atlanta, GA Metro ", "phone_number": "7607025007", "tags": [{"primary": true, "id": 1734, "name": "Doughnut Shops"}], "fax_number": null, "expansion": {"count": null, "uri": null}, "impression_id": "000b000000e40a030227b64534a21615f4d4fb8a34", "profile": "http://www.citysearch.com/profile/826828870/marietta_ga/dev_s_donuts.html", "address": {"city": "Marietta", "state": "GA", "street": "1812 Pdr Spgs Rd SW # 2115", "postal_code": "30064"}, "capProviderId": null, "distance": null, "has_offers": false, "name": "Dev's Donuts", "longitude": -84.606768, "has_menu": false, "awards": null, "user_review_count": 0}, {"business_operation_status": 1, "rating": null, "neighborhood": null, "image": null, "scorecard": null, "featured": false, "sample_categories": "Restaurants, Mexican, Carry Out", "public_id": "chipotle-mexican-grill-kennesaw", "id": 766807240, "votes": null, "tagline": null, "has_video": false, "website": "http://www.citysearch.com/profile/external/766807240/kennesaw_ga/chipotle_mexican_grill.html", "offers": null, "latitude": 34.019128, "politanName": "Atlanta, GA Metro ", "phone_number": "6782797996", "tags": [{"primary": false, "id": 11208, "name": "Mexican"}, {"primary": false, "id": 11247, "name": "Carry Out"}, {"primary": true, "id": 1722, "name": "Restaurants"}], "fax_number": null, "expansion": {"count": null, "uri": null}, "impression_id": "000b000000c82db63f3dd1415092e2202dfd4255de", "profile": "http://www.citysearch.com/profile/766807240/kennesaw_ga/chipotle_mexican_grill.html", "address": {"city": "Kennesaw", "state": "GA", "street": "964 Ernest W Barrett Pkwy NW", "postal_code": "30144"}, "capProviderId": null, "distance": null, "has_offers": false, "name": "Chipotle Mexican Grill", "longitude": -84.563608, "has_menu": false, "awards": null, "user_review_count": 0}, {"business_operation_status": 1, "rating": null, "neighborhood": null, "image": null, "scorecard": null, "featured": false, "sample_categories": "Bars & Pubs, Bars & Clubs, Restaurants, American Express, Discover", "public_id": "hiram-station-hiram", "id": 2954107, "votes": null, "tagline": null, "has_video": false, "website": "http://www.citysearch.com/profile/external/2954107/hiram_ga/hiram_station.html", "offers": null, "latitude": 33.902085, "politanName": "Atlanta, GA Metro ", "phone_number": "7704458797", "tags": [{"primary": false, "id": 164, "name": "Bars & Clubs"}, {"primary": false, "id": 1722, "name": "Restaurants"}, {"primary": false, "id": 11333, "name": "American Express"}, {"primary": false, "id": 11349, "name": "Discover"}, {"primary": false, "id": 11361, "name": "MasterCard"}, {"primary": false, "id": 11382, "name": "Visa"}, {"primary": true, "id": 1686, "name": "Bars & Pubs"}], "fax_number": null, "expansion": {"count": null, "uri": null}, "impression_id": "000b000000f666cc9855f044f0b886ffccebcf116d", "profile": "http://www.citysearch.com/profile/2954107/hiram_ga/hiram_station.html", "address": {"city": "Hiram", "state": "GA", "street": "3736 Atlanta Hwy Ste F", "postal_code": "30141"}, "capProviderId": null, "distance": null, "has_offers": false, "name": "Hiram Station", "longitude": -84.771417, "has_menu": false, "awards": null, "user_review_count": 1}, {"business_operation_status": 0, "rating": null, "neighborhood": null, "image": null, "scorecard": null, "featured": false, "sample_categories": "Restaurants, Convenience Stores", "public_id": "pantry-marietta", "id": 777697380, "votes": null, "tagline": null, "has_video": false, "website": null, "offers": null, "latitude": 33.970591, "politanName": "Atlanta, GA Metro ", "phone_number": "7704198988", "tags": [{"primary": false, "id": 1714, "name": "Convenience Stores"}, {"primary": true, "id": 1722, "name": "Restaurants"}], "fax_number": null, "expansion": {"count": null, "uri": null}, "impression_id": "000b0000003297110589034a3d9672318490ab686f", "profile": "http://www.citysearch.com/profile/777697380/marietta_ga/pantry.html", "address": {"city": "Marietta", "state": "GA", "street": "790 Church St Ne # 210", "postal_code": "30060"}, "capProviderId": null, "distance": null, "has_offers": false, "name": "Pantry", "longitude": -84.550288, "has_menu": false, "awards": null, "user_review_count": 0}, {"business_operation_status": 1, "rating": null, "neighborhood": null, "image": null, "scorecard": null, "featured": false, "sample_categories": "Restaurants, Barbecue Restaurants, Carry Out", "public_id": "gem-city-wings-marietta", "id": 777757950, "votes": null, "tagline": null, "has_video": false, "website": null, "offers": null, "latitude": 33.95115, "politanName": "Atlanta, GA Metro ", "phone_number": "6784027331", "tags": [{"primary": false, "id": 1724, "name": "Barbecue Restaurants"}, {"primary": false, "id": 11247, "name": "Carry Out"}, {"primary": true, "id": 1722, "name": "Restaurants"}], "fax_number": null, "expansion": {"count": null, "uri": null}, "impression_id": "000b000000cebae6b3407045428456086d94d375af", "profile": "http://www.citysearch.com/profile/777757950/marietta_ga/gem_city_wings.html", "address": {"city": "Marietta", "state": "GA", "street": "20 N Fairground St Ne", "postal_code": "30060"}, "capProviderId": null, "distance": null, "has_offers": false, "name": "Gem City Wings", "longitude": -84.535474, "has_menu": false, "awards": null, "user_review_count": 0}, {"business_operation_status": 1, "rating": null, "neighborhood": null, "image": null, "scorecard": null, "featured": false, "sample_categories": "Restaurants, Bars & Clubs", "public_id": "highlands-grill-sports-tvrn-kennesaw", "id": 787112570, "votes": null, "tagline": null, "has_video": false, "website": null, "offers": null, "latitude": 34.013172, "politanName": "Atlanta, GA Metro ", "phone_number": "7704261515", "tags": [{"primary": false, "id": 164, "name": "Bars & Clubs"}, {"primary": true, "id": 1722, "name": "Restaurants"}], "fax_number": null, "expansion": {"count": null, "uri": null}, "impression_id": "000b0000001d4a4dc8f1d241cb8f8c014fba9a9b73", "profile": "http://www.citysearch.com/profile/787112570/kennesaw_ga/highlands_grill_sports_tvrn.html", "address": {"city": "Kennesaw", "state": "GA", "street": "2615 George Busbee Pkwy NW # 2", "postal_code": "30144"}, "capProviderId": null, "distance": null, "has_offers": false, "name": "Highlands Grill & Sports Tvrn", "longitude": -84.567215, "has_menu": false, "awards": null, "user_review_count": 0}, {"business_operation_status": 1, "rating": null, "neighborhood": null, "image": null, "scorecard": null, "featured": false, "sample_categories": "Cafes", "public_id": "market-cafe-acworth", "id": 787133180, "votes": null, "tagline": null, "has_video": false, "website": null, "offers": null, "latitude": 34.08686, "politanName": "Atlanta, GA Metro ", "phone_number": "6783601802", "tags": [{"primary": true, "id": 6190, "name": "Cafes"}], "fax_number": null, "expansion": {"count": null, "uri": null}, "impression_id": "000b00000008ffe3e7f9f245358c9de6c0e18784d5", "profile": "http://www.citysearch.com/profile/787133180/acworth_ga/market_cafe.html", "address": {"city": "Acworth", "state": "GA", "street": "5500 Bells Ferry Rd", "postal_code": "30102"}, "capProviderId": null, "distance": null, "has_offers": false, "name": "Market Cafe", "longitude": -84.576418, "has_menu": false, "awards": null, "user_review_count": 0}, {"business_operation_status": 1, "rating": null, "neighborhood": null, "image": null, "scorecard": null, "featured": false, "sample_categories": "Grocery Stores, Bakeries, Delis And Delicatessens, Pharmacies, Florists", "public_id": "kroger-dallas-5", "id": 45010075, "votes": null, "tagline": null, "has_video": false, "website": "http://www.citysearch.com/profile/external/45010075/dallas_ga/kroger.html", "offers": null, "latitude": 33.985034, "politanName": "Atlanta, GA Metro ", "phone_number": "6784393372", "tags": [{"primary": false, "id": 1685, "name": "Bakeries"}, {"primary": false, "id": 1727, "name": "Delis And Delicatessens"}, {"primary": false, "id": 1930, "name": "Pharmacies"}, {"primary": false, "id": 3921, "name": "Florists"}, {"primary": false, "id": 3924, "name": "Department Stores"}, {"primary": true, "id": 1713, "name": "Grocery Stores"}], "fax_number": null, "expansion": {"count": null, "uri": null}, "impression_id": "000b000000a6681a8987244b29852f2d8c0d208a8e", "profile": "http://www.citysearch.com/profile/45010075/dallas_ga/kroger.html", "address": {"city": "Dallas", "state": "GA", "street": "8876 Dallas Acworth Hwy", "postal_code": "30132"}, "capProviderId": null, "distance": null, "has_offers": false, "name": "Kroger", "longitude": -84.771736, "has_menu": false, "awards": null, "user_review_count": 0}, {"business_operation_status": 1, "rating": null, "neighborhood": null, "image": null, "scorecard": null, "featured": false, "sample_categories": "Restaurants", "public_id": "taqueria-la-villa-marietta", "id": 816057700, "votes": null, "tagline": null, "has_video": false, "website": null, "offers": null, "latitude": 33.969085, "politanName": "Atlanta, GA Metro ", "phone_number": "7705908887", "tags": [{"primary": true, "id": 1722, "name": "Restaurants"}], "fax_number": null, "expansion": {"count": null, "uri": null}, "impression_id": "000b000000ae82c2ce0a7b4bfd8c53bf7f5db5c833", "profile": "http://www.citysearch.com/profile/816057700/marietta_ga/taqueria_la_villa.html", "address": {"city": "Marietta", "state": "GA", "street": "745 Cobb Pkwy N", "postal_code": "30062"}, "capProviderId": null, "distance": null, "has_offers": false, "name": "Taqueria La Villa", "longitude": -84.538349, "has_menu": false, "awards": null, "user_review_count": 0}], "histograms": [], "tag_ids": [1722], "uri": "http://api.citygridmedia.com:8080/search/places/v2/search/where?has_offers=false&type=restaurant&format=json&page=22&where=30152&rpp=50&histograms=false&publisher=10000009598&region_type=circle", "did_you_mean": "", "regions": [{"latitude": 33.994142, "default_radius": 4.59, "type": "postal_code", "name": "30152", "longitude": -84.64478199999999}], "call_id": "000b0000004118f472afd84bb6aa24a90027a28d64", "first_hit": 1051, "total_hits": 1364, "geo_ids": [26314], "page": 22, "last_hit": 1100}}