{"results": {"rpp": 50, "locations": [{"business_operation_status": 1, "rating": null, "neighborhood": null, "image": null, "scorecard": null, "featured": false, "sample_categories": "Catering, Restaurants, Pizza", "public_id": "poppys-pizza-kennesaw", "id": 43861477, "votes": null, "tagline": null, "has_video": false, "website": null, "offers": null, "latitude": 34.022601, "politanName": "Atlanta, GA Metro ", "phone_number": "7705294377", "tags": [{"primary": false, "id": 1722, "name": "Restaurants"}, {"primary": false, "id": 11299, "name": "Pizza"}, {"primary": true, "id": 1705, "name": "Catering"}], "fax_number": null, "expansion": {"count": null, "uri": null}, "impression_id": "000b000000aa186484df834922b0fa65a9ad401219", "profile": "http://www.citysearch.com/profile/43861477/kennesaw_ga/poppy_s_pizza.html", "address": {"city": "Kennesaw", "state": "GA", "street": "3140 Cobb Pkwy NW Ste 10", "postal_code": "30152"}, "capProviderId": null, "distance": null, "has_offers": false, "name": "Poppy's Pizza", "longitude": -84.626408, "has_menu": false, "awards": null, "user_review_count": 0}, {"business_operation_status": 1, "rating": null, "neighborhood": null, "image": null, "scorecard": null, "featured": false, "sample_categories": "Ethnic Food Markets, Restaurants, Hispanic Food Products, Mexican", "public_id": "el-maizal-tortilleria-inc-kennesaw", "id": 36715365, "votes": null, "tagline": null, "has_video": false, "website": "http://www.citysearch.com/profile/external/36715365/kennesaw_ga/el_maizal_tortilleria_inc.html", "offers": null, "latitude": 34.056577, "politanName": "Atlanta, GA Metro ", "phone_number": "7709192501", "tags": [{"primary": false, "id": 1712, "name": "Ethnic Food Markets"}, {"primary": false, "id": 11153, "name": "Hispanic Food Products"}, {"primary": false, "id": 11208, "name": "Mexican"}, {"primary": true, "id": 1722, "name": "Restaurants"}], "fax_number": null, "expansion": {"count": null, "uri": null}, "impression_id": "000b0000002b5ecd57afbc425b839eb154f9cc3e45", "profile": "http://www.citysearch.com/profile/36715365/kennesaw_ga/el_maizal_tortilleria_inc.html", "address": {"city": "Kennesaw", "state": "GA", "street": "1920 Shiloh Rd NW", "postal_code": "30144"}, "capProviderId": null, "distance": null, "has_offers": false, "name": "El Maizal Tortilleria Inc", "longitude": -84.606862, "has_menu": false, "awards": null, "user_review_count": 0}, {"business_operation_status": 1, "rating": null, "neighborhood": null, "image": null, "scorecard": null, "featured": false, "sample_categories": "Restaurants", "public_id": "kennesaw-thai-kennesaw", "id": 608222434, "votes": null, "tagline": null, "has_video": false, "website": null, "offers": null, "latitude": 34.020591, "politanName": "Atlanta, GA Metro ", "phone_number": "6783311988", "tags": [{"primary": true, "id": 1722, "name": "Restaurants"}], "fax_number": null, "expansion": {"count": null, "uri": null}, "impression_id": "000b00000092593fd56b24415f89ba6115e940df32", "profile": "http://www.citysearch.com/profile/608222434/kennesaw_ga/kennesaw_thai.html", "address": {"city": "Kennesaw", "state": "GA", "street": "2754 S Main Street", "postal_code": "30144"}, "capProviderId": null, "distance": null, "has_offers": false, "name": "Kennesaw Thai", "longitude": -84.612586, "has_menu": true, "awards": null, "user_review_count": 1}, {"business_operation_status": 1, "rating": null, "neighborhood": null, "image": null, "scorecard": null, "featured": false, "sample_categories": "Restaurants", "public_id": "mediterranean-bistro-kennesaw", "id": 614254214, "votes": null, "tagline": null, "has_video": false, "website": null, "offers": null, "latitude": 34.049477, "politanName": "Atlanta, GA Metro ", "phone_number": "7704291999", "tags": [{"primary": true, "id": 1722, "name": "Restaurants"}], "fax_number": null, "expansion": {"count": null, "uri": null}, "impression_id": "000b000000f4ecbaf7a1254047803554ab3704bf59", "profile": "http://www.citysearch.com/profile/614254214/kennesaw_ga/mediterranean_bistro.html", "address": {"city": "Kennesaw", "state": "GA", "street": "3940 Cherokee St NW", "postal_code": "30144"}, "capProviderId": null, "distance": null, "has_offers": false, "name": "Mediterranean Bistro", "longitude": -84.596636, "has_menu": false, "awards": null, "user_review_count": 0}, {"business_operation_status": 1, "rating": null, "neighborhood": null, "image": null, "scorecard": null, "featured": false, "sample_categories": "Restaurants, Carry Out", "public_id": "panera-bread-kennesaw-3", "id": 621013304, "votes": null, "tagline": null, "has_video": false, "website": "http://www.citysearch.com/profile/external/621013304/kennesaw_ga/panera_bread.html", "offers": null, "latitude": 34.016149, "politanName": "Atlanta, GA Metro ", "phone_number": "7704851240", "tags": [{"primary": false, "id": 11247, "name": "Carry Out"}, {"primary": true, "id": 1722, "name": "Restaurants"}], "fax_number": null, "expansion": {"count": null, "uri": null}, "impression_id": "000b00000086d5c198cc114441b404228000225b8a", "profile": "http://www.citysearch.com/profile/621013304/kennesaw_ga/panera_bread.html", "address": {"city": "Kennesaw", "state": "GA", "street": "3629 Hollyhock Way NW", "postal_code": "30152"}, "capProviderId": null, "distance": null, "has_offers": false, "name": "Panera Bread", "longitude": -84.658211, "has_menu": false, "awards": null, "user_review_count": 0}, {"business_operation_status": 1, "rating": null, "neighborhood": null, "image": null, "scorecard": null, "featured": false, "sample_categories": "Restaurants, Delis And Delicatessens, Sandwich Shops, Carry Out, Food Delivery", "public_id": "subway-kennesaw-9", "id": 764838880, "votes": null, "tagline": null, "has_video": false, "website": "http://www.citysearch.com/profile/external/764838880/kennesaw_ga/subway.html", "offers": null, "latitude": 33.992719, "politanName": "Atlanta, GA Metro ", "phone_number": "6783248948", "tags": [{"primary": false, "id": 1727, "name": "Delis And Delicatessens"}, {"primary": false, "id": 1736, "name": "Sandwich Shops"}, {"primary": false, "id": 11247, "name": "Carry Out"}, {"primary": false, "id": 11267, "name": "Food Delivery"}, {"primary": true, "id": 1722, "name": "Restaurants"}], "fax_number": null, "expansion": {"count": null, "uri": null}, "impression_id": "000b000000593c02cc4d8a4d849f881b80be9d5767", "profile": "http://www.citysearch.com/profile/764838880/kennesaw_ga/subway.html", "address": {"city": "Kennesaw", "state": "GA", "street": "1600 Kennesaw Due West Rd NW", "postal_code": "30152"}, "capProviderId": null, "distance": null, "has_offers": false, "name": "SUBWAY", "longitude": -84.627117, "has_menu": false, "awards": null, "user_review_count": 0}, {"business_operation_status": 1, "rating": null, "neighborhood": null, "image": null, "scorecard": null, "featured": false, "sample_categories": "Restaurants, Barbecue Restaurants", "public_id": "briar-patch-bar-b-que-dallas", "id": 773453060, "votes": null, "tagline": null, "has_video": false, "website": null, "offers": null, "latitude": 33.924129, "politanName": "Atlanta, GA Metro ", "phone_number": "7704453737", "tags": [{"primary": false, "id": 1724, "name": "Barbecue Restaurants"}, {"primary": true, "id": 1722, "name": "Restaurants"}], "fax_number": null, "expansion": {"count": null, "uri": null}, "impression_id": "000b0000006be6a81df27f4f67a1f72a0535aaf6e2", "profile": "http://www.citysearch.com/profile/773453060/dallas_ga/briar_patch_bar_b_que.html", "address": {"city": "Dallas", "state": "GA", "street": "588 Charles Hardy Pkwy", "postal_code": "30157"}, "capProviderId": null, "distance": null, "has_offers": false, "name": "Briar Patch Bar B Que", "longitude": -84.752659, "has_menu": false, "awards": null, "user_review_count": 0}, {"business_operation_status": 1, "rating": null, "neighborhood": null, "image": null, "scorecard": null, "featured": false, "sample_categories": "Restaurants, Pizza", "public_id": "jimmys-pizza-kennesaw", "id": 777771070, "votes": null, "tagline": null, "has_video": false, "website": null, "offers": null, "latitude": 34.031208, "politanName": "Atlanta, GA Metro ", "phone_number": "6783915812", "tags": [{"primary": false, "id": 11299, "name": "Pizza"}, {"primary": true, "id": 1722, "name": "Restaurants"}], "fax_number": null, "expansion": {"count": null, "uri": null}, "impression_id": "000b0000008fdaa0b2a7ae4ff2966317c3078de25f", "profile": "http://www.citysearch.com/profile/777771070/kennesaw_ga/jimmy_s_pizza.html", "address": {"city": "Kennesaw", "state": "GA", "street": "3102 Loring Rd NW", "postal_code": "30152"}, "capProviderId": null, "distance": null, "has_offers": false, "name": "Jimmy's Pizza", "longitude": -84.662476, "has_menu": true, "awards": null, "user_review_count": 0}, {"business_operation_status": 1, "rating": null, "neighborhood": null, "image": null, "scorecard": null, "featured": false, "sample_categories": "Restaurants, Delis And Delicatessens, Carry Out, American Express, Debit Card", "public_id": "panera-bread-kennesaw-2", "id": 779662590, "votes": null, "tagline": null, "has_video": false, "website": "http://www.citysearch.com/profile/external/779662590/kennesaw_ga/panera_bread.html", "offers": null, "latitude": 34.003608, "politanName": "Atlanta, GA Metro ", "phone_number": "7707992750", "tags": [{"primary": false, "id": 1727, "name": "Delis And Delicatessens"}, {"primary": false, "id": 11247, "name": "Carry Out"}, {"primary": false, "id": 11333, "name": "American Express"}, {"primary": false, "id": 11347, "name": "Debit Card"}, {"primary": false, "id": 11349, "name": "Discover"}, {"primary": false, "id": 11361, "name": "MasterCard"}, {"primary": false, "id": 11382, "name": "Visa"}, {"primary": true, "id": 1722, "name": "Restaurants"}], "fax_number": null, "expansion": {"count": null, "uri": null}, "impression_id": "000b000000c26ddd4859a549a8987dfd42756d5bfb", "profile": "http://www.citysearch.com/profile/779662590/kennesaw_ga/panera_bread.html", "address": {"city": "Kennesaw", "state": "GA", "street": "964 Ernest W Barrett Pkwy NW", "postal_code": "30144"}, "capProviderId": null, "distance": null, "has_offers": false, "name": "Panera Bread", "longitude": -84.580197, "has_menu": false, "awards": null, "user_review_count": 0}, {"business_operation_status": 1, "rating": null, "neighborhood": null, "image": null, "scorecard": null, "featured": false, "sample_categories": "Restaurants", "public_id": "brookstone-steak-grill-acworth", "id": 806728350, "votes": null, "tagline": null, "has_video": false, "website": null, "offers": null, "latitude": 33.998227, "politanName": "Atlanta, GA Metro ", "phone_number": "6783547435", "tags": [{"primary": true, "id": 1722, "name": "Restaurants"}], "fax_number": null, "expansion": {"count": null, "uri": null}, "impression_id": "000b000000598d105133264c4287375424caf68051", "profile": "http://www.citysearch.com/profile/806728350/acworth_ga/brookstone_steak_grill.html", "address": {"city": "Acworth", "state": "GA", "street": "5330 Brookstone Dr NW", "postal_code": "30101"}, "capProviderId": null, "distance": null, "has_offers": false, "name": "Brookstone Steak & Grill", "longitude": -84.70673, "has_menu": false, "awards": null, "user_review_count": 1}, {"business_operation_status": 1, "rating": null, "neighborhood": null, "image": null, "scorecard": null, "featured": false, "sample_categories": "Coffeehouses", "public_id": "java-juice-smoothie-co-kennesaw", "id": 807031020, "votes": null, "tagline": null, "has_video": false, "website": null, "offers": null, "latitude": 34.010391, "politanName": "Atlanta, GA Metro ", "phone_number": "7704999306", "tags": [{"primary": true, "id": 1726, "name": "Coffeehouses"}], "fax_number": null, "expansion": {"count": null, "uri": null}, "impression_id": "000b000000930d5375ee204f9d93e17786d6439e75", "profile": "http://www.citysearch.com/profile/807031020/kennesaw_ga/java_juice_smoothie_co.html", "address": {"city": "Kennesaw", "state": "GA", "street": "501 Roberts CT NW", "postal_code": "30144"}, "capProviderId": null, "distance": null, "has_offers": false, "name": "Java & Juice Smoothie Co", "longitude": -84.563237, "has_menu": false, "awards": null, "user_review_count": 0}, {"business_operation_status": 1, "rating": null, "neighborhood": null, "image": null, "scorecard": null, "featured": false, "sample_categories": "Restaurants, Carry Out", "public_id": "atlanta-bread-co-marietta-4", "id": 825753830, "votes": null, "tagline": null, "has_video": false, "website": null, "offers": null, "latitude": 33.948083, "politanName": "Atlanta, GA Metro ", "phone_number": "7704250442", "tags": [{"primary": false, "id": 11247, "name": "Carry Out"}, {"primary": true, "id": 1722, "name": "Restaurants"}], "fax_number": null, "expansion": {"count": null, "uri": null}, "impression_id": "000b00000048e99a8ad5cf4aee93bf7d71fca87ea4", "profile": "http://www.citysearch.com/profile/825753830/marietta_ga/atlanta_bread_co.html", "address": {"city": "Marietta", "state": "GA", "street": "245 Rdgeway Rd NW Ste 200", "postal_code": "30064"}, "capProviderId": null, "distance": null, "has_offers": false, "name": "Atlanta Bread Co", "longitude": -84.626672, "has_menu": false, "awards": null, "user_review_count": 0}, {"business_operation_status": 1, "rating": null, "neighborhood": null, "image": null, "scorecard": null, "featured": false, "sample_categories": "Restaurants", "public_id": "taqueria-tecolotes-marietta", "id": 826288150, "votes": null, "tagline": null, "has_video": false, "website": null, "offers": null, "latitude": 34.048278, "politanName": "Atlanta, GA Metro ", "phone_number": "7705921277", "tags": [{"primary": true, "id": 1722, "name": "Restaurants"}], "fax_number": null, "expansion": {"count": null, "uri": null}, "impression_id": "000b000000e7e018f01aa44957919d7691764d59df", "profile": "http://www.citysearch.com/profile/826288150/marietta_ga/taqueria_tecolotes.html", "address": {"city": "Marietta", "state": "GA", "street": "4017 Canton Rd", "postal_code": "30066"}, "capProviderId": null, "distance": null, "has_offers": false, "name": "Taqueria Tecolotes", "longitude": -84.52851, "has_menu": false, "awards": null, "user_review_count": 0}, {"business_operation_status": 1, "rating": null, "neighborhood": null, "image": null, "scorecard": null, "featured": false, "sample_categories": "Ice Cream Parlors", "public_id": "eatin-ice-cream-daily-inc-kennesaw", "id": 826821860, "votes": null, "tagline": null, "has_video": false, "website": null, "offers": null, "latitude": 34.023018, "politanName": "Atlanta, GA Metro ", "phone_number": "7704275378", "tags": [{"primary": true, "id": 1730, "name": "Ice Cream Parlors"}], "fax_number": null, "expansion": {"count": null, "uri": null}, "impression_id": "000b000000e5a1f2175d984cc6aa63c63bbcc6d7be", "profile": "http://www.citysearch.com/profile/826821860/kennesaw_ga/eatin_ice_cream_daily_inc.html", "address": {"city": "Kennesaw", "state": "GA", "street": "2847 S Main St NW", "postal_code": "30144"}, "capProviderId": null, "distance": null, "has_offers": false, "name": "Eatin Ice Cream Daily Inc", "longitude": -84.615298, "has_menu": false, "awards": null, "user_review_count": 0}, {"business_operation_status": 1, "rating": null, "neighborhood": null, "image": null, "scorecard": null, "featured": false, "sample_categories": "Restaurants", "public_id": "el-poco-grill-acworth", "id": 829828930, "votes": null, "tagline": null, "has_video": false, "website": null, "offers": null, "latitude": 34.08519, "politanName": "Atlanta, GA Metro ", "phone_number": "7705916310", "tags": [{"primary": true, "id": 1722, "name": "Restaurants"}], "fax_number": null, "expansion": {"count": null, "uri": null}, "impression_id": "000b000000930cf17ea5d242d1bb92b6cafa615650", "profile": "http://www.citysearch.com/profile/829828930/acworth_ga/el_poco_grill.html", "address": {"city": "Acworth", "state": "GA", "street": "5505 Bells Ferry Rd", "postal_code": "30102"}, "capProviderId": null, "distance": null, "has_offers": false, "name": "El Poco Grill", "longitude": -84.576887, "has_menu": false, "awards": null, "user_review_count": 0}, {"business_operation_status": 1, "rating": null, "neighborhood": null, "image": null, "scorecard": null, "featured": false, "sample_categories": "Restaurants", "public_id": "philly-connection-marietta-5", "id": 833997530, "votes": null, "tagline": null, "has_video": false, "website": null, "offers": null, "latitude": 34.037983, "politanName": "Atlanta, GA Metro ", "phone_number": "7709263120", "tags": [{"primary": true, "id": 1722, "name": "Restaurants"}], "fax_number": null, "expansion": {"count": null, "uri": null}, "impression_id": "000b0000001b630dad066044c4b2a8247e72669c39", "profile": "http://www.citysearch.com/profile/833997530/marietta_ga/philly_connection.html", "address": {"city": "Marietta", "state": "GA", "street": "3545 Canton Rd", "postal_code": "30066"}, "capProviderId": null, "distance": null, "has_offers": false, "name": "Philly Connection", "longitude": -84.528616, "has_menu": true, "awards": null, "user_review_count": 0}, {"business_operation_status": 1, "rating": null, "neighborhood": null, "image": null, "scorecard": null, "featured": false, "sample_categories": "Restaurants, Mexican", "public_id": "los-cabos-mexican-restaurant-kennesaw", "id": 777728160, "votes": null, "tagline": null, "has_video": false, "website": null, "offers": null, "latitude": 34.014676, "politanName": "Atlanta, GA Metro ", "phone_number": "7705909742", "tags": [{"primary": false, "id": 11208, "name": "Mexican"}, {"primary": true, "id": 1722, "name": "Restaurants"}], "fax_number": null, "expansion": {"count": null, "uri": null}, "impression_id": "000b0000006087aaaf5cc64da69993985700d5583c", "profile": "http://www.citysearch.com/profile/777728160/kennesaw_ga/los_cabos_mexican_restaurant.html", "address": {"city": "Kennesaw", "state": "GA", "street": "2500 Cobb Pkwy NW # B3", "postal_code": "30152"}, "capProviderId": null, "distance": null, "has_offers": false, "name": "Los Cabos Mexican Restaurant", "longitude": -84.614309, "has_menu": false, "awards": null, "user_review_count": 3}, {"business_operation_status": 1, "rating": null, "neighborhood": null, "image": null, "scorecard": null, "featured": false, "sample_categories": "Restaurants, Pizza, Carry Out", "public_id": "little-caesars-pizza-dallas-5", "id": 655896980, "votes": null, "tagline": null, "has_video": false, "website": "http://www.citysearch.com/profile/external/655896980/dallas_ga/little_caesars_pizza.html", "offers": null, "latitude": 33.957866, "politanName": "Atlanta, GA Metro ", "phone_number": "7704432345", "tags": [{"primary": false, "id": 1722, "name": "Restaurants"}, {"primary": false, "id": 11247, "name": "Carry Out"}, {"primary": true, "id": 11299, "name": "Pizza"}], "fax_number": null, "expansion": {"count": null, "uri": null}, "impression_id": "000b000000aca75e70adee451982a0a5d0598e126f", "profile": "http://www.citysearch.com/profile/655896980/dallas_ga/little_caesars_pizza.html", "address": {"city": "Dallas", "state": "GA", "street": "55 E Paulding Dr # 118", "postal_code": "30157"}, "capProviderId": null, "distance": null, "has_offers": false, "name": "Little Caesars Pizza", "longitude": -84.787071, "has_menu": true, "awards": null, "user_review_count": 0}, {"business_operation_status": 1, "rating": null, "neighborhood": null, "image": null, "scorecard": null, "featured": false, "sample_categories": "Restaurants, Mexican, Caribbean", "public_id": "mangos-caribbean-and-mexican-cuisine-acworth", "id": 603937682, "votes": null, "tagline": null, "has_video": false, "website": null, "offers": null, "latitude": 34.06489, "politanName": "Atlanta, GA Metro ", "phone_number": "6789054714", "tags": [{"primary": false, "id": 1722, "name": "Restaurants"}, {"primary": false, "id": 11195, "name": "Caribbean"}, {"primary": true, "id": 11208, "name": "Mexican"}], "fax_number": null, "expansion": {"count": null, "uri": null}, "impression_id": "000b000000599deabccca44b32b672dc2950159550", "profile": "http://www.citysearch.com/profile/603937682/acworth_ga/mangos_caribbean_and_mexican_cuisine.html", "address": {"city": "Acworth", "state": "GA", "street": "2535 Hickory Grove Rd NW", "postal_code": "30101"}, "capProviderId": null, "distance": null, "has_offers": false, "name": "Mangos Caribbean and Mexican Cuisine", "longitude": -84.624038, "has_menu": false, "awards": null, "user_review_count": 0}, {"business_operation_status": 1, "rating": null, "neighborhood": null, "image": null, "scorecard": null, "featured": false, "sample_categories": "Restaurants, Frozen Yogurt Shops, Yogurt Manufacturers", "public_id": "yogli-mogli-marietta-2", "id": 673019480, "votes": null, "tagline": null, "has_video": false, "website": null, "offers": null, "latitude": 33.955116, "politanName": "Atlanta, GA Metro ", "phone_number": "7704997009", "tags": [{"primary": false, "id": 1722, "name": "Restaurants"}, {"primary": false, "id": 1729, "name": "Frozen Yogurt Shops"}, {"primary": false, "id": 2342, "name": "Yogurt Manufacturers"}], "fax_number": null, "expansion": {"count": null, "uri": null}, "impression_id": "000b000000d9875499fce647899aafed6018528c72", "profile": "http://www.citysearch.com/profile/673019480/marietta_ga/yogli_mogli.html", "address": {"city": "Marietta", "state": "GA", "street": "3600 Dallas Highway", "postal_code": "30064"}, "capProviderId": null, "distance": null, "has_offers": false, "name": "Yogli Mogli", "longitude": -84.656027, "has_menu": false, "awards": null, "user_review_count": 0}, {"business_operation_status": 1, "rating": null, "neighborhood": null, "image": null, "scorecard": null, "featured": false, "sample_categories": "Restaurants, Delis And Delicatessens, Sandwich Shops, Carry Out", "public_id": "blimpie-xpress-marietta", "id": 713310460, "votes": null, "tagline": null, "has_video": false, "website": "http://www.citysearch.com/profile/external/713310460/marietta_ga/blimpie_xpress.html", "offers": null, "latitude": 33.967672, "politanName": "Atlanta, GA Metro ", "phone_number": "7709171550", "tags": [{"primary": false, "id": 1727, "name": "Delis And Delicatessens"}, {"primary": false, "id": 1736, "name": "Sandwich Shops"}, {"primary": false, "id": 11247, "name": "Carry Out"}, {"primary": true, "id": 1722, "name": "Restaurants"}], "fax_number": null, "expansion": {"count": null, "uri": null}, "impression_id": "000b000000dacff193ba994acb90fc7a217171a9ca", "profile": "http://www.citysearch.com/profile/713310460/marietta_ga/blimpie_xpress.html", "address": {"city": "Marietta", "state": "GA", "street": "3960 Mary Eliza Trce NW", "postal_code": "30064"}, "capProviderId": null, "distance": null, "has_offers": false, "name": "Blimpie Xpress", "longitude": -84.667328, "has_menu": false, "awards": null, "user_review_count": 0}, {"business_operation_status": 1, "rating": null, "neighborhood": null, "image": null, "scorecard": null, "featured": false, "sample_categories": "Restaurants, Traditional American", "public_id": "huddle-house-kennesaw", "id": 713615300, "votes": null, "tagline": null, "has_video": false, "website": "http://www.citysearch.com/profile/external/713615300/kennesaw_ga/huddle_house.html", "offers": null, "latitude": 34.022601, "politanName": "Atlanta, GA Metro ", "phone_number": "7704990330", "tags": [{"primary": false, "id": 11190, "name": "Traditional American"}, {"primary": true, "id": 1722, "name": "Restaurants"}], "fax_number": null, "expansion": {"count": null, "uri": null}, "impression_id": "000b00000012c631168d8347f5b34c247d1e8bdcf6", "profile": "http://www.citysearch.com/profile/713615300/kennesaw_ga/huddle_house.html", "address": {"city": "Kennesaw", "state": "GA", "street": "2420 Cobb Pkwy NW", "postal_code": "30152"}, "capProviderId": null, "distance": null, "has_offers": false, "name": "Huddle House", "longitude": -84.626408, "has_menu": true, "awards": null, "user_review_count": 1}, {"business_operation_status": 1, "rating": null, "neighborhood": null, "image": null, "scorecard": null, "featured": false, "sample_categories": "Restaurants", "public_id": "vinevera-kennesaw", "id": 793361100, "votes": null, "tagline": null, "has_video": false, "website": null, "offers": null, "latitude": 34.01771, "politanName": "Atlanta, GA Metro ", "phone_number": "7705909522", "tags": [{"primary": true, "id": 1722, "name": "Restaurants"}], "fax_number": null, "expansion": {"count": null, "uri": null}, "impression_id": "000b000000f23bfc59b73c48618f1842bc44bed6d3", "profile": "http://www.citysearch.com/profile/793361100/kennesaw_ga/vinevera.html", "address": {"city": "Kennesaw", "state": "GA", "street": "400 Ernest W Barrett Pkwy NW", "postal_code": "30144"}, "capProviderId": null, "distance": null, "has_offers": false, "name": "Vinevera", "longitude": -84.564475, "has_menu": false, "awards": null, "user_review_count": 0}, {"business_operation_status": 1, "rating": 8.0, "neighborhood": null, "image": null, "scorecard": null, "featured": false, "sample_categories": "Restaurants, Catering, Seafood, Asian, Carry Out", "public_id": "hong-kong-star-acworth", "id": 39889236, "votes": null, "tagline": null, "has_video": false, "website": "http://www.citysearch.com/profile/external/39889236/acworth_ga/hong_kong_star.html", "offers": null, "latitude": 34.037995, "politanName": "Atlanta, GA Metro ", "phone_number": "7709170688", "tags": [{"primary": false, "id": 1705, "name": "Catering"}, {"primary": false, "id": 11228, "name": "Seafood"}, {"primary": false, "id": 11235, "name": "Asian"}, {"primary": false, "id": 11247, "name": "Carry Out"}, {"primary": false, "id": 11252, "name": "Chinese"}, {"primary": false, "id": 11267, "name": "Food Delivery"}, {"primary": false, "id": 11333, "name": "American Express"}, {"primary": false, "id": 11349, "name": "Discover"}, {"primary": false, "id": 11361, "name": "MasterCard"}, {"primary": false, "id": 11382, "name": "Visa"}, {"primary": true, "id": 1722, "name": "Restaurants"}], "fax_number": null, "expansion": {"count": null, "uri": null}, "impression_id": "000b0000006cc0e0cf7fc4465eaf61868ea574772a", "profile": "http://www.citysearch.com/profile/39889236/acworth_ga/hong_kong_star.html", "address": {"city": "Acworth", "state": "GA", "street": "3451 Cobb Pkwy NW 9", "postal_code": "30101"}, "capProviderId": null, "distance": null, "has_offers": false, "name": "Hong Kong Star", "longitude": -84.691082, "has_menu": true, "awards": null, "user_review_count": 3}, {"business_operation_status": 1, "rating": null, "neighborhood": null, "image": null, "scorecard": null, "featured": false, "sample_categories": "Restaurants, Bars & Clubs", "public_id": "bells-ferry-bar-grill-acworth", "id": 801116470, "votes": null, "tagline": null, "has_video": false, "website": null, "offers": null, "latitude": 34.089977, "politanName": "Atlanta, GA Metro ", "phone_number": "6784012438", "tags": [{"primary": false, "id": 164, "name": "Bars & Clubs"}, {"primary": true, "id": 1722, "name": "Restaurants"}], "fax_number": null, "expansion": {"count": null, "uri": null}, "impression_id": "000b0000005e6b1703064c45fab7dd97e7f86724d3", "profile": "http://www.citysearch.com/profile/801116470/acworth_ga/bells_ferry_bar_grill.html", "address": {"city": "Acworth", "state": "GA", "street": "5735 Bells Ferry Rd", "postal_code": "30102"}, "capProviderId": null, "distance": null, "has_offers": false, "name": "Bells Ferry Bar & Grill", "longitude": -84.579336, "has_menu": false, "awards": null, "user_review_count": 0}, {"business_operation_status": 1, "rating": null, "neighborhood": null, "image": null, "scorecard": null, "featured": false, "sample_categories": "Restaurants", "public_id": "china-town-gourmet-marietta", "id": 827846610, "votes": null, "tagline": null, "has_video": false, "website": null, "offers": null, "latitude": 34.032195, "politanName": "Atlanta, GA Metro ", "phone_number": "7704291387", "tags": [{"primary": true, "id": 1722, "name": "Restaurants"}], "fax_number": null, "expansion": {"count": null, "uri": null}, "impression_id": "000b000000a13cb0a54028473b80ce3712fac78785", "profile": "http://www.citysearch.com/profile/827846610/marietta_ga/china_town_gourmet.html", "address": {"city": "Marietta", "state": "GA", "street": "3402 Canton Rd", "postal_code": "30066"}, "capProviderId": null, "distance": null, "has_offers": false, "name": "China Town Gourmet", "longitude": -84.527689, "has_menu": false, "awards": null, "user_review_count": 0}, {"business_operation_status": 1, "rating": null, "neighborhood": null, "image": null, "scorecard": null, "featured": false, "sample_categories": "Delis And Delicatessens", "public_id": "kroger-deli-powder-spg-2", "id": 694161420, "votes": null, "tagline": null, "has_video": false, "website": null, "offers": null, "latitude": 33.903473, "politanName": "Atlanta, GA Metro ", "phone_number": "7702225180", "tags": [{"primary": true, "id": 1727, "name": "Delis And Delicatessens"}], "fax_number": null, "expansion": {"count": null, "uri": null}, "impression_id": "000b000000147e92dab0aa481a9ab1ff15a4a23e57", "profile": "http://www.citysearch.com/profile/694161420/powder_springs_ga/kroger_deli.html", "address": {"city": "Powder Springs", "state": "GA", "street": "4150 Macland Rd", "postal_code": "30127"}, "capProviderId": null, "distance": null, "has_offers": false, "name": "Kroger Deli", "longitude": -84.67471, "has_menu": false, "awards": null, "user_review_count": 0}, {"business_operation_status": 1, "rating": null, "neighborhood": null, "image": null, "scorecard": null, "featured": false, "sample_categories": "Delis And Delicatessens", "public_id": "kroger-deli-acworth-2", "id": 702138550, "votes": null, "tagline": null, "has_video": false, "website": "http://www.citysearch.com/profile/external/702138550/acworth_ga/kroger_deli.html", "offers": null, "latitude": 33.996583, "politanName": "Atlanta, GA Metro ", "phone_number": "7704195490", "tags": [{"primary": true, "id": 1727, "name": "Delis And Delicatessens"}], "fax_number": null, "expansion": {"count": null, "uri": null}, "impression_id": "000b0000002359bc4b49f4431da44313810113378a", "profile": "http://www.citysearch.com/profile/702138550/acworth_ga/kroger_deli.html", "address": {"city": "Acworth", "state": "GA", "street": "1720 Mars Hill Rd NW", "postal_code": "30101"}, "capProviderId": null, "distance": null, "has_offers": false, "name": "Kroger Deli", "longitude": -84.705934, "has_menu": false, "awards": null, "user_review_count": 0}, {"business_operation_status": 1, "rating": null, "neighborhood": null, "image": null, "scorecard": null, "featured": false, "sample_categories": "Restaurants, Delis And Delicatessens, Sandwich Shops, Carry Out", "public_id": "blimpie-subs-salads-kennesaw-4", "id": 775190640, "votes": null, "tagline": null, "has_video": false, "website": "http://www.citysearch.com/profile/external/775190640/kennesaw_ga/blimpie_subs_salads.html", "offers": null, "latitude": 34.029977, "politanName": "Atlanta, GA Metro ", "phone_number": "7709665363", "tags": [{"primary": false, "id": 1727, "name": "Delis And Delicatessens"}, {"primary": false, "id": 1736, "name": "Sandwich Shops"}, {"primary": false, "id": 11247, "name": "Carry Out"}, {"primary": true, "id": 1722, "name": "Restaurants"}], "fax_number": null, "expansion": {"count": null, "uri": null}, "impression_id": "000b000000e8831f1ba20c42b4a5cb8251798518c9", "profile": "http://www.citysearch.com/profile/775190640/kennesaw_ga/blimpie_subs_salads.html", "address": {"city": "Kennesaw", "state": "GA", "street": "3103 Cobb Pkwy NW", "postal_code": "30152"}, "capProviderId": null, "distance": null, "has_offers": false, "name": "Blimpie Subs & Salads", "longitude": -84.656263, "has_menu": false, "awards": null, "user_review_count": 0}, {"business_operation_status": 1, "rating": null, "neighborhood": null, "image": null, "scorecard": null, "featured": false, "sample_categories": "Restaurants, Delis And Delicatessens, Sandwich Shops, Carry Out", "public_id": "subway-marietta-54", "id": 779672970, "votes": null, "tagline": null, "has_video": false, "website": "http://www.citysearch.com/profile/external/779672970/marietta_ga/subway.html", "offers": null, "latitude": 34.027594, "politanName": "Atlanta, GA Metro ", "phone_number": "7706934723", "tags": [{"primary": false, "id": 1727, "name": "Delis And Delicatessens"}, {"primary": false, "id": 1736, "name": "Sandwich Shops"}, {"primary": false, "id": 11247, "name": "Carry Out"}, {"primary": true, "id": 1722, "name": "Restaurants"}], "fax_number": null, "expansion": {"count": null, "uri": null}, "impression_id": "000b0000001d1fc2b851564033b084b1566509e31c", "profile": "http://www.citysearch.com/profile/779672970/marietta_ga/subway.html", "address": {"city": "Marietta", "state": "GA", "street": "3079 Hidden Forest Ct", "postal_code": "30066"}, "capProviderId": null, "distance": null, "has_offers": false, "name": "SUBWAY", "longitude": -84.564373, "has_menu": false, "awards": null, "user_review_count": 0}, {"business_operation_status": 1, "rating": null, "neighborhood": null, "image": null, "scorecard": null, "featured": false, "sample_categories": "Restaurants, Mexican", "public_id": "buckhead-burrito-grill-dallas", "id": 777827380, "votes": null, "tagline": null, "has_video": false, "website": null, "offers": null, "latitude": 34.012752, "politanName": "Atlanta, GA Metro ", "phone_number": "6785744133", "tags": [{"primary": false, "id": 11208, "name": "Mexican"}, {"primary": true, "id": 1722, "name": "Restaurants"}], "fax_number": null, "expansion": {"count": null, "uri": null}, "impression_id": "000b00000026b44400acbe41b3a7efa07c45dc5402", "profile": "http://www.citysearch.com/profile/777827380/dallas_ga/buckhead_burrito_grill.html", "address": {"city": "Dallas", "state": "GA", "street": "8879 Dallas Acworth Hwy", "postal_code": "30132"}, "capProviderId": null, "distance": null, "has_offers": false, "name": "Buckhead Burrito Grill", "longitude": -84.754548, "has_menu": false, "awards": null, "user_review_count": 1}, {"business_operation_status": 1, "rating": null, "neighborhood": null, "image": null, "scorecard": null, "featured": false, "sample_categories": "Coffeehouses", "public_id": "house-of-brews-llc-kennesaw", "id": 777659260, "votes": null, "tagline": null, "has_video": false, "website": null, "offers": null, "latitude": 34.018008, "politanName": "Atlanta, GA Metro ", "phone_number": "7704274005", "tags": [{"primary": true, "id": 1726, "name": "Coffeehouses"}], "fax_number": null, "expansion": {"count": null, "uri": null}, "impression_id": "000b0000006c2a7640f1c24efa86e404739953f200", "profile": "http://www.citysearch.com/profile/777659260/kennesaw_ga/house_of_brews_llc.html", "address": {"city": "Kennesaw", "state": "GA", "street": "2655 Cobb Pkwy NW # 2101", "postal_code": "30152"}, "capProviderId": null, "distance": null, "has_offers": false, "name": "House of Brews LLC", "longitude": -84.619527, "has_menu": false, "awards": null, "user_review_count": 0}, {"business_operation_status": 0, "rating": null, "neighborhood": null, "image": null, "scorecard": null, "featured": false, "sample_categories": "Restaurants, Chicken", "public_id": "teriyaki-chicken-kennesaw", "id": 777806690, "votes": null, "tagline": null, "has_video": false, "website": null, "offers": null, "latitude": 34.061692, "politanName": "Atlanta, GA Metro ", "phone_number": "7704269225", "tags": [{"primary": false, "id": 12839, "name": "Chicken"}, {"primary": true, "id": 1722, "name": "Restaurants"}], "fax_number": null, "expansion": {"count": null, "uri": null}, "impression_id": "000b0000009134227683f242ca9ca737758abdc25e", "profile": "http://www.citysearch.com/profile/777806690/kennesaw_ga/teriyaki_chicken.html", "address": {"city": "Kennesaw", "state": "GA", "street": "4430 Wade Green Rd NW", "postal_code": "30144"}, "capProviderId": null, "distance": null, "has_offers": false, "name": "Teriyaki Chicken", "longitude": -84.591055, "has_menu": true, "awards": null, "user_review_count": 2}, {"business_operation_status": 1, "rating": null, "neighborhood": null, "image": null, "scorecard": null, "featured": false, "sample_categories": "Restaurants", "public_id": "cappys-oyster-bar-kennesaw", "id": 805596570, "votes": null, "tagline": null, "has_video": false, "website": null, "offers": null, "latitude": 34.015064, "politanName": "Atlanta, GA Metro ", "phone_number": "7705909742", "tags": [{"primary": true, "id": 1722, "name": "Restaurants"}], "fax_number": null, "expansion": {"count": null, "uri": null}, "impression_id": "000b00000008c4f22a909243c084da703b954da173", "profile": "http://www.citysearch.com/profile/805596570/kennesaw_ga/cappy_s_oyster_bar.html", "address": {"city": "Kennesaw", "state": "GA", "street": "2500 Cobb Pkwy NW # B3", "postal_code": "30152"}, "capProviderId": null, "distance": null, "has_offers": false, "name": "Cappy's Oyster Bar", "longitude": -84.613619, "has_menu": false, "awards": null, "user_review_count": 0}, {"business_operation_status": 1, "rating": null, "neighborhood": null, "image": null, "scorecard": null, "featured": false, "sample_categories": "Restaurants, Pizza, Carry Out", "public_id": "little-caesars-pizza-marietta-13", "id": 798841470, "votes": null, "tagline": null, "has_video": false, "website": "http://www.citysearch.com/profile/external/798841470/marietta_ga/little_caesars_pizza.html", "offers": null, "latitude": 34.033796, "politanName": "Atlanta, GA Metro ", "phone_number": "7704245051", "tags": [{"primary": false, "id": 1722, "name": "Restaurants"}, {"primary": false, "id": 11247, "name": "Carry Out"}, {"primary": true, "id": 11299, "name": "Pizza"}], "fax_number": null, "expansion": {"count": null, "uri": null}, "impression_id": "000b00000032a67cffa9ed4715a48805691e54ed55", "profile": "http://www.citysearch.com/profile/798841470/marietta_ga/little_caesars_pizza.html", "address": {"city": "Marietta", "state": "GA", "street": "3372 Canton Rd", "postal_code": "30066"}, "capProviderId": null, "distance": null, "has_offers": false, "name": "Little Caesars Pizza", "longitude": -84.527673, "has_menu": false, "awards": null, "user_review_count": 0}, {"business_operation_status": 1, "rating": null, "neighborhood": null, "image": null, "scorecard": null, "featured": false, "sample_categories": "Luaus", "public_id": "bergamo-kennesaw", "id": 827735830, "votes": null, "tagline": null, "has_video": false, "website": null, "offers": null, "latitude": 34.05561, "politanName": "Atlanta, GA Metro ", "phone_number": "6784458585", "tags": [{"primary": true, "id": 11285, "name": "Luaus"}], "fax_number": null, "expansion": {"count": null, "uri": null}, "impression_id": "000b000000498b979b78c4467787d8de884486b650", "profile": "http://www.citysearch.com/profile/827735830/kennesaw_ga/bergamo.html", "address": {"city": "Kennesaw", "state": "GA", "street": "4290 Bells Ferry Rd NW # 114", "postal_code": "30144"}, "capProviderId": null, "distance": null, "has_offers": false, "name": "Bergamo", "longitude": -84.554213, "has_menu": false, "awards": null, "user_review_count": 4}, {"business_operation_status": 1, "rating": null, "neighborhood": null, "image": null, "scorecard": null, "featured": false, "sample_categories": "Restaurants", "public_id": "el-toro-mexican-kennesaw", "id": 827881360, "votes": null, "tagline": null, "has_video": false, "website": null, "offers": null, "latitude": 34.02334, "politanName": "Atlanta, GA Metro ", "phone_number": "7704192244", "tags": [{"primary": true, "id": 1722, "name": "Restaurants"}], "fax_number": null, "expansion": {"count": null, "uri": null}, "impression_id": "000b000000fb6ee192fd0242ff8c44b604e7ea66ce", "profile": "http://www.citysearch.com/profile/827881360/kennesaw_ga/el_toro_mexican.html", "address": {"city": "Kennesaw", "state": "GA", "street": "2774 Cobb Pkwy NW", "postal_code": "30152"}, "capProviderId": null, "distance": null, "has_offers": false, "name": "El Toro Mexican", "longitude": -84.624608, "has_menu": false, "awards": null, "user_review_count": 0}, {"business_operation_status": 1, "rating": null, "neighborhood": null, "image": null, "scorecard": null, "featured": false, "sample_categories": "Restaurants", "public_id": "grazie-a-bistro-marietta", "id": 823574700, "votes": null, "tagline": null, "has_video": false, "website": null, "offers": null, "latitude": 33.953111, "politanName": "Atlanta, GA Metro ", "phone_number": "7704998585", "tags": [{"primary": true, "id": 1722, "name": "Restaurants"}], "fax_number": null, "expansion": {"count": null, "uri": null}, "impression_id": "000b000000384d0b0062fa42f09ec405b45abf4cf0", "profile": "http://www.citysearch.com/profile/823574700/marietta_ga/grazie_a_bistro.html", "address": {"city": "Marietta", "state": "GA", "street": "1000 Whitlock Ave NW # 410", "postal_code": "30064"}, "capProviderId": null, "distance": null, "has_offers": false, "name": "Grazie A Bistro", "longitude": -84.581272, "has_menu": false, "awards": null, "user_review_count": 0}, {"business_operation_status": 1, "rating": null, "neighborhood": null, "image": null, "scorecard": null, "featured": false, "sample_categories": "Restaurants, Carry Out, Pizza", "public_id": "johnnys-pizza-kennesaw-kennesaw", "id": 617559314, "votes": null, "tagline": null, "has_video": false, "website": "http://www.citysearch.com/profile/external/617559314/kennesaw_ga/johnny_s_new_york_style_pizza.html", "offers": null, "latitude": 33.993905, "politanName": "Atlanta, GA Metro ", "phone_number": "6789960911", "tags": [{"primary": false, "id": 1722, "name": "Restaurants"}, {"primary": false, "id": 11299, "name": "Pizza"}, {"primary": true, "id": 11247, "name": "Carry Out"}], "fax_number": null, "expansion": {"count": null, "uri": null}, "impression_id": "000b000000f3543e89d98a415d804165ddfc2f1e79", "profile": "http://www.citysearch.com/profile/617559314/kennesaw_ga/johnny_s_new_york_style_pizza.html", "address": {"city": "Kennesaw", "state": "GA", "street": "1635 Old 41 Hwy NW", "postal_code": "30152"}, "capProviderId": null, "distance": null, "has_offers": false, "name": "Johnny's New York Style Pizza", "longitude": -84.599461, "has_menu": false, "awards": null, "user_review_count": 0}, {"business_operation_status": 1, "rating": null, "neighborhood": null, "image": null, "scorecard": null, "featured": false, "sample_categories": "Restaurants, Carry Out", "public_id": "firehouse-subs-marietta-4", "id": 621046074, "votes": null, "tagline": null, "has_video": false, "website": null, "offers": null, "latitude": 33.948258, "politanName": "Atlanta, GA Metro ", "phone_number": null, "tags": [{"primary": false, "id": 11247, "name": "Carry Out"}, {"primary": true, "id": 1722, "name": "Restaurants"}], "fax_number": null, "expansion": {"count": null, "uri": null}, "impression_id": "000b0000007162bcd75a244507b9fb41b090547ddc", "profile": "http://www.citysearch.com/profile/621046074/marietta_ga/firehouse_subs.html", "address": {"city": "Marietta", "state": "GA", "street": "2500 Dallas Hwy SW 650", "postal_code": "30064"}, "capProviderId": null, "distance": null, "has_offers": false, "name": "Firehouse Subs", "longitude": -84.62566, "has_menu": false, "awards": null, "user_review_count": 0}, {"business_operation_status": 1, "rating": null, "neighborhood": null, "image": null, "scorecard": null, "featured": false, "sample_categories": "Restaurants, Delis And Delicatessens, Sandwich Shops, Carry Out", "public_id": "subway-powder", "id": 713516600, "votes": null, "tagline": null, "has_video": false, "website": "http://www.citysearch.com/profile/external/713516600/powder_springs_ga/subway.html", "offers": null, "latitude": 33.903473, "politanName": "Atlanta, GA Metro ", "phone_number": "7702222710", "tags": [{"primary": false, "id": 1727, "name": "Delis And Delicatessens"}, {"primary": false, "id": 1736, "name": "Sandwich Shops"}, {"primary": false, "id": 11247, "name": "Carry Out"}, {"primary": true, "id": 1722, "name": "Restaurants"}], "fax_number": null, "expansion": {"count": null, "uri": null}, "impression_id": "000b00000001339274ef434407b614ddd5e4718363", "profile": "http://www.citysearch.com/profile/713516600/powder_springs_ga/subway.html", "address": {"city": "Powder Springs", "state": "GA", "street": "4150 Macland Rd", "postal_code": "30127"}, "capProviderId": null, "distance": null, "has_offers": false, "name": "SUBWAY", "longitude": -84.67471, "has_menu": true, "awards": null, "user_review_count": 0}, {"business_operation_status": 1, "rating": null, "neighborhood": null, "image": null, "scorecard": null, "featured": false, "sample_categories": "Restaurants, Catering, Delis And Delicatessens, American Express, Discover", "public_id": "mc-alisters-deli-kennesaw", "id": 36940938, "votes": null, "tagline": null, "has_video": false, "website": "http://www.citysearch.com/profile/external/36940938/kennesaw_ga/mc_alister_s_deli.html", "offers": null, "latitude": 34.025429, "politanName": "Atlanta, GA Metro ", "phone_number": "7704991581", "tags": [{"primary": false, "id": 1705, "name": "Catering"}, {"primary": false, "id": 1727, "name": "Delis And Delicatessens"}, {"primary": false, "id": 11333, "name": "American Express"}, {"primary": false, "id": 11349, "name": "Discover"}, {"primary": false, "id": 11361, "name": "MasterCard"}, {"primary": false, "id": 11382, "name": "Visa"}, {"primary": true, "id": 1722, "name": "Restaurants"}], "fax_number": null, "expansion": {"count": null, "uri": null}, "impression_id": "000b000000c464d59c52cc4a73aad95ffd949d7da1", "profile": "http://www.citysearch.com/profile/36940938/kennesaw_ga/mc_alister_s_deli.html", "address": {"city": "Kennesaw", "state": "GA", "street": "2950 George Busbee Pkwy NW # 102", "postal_code": "30144"}, "capProviderId": null, "distance": null, "has_offers": false, "name": "Mc Alister's Deli", "longitude": -84.566908, "has_menu": true, "awards": null, "user_review_count": 1}, {"business_operation_status": 1, "rating": null, "neighborhood": null, "image": null, "scorecard": null, "featured": false, "sample_categories": "Restaurants, Carry Out", "public_id": "jimmy-johns-kennesaw-2", "id": 621138804, "votes": null, "tagline": null, "has_video": false, "website": "http://www.citysearch.com/profile/external/621138804/kennesaw_ga/jimmy_john_s.html", "offers": null, "latitude": 34.012833, "politanName": "Atlanta, GA Metro ", "phone_number": "6784264030", "tags": [{"primary": false, "id": 11247, "name": "Carry Out"}, {"primary": true, "id": 1722, "name": "Restaurants"}], "fax_number": null, "expansion": {"count": null, "uri": null}, "impression_id": "000b0000003ff6edb840a84ccba5c0e2e9087e71ed", "profile": "http://www.citysearch.com/profile/621138804/kennesaw_ga/jimmy_john_s.html", "address": {"city": "Kennesaw", "state": "GA", "street": "440 Ernest W Barrett Pkwy NW", "postal_code": "30144"}, "capProviderId": null, "distance": null, "has_offers": false, "name": "Jimmy John's", "longitude": -84.564302, "has_menu": false, "awards": null, "user_review_count": 0}, {"business_operation_status": 1, "rating": null, "neighborhood": null, "image": null, "scorecard": null, "featured": false, "sample_categories": "Restaurants", "public_id": "eat-smart-solutions-marietta", "id": 613912764, "votes": null, "tagline": null, "has_video": false, "website": null, "offers": null, "latitude": 34.041728, "politanName": "Atlanta, GA Metro ", "phone_number": "6782478574", "tags": [{"primary": true, "id": 1722, "name": "Restaurants"}], "fax_number": null, "expansion": {"count": null, "uri": null}, "impression_id": "000b00000062bb15b3fe9a4d6a8f31d4f301436553", "profile": "http://www.citysearch.com/profile/613912764/marietta_ga/eat_smart_solutions.html", "address": {"city": "Marietta", "state": "GA", "street": "3653 Canton Rd", "postal_code": "30066"}, "capProviderId": null, "distance": null, "has_offers": false, "name": "Eat Smart Solutions", "longitude": -84.529523, "has_menu": false, "awards": null, "user_review_count": 0}, {"business_operation_status": 1, "rating": null, "neighborhood": null, "image": null, "scorecard": null, "featured": false, "sample_categories": "Restaurants", "public_id": "legacy-park-of-georgia-llc-kennesaw", "id": 617695724, "votes": null, "tagline": null, "has_video": false, "website": null, "offers": null, "latitude": 34.048612, "politanName": "Atlanta, GA Metro ", "phone_number": "6783248865", "tags": [{"primary": true, "id": 1722, "name": "Restaurants"}], "fax_number": null, "expansion": {"count": null, "uri": null}, "impression_id": "000b000000370626598356472bbba55be55eae5425", "profile": "http://www.citysearch.com/profile/617695724/kennesaw_ga/the_grille_at_legacy_park.html", "address": {"city": "Kennesaw", "state": "GA", "street": "3900 Legacy Park Blvd NW", "postal_code": "30144"}, "capProviderId": null, "distance": null, "has_offers": false, "name": "The Grille At Legacy Park", "longitude": -84.622496, "has_menu": false, "awards": null, "user_review_count": 0}, {"business_operation_status": 1, "rating": null, "neighborhood": null, "image": null, "scorecard": null, "featured": false, "sample_categories": "Restaurants, Traditional American, Carry Out", "public_id": "ihop-restaurant-marietta-3", "id": 682450140, "votes": null, "tagline": null, "has_video": false, "website": "http://www.citysearch.com/profile/external/682450140/marietta_ga/ihop.html", "offers": null, "latitude": 33.94651, "politanName": "Atlanta, GA Metro ", "phone_number": "7704851267", "tags": [{"primary": false, "id": 11190, "name": "Traditional American"}, {"primary": false, "id": 11247, "name": "Carry Out"}, {"primary": true, "id": 1722, "name": "Restaurants"}], "fax_number": null, "expansion": {"count": null, "uri": null}, "impression_id": "000b000000f128ea8a90ed4a4e96e3221a5dac2514", "profile": "http://www.citysearch.com/profile/682450140/marietta_ga/ihop.html", "address": {"city": "Marietta", "state": "GA", "street": "2390 Dallas Hwy SW", "postal_code": "30064"}, "capProviderId": null, "distance": null, "has_offers": false, "name": "IHOP", "longitude": -84.62155, "has_menu": false, "awards": null, "user_review_count": 0}, {"business_operation_status": 1, "rating": null, "neighborhood": null, "image": null, "scorecard": null, "featured": false, "sample_categories": "Luaus", "public_id": "el-herradero-kennesaw", "id": 818931270, "votes": null, "tagline": null, "has_video": false, "website": null, "offers": null, "latitude": 34.014345, "politanName": "Atlanta, GA Metro ", "phone_number": "7704231213", "tags": [{"primary": true, "id": 11285, "name": "Luaus"}], "fax_number": null, "expansion": {"count": null, "uri": null}, "impression_id": "000b0000002993aa943967484cb6da0a5318bb2490", "profile": "http://www.citysearch.com/profile/818931270/kennesaw_ga/el_herradero.html", "address": {"city": "Kennesaw", "state": "GA", "street": "2479 Cobb Pkwy NW", "postal_code": "30152"}, "capProviderId": null, "distance": null, "has_offers": false, "name": "El Herradero", "longitude": -84.614253, "has_menu": false, "awards": null, "user_review_count": 0}, {"business_operation_status": 1, "rating": null, "neighborhood": null, "image": null, "scorecard": null, "featured": false, "sample_categories": "Restaurants, Carry Out", "public_id": "jimmy-johns-kennesaw", "id": 612255804, "votes": null, "tagline": null, "has_video": false, "website": "http://www.citysearch.com/profile/external/612255804/kennesaw_ga/jimmy_john_s.html", "offers": null, "latitude": 34.030272, "politanName": "Atlanta, GA Metro ", "phone_number": "6783100766", "tags": [{"primary": false, "id": 11247, "name": "Carry Out"}, {"primary": true, "id": 1722, "name": "Restaurants"}], "fax_number": null, "expansion": {"count": null, "uri": null}, "impression_id": "000b000000716c723d8afa42e99f7a76013e76abae", "profile": "http://www.citysearch.com/profile/612255804/kennesaw_ga/jimmy_john_s.html", "address": {"city": "Kennesaw", "state": "GA", "street": "1133 Chastain Rd NW # 300", "postal_code": "30144"}, "capProviderId": null, "distance": null, "has_offers": false, "name": "Jimmy John's", "longitude": -84.582584, "has_menu": false, "awards": null, "user_review_count": 0}, {"business_operation_status": 1, "rating": null, "neighborhood": null, "image": null, "scorecard": null, "featured": false, "sample_categories": "Restaurants, Grocery Stores", "public_id": "snack-paradise-kennesaw", "id": 655941070, "votes": null, "tagline": null, "has_video": false, "website": null, "offers": null, "latitude": 34.022182, "politanName": "Atlanta, GA Metro ", "phone_number": "6784027506", "tags": [{"primary": false, "id": 1713, "name": "Grocery Stores"}, {"primary": true, "id": 1722, "name": "Restaurants"}], "fax_number": null, "expansion": {"count": null, "uri": null}, "impression_id": "000b0000009878e1302aa44ec1b6d4879ef027df8c", "profile": "http://www.citysearch.com/profile/655941070/kennesaw_ga/snack_paradise.html", "address": {"city": "Kennesaw", "state": "GA", "street": "2851 Cobb Pkwy Nw", "postal_code": "30152"}, "capProviderId": null, "distance": null, "has_offers": false, "name": "Snack Paradise", "longitude": -84.626291, "has_menu": false, "awards": null, "user_review_count": 0}, {"business_operation_status": 1, "rating": null, "neighborhood": null, "image": null, "scorecard": null, "featured": false, "sample_categories": "Restaurants, Mexican, Carry Out, American Express, Discover", "public_id": "taco-bell-marietta-7", "id": 682721700, "votes": null, "tagline": null, "has_video": false, "website": "http://www.citysearch.com/profile/external/682721700/marietta_ga/taco_bell.html", "offers": null, "latitude": 33.944909, "politanName": "Atlanta, GA Metro ", "phone_number": "7704218815", "tags": [{"primary": false, "id": 11208, "name": "Mexican"}, {"primary": false, "id": 11247, "name": "Carry Out"}, {"primary": false, "id": 11333, "name": "American Express"}, {"primary": false, "id": 11349, "name": "Discover"}, {"primary": false, "id": 11361, "name": "MasterCard"}, {"primary": false, "id": 11382, "name": "Visa"}, {"primary": true, "id": 1722, "name": "Restaurants"}], "fax_number": null, "expansion": {"count": null, "uri": null}, "impression_id": "000b000000725b231df0d54d849ed23d4547740570", "profile": "http://www.citysearch.com/profile/682721700/marietta_ga/taco_bell.html", "address": {"city": "Marietta", "state": "GA", "street": "3480 Ernest W Barrett Pkwy Sw", "postal_code": "30064"}, "capProviderId": null, "distance": null, "has_offers": false, "name": "Taco Bell", "longitude": -84.624717, "has_menu": true, "awards": null, "user_review_count": 0}], "histograms": [], "tag_ids": [1722], "uri": "http://api.citygridmedia.com:8080/search/places/v2/search/where?has_offers=false&type=restaurant&format=json&page=5&where=30156&rpp=50&histograms=false&publisher=10000009598&region_type=circle", "did_you_mean": "", "regions": [{"latitude": 33.9919, "default_radius": 0.25, "type": "postal_code", "name": "30156", "longitude": -84.6543}], "call_id": "000b000000cc8d06dc6f91420da72808e880814d2d", "first_hit": 201, "total_hits": 371, "geo_ids": [137052], "page": 5, "last_hit": 250}}