{"results": {"rpp": 50, "locations": [{"business_operation_status": 1, "rating": null, "neighborhood": null, "image": null, "scorecard": null, "featured": false, "sample_categories": "Restaurants, Italian, Pizza", "public_id": "gondolier-pizza-italian-rstrnt-kennesaw", "id": 777744770, "votes": null, "tagline": null, "has_video": false, "website": null, "offers": null, "latitude": 34.006194, "politanName": "Atlanta, GA Metro ", "phone_number": "7704191141", "tags": [{"primary": false, "id": 11279, "name": "Italian"}, {"primary": false, "id": 11299, "name": "Pizza"}, {"primary": true, "id": 1722, "name": "Restaurants"}], "fax_number": null, "expansion": {"count": null, "uri": null}, "impression_id": "000b000000e1350b6b59754d71b3ce1dcc705c9b1a", "profile": "http://www.citysearch.com/profile/777744770/kennesaw_ga/gondolier_pizza_italian_rstrnt.html", "address": {"city": "Kennesaw", "state": "GA", "street": "725 Ernest W Barrett Pkwy NW", "postal_code": "30144"}, "capProviderId": null, "distance": null, "has_offers": false, "name": "Gondolier Pizza Italian Rstrnt", "longitude": -84.573858, "has_menu": true, "awards": null, "user_review_count": 3}, {"business_operation_status": 1, "rating": null, "neighborhood": null, "image": null, "scorecard": null, "featured": false, "sample_categories": "Restaurants", "public_id": "fork-u-concepts-marietta", "id": 801125670, "votes": null, "tagline": null, "has_video": false, "website": null, "offers": null, "latitude": 33.952269, "politanName": "Atlanta, GA Metro ", "phone_number": "6789036243", "tags": [{"primary": true, "id": 1722, "name": "Restaurants"}], "fax_number": null, "expansion": {"count": null, "uri": null}, "impression_id": "000b000000dcabe251b7374b5288bfe35b05b34a4b", "profile": "http://www.citysearch.com/profile/801125670/marietta_ga/fork_u_concepts.html", "address": {"city": "Marietta", "state": "GA", "street": "30 S Park Sq Ne", "postal_code": "30060"}, "capProviderId": null, "distance": null, "has_offers": false, "name": "Fork U Concepts", "longitude": -84.550109, "has_menu": false, "awards": null, "user_review_count": 0}, {"business_operation_status": 1, "rating": null, "neighborhood": null, "image": null, "scorecard": null, "featured": false, "sample_categories": "Restaurants, Carry Out, Shop Online, Chicken", "public_id": "kfc-marietta-11", "id": 801057620, "votes": null, "tagline": null, "has_video": false, "website": "http://www.citysearch.com/profile/external/801057620/marietta_ga/kfc.html", "offers": null, "latitude": 33.951359, "politanName": "Atlanta, GA Metro ", "phone_number": "7704274291", "tags": [{"primary": false, "id": 11247, "name": "Carry Out"}, {"primary": false, "id": 11375, "name": "Shop Online"}, {"primary": false, "id": 12839, "name": "Chicken"}, {"primary": true, "id": 1722, "name": "Restaurants"}], "fax_number": null, "expansion": {"count": null, "uri": null}, "impression_id": "000b0000005a53cbf1ee1d4bbc93771b58c86b6119", "profile": "http://www.citysearch.com/profile/801057620/marietta_ga/kfc.html", "address": {"city": "Marietta", "state": "GA", "street": "37 Powder Springs St", "postal_code": "30064"}, "capProviderId": null, "distance": null, "has_offers": false, "name": "KFC", "longitude": -84.550223, "has_menu": true, "awards": null, "user_review_count": 0}, {"business_operation_status": 1, "rating": null, "neighborhood": null, "image": null, "scorecard": null, "featured": false, "sample_categories": "Restaurants, Barbecue Restaurants", "public_id": "wings-xpress-marietta", "id": 803550980, "votes": null, "tagline": null, "has_video": false, "website": null, "offers": null, "latitude": 33.933132, "politanName": "Atlanta, GA Metro ", "phone_number": "6784621167", "tags": [{"primary": false, "id": 1724, "name": "Barbecue Restaurants"}, {"primary": true, "id": 1722, "name": "Restaurants"}], "fax_number": null, "expansion": {"count": null, "uri": null}, "impression_id": "000b000000c1af84e6d8704f0bab6f7d69702a2f4d", "profile": "http://www.citysearch.com/profile/803550980/marietta_ga/wings_xpress.html", "address": {"city": "Marietta", "state": "GA", "street": "803 Powder Springs St # 2", "postal_code": "30064"}, "capProviderId": null, "distance": null, "has_offers": false, "name": "Wings Xpress", "longitude": -84.559871, "has_menu": false, "awards": null, "user_review_count": 0}, {"business_operation_status": 1, "rating": null, "neighborhood": null, "image": null, "scorecard": null, "featured": false, "sample_categories": "Restaurants", "public_id": "thai-surak-thai-restaurant-kennesaw", "id": 806598640, "votes": null, "tagline": null, "has_video": false, "website": null, "offers": null, "latitude": 34.025304, "politanName": "Atlanta, GA Metro ", "phone_number": "6785811888", "tags": [{"primary": true, "id": 1722, "name": "Restaurants"}], "fax_number": null, "expansion": {"count": null, "uri": null}, "impression_id": "000b0000008b891d75e84c4a168be35c60b7ba2af9", "profile": "http://www.citysearch.com/profile/806598640/kennesaw_ga/thai_surak_thai_restaurant.html", "address": {"city": "Kennesaw", "state": "GA", "street": "2950 George Busbee Pkwy NW", "postal_code": "30144"}, "capProviderId": null, "distance": null, "has_offers": false, "name": "Thai Surak Thai Restaurant", "longitude": -84.5671, "has_menu": false, "awards": null, "user_review_count": 0}, {"business_operation_status": 1, "rating": null, "neighborhood": null, "image": null, "scorecard": null, "featured": false, "sample_categories": "Restaurants", "public_id": "buffalos-southwest-cafe-kennesaw-2", "id": 808032200, "votes": null, "tagline": null, "has_video": false, "website": "http://www.citysearch.com/profile/external/808032200/kennesaw_ga/buffalo_s_southwest_cafe.html", "offers": null, "latitude": 33.99979, "politanName": "Atlanta, GA Metro ", "phone_number": "7704249464", "tags": [{"primary": true, "id": 1722, "name": "Restaurants"}], "fax_number": null, "expansion": {"count": null, "uri": null}, "impression_id": "000b000000f257f014355b4f4ebd0d1b3e822a941a", "profile": "http://www.citysearch.com/profile/808032200/kennesaw_ga/buffalo_s_southwest_cafe.html", "address": {"city": "Kennesaw", "state": "GA", "street": "1200 Ernest W Barrett Pkwy NW", "postal_code": "30144"}, "capProviderId": null, "distance": null, "has_offers": false, "name": "Buffalo's Southwest Cafe", "longitude": -84.585399, "has_menu": false, "awards": null, "user_review_count": 0}, {"business_operation_status": 1, "rating": null, "neighborhood": null, "image": null, "scorecard": null, "featured": false, "sample_categories": "Ice Cream Parlors, Restaurants", "public_id": "maggie-moos-acworth-2", "id": 751357150, "votes": null, "tagline": null, "has_video": false, "website": null, "offers": null, "latitude": 34.039261, "politanName": "Atlanta, GA Metro ", "phone_number": "6782245681", "tags": [{"primary": false, "id": 1722, "name": "Restaurants"}, {"primary": true, "id": 1730, "name": "Ice Cream Parlors"}], "fax_number": null, "expansion": {"count": null, "uri": null}, "impression_id": "000b0000004110151e16e94047b3aa48354f8cf929", "profile": "http://www.citysearch.com/profile/751357150/acworth_ga/maggie_moo_s.html", "address": {"city": "Acworth", "state": "GA", "street": "142 Flagstone Way", "postal_code": "30101"}, "capProviderId": null, "distance": null, "has_offers": false, "name": "Maggie Moo's", "longitude": -84.775909, "has_menu": false, "awards": null, "user_review_count": 0}, {"business_operation_status": 1, "rating": null, "neighborhood": null, "image": null, "scorecard": null, "featured": false, "sample_categories": "Restaurants, Catering, Carry Out, Chicken", "public_id": "chickfila-marietta-12", "id": 775192090, "votes": null, "tagline": null, "has_video": false, "website": "http://www.citysearch.com/profile/external/775192090/marietta_ga/chick_fil_a.html", "offers": null, "latitude": 33.952602, "politanName": "Atlanta, GA Metro ", "phone_number": "7705659960", "tags": [{"primary": false, "id": 1705, "name": "Catering"}, {"primary": false, "id": 11247, "name": "Carry Out"}, {"primary": false, "id": 12839, "name": "Chicken"}, {"primary": true, "id": 1722, "name": "Restaurants"}], "fax_number": null, "expansion": {"count": null, "uri": null}, "impression_id": "000b000000159ddef579c749a298aefe9fcf269587", "profile": "http://www.citysearch.com/profile/775192090/marietta_ga/chick_fil_a.html", "address": {"city": "Marietta", "state": "GA", "street": "5200 Buffington Rd", "postal_code": "30062"}, "capProviderId": null, "distance": null, "has_offers": false, "name": "Chick-Fil-A", "longitude": -84.549933, "has_menu": false, "awards": null, "user_review_count": 0}, {"business_operation_status": 1, "rating": null, "neighborhood": null, "image": null, "scorecard": null, "featured": false, "sample_categories": "Restaurants, Pizza", "public_id": "uncle-maddios-pizza-joint-kennesaw", "id": 777683550, "votes": null, "tagline": null, "has_video": false, "website": "http://www.citysearch.com/profile/external/777683550/kennesaw_ga/uncle_maddio_s_pizza_joint.html", "offers": null, "latitude": 34.035456, "politanName": "Atlanta, GA Metro ", "phone_number": "7705731694", "tags": [{"primary": false, "id": 1722, "name": "Restaurants"}, {"primary": true, "id": 11299, "name": "Pizza"}], "fax_number": null, "expansion": {"count": null, "uri": null}, "impression_id": "000b000000da4f88259ff84a08957ebcf4e263c4da", "profile": "http://www.citysearch.com/profile/777683550/kennesaw_ga/uncle_maddio_s_pizza_joint.html", "address": {"city": "Kennesaw", "state": "GA", "street": "745 Chastain Rd NW", "postal_code": "30144"}, "capProviderId": null, "distance": null, "has_offers": false, "name": "Uncle Maddio's Pizza Joint", "longitude": -84.56996, "has_menu": true, "awards": null, "user_review_count": 1}, {"business_operation_status": 1, "rating": null, "neighborhood": null, "image": null, "scorecard": null, "featured": false, "sample_categories": "Restaurants, Food Delivery, Pizza", "public_id": "peace-love-pizzamarietta-marietta", "id": 801118720, "votes": null, "tagline": null, "has_video": false, "website": null, "offers": null, "latitude": 33.96754, "politanName": "Atlanta, GA Metro ", "phone_number": "7703215000", "tags": [{"primary": false, "id": 11267, "name": "Food Delivery"}, {"primary": false, "id": 11299, "name": "Pizza"}, {"primary": true, "id": 1722, "name": "Restaurants"}], "fax_number": null, "expansion": {"count": null, "uri": null}, "impression_id": "000b000000832d8a881428446698dac271321b20e9", "profile": "http://www.citysearch.com/profile/801118720/marietta_ga/peace_love_and_pizza.html", "address": {"city": "Marietta", "state": "GA", "street": "3960 Mary Eliza Trce NW 1100", "postal_code": "30064"}, "capProviderId": null, "distance": null, "has_offers": false, "name": "Peace Love and Pizza", "longitude": -84.667248, "has_menu": false, "awards": null, "user_review_count": 0}, {"business_operation_status": 1, "rating": null, "neighborhood": null, "image": null, "scorecard": null, "featured": false, "sample_categories": "Restaurants", "public_id": "comida-marietta", "id": 810200100, "votes": null, "tagline": null, "has_video": false, "website": null, "offers": null, "latitude": 33.952164, "politanName": "Atlanta, GA Metro ", "phone_number": "6782130707", "tags": [{"primary": true, "id": 1722, "name": "Restaurants"}], "fax_number": null, "expansion": {"count": null, "uri": null}, "impression_id": "000b000000f19eed4576d54debbc95f512580eec8f", "profile": "http://www.citysearch.com/profile/810200100/marietta_ga/comida.html", "address": {"city": "Marietta", "state": "GA", "street": "3625 Dallas Hwy SW", "postal_code": "30064"}, "capProviderId": null, "distance": null, "has_offers": false, "name": "Comida", "longitude": -84.657799, "has_menu": false, "awards": null, "user_review_count": 0}, {"business_operation_status": 1, "rating": null, "neighborhood": null, "image": null, "scorecard": null, "featured": false, "sample_categories": "Restaurants", "public_id": "reagans-kennesaw", "id": 817217110, "votes": null, "tagline": null, "has_video": false, "website": null, "offers": null, "latitude": 34.023434, "politanName": "Atlanta, GA Metro ", "phone_number": "7704261010", "tags": [{"primary": true, "id": 1722, "name": "Restaurants"}], "fax_number": null, "expansion": {"count": null, "uri": null}, "impression_id": "000b000000fce34957fe44477797ca1baea2fa18af", "profile": "http://www.citysearch.com/profile/817217110/kennesaw_ga/reagan_s.html", "address": {"city": "Kennesaw", "state": "GA", "street": "3900 Leg Pk Blvd NW # B100", "postal_code": "30144"}, "capProviderId": null, "distance": null, "has_offers": false, "name": "Reagan's", "longitude": -84.61549, "has_menu": false, "awards": null, "user_review_count": 0}, {"business_operation_status": 1, "rating": null, "neighborhood": null, "image": null, "scorecard": null, "featured": false, "sample_categories": "Catering, Restaurants, Barbecue Restaurants, Carry Out, Family Style Dining", "public_id": "as-sonnys-real-pit-barbq", "id": 793392090, "votes": null, "tagline": null, "has_video": false, "website": null, "offers": null, "latitude": null, "politanName": null, "phone_number": "7703681653", "tags": [{"primary": false, "id": 1705, "name": "Catering"}, {"primary": false, "id": 1722, "name": "Restaurants"}, {"primary": false, "id": 1724, "name": "Barbecue Restaurants"}, {"primary": false, "id": 11262, "name": "Family Style Dining"}, {"primary": true, "id": 11247, "name": "Carry Out"}], "fax_number": null, "expansion": {"count": null, "uri": null}, "impression_id": "000b00000071eef133f7e849d6a0027fc372ebb5ce", "profile": "http://www.citysearch.com/profile/793392090/sonny_s_real_pit_bar_b_q.html", "address": {"city": null, "state": null, "street": null, "postal_code": null}, "capProviderId": null, "distance": null, "has_offers": false, "name": "Sonny's Real Pit Bar-B-Q", "longitude": null, "has_menu": false, "awards": null, "user_review_count": 0}, {"business_operation_status": 1, "rating": null, "neighborhood": null, "image": null, "scorecard": null, "featured": false, "sample_categories": "Catering, Personal Chefs, Computer & Internet Services, Wedding Cakes, Seafood", "public_id": "as-glamacook-oad", "id": 801975680, "votes": null, "tagline": null, "has_video": false, "website": null, "offers": null, "latitude": null, "politanName": null, "phone_number": "4043451924", "tags": [{"primary": false, "id": 1705, "name": "Catering"}, {"primary": false, "id": 3534, "name": "Personal Chefs"}, {"primary": false, "id": 674, "name": "Computer & Internet Services"}, {"primary": false, "id": 11057, "name": "Wedding Cakes"}, {"primary": false, "id": 11228, "name": "Seafood"}, {"primary": true, "id": 11267, "name": "Food Delivery"}], "fax_number": null, "expansion": {"count": null, "uri": null}, "impression_id": "000b00000028dce9c492a9478890e5816776a23dbe", "profile": "http://www.citysearch.com/profile/801975680/_oad_ga/glamacook.html", "address": {"city": "(Oad)", "state": "GA", "street": null, "postal_code": "30032"}, "capProviderId": null, "distance": null, "has_offers": false, "name": "GlamaCook", "longitude": null, "has_menu": false, "awards": null, "user_review_count": 0}], "histograms": [], "tag_ids": [1722], "uri": "http://api.citygridmedia.com:8080/search/places/v2/search/where?has_offers=false&type=restaurant&format=json&page=28&where=30152&rpp=50&histograms=false&publisher=10000009598&region_type=circle", "did_you_mean": "", "regions": [{"latitude": 33.994142, "default_radius": 4.59, "type": "postal_code", "name": "30152", "longitude": -84.64478199999999}], "call_id": "000b0000003f1a535b2e224b88b297efd847b17188", "first_hit": 1351, "total_hits": 1364, "geo_ids": [26314], "page": 28, "last_hit": 1364}}