{"results": {"rpp": 50, "locations": [{"business_operation_status": 1, "rating": null, "neighborhood": null, "image": null, "scorecard": null, "featured": false, "sample_categories": "Restaurants, Carry Out, Hamburgers, American Express, Discover", "public_id": "mc-donalds-acworth-3", "id": 682414490, "votes": null, "tagline": null, "has_video": false, "website": "http://www.citysearch.com/profile/external/682414490/acworth_ga/mc_donald_s.html", "offers": null, "latitude": 34.035066, "politanName": "Atlanta, GA Metro ", "phone_number": "7709179881", "tags": [{"primary": false, "id": 11247, "name": "Carry Out"}, {"primary": false, "id": 11270, "name": "Hamburgers"}, {"primary": false, "id": 11333, "name": "American Express"}, {"primary": false, "id": 11349, "name": "Discover"}, {"primary": false, "id": 11361, "name": "MasterCard"}, {"primary": false, "id": 11382, "name": "Visa"}, {"primary": true, "id": 1722, "name": "Restaurants"}], "fax_number": null, "expansion": {"count": null, "uri": null}, "impression_id": "000b0000000e81df40046749f48a4b162c933484d6", "profile": "http://www.citysearch.com/profile/682414490/acworth_ga/mc_donald_s.html", "address": {"city": "Acworth", "state": "GA", "street": "3316 Cobb Pkwy NW", "postal_code": "30101"}, "capProviderId": null, "distance": null, "has_offers": false, "name": "Mc Donald's", "longitude": -84.675879, "has_menu": true, "awards": null, "user_review_count": 0}, {"business_operation_status": 1, "rating": null, "neighborhood": null, "image": null, "scorecard": null, "featured": false, "sample_categories": "Restaurants, Asian, Chinese", "public_id": "chinese-restaurant-marietta", "id": 682576220, "votes": null, "tagline": null, "has_video": false, "website": "http://www.citysearch.com/profile/external/682576220/marietta_ga/chinese_restaurant.html", "offers": null, "latitude": 33.968527, "politanName": "Atlanta, GA Metro ", "phone_number": "7703218202", "tags": [{"primary": false, "id": 11235, "name": "Asian"}, {"primary": false, "id": 11252, "name": "Chinese"}, {"primary": true, "id": 1722, "name": "Restaurants"}], "fax_number": null, "expansion": {"count": null, "uri": null}, "impression_id": "000b000000d9ec8c41f2fe41178157ca0b7a18c00e", "profile": "http://www.citysearch.com/profile/682576220/marietta_ga/chinese_restaurant.html", "address": {"city": "Marietta", "state": "GA", "street": "2145 Roswell Rd", "postal_code": "30062"}, "capProviderId": null, "distance": null, "has_offers": false, "name": "Chinese Restaurant", "longitude": -84.491622, "has_menu": false, "awards": null, "user_review_count": 0}, {"business_operation_status": 0, "rating": null, "neighborhood": null, "image": null, "scorecard": null, "featured": false, "sample_categories": "Restaurants", "public_id": "nosjeff-restaurant-sport-ctr-marietta", "id": 682347170, "votes": null, "tagline": null, "has_video": false, "website": null, "offers": null, "latitude": 34.046421, "politanName": "Atlanta, GA Metro ", "phone_number": "6784451836", "tags": [{"primary": true, "id": 1722, "name": "Restaurants"}], "fax_number": null, "expansion": {"count": null, "uri": null}, "impression_id": "000b00000059b60a01a0c34b5ab63dbf0bad454f5d", "profile": "http://www.citysearch.com/profile/682347170/marietta_ga/nosjeff_restaurant_sport_ctr.html", "address": {"city": "Marietta", "state": "GA", "street": "3920 Canton Rd", "postal_code": "30066"}, "capProviderId": null, "distance": null, "has_offers": false, "name": "Nosjeff Restaurant Sport Ctr", "longitude": -84.52845, "has_menu": false, "awards": null, "user_review_count": 0}, {"business_operation_status": 1, "rating": null, "neighborhood": null, "image": null, "scorecard": null, "featured": false, "sample_categories": "Restaurants", "public_id": "philly-connection-marietta-4", "id": 805419070, "votes": null, "tagline": null, "has_video": false, "website": null, "offers": null, "latitude": 34.011742, "politanName": "Atlanta, GA Metro ", "phone_number": "7705799288", "tags": [{"primary": true, "id": 1722, "name": "Restaurants"}], "fax_number": null, "expansion": {"count": null, "uri": null}, "impression_id": "000b000000600eca3c101e49029f03bd4bce5284fb", "profile": "http://www.citysearch.com/profile/805419070/marietta_ga/philly_connection.html", "address": {"city": "Marietta", "state": "GA", "street": "2550 Sandy Plains Rd # 215", "postal_code": "30066"}, "capProviderId": null, "distance": null, "has_offers": false, "name": "Philly Connection", "longitude": -84.495056, "has_menu": true, "awards": null, "user_review_count": 0}, {"business_operation_status": 1, "rating": null, "neighborhood": null, "image": null, "scorecard": null, "featured": false, "sample_categories": "Restaurants", "public_id": "mojave-southwestern-grill-acworth-2", "id": 806243290, "votes": null, "tagline": null, "has_video": false, "website": null, "offers": null, "latitude": 34.05073, "politanName": "Atlanta, GA Metro ", "phone_number": "7709743033", "tags": [{"primary": true, "id": 1722, "name": "Restaurants"}], "fax_number": null, "expansion": {"count": null, "uri": null}, "impression_id": "000b00000049b602d112394613a75e36820fee9b75", "profile": "http://www.citysearch.com/profile/806243290/acworth_ga/mojave_southwestern_grill.html", "address": {"city": "Acworth", "state": "GA", "street": "3979 S Main St", "postal_code": "30101"}, "capProviderId": null, "distance": null, "has_offers": false, "name": "Mojave Southwestern Grill", "longitude": -84.663654, "has_menu": false, "awards": null, "user_review_count": 0}, {"business_operation_status": 1, "rating": null, "neighborhood": null, "image": null, "scorecard": null, "featured": false, "sample_categories": "Restaurants, Cafes", "public_id": "dsc-solutions-llc-marietta", "id": 764892180, "votes": null, "tagline": null, "has_video": false, "website": null, "offers": null, "latitude": 34.014183, "politanName": "Atlanta, GA Metro ", "phone_number": "7709776915", "tags": [{"primary": false, "id": 6190, "name": "Cafes"}, {"primary": true, "id": 1722, "name": "Restaurants"}], "fax_number": null, "expansion": {"count": null, "uri": null}, "impression_id": "000b000000d23c1c5e1c944459a437026389590a75", "profile": "http://www.citysearch.com/profile/764892180/marietta_ga/dsc_solutions_llc.html", "address": {"city": "Marietta", "state": "GA", "street": "2595 Sandy Plains Rd # 1", "postal_code": "30066"}, "capProviderId": null, "distance": null, "has_offers": false, "name": "DSC Solutions Llc", "longitude": -84.495373, "has_menu": false, "awards": null, "user_review_count": 0}, {"business_operation_status": 1, "rating": null, "neighborhood": null, "image": null, "scorecard": null, "featured": false, "sample_categories": "Restaurants, Carry Out", "public_id": "ryans-grill-buffet-bakery-marietta", "id": 764837190, "votes": null, "tagline": null, "has_video": false, "website": null, "offers": null, "latitude": 34.010977, "politanName": "Atlanta, GA Metro ", "phone_number": "7704250277", "tags": [{"primary": false, "id": 11247, "name": "Carry Out"}, {"primary": true, "id": 1722, "name": "Restaurants"}], "fax_number": null, "expansion": {"count": null, "uri": null}, "impression_id": "000b000000c42839840185494da6c7bd27ebebc2f3", "profile": "http://www.citysearch.com/profile/764837190/marietta_ga/ryan_s_grill_buffet_bakery.html", "address": {"city": "Marietta", "state": "GA", "street": "2418 Canton Rd", "postal_code": "30066"}, "capProviderId": null, "distance": null, "has_offers": false, "name": "Ryan's Grill Buffet & Bakery", "longitude": -84.526734, "has_menu": false, "awards": null, "user_review_count": 0}, {"business_operation_status": 1, "rating": null, "neighborhood": null, "image": null, "scorecard": null, "featured": false, "sample_categories": "Restaurants, Luaus, Mexican", "public_id": "taco-mac-kennesaw", "id": 766794950, "votes": null, "tagline": null, "has_video": false, "website": null, "offers": null, "latitude": 34.014045, "politanName": "Atlanta, GA Metro ", "phone_number": "7704261515", "tags": [{"primary": false, "id": 1722, "name": "Restaurants"}, {"primary": false, "id": 11208, "name": "Mexican"}, {"primary": true, "id": 11285, "name": "Luaus"}], "fax_number": null, "expansion": {"count": null, "uri": null}, "impression_id": "000b00000092097d3fccb744a49f5d257b1cc2efe4", "profile": "http://www.citysearch.com/profile/766794950/kennesaw_ga/taco_mac.html", "address": {"city": "Kennesaw", "state": "GA", "street": "2615 Busbee Pkwy NW # 28", "postal_code": "30144"}, "capProviderId": null, "distance": null, "has_offers": false, "name": "Taco Mac", "longitude": -84.56696, "has_menu": false, "awards": null, "user_review_count": 0}, {"business_operation_status": 1, "rating": null, "neighborhood": null, "image": null, "scorecard": null, "featured": false, "sample_categories": "Restaurants", "public_id": "sunrise-biscuit-co-marietta", "id": 808765260, "votes": null, "tagline": null, "has_video": false, "website": null, "offers": null, "latitude": 34.048278, "politanName": "Atlanta, GA Metro ", "phone_number": "7705169556", "tags": [{"primary": true, "id": 1722, "name": "Restaurants"}], "fax_number": null, "expansion": {"count": null, "uri": null}, "impression_id": "000b000000becf095914464e87a3af2c98b91b5626", "profile": "http://www.citysearch.com/profile/808765260/marietta_ga/sunrise_biscuit_co.html", "address": {"city": "Marietta", "state": "GA", "street": "4017 Canton Rd", "postal_code": "30066"}, "capProviderId": null, "distance": null, "has_offers": false, "name": "Sunrise Biscuit Co", "longitude": -84.52851, "has_menu": false, "awards": null, "user_review_count": 0}, {"business_operation_status": 1, "rating": null, "neighborhood": null, "image": null, "scorecard": null, "featured": false, "sample_categories": "Restaurants, Pizza", "public_id": "gondolier-pizza-1-kennesaw", "id": 809188170, "votes": null, "tagline": null, "has_video": false, "website": null, "offers": null, "latitude": 34.007674, "politanName": "Atlanta, GA Metro ", "phone_number": "7704199979", "tags": [{"primary": false, "id": 1722, "name": "Restaurants"}, {"primary": true, "id": 11299, "name": "Pizza"}], "fax_number": null, "expansion": {"count": null, "uri": null}, "impression_id": "000b000000f21052f5498a477aa0082daed8fda085", "profile": "http://www.citysearch.com/profile/809188170/kennesaw_ga/gondolier_pizza_1.html", "address": {"city": "Kennesaw", "state": "GA", "street": "740 Ernest W Barrett Pkwy NW", "postal_code": "30144"}, "capProviderId": null, "distance": null, "has_offers": false, "name": "Gondolier Pizza 1", "longitude": -84.571702, "has_menu": false, "awards": null, "user_review_count": 0}, {"business_operation_status": 1, "rating": null, "neighborhood": null, "image": null, "scorecard": null, "featured": false, "sample_categories": "Restaurants, Pizza, Carry Out", "public_id": "sals-pizzeria-acworth", "id": 790746800, "votes": null, "tagline": null, "has_video": false, "website": null, "offers": null, "latitude": 34.062771, "politanName": "Atlanta, GA Metro ", "phone_number": "7704275368", "tags": [{"primary": false, "id": 1722, "name": "Restaurants"}, {"primary": false, "id": 11247, "name": "Carry Out"}, {"primary": true, "id": 11299, "name": "Pizza"}], "fax_number": null, "expansion": {"count": null, "uri": null}, "impression_id": "000b000000ae8f834b59e440bcb2b5ef0951007720", "profile": "http://www.citysearch.com/profile/790746800/acworth_ga/sals_pizzeria.html", "address": {"city": "Acworth", "state": "GA", "street": "1361 Hearthstone Way NW", "postal_code": "30102"}, "capProviderId": null, "distance": null, "has_offers": false, "name": "Sals Pizzeria", "longitude": -84.585107, "has_menu": false, "awards": null, "user_review_count": 0}, {"business_operation_status": 1, "rating": null, "neighborhood": null, "image": null, "scorecard": null, "featured": false, "sample_categories": "Restaurants, Greek, Middle Eastern, Family Style Dining, Mediterranean", "public_id": "milos-greek-taverna-marietta", "id": 798213230, "votes": null, "tagline": null, "has_video": false, "website": null, "offers": null, "latitude": 33.953276, "politanName": "Atlanta, GA Metro ", "phone_number": "6789033148", "tags": [{"primary": false, "id": 1722, "name": "Restaurants"}, {"primary": false, "id": 11215, "name": "Middle Eastern"}, {"primary": false, "id": 11262, "name": "Family Style Dining"}, {"primary": false, "id": 11289, "name": "Mediterranean"}, {"primary": true, "id": 11268, "name": "Greek"}], "fax_number": "6789033149", "expansion": {"count": null, "uri": null}, "impression_id": "000b0000006a6d2d8cc8f34513a49bc0435b54102a", "profile": "http://www.citysearch.com/profile/798213230/marietta_ga/milos_greek_taverna.html", "address": {"city": "Marietta", "state": "GA", "street": "26 Mill St NE", "postal_code": "30060"}, "capProviderId": null, "distance": null, "has_offers": false, "name": "Milos Greek Taverna", "longitude": -84.551885, "has_menu": false, "awards": null, "user_review_count": 0}, {"business_operation_status": 1, "rating": null, "neighborhood": null, "image": null, "scorecard": null, "featured": false, "sample_categories": "Restaurants", "public_id": "pegasus-foods-inc-powder", "id": 732186320, "votes": null, "tagline": null, "has_video": false, "website": null, "offers": null, "latitude": 33.906794, "politanName": "Atlanta, GA Metro ", "phone_number": "7704391489", "tags": [{"primary": true, "id": 1722, "name": "Restaurants"}], "fax_number": null, "expansion": {"count": null, "uri": null}, "impression_id": "000b000000429b8cf864d549f4a158cf92ec833392", "profile": "http://www.citysearch.com/profile/732186320/powder_springs_ga/pegasus_foods_inc.html", "address": {"city": "Powder Springs", "state": "GA", "street": "3640 Velma Dr", "postal_code": "30127"}, "capProviderId": null, "distance": null, "has_offers": false, "name": "Pegasus Foods Inc", "longitude": -84.660285, "has_menu": false, "awards": null, "user_review_count": 0}, {"business_operation_status": 1, "rating": null, "neighborhood": null, "image": null, "scorecard": null, "featured": false, "sample_categories": "Restaurants", "public_id": "rio-mexico-kennesaw", "id": 809173760, "votes": null, "tagline": null, "has_video": false, "website": null, "offers": null, "latitude": 34.032507, "politanName": "Atlanta, GA Metro ", "phone_number": "7709192626", "tags": [{"primary": true, "id": 1722, "name": "Restaurants"}], "fax_number": null, "expansion": {"count": null, "uri": null}, "impression_id": "000b000000a8f0a8435ae3416587dc38606c00e9d5", "profile": "http://www.citysearch.com/profile/809173760/kennesaw_ga/rio_mexico.html", "address": {"city": "Kennesaw", "state": "GA", "street": "2700 Town Center Dr NW", "postal_code": "30144"}, "capProviderId": null, "distance": null, "has_offers": false, "name": "Rio Mexico", "longitude": -84.64853, "has_menu": false, "awards": null, "user_review_count": 0}, {"business_operation_status": 1, "rating": null, "neighborhood": null, "image": null, "scorecard": null, "featured": false, "sample_categories": "Restaurants", "public_id": "taqueria-el-tapatio-acworth-2", "id": 627844154, "votes": null, "tagline": null, "has_video": false, "website": null, "offers": null, "latitude": 34.070789, "politanName": "Atlanta, GA Metro ", "phone_number": "7705753005", "tags": [{"primary": true, "id": 1722, "name": "Restaurants"}], "fax_number": null, "expansion": {"count": null, "uri": null}, "impression_id": "000b00000081e95fb07d0c49aa9cf7256c61a1748b", "profile": "http://www.citysearch.com/profile/627844154/acworth_ga/taqueria_el_tapatio.html", "address": {"city": "Acworth", "state": "GA", "street": "3956 Garden Cir", "postal_code": "30101"}, "capProviderId": null, "distance": null, "has_offers": false, "name": "Taqueria El Tapatio", "longitude": -84.664742, "has_menu": false, "awards": null, "user_review_count": 0}, {"business_operation_status": 1, "rating": null, "neighborhood": null, "image": null, "scorecard": null, "featured": false, "sample_categories": "Frozen Yogurt Shops, Grocery Stores, Restaurants", "public_id": "oolala-marietta", "id": 732204990, "votes": null, "tagline": null, "has_video": false, "website": "http://www.citysearch.com/profile/external/732204990/marietta_ga/oolala.html", "offers": null, "latitude": 33.950252, "politanName": "Atlanta, GA Metro ", "phone_number": "6783836129", "tags": [{"primary": false, "id": 1713, "name": "Grocery Stores"}, {"primary": false, "id": 1722, "name": "Restaurants"}, {"primary": true, "id": 1729, "name": "Frozen Yogurt Shops"}], "fax_number": null, "expansion": {"count": null, "uri": null}, "impression_id": "000b000000624f986900eb407786b778088964f12c", "profile": "http://www.citysearch.com/profile/732204990/marietta_ga/oolala.html", "address": {"city": "Marietta", "state": "GA", "street": "2500 Dallas Hwy SW # 650", "postal_code": "30064"}, "capProviderId": null, "distance": null, "has_offers": false, "name": "Oolala", "longitude": -84.638093, "has_menu": false, "awards": null, "user_review_count": 0}, {"business_operation_status": 1, "rating": null, "neighborhood": null, "image": null, "scorecard": null, "featured": false, "sample_categories": "Coffeehouses", "public_id": "volcanica-coffee-inc-coral", "id": 732048930, "votes": null, "tagline": null, "has_video": false, "website": null, "offers": "Free Shipping", "latitude": 33.988892, "politanName": "Atlanta, GA Metro ", "phone_number": "8774547031", "tags": [{"primary": true, "id": 1726, "name": "Coffeehouses"}], "fax_number": null, "expansion": {"count": null, "uri": null}, "impression_id": "000b000000dbb287ae202c49a19f62e8a51afe895e", "profile": "http://www.citysearch.com/profile/732048930/atlanta_ga/volcanica_coffee_inc.html", "address": {"city": "Atlanta", "state": "GA", "street": "1831-C West Oak Parkway", "postal_code": "30062"}, "capProviderId": null, "distance": null, "has_offers": true, "name": "Volcanica Coffee Inc", "longitude": -84.525273, "has_menu": false, "awards": null, "user_review_count": 0}, {"business_operation_status": 1, "rating": null, "neighborhood": null, "image": null, "scorecard": null, "featured": false, "sample_categories": "Restaurants, Traditional American, Carry Out", "public_id": "waffle-house-dallas-13", "id": 762818180, "votes": null, "tagline": null, "has_video": false, "website": "http://www.citysearch.com/profile/external/762818180/dallas_ga/waffle_house.html", "offers": null, "latitude": 34.008816, "politanName": "Atlanta, GA Metro ", "phone_number": "7705295696", "tags": [{"primary": false, "id": 11190, "name": "Traditional American"}, {"primary": false, "id": 11247, "name": "Carry Out"}, {"primary": true, "id": 1722, "name": "Restaurants"}], "fax_number": null, "expansion": {"count": null, "uri": null}, "impression_id": "000b000000d74de7982070438280daf89d5a3dc745", "profile": "http://www.citysearch.com/profile/762818180/dallas_ga/waffle_house.html", "address": {"city": "Dallas", "state": "GA", "street": "8624 Dallas Acworth Hwy", "postal_code": "30132"}, "capProviderId": null, "distance": null, "has_offers": false, "name": "Waffle House", "longitude": -84.755752, "has_menu": false, "awards": null, "user_review_count": 0}, {"business_operation_status": 1, "rating": null, "neighborhood": null, "image": null, "scorecard": null, "featured": false, "sample_categories": "Health Food Stores, Restaurants", "public_id": "planet-smoothie-marietta", "id": 36642521, "votes": null, "tagline": null, "has_video": false, "website": "http://www.citysearch.com/profile/external/36642521/marietta_ga/planet_smoothie.html", "offers": null, "latitude": 33.969856, "politanName": "Atlanta, GA Metro ", "phone_number": "6785604001", "tags": [{"primary": false, "id": 1722, "name": "Restaurants"}, {"primary": true, "id": 1716, "name": "Health Food Stores"}], "fax_number": null, "expansion": {"count": null, "uri": null}, "impression_id": "000b00000037d332931e594efc9eb1887a487d3ac7", "profile": "http://www.citysearch.com/profile/36642521/marietta_ga/planet_smoothie.html", "address": {"city": "Marietta", "state": "GA", "street": "2200 Roswell Rd", "postal_code": "30062"}, "capProviderId": null, "distance": null, "has_offers": false, "name": "Planet Smoothie", "longitude": -84.488427, "has_menu": true, "awards": null, "user_review_count": 0}, {"business_operation_status": 1, "rating": null, "neighborhood": null, "image": null, "scorecard": null, "featured": false, "sample_categories": "Restaurants, Ice Cream Parlors", "public_id": "smoothie-express-marietta", "id": 653592070, "votes": null, "tagline": null, "has_video": false, "website": "http://www.citysearch.com/profile/external/653592070/marietta_ga/smoothie_express.html", "offers": null, "latitude": 33.899518, "politanName": "Atlanta, GA Metro ", "phone_number": "7705901900", "tags": [{"primary": false, "id": 1730, "name": "Ice Cream Parlors"}, {"primary": true, "id": 1722, "name": "Restaurants"}], "fax_number": null, "expansion": {"count": null, "uri": null}, "impression_id": "000b000000364368f96e0145c88d122e7f05de3079", "profile": "http://www.citysearch.com/profile/653592070/marietta_ga/smoothie_express.html", "address": {"city": "Marietta", "state": "GA", "street": "1812 Powder Springs Rd Sw#1107", "postal_code": "30064"}, "capProviderId": null, "distance": null, "has_offers": false, "name": "Smoothie Express", "longitude": -84.606801, "has_menu": false, "awards": null, "user_review_count": 0}, {"business_operation_status": 1, "rating": null, "neighborhood": null, "image": null, "scorecard": null, "featured": false, "sample_categories": "Restaurants, Chinese, American Express, Discover, MasterCard", "public_id": "one-sixty-eight-dragon-marietta", "id": 747470520, "votes": null, "tagline": null, "has_video": false, "website": null, "offers": null, "latitude": 33.903742, "politanName": "Atlanta, GA Metro ", "phone_number": "7704275599", "tags": [{"primary": false, "id": 11252, "name": "Chinese"}, {"primary": false, "id": 11333, "name": "American Express"}, {"primary": false, "id": 11349, "name": "Discover"}, {"primary": false, "id": 11361, "name": "MasterCard"}, {"primary": false, "id": 11382, "name": "Visa"}, {"primary": true, "id": 1722, "name": "Restaurants"}], "fax_number": null, "expansion": {"count": null, "uri": null}, "impression_id": "000b00000022c9421f3b7a4597bf22ed070b164fd1", "profile": "http://www.citysearch.com/profile/747470520/marietta_ga/one_sixty_eight_dragon.html", "address": {"city": "Marietta", "state": "GA", "street": "1750 Powder Springs Rd # 240", "postal_code": "30064"}, "capProviderId": null, "distance": null, "has_offers": false, "name": "One Sixty Eight Dragon", "longitude": -84.606517, "has_menu": false, "awards": null, "user_review_count": 0}, {"business_operation_status": 1, "rating": null, "neighborhood": null, "image": null, "scorecard": null, "featured": false, "sample_categories": "Restaurants", "public_id": "garcia-eduardo-kennesaw", "id": 775190040, "votes": null, "tagline": null, "has_video": false, "website": null, "offers": null, "latitude": 34.050651, "politanName": "Atlanta, GA Metro ", "phone_number": "6783559839", "tags": [{"primary": true, "id": 1722, "name": "Restaurants"}], "fax_number": null, "expansion": {"count": null, "uri": null}, "impression_id": "000b000000b26d6c6f52394cf3a86abae1283baa1c", "profile": "http://www.citysearch.com/profile/775190040/kennesaw_ga/garcia_eduardo.html", "address": {"city": "Kennesaw", "state": "GA", "street": "3600 Cherokee St NW", "postal_code": "30144"}, "capProviderId": null, "distance": null, "has_offers": false, "name": "Garcia Eduardo", "longitude": -84.595701, "has_menu": false, "awards": null, "user_review_count": 0}, {"business_operation_status": 1, "rating": null, "neighborhood": null, "image": null, "scorecard": null, "featured": false, "sample_categories": "Restaurants", "public_id": "royal-waffle-king-marietta", "id": 775234230, "votes": null, "tagline": null, "has_video": false, "website": "http://www.citysearch.com/profile/external/775234230/marietta_ga/royal_waffle_king.html", "offers": null, "latitude": 33.987292, "politanName": "Atlanta, GA Metro ", "phone_number": "7704423800", "tags": [{"primary": true, "id": 1722, "name": "Restaurants"}], "fax_number": null, "expansion": {"count": null, "uri": null}, "impression_id": "000b00000040f1d246a05342c88920a6face0f3d30", "profile": "http://www.citysearch.com/profile/775234230/marietta_ga/royal_waffle_king.html", "address": {"city": "Marietta", "state": "GA", "street": "1459 Field Park Cir", "postal_code": "30066"}, "capProviderId": null, "distance": null, "has_offers": false, "name": "Royal Waffle King", "longitude": -84.563324, "has_menu": true, "awards": null, "user_review_count": 0}, {"business_operation_status": 1, "rating": null, "neighborhood": null, "image": null, "scorecard": null, "featured": false, "sample_categories": "Restaurants, New American, Carry Out, Cooking, Soul", "public_id": "chads-place-marietta", "id": 753259210, "votes": null, "tagline": null, "has_video": false, "website": null, "offers": null, "latitude": 33.964105, "politanName": "Atlanta, GA Metro ", "phone_number": "7704278226", "tags": [{"primary": false, "id": 11189, "name": "New American"}, {"primary": false, "id": 11247, "name": "Carry Out"}, {"primary": false, "id": 11254, "name": "Cooking"}, {"primary": false, "id": 15140, "name": "Soul"}, {"primary": true, "id": 1722, "name": "Restaurants"}], "fax_number": null, "expansion": {"count": null, "uri": null}, "impression_id": "000b00000013fd6475da5e4f7d9205df1f117df6ac", "profile": "http://www.citysearch.com/profile/753259210/marietta_ga/chad_s_place.html", "address": {"city": "Marietta", "state": "GA", "street": "531 Roselane St NW Suite 520 NW", "postal_code": "30060"}, "capProviderId": null, "distance": null, "has_offers": false, "name": "Chad's Place", "longitude": -84.557337, "has_menu": false, "awards": null, "user_review_count": 0}, {"business_operation_status": 1, "rating": null, "neighborhood": null, "image": null, "scorecard": null, "featured": false, "sample_categories": "Bars & Clubs, Restaurants, Pizza", "public_id": "cedarcrest-pizza-shack-dallas-2", "id": 779690830, "votes": null, "tagline": null, "has_video": false, "website": "http://www.citysearch.com/profile/external/779690830/dallas_ga/pizza_shack.html", "offers": null, "latitude": 34.029654, "politanName": "Atlanta, GA Metro ", "phone_number": "6785744124", "tags": [{"primary": false, "id": 164, "name": "Bars & Clubs"}, {"primary": false, "id": 1722, "name": "Restaurants"}, {"primary": true, "id": 11299, "name": "Pizza"}], "fax_number": null, "expansion": {"count": null, "uri": null}, "impression_id": "000b000000c59f2622dfc5477588c27f910a977d88", "profile": "http://www.citysearch.com/profile/779690830/dallas_ga/pizza_shack.html", "address": {"city": "Dallas", "state": "GA", "street": "80 Seven Hills Blvd 111", "postal_code": "30132"}, "capProviderId": null, "distance": null, "has_offers": false, "name": "Pizza Shack", "longitude": -84.778758, "has_menu": false, "awards": null, "user_review_count": 0}, {"business_operation_status": 1, "rating": null, "neighborhood": null, "image": null, "scorecard": null, "featured": false, "sample_categories": "Restaurants, Carry Out, Shop Online, Chicken", "public_id": "kfc-kennesaw-2", "id": 764895270, "votes": null, "tagline": null, "has_video": false, "website": "http://www.citysearch.com/profile/external/764895270/kennesaw_ga/kfc.html", "offers": null, "latitude": 34.110827, "politanName": "Atlanta, GA Metro ", "phone_number": "7709745420", "tags": [{"primary": false, "id": 11247, "name": "Carry Out"}, {"primary": false, "id": 11375, "name": "Shop Online"}, {"primary": false, "id": 12839, "name": "Chicken"}, {"primary": true, "id": 1722, "name": "Restaurants"}], "fax_number": null, "expansion": {"count": null, "uri": null}, "impression_id": "000b000000486169541d4b4d468b414edc8a38b9d2", "profile": "http://www.citysearch.com/profile/764895270/kennesaw_ga/kfc.html", "address": {"city": "Kennesaw", "state": "GA", "street": "5040 Glade Rd NW", "postal_code": "30144"}, "capProviderId": null, "distance": null, "has_offers": false, "name": "KFC", "longitude": -84.680635, "has_menu": false, "awards": null, "user_review_count": 0}, {"business_operation_status": 1, "rating": null, "neighborhood": null, "image": null, "scorecard": null, "featured": false, "sample_categories": "Restaurants, Delis And Delicatessens, Sandwich Shops, Carry Out", "public_id": "subway-marietta-50", "id": 764879610, "votes": null, "tagline": null, "has_video": false, "website": "http://www.citysearch.com/profile/external/764879610/marietta_ga/subway.html", "offers": null, "latitude": 33.925399, "politanName": "Atlanta, GA Metro ", "phone_number": "7704225412", "tags": [{"primary": false, "id": 1727, "name": "Delis And Delicatessens"}, {"primary": false, "id": 1736, "name": "Sandwich Shops"}, {"primary": false, "id": 11247, "name": "Carry Out"}, {"primary": true, "id": 1722, "name": "Restaurants"}], "fax_number": null, "expansion": {"count": null, "uri": null}, "impression_id": "000b0000000f31c63d1bf8458d87decd1480ce96a4", "profile": "http://www.citysearch.com/profile/764879610/marietta_ga/subway.html", "address": {"city": "Marietta", "state": "GA", "street": "1135 Powder Springs St", "postal_code": "30064"}, "capProviderId": null, "distance": null, "has_offers": false, "name": "SUBWAY", "longitude": -84.573233, "has_menu": false, "awards": null, "user_review_count": 0}, {"business_operation_status": 1, "rating": null, "neighborhood": null, "image": null, "scorecard": null, "featured": false, "sample_categories": "Restaurants, Mexican", "public_id": "jalapeno-joes-dallas", "id": 775226210, "votes": null, "tagline": null, "has_video": false, "website": null, "offers": null, "latitude": 34.010309, "politanName": "Atlanta, GA Metro ", "phone_number": "6789092382", "tags": [{"primary": false, "id": 11208, "name": "Mexican"}, {"primary": true, "id": 1722, "name": "Restaurants"}], "fax_number": null, "expansion": {"count": null, "uri": null}, "impression_id": "000b0000007eb9d7275af84f608a87e68e8da45e01", "profile": "http://www.citysearch.com/profile/775226210/dallas_ga/jalapeno_joe_s.html", "address": {"city": "Dallas", "state": "GA", "street": "8876 Dallas Acworth Hwy", "postal_code": "30132"}, "capProviderId": null, "distance": null, "has_offers": false, "name": "Jalapeno Joe's", "longitude": -84.753348, "has_menu": false, "awards": null, "user_review_count": 0}, {"business_operation_status": 1, "rating": null, "neighborhood": null, "image": null, "scorecard": null, "featured": false, "sample_categories": "Restaurants, Delis And Delicatessens", "public_id": "jasons-deli-kennesaw", "id": 803500390, "votes": null, "tagline": null, "has_video": false, "website": "http://www.citysearch.com/profile/external/803500390/kennesaw_ga/jason_s_deli.html", "offers": null, "latitude": 34.003304, "politanName": "Atlanta, GA Metro ", "phone_number": "6783984000", "tags": [{"primary": false, "id": 1727, "name": "Delis And Delicatessens"}, {"primary": true, "id": 1722, "name": "Restaurants"}], "fax_number": null, "expansion": {"count": null, "uri": null}, "impression_id": "000b0000008854560aa15e42909a85f813afdcd2d0", "profile": "http://www.citysearch.com/profile/803500390/kennesaw_ga/jason_s_deli.html", "address": {"city": "Kennesaw", "state": "GA", "street": "945 Ernest W Barrett Pkwy NW", "postal_code": "30144"}, "capProviderId": null, "distance": null, "has_offers": false, "name": "Jason's Deli", "longitude": -84.578858, "has_menu": false, "awards": null, "user_review_count": 0}, {"business_operation_status": 1, "rating": null, "neighborhood": null, "image": null, "scorecard": null, "featured": false, "sample_categories": "Coffeehouses", "public_id": "insomnia-marietta", "id": 37646047, "votes": null, "tagline": null, "has_video": false, "website": null, "offers": null, "latitude": 33.948083, "politanName": "Atlanta, GA Metro ", "phone_number": "7705147442", "tags": [{"primary": true, "id": 1726, "name": "Coffeehouses"}], "fax_number": null, "expansion": {"count": null, "uri": null}, "impression_id": "000b0000005c7a37c0ae494570909d01a2c8786a01", "profile": "http://www.citysearch.com/profile/37646047/marietta_ga/insomnia.html", "address": {"city": "Marietta", "state": "GA", "street": "245 Ridgeway Rd", "postal_code": "30064"}, "capProviderId": null, "distance": null, "has_offers": false, "name": "Insomnia", "longitude": -84.626672, "has_menu": false, "awards": null, "user_review_count": 0}, {"business_operation_status": 1, "rating": null, "neighborhood": null, "image": null, "scorecard": null, "featured": false, "sample_categories": "Restaurants", "public_id": "kidz-spot-marietta", "id": 824161410, "votes": null, "tagline": null, "has_video": false, "website": null, "offers": null, "latitude": 33.903812, "politanName": "Atlanta, GA Metro ", "phone_number": "6784494499", "tags": [{"primary": true, "id": 1722, "name": "Restaurants"}], "fax_number": null, "expansion": {"count": null, "uri": null}, "impression_id": "000b00000072f5279c99b848c9aecf7e90cdead8ce", "profile": "http://www.citysearch.com/profile/824161410/marietta_ga/kidz_spot.html", "address": {"city": "Marietta", "state": "GA", "street": "2930 Maple Springs CT", "postal_code": "30064"}, "capProviderId": null, "distance": null, "has_offers": false, "name": "Kidz Spot", "longitude": -84.638869, "has_menu": false, "awards": null, "user_review_count": 0}, {"business_operation_status": 1, "rating": null, "neighborhood": null, "image": null, "scorecard": null, "featured": false, "sample_categories": "Restaurants", "public_id": "mrs-winners-chicken-bscts-kennesaw", "id": 806276160, "votes": null, "tagline": null, "has_video": false, "website": null, "offers": null, "latitude": 34.059567, "politanName": "Atlanta, GA Metro ", "phone_number": "7704274040", "tags": [{"primary": true, "id": 1722, "name": "Restaurants"}], "fax_number": null, "expansion": {"count": null, "uri": null}, "impression_id": "000b00000027fffbb914dc46b992db9524172b3789", "profile": "http://www.citysearch.com/profile/806276160/kennesaw_ga/mrs_winner_s_chicken_bscts.html", "address": {"city": "Kennesaw", "state": "GA", "street": "4383 Wade Green Rd NW", "postal_code": "30144"}, "capProviderId": null, "distance": null, "has_offers": false, "name": "Mrs Winner's Chicken & Bscts", "longitude": -84.593135, "has_menu": false, "awards": null, "user_review_count": 0}, {"business_operation_status": 1, "rating": null, "neighborhood": null, "image": null, "scorecard": null, "featured": false, "sample_categories": "Restaurants, Coffeehouses", "public_id": "peace-cafe-kennesaw", "id": 748262240, "votes": null, "tagline": null, "has_video": false, "website": null, "offers": null, "latitude": 34.042632, "politanName": "Atlanta, GA Metro ", "phone_number": "7707927880", "tags": [{"primary": false, "id": 1726, "name": "Coffeehouses"}, {"primary": true, "id": 1722, "name": "Restaurants"}], "fax_number": null, "expansion": {"count": null, "uri": null}, "impression_id": "000b000000715681d02f2e4dbca77e1e5dddcf3b12", "profile": "http://www.citysearch.com/profile/748262240/kennesaw_ga/peace_cafe.html", "address": {"city": "Kennesaw", "state": "GA", "street": "3805 Canton Pl NW", "postal_code": "30144"}, "capProviderId": null, "distance": null, "has_offers": false, "name": "Peace Cafe", "longitude": -84.584447, "has_menu": false, "awards": null, "user_review_count": 0}, {"business_operation_status": 1, "rating": 8.0, "neighborhood": null, "image": null, "scorecard": null, "featured": false, "sample_categories": "Restaurants, Pizza", "public_id": "uncle-vitos-new-york-pizza-marietta", "id": 37646046, "votes": null, "tagline": null, "has_video": false, "website": null, "offers": null, "latitude": 33.950252, "politanName": "Atlanta, GA Metro ", "phone_number": "6787668486", "tags": [{"primary": false, "id": 1722, "name": "Restaurants"}, {"primary": true, "id": 11299, "name": "Pizza"}], "fax_number": null, "expansion": {"count": null, "uri": null}, "impression_id": "000b0000001db5ed77b1744cd5b8d1bedaa637b4e6", "profile": "http://www.citysearch.com/profile/37646046/marietta_ga/uncle_vitos_new_york_pizza.html", "address": {"city": "Marietta", "state": "GA", "street": "2500 Dallas Hwy SW", "postal_code": "30064"}, "capProviderId": null, "distance": null, "has_offers": false, "name": "Uncle Vitos New York Pizza", "longitude": -84.638093, "has_menu": true, "awards": null, "user_review_count": 2}, {"business_operation_status": 1, "rating": null, "neighborhood": null, "image": null, "scorecard": null, "featured": false, "sample_categories": "Coffee & Tea Shops, Restaurants, Deordorant, Soap, Glue", "public_id": "southern-tea-llc-marietta-2", "id": 43853814, "votes": null, "tagline": null, "has_video": false, "website": null, "offers": null, "latitude": 33.983317, "politanName": "Atlanta, GA Metro ", "phone_number": "7705901221", "tags": [{"primary": false, "id": 1711, "name": "Coffee & Tea Shops"}, {"primary": false, "id": 1722, "name": "Restaurants"}, {"primary": false, "id": 23400, "name": "Deordorant"}, {"primary": false, "id": 23410, "name": "Soap"}, {"primary": false, "id": 24950, "name": "Glue"}, {"primary": false, "id": 25880, "name": "Air Fresheners"}, {"primary": false, "id": 3922, "name": "General Merchandise Stores"}, {"primary": true, "id": 11147, "name": "Tea"}], "fax_number": null, "expansion": {"count": null, "uri": null}, "impression_id": "000b000000378fcf47b99c44fa8f1ece12dbadbecf", "profile": "http://www.citysearch.com/profile/43853814/marietta_ga/southern_tea_llc.html", "address": {"city": "Marietta", "state": "GA", "street": "1491 Cobb Industrial Dr", "postal_code": "30066"}, "capProviderId": null, "distance": null, "has_offers": false, "name": "Southern Tea Llc", "longitude": -84.534242, "has_menu": false, "awards": null, "user_review_count": 1}, {"business_operation_status": 1, "rating": null, "neighborhood": null, "image": null, "scorecard": null, "featured": false, "sample_categories": "Restaurants, American Express, Discover, MasterCard, Visa", "public_id": "piezonias-restaurant-marietta", "id": 601298040, "votes": null, "tagline": null, "has_video": false, "website": null, "offers": null, "latitude": 33.967672, "politanName": "Atlanta, GA Metro ", "phone_number": "7704192188", "tags": [{"primary": false, "id": 11333, "name": "American Express"}, {"primary": false, "id": 11349, "name": "Discover"}, {"primary": false, "id": 11361, "name": "MasterCard"}, {"primary": false, "id": 11382, "name": "Visa"}, {"primary": true, "id": 1722, "name": "Restaurants"}], "fax_number": null, "expansion": {"count": null, "uri": null}, "impression_id": "000b00000060e772d725d04ef380cea45d060ba22a", "profile": "http://www.citysearch.com/profile/601298040/marietta_ga/piezonia_s_restaurant.html", "address": {"city": "Marietta", "state": "GA", "street": "3960 Mary Eliza Trce Nw", "postal_code": "30064"}, "capProviderId": null, "distance": null, "has_offers": false, "name": "Piezonia's Restaurant", "longitude": -84.667328, "has_menu": false, "awards": null, "user_review_count": 0}, {"business_operation_status": 1, "rating": null, "neighborhood": null, "image": null, "scorecard": null, "featured": false, "sample_categories": "Restaurants", "public_id": "jmc-restaurant-distribution-kennesaw", "id": 601313826, "votes": null, "tagline": null, "has_video": false, "website": "http://www.citysearch.com/profile/external/601313826/kennesaw_ga/jmc_restaurant_distribution.html", "offers": null, "latitude": 34.011176, "politanName": "Atlanta, GA Metro ", "phone_number": "7705281170", "tags": [{"primary": true, "id": 1722, "name": "Restaurants"}], "fax_number": null, "expansion": {"count": null, "uri": null}, "impression_id": "000b000000e7df3c209e1748159746a93290cdc465", "profile": "http://www.citysearch.com/profile/601313826/kennesaw_ga/jmc_restaurant_distribution.html", "address": {"city": "Kennesaw", "state": "GA", "street": "980 Cobb Place Blvd Nw # 240", "postal_code": "30144"}, "capProviderId": null, "distance": null, "has_offers": false, "name": "Jmc Restaurant Distribution", "longitude": -84.581645, "has_menu": false, "awards": null, "user_review_count": 0}, {"business_operation_status": 1, "rating": null, "neighborhood": null, "image": null, "scorecard": null, "featured": false, "sample_categories": "Restaurants, Traditional American, Carry Out, American Express, Discover", "public_id": "ruby-tuesday-acworth-2", "id": 682371990, "votes": null, "tagline": null, "has_video": false, "website": "http://www.citysearch.com/profile/external/682371990/acworth_ga/ruby_tuesday.html", "offers": null, "latitude": 34.035849, "politanName": "Atlanta, GA Metro ", "phone_number": "6785744550", "tags": [{"primary": false, "id": 11190, "name": "Traditional American"}, {"primary": false, "id": 11247, "name": "Carry Out"}, {"primary": false, "id": 11333, "name": "American Express"}, {"primary": false, "id": 11349, "name": "Discover"}, {"primary": false, "id": 11361, "name": "MasterCard"}, {"primary": false, "id": 11382, "name": "Visa"}, {"primary": true, "id": 1722, "name": "Restaurants"}], "fax_number": null, "expansion": {"count": null, "uri": null}, "impression_id": "000b00000076a7a991f1494c5c8cb5f760ce121c12", "profile": "http://www.citysearch.com/profile/682371990/acworth_ga/ruby_tuesday.html", "address": {"city": "Acworth", "state": "GA", "street": "3338 Cobb Pkwy NW", "postal_code": "30101"}, "capProviderId": null, "distance": null, "has_offers": false, "name": "Ruby Tuesday", "longitude": -84.679075, "has_menu": true, "awards": null, "user_review_count": 0}, {"business_operation_status": 1, "rating": null, "neighborhood": null, "image": null, "scorecard": null, "featured": false, "sample_categories": "Restaurants, Delis And Delicatessens, Sandwich Shops, Carry Out", "public_id": "blimpie-subs-salads-kennesaw-2", "id": 713401400, "votes": null, "tagline": null, "has_video": false, "website": "http://www.citysearch.com/profile/external/713401400/kennesaw_ga/blimpie_subs_salads.html", "offers": null, "latitude": 34.00436, "politanName": "Atlanta, GA Metro ", "phone_number": "7704245088", "tags": [{"primary": false, "id": 1727, "name": "Delis And Delicatessens"}, {"primary": false, "id": 1736, "name": "Sandwich Shops"}, {"primary": false, "id": 11247, "name": "Carry Out"}, {"primary": true, "id": 1722, "name": "Restaurants"}], "fax_number": null, "expansion": {"count": null, "uri": null}, "impression_id": "000b0000005aa4999874f440c38ea4cddbcdfd8488", "profile": "http://www.citysearch.com/profile/713401400/kennesaw_ga/blimpie_subs_salads.html", "address": {"city": "Kennesaw", "state": "GA", "street": "667 Ernest W Barrett Pkwy NW", "postal_code": "30144"}, "capProviderId": null, "distance": null, "has_offers": false, "name": "Blimpie Subs & Salads", "longitude": -84.572087, "has_menu": false, "awards": null, "user_review_count": 0}, {"business_operation_status": 1, "rating": null, "neighborhood": null, "image": null, "scorecard": null, "featured": false, "sample_categories": "Restaurants, Pizza, Carry Out", "public_id": "jets-pizza-kennesaw", "id": 713510300, "votes": null, "tagline": null, "has_video": false, "website": "http://www.citysearch.com/profile/external/713510300/kennesaw_ga/jet_s_pizza.html", "offers": null, "latitude": 34.047772, "politanName": "Atlanta, GA Metro ", "phone_number": "7704278788", "tags": [{"primary": false, "id": 1722, "name": "Restaurants"}, {"primary": false, "id": 11247, "name": "Carry Out"}, {"primary": true, "id": 11299, "name": "Pizza"}], "fax_number": null, "expansion": {"count": null, "uri": null}, "impression_id": "000b0000009fb634b98b1f4ba7b30c47abd991bf11", "profile": "http://www.citysearch.com/profile/713510300/kennesaw_ga/jet_s_pizza.html", "address": {"city": "Kennesaw", "state": "GA", "street": "4100 Jiles Rd NW", "postal_code": "30144"}, "capProviderId": null, "distance": null, "has_offers": false, "name": "Jet's Pizza", "longitude": -84.610566, "has_menu": true, "awards": null, "user_review_count": 0}, {"business_operation_status": 1, "rating": null, "neighborhood": null, "image": null, "scorecard": null, "featured": false, "sample_categories": "Restaurants", "public_id": "best-friends-cafe-incorporated-marietta", "id": 37645592, "votes": null, "tagline": null, "has_video": false, "website": null, "offers": null, "latitude": 33.951322, "politanName": "Atlanta, GA Metro ", "phone_number": "7707920506", "tags": [{"primary": true, "id": 1722, "name": "Restaurants"}], "fax_number": null, "expansion": {"count": null, "uri": null}, "impression_id": "000b00000070d878273eac4a16913e92747651d48f", "profile": "http://www.citysearch.com/profile/37645592/marietta_ga/best_friends_cafe_incorporated.html", "address": {"city": "Marietta", "state": "GA", "street": "749 Roswell St NE", "postal_code": "30060"}, "capProviderId": null, "distance": null, "has_offers": false, "name": "Best Friends Cafe Incorporated", "longitude": -84.530069, "has_menu": false, "awards": null, "user_review_count": 0}, {"business_operation_status": 1, "rating": 6.0, "neighborhood": null, "image": null, "scorecard": null, "featured": false, "sample_categories": "Restaurants, Mexican, American Express, Discover, MasterCard", "public_id": "el-taco-azteca-mexican-grille-kennesaw", "id": 43859514, "votes": null, "tagline": null, "has_video": false, "website": "http://www.citysearch.com/profile/external/43859514/kennesaw_ga/el_taco_azteca_mexican_grille.html", "offers": null, "latitude": 34.020557, "politanName": "Atlanta, GA Metro ", "phone_number": "7709191609", "tags": [{"primary": false, "id": 11208, "name": "Mexican"}, {"primary": false, "id": 11333, "name": "American Express"}, {"primary": false, "id": 11349, "name": "Discover"}, {"primary": false, "id": 11361, "name": "MasterCard"}, {"primary": false, "id": 11382, "name": "Visa"}, {"primary": true, "id": 1722, "name": "Restaurants"}], "fax_number": null, "expansion": {"count": null, "uri": null}, "impression_id": "000b000000513c91a64c294e6eafc61f41ddf9f06e", "profile": "http://www.citysearch.com/profile/43859514/kennesaw_ga/el_taco_azteca_mexican_grille.html", "address": {"city": "Kennesaw", "state": "GA", "street": "2752 S Main St NW", "postal_code": "30144"}, "capProviderId": null, "distance": null, "has_offers": false, "name": "El Taco Azteca Mexican Grille", "longitude": -84.612558, "has_menu": false, "awards": null, "user_review_count": 3}, {"business_operation_status": 1, "rating": null, "neighborhood": null, "image": null, "scorecard": null, "featured": false, "sample_categories": "Catering, Restaurants, Pizza", "public_id": "rays-new-york-pizza-kennesaw-2", "id": 653618780, "votes": null, "tagline": null, "has_video": false, "website": "http://www.citysearch.com/profile/external/653618780/kennesaw_ga/ray_s_new_york_pizza.html", "offers": null, "latitude": 34.037182, "politanName": "Atlanta, GA Metro ", "phone_number": "7704249000", "tags": [{"primary": false, "id": 1705, "name": "Catering"}, {"primary": false, "id": 1722, "name": "Restaurants"}, {"primary": true, "id": 11299, "name": "Pizza"}], "fax_number": null, "expansion": {"count": null, "uri": null}, "impression_id": "000b0000005d01ebec88f148de9d43153e3b16cf31", "profile": "http://www.citysearch.com/profile/653618780/kennesaw_ga/ray_s_new_york_pizza.html", "address": {"city": "Kennesaw", "state": "GA", "street": "600 Chastain Rd Nw", "postal_code": "30144"}, "capProviderId": null, "distance": null, "has_offers": false, "name": "Ray's New York Pizza", "longitude": -84.567518, "has_menu": false, "awards": null, "user_review_count": 0}, {"business_operation_status": 1, "rating": null, "neighborhood": null, "image": null, "scorecard": null, "featured": false, "sample_categories": "Restaurants", "public_id": "watsons-gulf-coast-seafood-acworth", "id": 672907130, "votes": null, "tagline": null, "has_video": false, "website": null, "offers": null, "latitude": 34.065933, "politanName": "Atlanta, GA Metro ", "phone_number": null, "tags": [{"primary": true, "id": 1722, "name": "Restaurants"}], "fax_number": null, "expansion": {"count": null, "uri": null}, "impression_id": "000b000000d659ce53abb341cf8c4a36ebf4315098", "profile": "http://www.citysearch.com/profile/672907130/acworth_ga/watson_s_gulf_coast_seafood.html", "address": {"city": "Acworth", "state": "GA", "street": "4416 Senator Richard B Russell Sq", "postal_code": "30101"}, "capProviderId": null, "distance": null, "has_offers": false, "name": "Watson's Gulf Coast Seafood", "longitude": -84.67688, "has_menu": false, "awards": null, "user_review_count": 0}, {"business_operation_status": 1, "rating": null, "neighborhood": null, "image": null, "scorecard": null, "featured": false, "sample_categories": "Restaurants, Pizza", "public_id": "atena-pizza-kennesaw", "id": 827581250, "votes": null, "tagline": null, "has_video": false, "website": null, "offers": null, "latitude": 34.020819, "politanName": "Atlanta, GA Metro ", "phone_number": "6787971888", "tags": [{"primary": false, "id": 1722, "name": "Restaurants"}, {"primary": true, "id": 11299, "name": "Pizza"}], "fax_number": null, "expansion": {"count": null, "uri": null}, "impression_id": "000b000000096b88eaecaf478a855ac846555bc7f5", "profile": "http://www.citysearch.com/profile/827581250/kennesaw_ga/atena_pizza.html", "address": {"city": "Kennesaw", "state": "GA", "street": "2754 S Main St NW", "postal_code": "30144"}, "capProviderId": null, "distance": null, "has_offers": false, "name": "Atena Pizza", "longitude": -84.613657, "has_menu": false, "awards": null, "user_review_count": 0}, {"business_operation_status": 1, "rating": null, "neighborhood": null, "image": null, "scorecard": null, "featured": false, "sample_categories": "Restaurants", "public_id": "darbys-run-hoa-hiram", "id": 751321720, "votes": null, "tagline": null, "has_video": false, "website": null, "offers": null, "latitude": 33.89367, "politanName": "Atlanta, GA Metro ", "phone_number": "7702228881", "tags": [{"primary": true, "id": 1722, "name": "Restaurants"}], "fax_number": null, "expansion": {"count": null, "uri": null}, "impression_id": "000b000000db6324d71b02466eba0fdd09a99c466f", "profile": "http://www.citysearch.com/profile/751321720/hiram_ga/darbys_run_hoa.html", "address": {"city": "Hiram", "state": "GA", "street": "99 Darbys Run Dr", "postal_code": "30141"}, "capProviderId": null, "distance": null, "has_offers": false, "name": "Darbys Run HOA", "longitude": -84.78156, "has_menu": false, "awards": null, "user_review_count": 0}, {"business_operation_status": 1, "rating": null, "neighborhood": null, "image": null, "scorecard": null, "featured": false, "sample_categories": "Restaurants", "public_id": "yoland-trade-co-marietta", "id": 766788970, "votes": null, "tagline": null, "has_video": false, "website": null, "offers": null, "latitude": 34.017093, "politanName": "Atlanta, GA Metro ", "phone_number": "7705651995", "tags": [{"primary": true, "id": 1722, "name": "Restaurants"}], "fax_number": null, "expansion": {"count": null, "uri": null}, "impression_id": "000b000000bcf5a366971b45a195cb47a661c931ef", "profile": "http://www.citysearch.com/profile/766788970/marietta_ga/yoland_trade_co.html", "address": {"city": "Marietta", "state": "GA", "street": "2731 Sandy Plains Rd # A", "postal_code": "30066"}, "capProviderId": null, "distance": null, "has_offers": false, "name": "Yoland Trade Co", "longitude": -84.492328, "has_menu": false, "awards": null, "user_review_count": 0}, {"business_operation_status": 1, "rating": null, "neighborhood": null, "image": null, "scorecard": null, "featured": false, "sample_categories": "Restaurants, Mexican, Carry Out", "public_id": "taco-bell-marietta-10", "id": 775210570, "votes": null, "tagline": null, "has_video": false, "website": "http://www.citysearch.com/profile/external/775210570/marietta_ga/taco_bell.html", "offers": null, "latitude": 33.924583, "politanName": "Atlanta, GA Metro ", "phone_number": "7705907481", "tags": [{"primary": false, "id": 11208, "name": "Mexican"}, {"primary": false, "id": 11247, "name": "Carry Out"}, {"primary": true, "id": 1722, "name": "Restaurants"}], "fax_number": null, "expansion": {"count": null, "uri": null}, "impression_id": "000b0000001f3e20f39ae6418b9a067af349667269", "profile": "http://www.citysearch.com/profile/775210570/marietta_ga/taco_bell.html", "address": {"city": "Marietta", "state": "GA", "street": "1180 Powder Springs St", "postal_code": "30064"}, "capProviderId": null, "distance": null, "has_offers": false, "name": "Taco Bell", "longitude": -84.575231, "has_menu": false, "awards": null, "user_review_count": 0}, {"business_operation_status": 1, "rating": null, "neighborhood": null, "image": null, "scorecard": null, "featured": false, "sample_categories": "Restaurants", "public_id": "pressed-marietta", "id": 787100030, "votes": null, "tagline": null, "has_video": false, "website": null, "offers": null, "latitude": 33.952269, "politanName": "Atlanta, GA Metro ", "phone_number": "7704853759", "tags": [{"primary": true, "id": 1722, "name": "Restaurants"}], "fax_number": null, "expansion": {"count": null, "uri": null}, "impression_id": "000b000000b260d100f6714b209916ec2f74979682", "profile": "http://www.citysearch.com/profile/787100030/marietta_ga/pressed.html", "address": {"city": "Marietta", "state": "GA", "street": "30 S Park Sq Ne", "postal_code": "30060"}, "capProviderId": null, "distance": null, "has_offers": false, "name": "Pressed", "longitude": -84.550109, "has_menu": false, "awards": null, "user_review_count": 0}, {"business_operation_status": 1, "rating": null, "neighborhood": null, "image": null, "scorecard": null, "featured": false, "sample_categories": "Restaurants, Pizza, Carry Out", "public_id": "c-c-pizza-acworth", "id": 790666570, "votes": null, "tagline": null, "has_video": false, "website": null, "offers": null, "latitude": 34.065933, "politanName": "Atlanta, GA Metro ", "phone_number": "7704253661", "tags": [{"primary": false, "id": 1722, "name": "Restaurants"}, {"primary": false, "id": 11247, "name": "Carry Out"}, {"primary": true, "id": 11299, "name": "Pizza"}], "fax_number": null, "expansion": {"count": null, "uri": null}, "impression_id": "000b0000001fdb85de66f447888f52466516bfb317", "profile": "http://www.citysearch.com/profile/790666570/acworth_ga/c_c_pizza.html", "address": {"city": "Acworth", "state": "GA", "street": "Po Box 801016", "postal_code": "30101"}, "capProviderId": null, "distance": null, "has_offers": false, "name": "C C Pizza", "longitude": -84.67688, "has_menu": false, "awards": null, "user_review_count": 0}], "histograms": [], "tag_ids": [1722], "uri": "http://api.citygridmedia.com:8080/search/places/v2/search/where?has_offers=false&type=restaurant&format=json&page=19&where=30152&rpp=50&histograms=false&publisher=10000009598&region_type=circle", "did_you_mean": "", "regions": [{"latitude": 33.994142, "default_radius": 4.59, "type": "postal_code", "name": "30152", "longitude": -84.64478199999999}], "call_id": "000b0000009192b14c6cd2465b803b534e80ddc009", "first_hit": 901, "total_hits": 1364, "geo_ids": [26314], "page": 19, "last_hit": 950}}