{"results": {"rpp": 50, "locations": [{"business_operation_status": 1, "rating": null, "neighborhood": null, "image": null, "scorecard": null, "featured": false, "sample_categories": "Restaurants, Bars & Clubs", "public_id": "cave-tapas-bar-and-lounge-kennesaw", "id": 672692320, "votes": null, "tagline": null, "has_video": false, "website": null, "offers": null, "latitude": 33.991946, "politanName": "Atlanta, GA Metro ", "phone_number": "6783917011", "tags": [{"primary": false, "id": 164, "name": "Bars & Clubs"}, {"primary": true, "id": 1722, "name": "Restaurants"}], "fax_number": null, "expansion": {"count": null, "uri": null}, "impression_id": "000b0000005271ec6b1bba4e089548b6a53fee95af", "profile": "http://www.citysearch.com/profile/672692320/kennesaw_ga/cave_tapas_bar_and_lounge.html", "address": {"city": "Kennesaw", "state": "GA", "street": "1619 Collins Rd NW", "postal_code": "30152"}, "capProviderId": null, "distance": null, "has_offers": false, "name": "Cave Tapas Bar and Lounge", "longitude": -84.59912, "has_menu": false, "awards": null, "user_review_count": 0}, {"business_operation_status": 1, "rating": null, "neighborhood": null, "image": null, "scorecard": null, "featured": false, "sample_categories": "Doughnut Shops, Coffeehouses", "public_id": "dunkin-doughnuts-kennesaw", "id": 713552210, "votes": null, "tagline": null, "has_video": false, "website": "http://www.citysearch.com/profile/external/713552210/kennesaw_ga/dunkin_doughnuts.html", "offers": null, "latitude": 34.032508, "politanName": "Atlanta, GA Metro ", "phone_number": "7709749717", "tags": [{"primary": false, "id": 1726, "name": "Coffeehouses"}, {"primary": true, "id": 1734, "name": "Doughnut Shops"}], "fax_number": null, "expansion": {"count": null, "uri": null}, "impression_id": "000b00000062dc3590ccbe487fa509081c4d696eff", "profile": "http://www.citysearch.com/profile/713552210/kennesaw_ga/dunkin_doughnuts.html", "address": {"city": "Kennesaw", "state": "GA", "street": "3160 Cobb Pkwy NW", "postal_code": "30152"}, "capProviderId": null, "distance": null, "has_offers": false, "name": "Dunkin Doughnuts", "longitude": -84.673299, "has_menu": false, "awards": null, "user_review_count": 0}, {"business_operation_status": 1, "rating": null, "neighborhood": null, "image": null, "scorecard": null, "featured": false, "sample_categories": "Restaurants, Catering, Carry Out, Italian, Pizza", "public_id": "marietta-pizza-hdk-inc-marietta", "id": 739063740, "votes": null, "tagline": null, "has_video": false, "website": null, "offers": null, "latitude": 33.967002, "politanName": "Atlanta, GA Metro ", "phone_number": "6783240028", "tags": [{"primary": false, "id": 1705, "name": "Catering"}, {"primary": false, "id": 11247, "name": "Carry Out"}, {"primary": false, "id": 11279, "name": "Italian"}, {"primary": false, "id": 11299, "name": "Pizza"}, {"primary": true, "id": 1722, "name": "Restaurants"}], "fax_number": null, "expansion": {"count": null, "uri": null}, "impression_id": "000b000000eed882c4b6914ca4b491c5441b0857f9", "profile": "http://www.citysearch.com/profile/739063740/marietta_ga/marietta_pizza_hdk_inc.html", "address": {"city": "Marietta", "state": "GA", "street": "3901 Mary Eliza Trce NW", "postal_code": "30064"}, "capProviderId": null, "distance": null, "has_offers": false, "name": "Marietta Pizza Hdk INC", "longitude": -84.665443, "has_menu": true, "awards": null, "user_review_count": 0}, {"business_operation_status": 1, "rating": null, "neighborhood": null, "image": null, "scorecard": null, "featured": false, "sample_categories": "Restaurants", "public_id": "okinawa-restaurant-marietta", "id": 739065820, "votes": null, "tagline": null, "has_video": false, "website": null, "offers": null, "latitude": 33.953523, "politanName": "Atlanta, GA Metro ", "phone_number": "7702180982", "tags": [{"primary": true, "id": 1722, "name": "Restaurants"}], "fax_number": null, "expansion": {"count": null, "uri": null}, "impression_id": "000b0000006ce87dfaa99a46568abca8aba4d920a1", "profile": "http://www.citysearch.com/profile/739065820/marietta_ga/okinawa_restaurant.html", "address": {"city": "Marietta", "state": "GA", "street": "3718 Dallas Hwy SW", "postal_code": "30064"}, "capProviderId": null, "distance": null, "has_offers": false, "name": "Okinawa Restaurant", "longitude": -84.661012, "has_menu": false, "awards": null, "user_review_count": 0}, {"business_operation_status": 1, "rating": null, "neighborhood": null, "image": null, "scorecard": null, "featured": false, "sample_categories": "Restaurants, Cafes", "public_id": "reveille-cafe-acworth", "id": 751333550, "votes": null, "tagline": null, "has_video": false, "website": null, "offers": null, "latitude": 33.998289, "politanName": "Atlanta, GA Metro ", "phone_number": "7706351900", "tags": [{"primary": false, "id": 6190, "name": "Cafes"}, {"primary": true, "id": 1722, "name": "Restaurants"}], "fax_number": null, "expansion": {"count": null, "uri": null}, "impression_id": "000b000000af56db7be4784c5880c6deea080e728a", "profile": "http://www.citysearch.com/profile/751333550/acworth_ga/reveille_cafe.html", "address": {"city": "Acworth", "state": "GA", "street": "5330 Brookstone Dr NW # 210", "postal_code": "30101"}, "capProviderId": null, "distance": null, "has_offers": false, "name": "Reveille Cafe", "longitude": -84.710018, "has_menu": false, "awards": null, "user_review_count": 0}, {"business_operation_status": 1, "rating": null, "neighborhood": null, "image": null, "scorecard": null, "featured": false, "sample_categories": "Restaurants", "public_id": "fletchers-inc-dallas", "id": 773449230, "votes": null, "tagline": null, "has_video": false, "website": null, "offers": null, "latitude": 33.959616, "politanName": "Atlanta, GA Metro ", "phone_number": "7709438067", "tags": [{"primary": true, "id": 1722, "name": "Restaurants"}], "fax_number": null, "expansion": {"count": null, "uri": null}, "impression_id": "000b0000008874ac336a274b8e804f5c6e82592f61", "profile": "http://www.citysearch.com/profile/773449230/dallas_ga/fletchers_inc.html", "address": {"city": "Dallas", "state": "GA", "street": "4986 Hiram Acworth Hwy", "postal_code": "30157"}, "capProviderId": null, "distance": null, "has_offers": false, "name": "Fletchers Inc", "longitude": -84.739425, "has_menu": false, "awards": null, "user_review_count": 0}, {"business_operation_status": 1, "rating": null, "neighborhood": null, "image": null, "scorecard": null, "featured": false, "sample_categories": "Restaurants, Pizza", "public_id": "chicago-dough-pizza-factory-kennesaw", "id": 812159770, "votes": null, "tagline": null, "has_video": false, "website": null, "offers": null, "latitude": 34.048653, "politanName": "Atlanta, GA Metro ", "phone_number": "6787971888", "tags": [{"primary": false, "id": 1722, "name": "Restaurants"}, {"primary": true, "id": 11299, "name": "Pizza"}], "fax_number": null, "expansion": {"count": null, "uri": null}, "impression_id": "000b000000a29fee873b5f40dc87decb12786f0518", "profile": "http://www.citysearch.com/profile/812159770/kennesaw_ga/chicago_dough_pizza_factory.html", "address": {"city": "Kennesaw", "state": "GA", "street": "3875 Cherokee St NW", "postal_code": "30144"}, "capProviderId": null, "distance": null, "has_offers": false, "name": "Chicago Dough Pizza Factory", "longitude": -84.598621, "has_menu": false, "awards": null, "user_review_count": 0}, {"business_operation_status": 1, "rating": null, "neighborhood": null, "image": null, "scorecard": null, "featured": false, "sample_categories": "Restaurants", "public_id": "great-panda-restaurant-marietta", "id": 814222940, "votes": null, "tagline": null, "has_video": false, "website": null, "offers": null, "latitude": 33.953111, "politanName": "Atlanta, GA Metro ", "phone_number": "7704282831", "tags": [{"primary": true, "id": 1722, "name": "Restaurants"}], "fax_number": null, "expansion": {"count": null, "uri": null}, "impression_id": "000b0000005b3f8c35105d4317bd47ef0b8092521b", "profile": "http://www.citysearch.com/profile/814222940/marietta_ga/great_panda_restaurant.html", "address": {"city": "Marietta", "state": "GA", "street": "1000 Whitlock Ave NW", "postal_code": "30064"}, "capProviderId": null, "distance": null, "has_offers": false, "name": "Great Panda Restaurant", "longitude": -84.581272, "has_menu": false, "awards": null, "user_review_count": 0}, {"business_operation_status": 1, "rating": null, "neighborhood": null, "image": null, "scorecard": null, "featured": false, "sample_categories": "Restaurants, Delis And Delicatessens, Sandwich Shops, Carry Out, Soups", "public_id": "subway-dallas-52", "id": 45113329, "votes": null, "tagline": null, "has_video": false, "website": "http://www.citysearch.com/profile/external/45113329/dallas_ga/subway.html", "offers": null, "latitude": 33.935025, "politanName": "Atlanta, GA Metro ", "phone_number": "7704452131", "tags": [{"primary": false, "id": 1727, "name": "Delis And Delicatessens"}, {"primary": false, "id": 1736, "name": "Sandwich Shops"}, {"primary": false, "id": 11247, "name": "Carry Out"}, {"primary": false, "id": 11311, "name": "Soups"}, {"primary": true, "id": 1722, "name": "Restaurants"}], "fax_number": null, "expansion": {"count": null, "uri": null}, "impression_id": "000b00000085fdd4f5fb644760bd6a8a8bd5513093", "profile": "http://www.citysearch.com/profile/45113329/dallas_ga/subway.html", "address": {"city": "Dallas", "state": "GA", "street": "3615 Marietta Hwy", "postal_code": "30157"}, "capProviderId": null, "distance": null, "has_offers": false, "name": "Subway", "longitude": -84.73087, "has_menu": true, "awards": null, "user_review_count": 0}, {"business_operation_status": 1, "rating": null, "neighborhood": null, "image": null, "scorecard": null, "featured": false, "sample_categories": "Restaurants", "public_id": "p-js-kennesaw", "id": 815756710, "votes": null, "tagline": null, "has_video": false, "website": null, "offers": null, "latitude": 34.035079, "politanName": "Atlanta, GA Metro ", "phone_number": "7704235939", "tags": [{"primary": true, "id": 1722, "name": "Restaurants"}], "fax_number": null, "expansion": {"count": null, "uri": null}, "impression_id": "000b00000009c6cc64016342e38c19d74c625d4d9d", "profile": "http://www.citysearch.com/profile/815756710/kennesaw_ga/p_j_s.html", "address": {"city": "Kennesaw", "state": "GA", "street": "3400 Busbee Dr NW", "postal_code": "30144"}, "capProviderId": null, "distance": null, "has_offers": false, "name": "P J's", "longitude": -84.574368, "has_menu": false, "awards": null, "user_review_count": 0}, {"business_operation_status": 1, "rating": null, "neighborhood": null, "image": null, "scorecard": null, "featured": false, "sample_categories": "Restaurants", "public_id": "planet-smoothie-marietta-8", "id": 819890580, "votes": null, "tagline": null, "has_video": false, "website": null, "offers": null, "latitude": 33.947326, "politanName": "Atlanta, GA Metro ", "phone_number": "7704272700", "tags": [{"primary": true, "id": 1722, "name": "Restaurants"}], "fax_number": null, "expansion": {"count": null, "uri": null}, "impression_id": "000b000000b2866557c3734ad3a212239a68a0267c", "profile": "http://www.citysearch.com/profile/819890580/marietta_ga/planet_smoothie.html", "address": {"city": "Marietta", "state": "GA", "street": "3451 Barrett Pkwy NW # 145", "postal_code": "30064"}, "capProviderId": null, "distance": null, "has_offers": false, "name": "Planet Smoothie", "longitude": -84.622965, "has_menu": false, "awards": null, "user_review_count": 0}, {"business_operation_status": 1, "rating": null, "neighborhood": null, "image": null, "scorecard": null, "featured": false, "sample_categories": "Restaurants", "public_id": "tom-chee-kennesaw", "id": 626960404, "votes": null, "tagline": null, "has_video": false, "website": null, "offers": null, "latitude": 34.000514, "politanName": "Atlanta, GA Metro ", "phone_number": "6784988321", "tags": [{"primary": true, "id": 1722, "name": "Restaurants"}], "fax_number": null, "expansion": {"count": null, "uri": null}, "impression_id": "000b000000f58f9a191bd348f98224d49d35fa5a14", "profile": "http://www.citysearch.com/profile/626960404/kennesaw_ga/tom_chee.html", "address": {"city": "Kennesaw", "state": "GA", "street": "1200 Ernest W Barrett Pkwy NW 208", "postal_code": "30144"}, "capProviderId": null, "distance": null, "has_offers": false, "name": "Tom + Chee", "longitude": -84.587423, "has_menu": false, "awards": null, "user_review_count": 0}, {"business_operation_status": 1, "rating": null, "neighborhood": null, "image": null, "scorecard": null, "featured": false, "sample_categories": "Restaurants", "public_id": "saporitos-kennesaw", "id": 682453180, "votes": null, "tagline": null, "has_video": false, "website": null, "offers": null, "latitude": 33.999345, "politanName": "Atlanta, GA Metro ", "phone_number": "7704251970", "tags": [{"primary": true, "id": 1722, "name": "Restaurants"}], "fax_number": null, "expansion": {"count": null, "uri": null}, "impression_id": "000b0000005bf72449ee8e4ff3a476493819f348bc", "profile": "http://www.citysearch.com/profile/682453180/kennesaw_ga/saporito_s.html", "address": {"city": "Kennesaw", "state": "GA", "street": "1200 Ernest W Barrett Pkwy NW", "postal_code": "30144"}, "capProviderId": null, "distance": null, "has_offers": false, "name": "Saporito's", "longitude": -84.586888, "has_menu": false, "awards": null, "user_review_count": 0}, {"business_operation_status": 1, "rating": null, "neighborhood": null, "image": null, "scorecard": null, "featured": false, "sample_categories": "Restaurants, Carry Out, Hamburgers", "public_id": "five-guys-burgers-fries-atlanta-6", "id": 622023500, "votes": null, "tagline": null, "has_video": false, "website": "http://www.citysearch.com/profile/external/622023500/atlanta_ga/five_guys_burgers_fries.html", "offers": null, "latitude": 33.894565, "politanName": "Atlanta, GA Metro ", "phone_number": "4046296577", "tags": [{"primary": false, "id": 11247, "name": "Carry Out"}, {"primary": false, "id": 11270, "name": "Hamburgers"}, {"primary": true, "id": 1722, "name": "Restaurants"}], "fax_number": null, "expansion": {"count": null, "uri": null}, "impression_id": "000b000000faef1b703c414fc99af4d61c1aeb2e47", "profile": "http://www.citysearch.com/profile/622023500/atlanta_ga/five_guys_burgers_fries.html", "address": {"city": "Atlanta", "state": "GA", "street": "2400 Herodian Way", "postal_code": "30331"}, "capProviderId": null, "distance": null, "has_offers": false, "name": "Five Guys Burgers & Fries", "longitude": -84.472334, "has_menu": false, "awards": null, "user_review_count": 0}, {"business_operation_status": 1, "rating": null, "neighborhood": null, "image": null, "scorecard": null, "featured": false, "sample_categories": "Restaurants", "public_id": "thai-surak-thai-restaurant-kennesaw", "id": 806598640, "votes": null, "tagline": null, "has_video": false, "website": null, "offers": null, "latitude": 34.025304, "politanName": "Atlanta, GA Metro ", "phone_number": "6785811888", "tags": [{"primary": true, "id": 1722, "name": "Restaurants"}], "fax_number": null, "expansion": {"count": null, "uri": null}, "impression_id": "000b0000008c82ea3b011b47389bed0c957172f812", "profile": "http://www.citysearch.com/profile/806598640/kennesaw_ga/thai_surak_thai_restaurant.html", "address": {"city": "Kennesaw", "state": "GA", "street": "2950 George Busbee Pkwy NW", "postal_code": "30144"}, "capProviderId": null, "distance": null, "has_offers": false, "name": "Thai Surak Thai Restaurant", "longitude": -84.5671, "has_menu": false, "awards": null, "user_review_count": 0}, {"business_operation_status": 1, "rating": null, "neighborhood": null, "image": null, "scorecard": null, "featured": false, "sample_categories": "Restaurants", "public_id": "buffalos-southwest-cafe-kennesaw-2", "id": 808032200, "votes": null, "tagline": null, "has_video": false, "website": "http://www.citysearch.com/profile/external/808032200/kennesaw_ga/buffalo_s_southwest_cafe.html", "offers": null, "latitude": 33.99979, "politanName": "Atlanta, GA Metro ", "phone_number": "7704249464", "tags": [{"primary": true, "id": 1722, "name": "Restaurants"}], "fax_number": null, "expansion": {"count": null, "uri": null}, "impression_id": "000b0000008a5f4b9937784de6bb3fdd8b1a3ff018", "profile": "http://www.citysearch.com/profile/808032200/kennesaw_ga/buffalo_s_southwest_cafe.html", "address": {"city": "Kennesaw", "state": "GA", "street": "1200 Ernest W Barrett Pkwy NW", "postal_code": "30144"}, "capProviderId": null, "distance": null, "has_offers": false, "name": "Buffalo's Southwest Cafe", "longitude": -84.585399, "has_menu": false, "awards": null, "user_review_count": 0}, {"business_operation_status": 1, "rating": null, "neighborhood": null, "image": null, "scorecard": null, "featured": false, "sample_categories": "Restaurants, Food Delivery, Pizza", "public_id": "peace-love-pizzamarietta-marietta", "id": 801118720, "votes": null, "tagline": null, "has_video": false, "website": null, "offers": null, "latitude": 33.96754, "politanName": "Atlanta, GA Metro ", "phone_number": "7703215000", "tags": [{"primary": false, "id": 11267, "name": "Food Delivery"}, {"primary": false, "id": 11299, "name": "Pizza"}, {"primary": true, "id": 1722, "name": "Restaurants"}], "fax_number": null, "expansion": {"count": null, "uri": null}, "impression_id": "000b00000097e15ec45e6c4d538b096111f42e58a2", "profile": "http://www.citysearch.com/profile/801118720/marietta_ga/peace_love_and_pizza.html", "address": {"city": "Marietta", "state": "GA", "street": "3960 Mary Eliza Trce NW 1100", "postal_code": "30064"}, "capProviderId": null, "distance": null, "has_offers": false, "name": "Peace Love and Pizza", "longitude": -84.667248, "has_menu": false, "awards": null, "user_review_count": 0}, {"business_operation_status": 1, "rating": null, "neighborhood": null, "image": null, "scorecard": null, "featured": false, "sample_categories": "Restaurants", "public_id": "comida-marietta", "id": 810200100, "votes": null, "tagline": null, "has_video": false, "website": null, "offers": null, "latitude": 33.952164, "politanName": "Atlanta, GA Metro ", "phone_number": "6782130707", "tags": [{"primary": true, "id": 1722, "name": "Restaurants"}], "fax_number": null, "expansion": {"count": null, "uri": null}, "impression_id": "000b00000024aba1ff67dd401f9f4a1035030b5e18", "profile": "http://www.citysearch.com/profile/810200100/marietta_ga/comida.html", "address": {"city": "Marietta", "state": "GA", "street": "3625 Dallas Hwy SW", "postal_code": "30064"}, "capProviderId": null, "distance": null, "has_offers": false, "name": "Comida", "longitude": -84.657799, "has_menu": false, "awards": null, "user_review_count": 0}, {"business_operation_status": 1, "rating": null, "neighborhood": null, "image": null, "scorecard": null, "featured": false, "sample_categories": "Restaurants", "public_id": "reagans-kennesaw", "id": 817217110, "votes": null, "tagline": null, "has_video": false, "website": null, "offers": null, "latitude": 34.023434, "politanName": "Atlanta, GA Metro ", "phone_number": "7704261010", "tags": [{"primary": true, "id": 1722, "name": "Restaurants"}], "fax_number": null, "expansion": {"count": null, "uri": null}, "impression_id": "000b000000d6b4b07692ad41b4a5896a7b0f41211a", "profile": "http://www.citysearch.com/profile/817217110/kennesaw_ga/reagan_s.html", "address": {"city": "Kennesaw", "state": "GA", "street": "3900 Leg Pk Blvd NW # B100", "postal_code": "30144"}, "capProviderId": null, "distance": null, "has_offers": false, "name": "Reagan's", "longitude": -84.61549, "has_menu": false, "awards": null, "user_review_count": 0}, {"business_operation_status": 1, "rating": null, "neighborhood": null, "image": null, "scorecard": null, "featured": false, "sample_categories": "Catering, Restaurants, Barbecue Restaurants, Carry Out, Family Style Dining", "public_id": "as-sonnys-real-pit-barbq", "id": 793392090, "votes": null, "tagline": null, "has_video": false, "website": null, "offers": null, "latitude": null, "politanName": null, "phone_number": "7703681653", "tags": [{"primary": false, "id": 1705, "name": "Catering"}, {"primary": false, "id": 1722, "name": "Restaurants"}, {"primary": false, "id": 1724, "name": "Barbecue Restaurants"}, {"primary": false, "id": 11262, "name": "Family Style Dining"}, {"primary": true, "id": 11247, "name": "Carry Out"}], "fax_number": null, "expansion": {"count": null, "uri": null}, "impression_id": "000b000000fc315450e35f48a8a23460afea56691b", "profile": "http://www.citysearch.com/profile/793392090/sonny_s_real_pit_bar_b_q.html", "address": {"city": null, "state": null, "street": null, "postal_code": null}, "capProviderId": null, "distance": null, "has_offers": false, "name": "Sonny's Real Pit Bar-B-Q", "longitude": null, "has_menu": false, "awards": null, "user_review_count": 0}, {"business_operation_status": 1, "rating": null, "neighborhood": null, "image": null, "scorecard": null, "featured": false, "sample_categories": "Catering, Personal Chefs, Computer & Internet Services, Wedding Cakes, Seafood", "public_id": "as-glamacook-oad", "id": 801975680, "votes": null, "tagline": null, "has_video": false, "website": null, "offers": null, "latitude": null, "politanName": null, "phone_number": "4043451924", "tags": [{"primary": false, "id": 1705, "name": "Catering"}, {"primary": false, "id": 3534, "name": "Personal Chefs"}, {"primary": false, "id": 674, "name": "Computer & Internet Services"}, {"primary": false, "id": 11057, "name": "Wedding Cakes"}, {"primary": false, "id": 11228, "name": "Seafood"}, {"primary": true, "id": 11267, "name": "Food Delivery"}], "fax_number": null, "expansion": {"count": null, "uri": null}, "impression_id": "000b000000012a7773e3b0483a803e52eb6becfe6b", "profile": "http://www.citysearch.com/profile/801975680/_oad_ga/glamacook.html", "address": {"city": "(Oad)", "state": "GA", "street": null, "postal_code": "30032"}, "capProviderId": null, "distance": null, "has_offers": false, "name": "GlamaCook", "longitude": null, "has_menu": false, "awards": null, "user_review_count": 0}], "histograms": [], "tag_ids": [1722], "uri": "http://api.citygridmedia.com:8080/search/places/v2/search/where?has_offers=false&type=restaurant&format=json&page=8&where=30156&rpp=50&histograms=false&publisher=10000009598&region_type=circle", "did_you_mean": "", "regions": [{"latitude": 33.9919, "default_radius": 0.25, "type": "postal_code", "name": "30156", "longitude": -84.6543}], "call_id": "000b000000a7aadda255eb48c3bde278818e84ac67", "first_hit": 351, "total_hits": 371, "geo_ids": [137052], "page": 8, "last_hit": 371}}