{"results": {"rpp": 50, "locations": [{"business_operation_status": 1, "rating": null, "neighborhood": null, "image": null, "scorecard": null, "featured": false, "sample_categories": "Restaurants", "public_id": "sarku-japan-kennesaw", "id": 820884340, "votes": null, "tagline": null, "has_video": false, "website": null, "offers": null, "latitude": 34.017369, "politanName": "Atlanta, GA Metro ", "phone_number": "7702189700", "tags": [{"primary": true, "id": 1722, "name": "Restaurants"}], "fax_number": null, "expansion": {"count": null, "uri": null}, "impression_id": "000b0000001886032d90f24046928b20dc6f9f9b66", "profile": "http://www.citysearch.com/profile/820884340/kennesaw_ga/sarku_japan.html", "address": {"city": "Kennesaw", "state": "GA", "street": "400 Ernest W Barrett Pkwy NW", "postal_code": "30144"}, "capProviderId": null, "distance": null, "has_offers": false, "name": "Sarku Japan", "longitude": -84.564255, "has_menu": true, "awards": null, "user_review_count": 0}, {"business_operation_status": 1, "rating": null, "neighborhood": null, "image": null, "scorecard": null, "featured": false, "sample_categories": "Restaurants, Chicken", "public_id": "rotisserie-shop-kennesaw", "id": 786376760, "votes": null, "tagline": null, "has_video": false, "website": null, "offers": null, "latitude": 34.013172, "politanName": "Atlanta, GA Metro ", "phone_number": "6785408244", "tags": [{"primary": false, "id": 12839, "name": "Chicken"}, {"primary": true, "id": 1722, "name": "Restaurants"}], "fax_number": null, "expansion": {"count": null, "uri": null}, "impression_id": "000b0000003e922312547a46b4955776f44391798b", "profile": "http://www.citysearch.com/profile/786376760/kennesaw_ga/rotisserie_shop.html", "address": {"city": "Kennesaw", "state": "GA", "street": "2615 George Busbee Pkwy NW", "postal_code": "30144"}, "capProviderId": null, "distance": null, "has_offers": false, "name": "Rotisserie Shop", "longitude": -84.567215, "has_menu": false, "awards": null, "user_review_count": 0}, {"business_operation_status": 1, "rating": null, "neighborhood": null, "image": null, "scorecard": null, "featured": false, "sample_categories": "Restaurants", "public_id": "vito-goldbergs-marietta", "id": 814374650, "votes": null, "tagline": null, "has_video": false, "website": "http://www.citysearch.com/profile/external/814374650/marietta_ga/vito_goldberg_s.html", "offers": null, "latitude": 33.951001, "politanName": "Atlanta, GA Metro ", "phone_number": "7707958631", "tags": [{"primary": true, "id": 1722, "name": "Restaurants"}], "fax_number": null, "expansion": {"count": null, "uri": null}, "impression_id": "000b000000135008243f1040699f8e92ba071656a8", "profile": "http://www.citysearch.com/profile/814374650/marietta_ga/vito_goldberg_s.html", "address": {"city": "Marietta", "state": "GA", "street": "999 Whitlock Ave SW", "postal_code": "30064"}, "capProviderId": null, "distance": null, "has_offers": false, "name": "Vito Goldberg's", "longitude": -84.57917, "has_menu": false, "awards": null, "user_review_count": 0}, {"business_operation_status": 1, "rating": null, "neighborhood": null, "image": null, "scorecard": null, "featured": false, "sample_categories": "Catering, Restaurants, Sandwich Shops, Ham, Pork", "public_id": "honeybaked-ham-marietta-2", "id": 45112957, "votes": null, "tagline": null, "has_video": false, "website": "http://www.citysearch.com/profile/external/45112957/marietta_ga/honeybaked_ham.html", "offers": null, "latitude": 33.944997, "politanName": "Atlanta, GA Metro ", "phone_number": "7707950196", "tags": [{"primary": false, "id": 1705, "name": "Catering"}, {"primary": false, "id": 1722, "name": "Restaurants"}, {"primary": false, "id": 1736, "name": "Sandwich Shops"}, {"primary": false, "id": 11125, "name": "Pork"}, {"primary": false, "id": 11333, "name": "American Express"}, {"primary": false, "id": 11347, "name": "Debit Card"}, {"primary": false, "id": 11349, "name": "Discover"}, {"primary": false, "id": 11361, "name": "MasterCard"}, {"primary": false, "id": 11382, "name": "Visa"}, {"primary": true, "id": 11124, "name": "Ham"}], "fax_number": null, "expansion": {"count": null, "uri": null}, "impression_id": "000b0000006b604f35792146d5af13af20dd1ec776", "profile": "http://www.citysearch.com/profile/45112957/marietta_ga/honeybaked_ham.html", "address": {"city": "Marietta", "state": "GA", "street": "3405 Dallas Hwy SW 408", "postal_code": "30064"}, "capProviderId": null, "distance": null, "has_offers": false, "name": "Honeybaked Ham", "longitude": -84.623325, "has_menu": true, "awards": null, "user_review_count": 0}, {"business_operation_status": 1, "rating": null, "neighborhood": null, "image": null, "scorecard": null, "featured": false, "sample_categories": "Restaurants", "public_id": "ernies-steakhouse-acworth", "id": 823081000, "votes": null, "tagline": null, "has_video": false, "website": null, "offers": null, "latitude": 34.03595, "politanName": "Atlanta, GA Metro ", "phone_number": "7709746186", "tags": [{"primary": true, "id": 1722, "name": "Restaurants"}], "fax_number": null, "expansion": {"count": null, "uri": null}, "impression_id": "000b0000003b052188f6ae4f8b9de94162e625310d", "profile": "http://www.citysearch.com/profile/823081000/acworth_ga/ernies_steakhouse.html", "address": {"city": "Acworth", "state": "GA", "street": "3330 Cobb Pkwy NW # 100", "postal_code": "30101"}, "capProviderId": null, "distance": null, "has_offers": false, "name": "Ernies Steakhouse", "longitude": -84.676991, "has_menu": false, "awards": null, "user_review_count": 0}, {"business_operation_status": 1, "rating": null, "neighborhood": null, "image": null, "scorecard": null, "featured": false, "sample_categories": "Restaurants, Sandwich Shops, Gourmet Foods, Organic Foods, Hamburgers", "public_id": "yumm-burger-marietta", "id": 793386180, "votes": null, "tagline": null, "has_video": false, "website": "http://www.citysearch.com/profile/external/793386180/marietta_ga/yumm_burger.html", "offers": null, "latitude": 33.967001, "politanName": "Atlanta, GA Metro ", "phone_number": "7704855681", "tags": [{"primary": false, "id": 1736, "name": "Sandwich Shops"}, {"primary": false, "id": 11169, "name": "Gourmet Foods"}, {"primary": false, "id": 11173, "name": "Organic Foods"}, {"primary": false, "id": 11270, "name": "Hamburgers"}, {"primary": true, "id": 1722, "name": "Restaurants"}], "fax_number": null, "expansion": {"count": null, "uri": null}, "impression_id": "000b000000da72d3e9d7b8404d872e2c9f23e23423", "profile": "http://www.citysearch.com/profile/793386180/marietta_ga/yumm_burger.html", "address": {"city": "Marietta", "state": "GA", "street": "3901 Mary Eliza Trce NW 120", "postal_code": "30064"}, "capProviderId": null, "distance": null, "has_offers": false, "name": "Yumm Burger", "longitude": -84.665447, "has_menu": false, "awards": null, "user_review_count": 0}, {"business_operation_status": 1, "rating": null, "neighborhood": null, "image": null, "scorecard": null, "featured": false, "sample_categories": "Restaurants", "public_id": "out-of-the-box-gifts-marietta", "id": 812371140, "votes": null, "tagline": null, "has_video": false, "website": null, "offers": null, "latitude": 33.982834, "politanName": "Atlanta, GA Metro ", "phone_number": "7702185455", "tags": [{"primary": true, "id": 1722, "name": "Restaurants"}], "fax_number": null, "expansion": {"count": null, "uri": null}, "impression_id": "000b000000c428f5c6f336439aaeba66713d0ad1ec", "profile": "http://www.citysearch.com/profile/812371140/marietta_ga/out_of_the_box_gifts.html", "address": {"city": "Marietta", "state": "GA", "street": "1343 Canton Rd", "postal_code": "30066"}, "capProviderId": null, "distance": null, "has_offers": false, "name": "Out Of The Box Gifts", "longitude": -84.538604, "has_menu": false, "awards": null, "user_review_count": 0}, {"business_operation_status": 1, "rating": null, "neighborhood": null, "image": null, "scorecard": null, "featured": false, "sample_categories": "Restaurants", "public_id": "a-taste-of-puerto-rico-marietta-2", "id": 813840920, "votes": null, "tagline": null, "has_video": false, "website": null, "offers": null, "latitude": 34.017341, "politanName": "Atlanta, GA Metro ", "phone_number": "6787979992", "tags": [{"primary": true, "id": 1722, "name": "Restaurants"}], "fax_number": null, "expansion": {"count": null, "uri": null}, "impression_id": "000b00000014bb20b76ea94d19a7e95c1f34bdf195", "profile": "http://www.citysearch.com/profile/813840920/marietta_ga/a_taste_of_puerto_rico.html", "address": {"city": "Marietta", "state": "GA", "street": "2769 Chastn Mdws Pkwy # 90", "postal_code": "30066"}, "capProviderId": null, "distance": null, "has_offers": false, "name": "A Taste Of Puerto Rico", "longitude": -84.555709, "has_menu": false, "awards": null, "user_review_count": 0}, {"business_operation_status": 1, "rating": 8.0, "neighborhood": null, "image": null, "scorecard": null, "featured": false, "sample_categories": "Delis And Delicatessens, Restaurants", "public_id": "my-friends-place-kennesaw-2", "id": 2954958, "votes": null, "tagline": null, "has_video": false, "website": null, "offers": null, "latitude": 34.024304, "politanName": "Atlanta, GA Metro ", "phone_number": "7704272900", "tags": [{"primary": false, "id": 1722, "name": "Restaurants"}, {"primary": true, "id": 1727, "name": "Delis And Delicatessens"}], "fax_number": null, "expansion": {"count": null, "uri": null}, "impression_id": "000b00000037f69a6df7684d6faff2e6732f163b81", "profile": "http://www.citysearch.com/profile/2954958/kennesaw_ga/my_friend_s_place.html", "address": {"city": "Kennesaw", "state": "GA", "street": "2750 Jiles Rd NW Ste 108", "postal_code": "30144"}, "capProviderId": null, "distance": null, "has_offers": false, "name": "My Friend's Place", "longitude": -84.623984, "has_menu": false, "awards": null, "user_review_count": 0}, {"business_operation_status": 1, "rating": null, "neighborhood": null, "image": null, "scorecard": null, "featured": false, "sample_categories": "Restaurants", "public_id": "extreme-cuisine-inc-marietta", "id": 820924170, "votes": null, "tagline": null, "has_video": false, "website": null, "offers": null, "latitude": 34.058557, "politanName": "Atlanta, GA Metro ", "phone_number": "7709281161", "tags": [{"primary": true, "id": 1722, "name": "Restaurants"}], "fax_number": null, "expansion": {"count": null, "uri": null}, "impression_id": "000b00000007cef7277ae141e6a491f411820161f6", "profile": "http://www.citysearch.com/profile/820924170/marietta_ga/extreme_cuisine_inc.html", "address": {"city": "Marietta", "state": "GA", "street": "716 Dover St", "postal_code": "30066"}, "capProviderId": null, "distance": null, "has_offers": false, "name": "Extreme Cuisine Inc", "longitude": -84.529522, "has_menu": false, "awards": null, "user_review_count": 0}, {"business_operation_status": 1, "rating": null, "neighborhood": null, "image": null, "scorecard": null, "featured": false, "sample_categories": "Restaurants", "public_id": "tacos-del-chavo-kennesaw", "id": 624205904, "votes": null, "tagline": null, "has_video": false, "website": null, "offers": null, "latitude": 34.023466, "politanName": "Atlanta, GA Metro ", "phone_number": "6788874997", "tags": [{"primary": true, "id": 1722, "name": "Restaurants"}], "fax_number": null, "expansion": {"count": null, "uri": null}, "impression_id": "000b00000058d788eecd9748d0a4b9dbeacbfc5fec", "profile": "http://www.citysearch.com/profile/624205904/kennesaw_ga/tacos_del_chavo.html", "address": {"city": "Kennesaw", "state": "GA", "street": "2025 Chastain Rd", "postal_code": "30144"}, "capProviderId": null, "distance": null, "has_offers": false, "name": "Tacos Del Chavo", "longitude": -84.588896, "has_menu": false, "awards": null, "user_review_count": 0}, {"business_operation_status": 1, "rating": null, "neighborhood": null, "image": null, "scorecard": null, "featured": false, "sample_categories": "Restaurants, Pizza", "public_id": "wolfies-pizza-kennesaw", "id": 819131230, "votes": null, "tagline": null, "has_video": false, "website": null, "offers": null, "latitude": 33.999345, "politanName": "Atlanta, GA Metro ", "phone_number": "7704261229", "tags": [{"primary": false, "id": 1722, "name": "Restaurants"}, {"primary": true, "id": 11299, "name": "Pizza"}], "fax_number": null, "expansion": {"count": null, "uri": null}, "impression_id": "000b00000072bf5b4bf2f04f05a7782da3bdbfccbe", "profile": "http://www.citysearch.com/profile/819131230/kennesaw_ga/wolfie_s_pizza.html", "address": {"city": "Kennesaw", "state": "GA", "street": "1200 Ernest W Barrett NW # 6", "postal_code": "30144"}, "capProviderId": null, "distance": null, "has_offers": false, "name": "WOLFIE'S PIZZA", "longitude": -84.586888, "has_menu": false, "awards": null, "user_review_count": 0}, {"business_operation_status": 1, "rating": null, "neighborhood": null, "image": null, "scorecard": null, "featured": false, "sample_categories": "Restaurants", "public_id": "sam-soultran-eatery-kennesaw", "id": 764849810, "votes": null, "tagline": null, "has_video": false, "website": null, "offers": null, "latitude": 34.007783, "politanName": "Atlanta, GA Metro ", "phone_number": "7704207110", "tags": [{"primary": true, "id": 1722, "name": "Restaurants"}], "fax_number": null, "expansion": {"count": null, "uri": null}, "impression_id": "000b000000f3f9b53536e3434a965ee5bbf2055665", "profile": "http://www.citysearch.com/profile/764849810/kennesaw_ga/sam_soultran_eatery.html", "address": {"city": "Kennesaw", "state": "GA", "street": "2010 Cobb Pkwy NW", "postal_code": "30152"}, "capProviderId": null, "distance": null, "has_offers": false, "name": "Sam Soultran Eatery", "longitude": -84.613832, "has_menu": false, "awards": null, "user_review_count": 0}, {"business_operation_status": 1, "rating": null, "neighborhood": null, "image": null, "scorecard": null, "featured": false, "sample_categories": "Restaurants", "public_id": "yogoday-marietta", "id": 828480390, "votes": null, "tagline": null, "has_video": false, "website": null, "offers": null, "latitude": 34.013868, "politanName": "Atlanta, GA Metro ", "phone_number": "7707951522", "tags": [{"primary": true, "id": 1722, "name": "Restaurants"}], "fax_number": null, "expansion": {"count": null, "uri": null}, "impression_id": "000b00000084d8787130434549bc2c673d687d619e", "profile": "http://www.citysearch.com/profile/828480390/marietta_ga/yogoday.html", "address": {"city": "Marietta", "state": "GA", "street": "125 Ernest W Barrett Pkwy NW", "postal_code": "30060"}, "capProviderId": null, "distance": null, "has_offers": false, "name": "Yogoday", "longitude": -84.55453, "has_menu": false, "awards": null, "user_review_count": 0}, {"business_operation_status": 1, "rating": null, "neighborhood": null, "image": null, "scorecard": null, "featured": false, "sample_categories": "Restaurants, Sandwich Shops, Hot Dogs", "public_id": "roys-royal-dogs-acworth", "id": 840479240, "votes": null, "tagline": null, "has_video": false, "website": "http://www.citysearch.com/profile/external/840479240/acworth_ga/roy_s_royal_dogs.html", "offers": null, "latitude": 34.036201, "politanName": "Atlanta, GA Metro ", "phone_number": "6783836294", "tags": [{"primary": false, "id": 1736, "name": "Sandwich Shops"}, {"primary": false, "id": 11274, "name": "Hot Dogs"}, {"primary": true, "id": 1722, "name": "Restaurants"}], "fax_number": null, "expansion": {"count": null, "uri": null}, "impression_id": "000b0000002d405b6d400a480e8cf36e187c832908", "profile": "http://www.citysearch.com/profile/840479240/acworth_ga/roy_s_royal_dogs.html", "address": {"city": "Acworth", "state": "GA", "street": "3330 Cobb Pkwy NW 308", "postal_code": "30101"}, "capProviderId": null, "distance": null, "has_offers": false, "name": "Roy's Royal Dogs", "longitude": -84.67689, "has_menu": false, "awards": null, "user_review_count": 0}, {"business_operation_status": 1, "rating": null, "neighborhood": null, "image": null, "scorecard": null, "featured": false, "sample_categories": "Restaurants, Fast Food, Carry Out, Hamburgers, American Express", "public_id": "mc-donalds-dallas-16", "id": 43860826, "votes": null, "tagline": null, "has_video": false, "website": "http://www.citysearch.com/profile/external/43860826/dallas_ga/mc_donald_s.html", "offers": null, "latitude": 33.985034, "politanName": "Atlanta, GA Metro ", "phone_number": "7709757395", "tags": [{"primary": false, "id": 11199, "name": "Fast Food"}, {"primary": false, "id": 11247, "name": "Carry Out"}, {"primary": false, "id": 11270, "name": "Hamburgers"}, {"primary": false, "id": 11333, "name": "American Express"}, {"primary": false, "id": 11349, "name": "Discover"}, {"primary": false, "id": 11361, "name": "MasterCard"}, {"primary": false, "id": 11382, "name": "Visa"}, {"primary": true, "id": 1722, "name": "Restaurants"}], "fax_number": null, "expansion": {"count": null, "uri": null}, "impression_id": "000b000000f9dc30c2f8d2402f90a5010c006b5e14", "profile": "http://www.citysearch.com/profile/43860826/dallas_ga/mc_donald_s.html", "address": {"city": "Dallas", "state": "GA", "street": "8872 Dallas Acworth Hwy", "postal_code": "30132"}, "capProviderId": null, "distance": null, "has_offers": false, "name": "Mc Donald's", "longitude": -84.771736, "has_menu": true, "awards": null, "user_review_count": 0}, {"business_operation_status": 1, "rating": null, "neighborhood": null, "image": null, "scorecard": null, "featured": false, "sample_categories": "Restaurants", "public_id": "moore-moore-investments-inc-dallas", "id": 601315709, "votes": null, "tagline": null, "has_video": false, "website": null, "offers": null, "latitude": 33.935025, "politanName": "Atlanta, GA Metro ", "phone_number": "7704432856", "tags": [{"primary": true, "id": 1722, "name": "Restaurants"}], "fax_number": null, "expansion": {"count": null, "uri": null}, "impression_id": "000b000000120994db5624418cb07059de2cb59e0b", "profile": "http://www.citysearch.com/profile/601315709/dallas_ga/moore_moore_investments_inc.html", "address": {"city": "Dallas", "state": "GA", "street": "3615 Marietta Hwy", "postal_code": "30157"}, "capProviderId": null, "distance": null, "has_offers": false, "name": "Moore & Moore Investments Inc", "longitude": -84.73087, "has_menu": false, "awards": null, "user_review_count": 0}, {"business_operation_status": 1, "rating": null, "neighborhood": null, "image": null, "scorecard": null, "featured": false, "sample_categories": "Restaurants", "public_id": "super-taco-acworth", "id": 823313050, "votes": null, "tagline": null, "has_video": false, "website": null, "offers": null, "latitude": 34.087401, "politanName": "Atlanta, GA Metro ", "phone_number": "7705178844", "tags": [{"primary": true, "id": 1722, "name": "Restaurants"}], "fax_number": null, "expansion": {"count": null, "uri": null}, "impression_id": "000b0000008bf61bf04baf4510af85c47801ffe150", "profile": "http://www.citysearch.com/profile/823313050/acworth_ga/super_taco.html", "address": {"city": "Acworth", "state": "GA", "street": "6822 Highway 92", "postal_code": "30102"}, "capProviderId": null, "distance": null, "has_offers": false, "name": "Super Taco", "longitude": -84.574301, "has_menu": false, "awards": null, "user_review_count": 0}, {"business_operation_status": 1, "rating": null, "neighborhood": null, "image": null, "scorecard": null, "featured": false, "sample_categories": "Restaurants", "public_id": "china-express-kennesaw-2", "id": 826551330, "votes": null, "tagline": null, "has_video": false, "website": null, "offers": null, "latitude": 34.048688, "politanName": "Atlanta, GA Metro ", "phone_number": "7704282339", "tags": [{"primary": true, "id": 1722, "name": "Restaurants"}], "fax_number": null, "expansion": {"count": null, "uri": null}, "impression_id": "000b0000007b8c54abdfc34ea2a02ecf48c3b0d0a7", "profile": "http://www.citysearch.com/profile/826551330/kennesaw_ga/china_express.html", "address": {"city": "Kennesaw", "state": "GA", "street": "3895 Cherokee St NW", "postal_code": "30144"}, "capProviderId": null, "distance": null, "has_offers": false, "name": "China Express", "longitude": -84.598574, "has_menu": false, "awards": null, "user_review_count": 0}, {"business_operation_status": 1, "rating": null, "neighborhood": null, "image": null, "scorecard": null, "featured": false, "sample_categories": "Restaurants", "public_id": "yupk-llc-acworth", "id": 764935540, "votes": null, "tagline": null, "has_video": false, "website": null, "offers": null, "latitude": 34.06489, "politanName": "Atlanta, GA Metro ", "phone_number": "7706936770", "tags": [{"primary": true, "id": 1722, "name": "Restaurants"}], "fax_number": null, "expansion": {"count": null, "uri": null}, "impression_id": "000b00000022d1aa275d6d4f7eac5f5a902e541681", "profile": "http://www.citysearch.com/profile/764935540/acworth_ga/yupk_llc.html", "address": {"city": "Acworth", "state": "GA", "street": "2535 Hickory Grove Rd NW", "postal_code": "30101"}, "capProviderId": null, "distance": null, "has_offers": false, "name": "YUPK Llc", "longitude": -84.624038, "has_menu": false, "awards": null, "user_review_count": 0}, {"business_operation_status": 1, "rating": null, "neighborhood": null, "image": null, "scorecard": null, "featured": false, "sample_categories": "Restaurants, Carry Out, Hamburgers", "public_id": "mc-donalds-acworth-5", "id": 766781880, "votes": null, "tagline": null, "has_video": false, "website": null, "offers": null, "latitude": 34.058363, "politanName": "Atlanta, GA Metro ", "phone_number": "7709174645", "tags": [{"primary": false, "id": 11247, "name": "Carry Out"}, {"primary": false, "id": 11270, "name": "Hamburgers"}, {"primary": true, "id": 1722, "name": "Restaurants"}], "fax_number": null, "expansion": {"count": null, "uri": null}, "impression_id": "000b000000535ad45935ba4449be1abd74eca8ff69", "profile": "http://www.citysearch.com/profile/766781880/acworth_ga/mc_donald_s.html", "address": {"city": "Acworth", "state": "GA", "street": "4381 Acworth Dallas Rd NW", "postal_code": "30101"}, "capProviderId": null, "distance": null, "has_offers": false, "name": "Mc Donald's", "longitude": -84.723405, "has_menu": false, "awards": null, "user_review_count": 0}, {"business_operation_status": 1, "rating": null, "neighborhood": null, "image": null, "scorecard": null, "featured": false, "sample_categories": "Restaurants, Pizza, Carry Out", "public_id": "sorrentnos-ristorante-pizzeria-kennesaw", "id": 790617540, "votes": null, "tagline": null, "has_video": false, "website": null, "offers": null, "latitude": 34.023434, "politanName": "Atlanta, GA Metro ", "phone_number": "7707950096", "tags": [{"primary": false, "id": 1722, "name": "Restaurants"}, {"primary": false, "id": 11247, "name": "Carry Out"}, {"primary": true, "id": 11299, "name": "Pizza"}], "fax_number": null, "expansion": {"count": null, "uri": null}, "impression_id": "000b0000008415b7ca126a41c3a9e8556acc0a2016", "profile": "http://www.citysearch.com/profile/790617540/kennesaw_ga/sorrentnos_ristorante_pizzeria.html", "address": {"city": "Kennesaw", "state": "GA", "street": "800 Ern W Brt Pkwy NW 3", "postal_code": "30144"}, "capProviderId": null, "distance": null, "has_offers": false, "name": "Sorrentnos Ristorante Pizzeria", "longitude": -84.61549, "has_menu": false, "awards": null, "user_review_count": 0}, {"business_operation_status": 1, "rating": null, "neighborhood": null, "image": null, "scorecard": null, "featured": false, "sample_categories": "Restaurants, Pizza, Carry Out", "public_id": "pizza-hut-kennesaw-4", "id": 808398210, "votes": null, "tagline": null, "has_video": false, "website": null, "offers": null, "latitude": 34.014009, "politanName": "Atlanta, GA Metro ", "phone_number": "7704210752", "tags": [{"primary": false, "id": 1722, "name": "Restaurants"}, {"primary": false, "id": 11247, "name": "Carry Out"}, {"primary": true, "id": 11299, "name": "Pizza"}], "fax_number": null, "expansion": {"count": null, "uri": null}, "impression_id": "000b0000009c70901a1d3148518a26e055ac28dbc4", "profile": "http://www.citysearch.com/profile/808398210/kennesaw_ga/pizza_hut.html", "address": {"city": "Kennesaw", "state": "GA", "street": "400 Ernest W Barrett Pkwy NW", "postal_code": "30144"}, "capProviderId": null, "distance": null, "has_offers": false, "name": "Pizza Hut", "longitude": -84.561425, "has_menu": false, "awards": null, "user_review_count": 0}, {"business_operation_status": 1, "rating": null, "neighborhood": null, "image": null, "scorecard": null, "featured": false, "sample_categories": "Restaurants", "public_id": "philly-connection-kennesaw-3", "id": 820862720, "votes": null, "tagline": null, "has_video": false, "website": null, "offers": null, "latitude": 34.032507, "politanName": "Atlanta, GA Metro ", "phone_number": "7704990084", "tags": [{"primary": true, "id": 1722, "name": "Restaurants"}], "fax_number": null, "expansion": {"count": null, "uri": null}, "impression_id": "000b0000002e9484d27dd844cea1ec7a300e91ae58", "profile": "http://www.citysearch.com/profile/820862720/kennesaw_ga/philly_connection.html", "address": {"city": "Kennesaw", "state": "GA", "street": "2700 Town Center Dr NW", "postal_code": "30144"}, "capProviderId": null, "distance": null, "has_offers": false, "name": "Philly Connection", "longitude": -84.64853, "has_menu": true, "awards": null, "user_review_count": 0}, {"business_operation_status": 1, "rating": null, "neighborhood": null, "image": null, "scorecard": null, "featured": false, "sample_categories": "Restaurants, Pizza", "public_id": "salerno-pizza-kennesaw", "id": 790725350, "votes": null, "tagline": null, "has_video": false, "website": null, "offers": null, "latitude": 34.009664, "politanName": "Atlanta, GA Metro ", "phone_number": "7704997600", "tags": [{"primary": false, "id": 1722, "name": "Restaurants"}, {"primary": true, "id": 11299, "name": "Pizza"}], "fax_number": null, "expansion": {"count": null, "uri": null}, "impression_id": "000b000000728ba60e5fc34bab968aba4c1840cd5b", "profile": "http://www.citysearch.com/profile/790725350/kennesaw_ga/salerno_pizza.html", "address": {"city": "Kennesaw", "state": "GA", "street": "950 Cobb Place Blvd NW", "postal_code": "30144"}, "capProviderId": null, "distance": null, "has_offers": false, "name": "Salerno Pizza", "longitude": -84.582459, "has_menu": false, "awards": null, "user_review_count": 0}, {"business_operation_status": 0, "rating": null, "neighborhood": null, "image": null, "scorecard": null, "featured": false, "sample_categories": "Restaurants, Delis And Delicatessens", "public_id": "cajuns-cookin-po-boys-marietta", "id": 787117810, "votes": null, "tagline": null, "has_video": false, "website": null, "offers": null, "latitude": 33.991982, "politanName": "Atlanta, GA Metro ", "phone_number": "6783326262", "tags": [{"primary": false, "id": 1727, "name": "Delis And Delicatessens"}, {"primary": true, "id": 1722, "name": "Restaurants"}], "fax_number": null, "expansion": {"count": null, "uri": null}, "impression_id": "000b0000003d60f3c0f51446f3a13cb9e0b9c17f26", "profile": "http://www.citysearch.com/profile/787117810/marietta_ga/cajun_s_cookin_po_boys.html", "address": {"city": "Marietta", "state": "GA", "street": "1199 Sandra Dr", "postal_code": "30062"}, "capProviderId": null, "distance": null, "has_offers": false, "name": "Cajun's Cookin' Po Boys", "longitude": -84.516441, "has_menu": false, "awards": null, "user_review_count": 0}, {"business_operation_status": 1, "rating": null, "neighborhood": null, "image": null, "scorecard": null, "featured": false, "sample_categories": "Barbecue Restaurants", "public_id": "sams-bbq-one-marietta", "id": 787089000, "votes": null, "tagline": null, "has_video": false, "website": null, "offers": null, "latitude": 33.955116, "politanName": "Atlanta, GA Metro ", "phone_number": "6783241518", "tags": [{"primary": true, "id": 1724, "name": "Barbecue Restaurants"}], "fax_number": null, "expansion": {"count": null, "uri": null}, "impression_id": "000b00000026be1b97d5944077a1c25a7456fb6137", "profile": "http://www.citysearch.com/profile/787089000/marietta_ga/sam_s_bbq_one.html", "address": {"city": "Marietta", "state": "GA", "street": "3600 Dallas Hwy Sw", "postal_code": "30064"}, "capProviderId": null, "distance": null, "has_offers": false, "name": "Sam's BBQ One", "longitude": -84.656027, "has_menu": false, "awards": null, "user_review_count": 0}, {"business_operation_status": 1, "rating": null, "neighborhood": null, "image": null, "scorecard": null, "featured": false, "sample_categories": "Restaurants", "public_id": "ayahs-bistro-kennesaw", "id": 816263730, "votes": null, "tagline": null, "has_video": false, "website": null, "offers": null, "latitude": 34.057627, "politanName": "Atlanta, GA Metro ", "phone_number": "6785940084", "tags": [{"primary": true, "id": 1722, "name": "Restaurants"}], "fax_number": null, "expansion": {"count": null, "uri": null}, "impression_id": "000b0000007df3ed821a53468e96324c39dba95f61", "profile": "http://www.citysearch.com/profile/816263730/kennesaw_ga/ayah_s_bistro.html", "address": {"city": "Kennesaw", "state": "GA", "street": "4200 Wade Green Rd NW", "postal_code": "30144"}, "capProviderId": null, "distance": null, "has_offers": false, "name": "Ayah's Bistro", "longitude": -84.590928, "has_menu": false, "awards": null, "user_review_count": 0}, {"business_operation_status": 1, "rating": null, "neighborhood": null, "image": null, "scorecard": null, "featured": false, "sample_categories": "Ice Cream Parlors", "public_id": "marble-slab-creamery-kennesaw", "id": 829114200, "votes": null, "tagline": null, "has_video": false, "website": "http://www.citysearch.com/profile/external/829114200/kennesaw_ga/marble_slab_creamery.html", "offers": null, "latitude": 34.012738, "politanName": "Atlanta, GA Metro ", "phone_number": "6783555424", "tags": [{"primary": true, "id": 1730, "name": "Ice Cream Parlors"}], "fax_number": null, "expansion": {"count": null, "uri": null}, "impression_id": "000b00000055f9b8c1063a4d5f959f8dde0cd4dc60", "profile": "http://www.citysearch.com/profile/829114200/kennesaw_ga/marble_slab_creamery.html", "address": {"city": "Kennesaw", "state": "GA", "street": "440 Ernest W Barrett Pkwy NW", "postal_code": "30144"}, "capProviderId": null, "distance": null, "has_offers": false, "name": "Marble Slab Creamery", "longitude": -84.5643, "has_menu": true, "awards": null, "user_review_count": 0}, {"business_operation_status": 1, "rating": null, "neighborhood": null, "image": null, "scorecard": null, "featured": false, "sample_categories": "Restaurants, Pizza", "public_id": "pizza-n-beyond-kennesaw", "id": 798806950, "votes": null, "tagline": null, "has_video": false, "website": "http://www.citysearch.com/profile/external/798806950/kennesaw_ga/pizza_n_beyond.html", "offers": null, "latitude": 34.018008, "politanName": "Atlanta, GA Metro ", "phone_number": "7706756108", "tags": [{"primary": false, "id": 1722, "name": "Restaurants"}, {"primary": true, "id": 11299, "name": "Pizza"}], "fax_number": null, "expansion": {"count": null, "uri": null}, "impression_id": "000b00000032d363a5f16a4dbbbb3de676b6a8a89d", "profile": "http://www.citysearch.com/profile/798806950/kennesaw_ga/pizza_n_beyond.html", "address": {"city": "Kennesaw", "state": "GA", "street": "2655 Cobb Pkwy NW", "postal_code": "30152"}, "capProviderId": null, "distance": null, "has_offers": false, "name": "Pizza N Beyond", "longitude": -84.619527, "has_menu": true, "awards": null, "user_review_count": 1}, {"business_operation_status": 1, "rating": null, "neighborhood": null, "image": null, "scorecard": null, "featured": false, "sample_categories": "Restaurants", "public_id": "crossroads-neighborhood-grille-dallas", "id": 790624770, "votes": null, "tagline": null, "has_video": false, "website": null, "offers": null, "latitude": 34.022077, "politanName": "Atlanta, GA Metro ", "phone_number": "7709757712", "tags": [{"primary": true, "id": 1722, "name": "Restaurants"}], "fax_number": null, "expansion": {"count": null, "uri": null}, "impression_id": "000b000000b2a54a8dee5149d8a15565ee4dca7395", "profile": "http://www.citysearch.com/profile/790624770/dallas_ga/crossroads_neighborhood_grille.html", "address": {"city": "Dallas", "state": "GA", "street": "1305 Cedarcrest Rd", "postal_code": "30132"}, "capProviderId": null, "distance": null, "has_offers": false, "name": "Crossroads Neighborhood Grille", "longitude": -84.771962, "has_menu": false, "awards": null, "user_review_count": 0}, {"business_operation_status": 1, "rating": null, "neighborhood": null, "image": null, "scorecard": null, "featured": false, "sample_categories": "Restaurants, Jamaican", "public_id": "country-style-jamaican-rstrnt-marietta", "id": 790653840, "votes": null, "tagline": null, "has_video": false, "website": null, "offers": null, "latitude": 34.03261, "politanName": "Atlanta, GA Metro ", "phone_number": "7704258444", "tags": [{"primary": false, "id": 11193, "name": "Jamaican"}, {"primary": true, "id": 1722, "name": "Restaurants"}], "fax_number": null, "expansion": {"count": null, "uri": null}, "impression_id": "000b0000007cc74121d57840bcbf05029120b7f229", "profile": "http://www.citysearch.com/profile/790653840/marietta_ga/country_style_jamaican_rstrnt.html", "address": {"city": "Marietta", "state": "GA", "street": "3349 Canton Rd # 201", "postal_code": "30066"}, "capProviderId": null, "distance": null, "has_offers": false, "name": "Country Style Jamaican Rstrnt", "longitude": -84.528907, "has_menu": false, "awards": null, "user_review_count": 0}, {"business_operation_status": 1, "rating": null, "neighborhood": null, "image": null, "scorecard": null, "featured": false, "sample_categories": "Restaurants", "public_id": "sunrise-biscuit-co-marietta", "id": 808765260, "votes": null, "tagline": null, "has_video": false, "website": null, "offers": null, "latitude": 34.048278, "politanName": "Atlanta, GA Metro ", "phone_number": "7705169556", "tags": [{"primary": true, "id": 1722, "name": "Restaurants"}], "fax_number": null, "expansion": {"count": null, "uri": null}, "impression_id": "000b0000003e874f983f064a879651ae212ca0468b", "profile": "http://www.citysearch.com/profile/808765260/marietta_ga/sunrise_biscuit_co.html", "address": {"city": "Marietta", "state": "GA", "street": "4017 Canton Rd", "postal_code": "30066"}, "capProviderId": null, "distance": null, "has_offers": false, "name": "Sunrise Biscuit Co", "longitude": -84.52851, "has_menu": false, "awards": null, "user_review_count": 0}, {"business_operation_status": 1, "rating": null, "neighborhood": null, "image": null, "scorecard": null, "featured": false, "sample_categories": "Restaurants, Pizza", "public_id": "gondolier-pizza-1-kennesaw", "id": 809188170, "votes": null, "tagline": null, "has_video": false, "website": null, "offers": null, "latitude": 34.007674, "politanName": "Atlanta, GA Metro ", "phone_number": "7704199979", "tags": [{"primary": false, "id": 1722, "name": "Restaurants"}, {"primary": true, "id": 11299, "name": "Pizza"}], "fax_number": null, "expansion": {"count": null, "uri": null}, "impression_id": "000b000000489a54f5d9894f218d56e341ec75db7d", "profile": "http://www.citysearch.com/profile/809188170/kennesaw_ga/gondolier_pizza_1.html", "address": {"city": "Kennesaw", "state": "GA", "street": "740 Ernest W Barrett Pkwy NW", "postal_code": "30144"}, "capProviderId": null, "distance": null, "has_offers": false, "name": "Gondolier Pizza 1", "longitude": -84.571702, "has_menu": false, "awards": null, "user_review_count": 0}, {"business_operation_status": 1, "rating": null, "neighborhood": null, "image": null, "scorecard": null, "featured": false, "sample_categories": "Restaurants, Pizza, Carry Out", "public_id": "sals-pizzeria-acworth", "id": 790746800, "votes": null, "tagline": null, "has_video": false, "website": null, "offers": null, "latitude": 34.062771, "politanName": "Atlanta, GA Metro ", "phone_number": "7704275368", "tags": [{"primary": false, "id": 1722, "name": "Restaurants"}, {"primary": false, "id": 11247, "name": "Carry Out"}, {"primary": true, "id": 11299, "name": "Pizza"}], "fax_number": null, "expansion": {"count": null, "uri": null}, "impression_id": "000b00000096ab24746baf4eb3b42249b38f5d1870", "profile": "http://www.citysearch.com/profile/790746800/acworth_ga/sals_pizzeria.html", "address": {"city": "Acworth", "state": "GA", "street": "1361 Hearthstone Way NW", "postal_code": "30102"}, "capProviderId": null, "distance": null, "has_offers": false, "name": "Sals Pizzeria", "longitude": -84.585107, "has_menu": false, "awards": null, "user_review_count": 0}, {"business_operation_status": 1, "rating": null, "neighborhood": null, "image": null, "scorecard": null, "featured": false, "sample_categories": "Restaurants", "public_id": "pegasus-foods-inc-powder", "id": 732186320, "votes": null, "tagline": null, "has_video": false, "website": null, "offers": null, "latitude": 33.906794, "politanName": "Atlanta, GA Metro ", "phone_number": "7704391489", "tags": [{"primary": true, "id": 1722, "name": "Restaurants"}], "fax_number": null, "expansion": {"count": null, "uri": null}, "impression_id": "000b000000d4c9505726f844f9802fed0bd58ce293", "profile": "http://www.citysearch.com/profile/732186320/powder_springs_ga/pegasus_foods_inc.html", "address": {"city": "Powder Springs", "state": "GA", "street": "3640 Velma Dr", "postal_code": "30127"}, "capProviderId": null, "distance": null, "has_offers": false, "name": "Pegasus Foods Inc", "longitude": -84.660285, "has_menu": false, "awards": null, "user_review_count": 0}, {"business_operation_status": 1, "rating": null, "neighborhood": null, "image": null, "scorecard": null, "featured": false, "sample_categories": "Restaurants", "public_id": "rio-mexico-kennesaw", "id": 809173760, "votes": null, "tagline": null, "has_video": false, "website": null, "offers": null, "latitude": 34.032507, "politanName": "Atlanta, GA Metro ", "phone_number": "7709192626", "tags": [{"primary": true, "id": 1722, "name": "Restaurants"}], "fax_number": null, "expansion": {"count": null, "uri": null}, "impression_id": "000b00000037f68d1eb0044474a83a83b5550a910b", "profile": "http://www.citysearch.com/profile/809173760/kennesaw_ga/rio_mexico.html", "address": {"city": "Kennesaw", "state": "GA", "street": "2700 Town Center Dr NW", "postal_code": "30144"}, "capProviderId": null, "distance": null, "has_offers": false, "name": "Rio Mexico", "longitude": -84.64853, "has_menu": false, "awards": null, "user_review_count": 0}, {"business_operation_status": 1, "rating": null, "neighborhood": null, "image": null, "scorecard": null, "featured": false, "sample_categories": "Frozen Yogurt Shops, Grocery Stores, Restaurants", "public_id": "oolala-marietta", "id": 732204990, "votes": null, "tagline": null, "has_video": false, "website": "http://www.citysearch.com/profile/external/732204990/marietta_ga/oolala.html", "offers": null, "latitude": 33.950252, "politanName": "Atlanta, GA Metro ", "phone_number": "6783836129", "tags": [{"primary": false, "id": 1713, "name": "Grocery Stores"}, {"primary": false, "id": 1722, "name": "Restaurants"}, {"primary": true, "id": 1729, "name": "Frozen Yogurt Shops"}], "fax_number": null, "expansion": {"count": null, "uri": null}, "impression_id": "000b000000d4a694dd78ed47f387f2de00ba027461", "profile": "http://www.citysearch.com/profile/732204990/marietta_ga/oolala.html", "address": {"city": "Marietta", "state": "GA", "street": "2500 Dallas Hwy SW # 650", "postal_code": "30064"}, "capProviderId": null, "distance": null, "has_offers": false, "name": "Oolala", "longitude": -84.638093, "has_menu": false, "awards": null, "user_review_count": 0}, {"business_operation_status": 1, "rating": null, "neighborhood": null, "image": null, "scorecard": null, "featured": false, "sample_categories": "Restaurants, Traditional American, Carry Out", "public_id": "waffle-house-dallas-13", "id": 762818180, "votes": null, "tagline": null, "has_video": false, "website": "http://www.citysearch.com/profile/external/762818180/dallas_ga/waffle_house.html", "offers": null, "latitude": 34.008816, "politanName": "Atlanta, GA Metro ", "phone_number": "7705295696", "tags": [{"primary": false, "id": 11190, "name": "Traditional American"}, {"primary": false, "id": 11247, "name": "Carry Out"}, {"primary": true, "id": 1722, "name": "Restaurants"}], "fax_number": null, "expansion": {"count": null, "uri": null}, "impression_id": "000b00000054dc937addc64fea8ff95cc00b218ad1", "profile": "http://www.citysearch.com/profile/762818180/dallas_ga/waffle_house.html", "address": {"city": "Dallas", "state": "GA", "street": "8624 Dallas Acworth Hwy", "postal_code": "30132"}, "capProviderId": null, "distance": null, "has_offers": false, "name": "Waffle House", "longitude": -84.755752, "has_menu": false, "awards": null, "user_review_count": 0}, {"business_operation_status": 1, "rating": null, "neighborhood": null, "image": null, "scorecard": null, "featured": false, "sample_categories": "Restaurants, Mexican", "public_id": "jalapeno-joes-dallas", "id": 775226210, "votes": null, "tagline": null, "has_video": false, "website": null, "offers": null, "latitude": 34.010309, "politanName": "Atlanta, GA Metro ", "phone_number": "6789092382", "tags": [{"primary": false, "id": 11208, "name": "Mexican"}, {"primary": true, "id": 1722, "name": "Restaurants"}], "fax_number": null, "expansion": {"count": null, "uri": null}, "impression_id": "000b000000df07581e96e349439a784ad4a6806d5a", "profile": "http://www.citysearch.com/profile/775226210/dallas_ga/jalapeno_joe_s.html", "address": {"city": "Dallas", "state": "GA", "street": "8876 Dallas Acworth Hwy", "postal_code": "30132"}, "capProviderId": null, "distance": null, "has_offers": false, "name": "Jalapeno Joe's", "longitude": -84.753348, "has_menu": false, "awards": null, "user_review_count": 0}, {"business_operation_status": 1, "rating": null, "neighborhood": null, "image": null, "scorecard": null, "featured": false, "sample_categories": "Restaurants, Pizza, Carry Out", "public_id": "pizza-hut-kennesaw-3", "id": 790675460, "votes": null, "tagline": null, "has_video": false, "website": null, "offers": null, "latitude": 33.99979, "politanName": "Atlanta, GA Metro ", "phone_number": "7704248863", "tags": [{"primary": false, "id": 1722, "name": "Restaurants"}, {"primary": false, "id": 11247, "name": "Carry Out"}, {"primary": true, "id": 11299, "name": "Pizza"}], "fax_number": null, "expansion": {"count": null, "uri": null}, "impression_id": "000b00000070b0b027a3994a10be23e3b739992bf3", "profile": "http://www.citysearch.com/profile/790675460/kennesaw_ga/pizza_hut.html", "address": {"city": "Kennesaw", "state": "GA", "street": "1906 Cobb Pkwy NW", "postal_code": "30152"}, "capProviderId": null, "distance": null, "has_offers": false, "name": "Pizza Hut", "longitude": -84.588641, "has_menu": false, "awards": null, "user_review_count": 0}, {"business_operation_status": 1, "rating": null, "neighborhood": null, "image": null, "scorecard": null, "featured": false, "sample_categories": "Restaurants, Delis And Delicatessens", "public_id": "jasons-deli-kennesaw", "id": 803500390, "votes": null, "tagline": null, "has_video": false, "website": "http://www.citysearch.com/profile/external/803500390/kennesaw_ga/jason_s_deli.html", "offers": null, "latitude": 34.003304, "politanName": "Atlanta, GA Metro ", "phone_number": "6783984000", "tags": [{"primary": false, "id": 1727, "name": "Delis And Delicatessens"}, {"primary": true, "id": 1722, "name": "Restaurants"}], "fax_number": null, "expansion": {"count": null, "uri": null}, "impression_id": "000b000000171595395f1e46ab84833667c2d39490", "profile": "http://www.citysearch.com/profile/803500390/kennesaw_ga/jason_s_deli.html", "address": {"city": "Kennesaw", "state": "GA", "street": "945 Ernest W Barrett Pkwy NW", "postal_code": "30144"}, "capProviderId": null, "distance": null, "has_offers": false, "name": "Jason's Deli", "longitude": -84.578858, "has_menu": false, "awards": null, "user_review_count": 0}, {"business_operation_status": 1, "rating": null, "neighborhood": null, "image": null, "scorecard": null, "featured": false, "sample_categories": "Coffeehouses", "public_id": "insomnia-marietta", "id": 37646047, "votes": null, "tagline": null, "has_video": false, "website": null, "offers": null, "latitude": 33.948083, "politanName": "Atlanta, GA Metro ", "phone_number": "7705147442", "tags": [{"primary": true, "id": 1726, "name": "Coffeehouses"}], "fax_number": null, "expansion": {"count": null, "uri": null}, "impression_id": "000b000000e3453c736ecb4ca0a4f525a0c1d57b21", "profile": "http://www.citysearch.com/profile/37646047/marietta_ga/insomnia.html", "address": {"city": "Marietta", "state": "GA", "street": "245 Ridgeway Rd", "postal_code": "30064"}, "capProviderId": null, "distance": null, "has_offers": false, "name": "Insomnia", "longitude": -84.626672, "has_menu": false, "awards": null, "user_review_count": 0}, {"business_operation_status": 1, "rating": null, "neighborhood": null, "image": null, "scorecard": null, "featured": false, "sample_categories": "Restaurants", "public_id": "mrs-winners-chicken-bscts-kennesaw", "id": 806276160, "votes": null, "tagline": null, "has_video": false, "website": null, "offers": null, "latitude": 34.059567, "politanName": "Atlanta, GA Metro ", "phone_number": "7704274040", "tags": [{"primary": true, "id": 1722, "name": "Restaurants"}], "fax_number": null, "expansion": {"count": null, "uri": null}, "impression_id": "000b000000874c1aaf252444128818b5aac088e172", "profile": "http://www.citysearch.com/profile/806276160/kennesaw_ga/mrs_winner_s_chicken_bscts.html", "address": {"city": "Kennesaw", "state": "GA", "street": "4383 Wade Green Rd NW", "postal_code": "30144"}, "capProviderId": null, "distance": null, "has_offers": false, "name": "Mrs Winner's Chicken & Bscts", "longitude": -84.593135, "has_menu": false, "awards": null, "user_review_count": 0}, {"business_operation_status": 1, "rating": 8.0, "neighborhood": null, "image": null, "scorecard": null, "featured": false, "sample_categories": "Restaurants, Pizza", "public_id": "uncle-vitos-new-york-pizza-marietta", "id": 37646046, "votes": null, "tagline": null, "has_video": false, "website": null, "offers": null, "latitude": 33.950252, "politanName": "Atlanta, GA Metro ", "phone_number": "6787668486", "tags": [{"primary": false, "id": 1722, "name": "Restaurants"}, {"primary": true, "id": 11299, "name": "Pizza"}], "fax_number": null, "expansion": {"count": null, "uri": null}, "impression_id": "000b000000650084f30a134ed98117138e512379ac", "profile": "http://www.citysearch.com/profile/37646046/marietta_ga/uncle_vitos_new_york_pizza.html", "address": {"city": "Marietta", "state": "GA", "street": "2500 Dallas Hwy SW", "postal_code": "30064"}, "capProviderId": null, "distance": null, "has_offers": false, "name": "Uncle Vitos New York Pizza", "longitude": -84.638093, "has_menu": true, "awards": null, "user_review_count": 2}, {"business_operation_status": 1, "rating": null, "neighborhood": null, "image": null, "scorecard": null, "featured": false, "sample_categories": "Restaurants", "public_id": "specialty-restaurant-group-inc-kennesaw", "id": 648896300, "votes": null, "tagline": null, "has_video": false, "website": "http://www.citysearch.com/profile/external/648896300/kennesaw_ga/specialty_restaurant_group_inc.html", "offers": null, "latitude": 34.015329, "politanName": "Atlanta, GA Metro ", "phone_number": "7704997878", "tags": [{"primary": true, "id": 1722, "name": "Restaurants"}], "fax_number": null, "expansion": {"count": null, "uri": null}, "impression_id": "000b00000061003d0839d646b49e9f6a1702f2ae98", "profile": "http://www.citysearch.com/profile/648896300/kennesaw_ga/specialty_restaurant_group_inc.html", "address": {"city": "Kennesaw", "state": "GA", "street": "2500 Cobb Pkwy NW Ste B7", "postal_code": "30152"}, "capProviderId": null, "distance": null, "has_offers": false, "name": "Specialty Restaurant Group Inc", "longitude": -84.615064, "has_menu": false, "awards": null, "user_review_count": 0}, {"business_operation_status": 1, "rating": null, "neighborhood": null, "image": null, "scorecard": null, "featured": false, "sample_categories": "Restaurants, Chicken", "public_id": "big-chic-kennesaw", "id": 632898430, "votes": null, "tagline": null, "has_video": false, "website": null, "offers": null, "latitude": 34.031399, "politanName": "Atlanta, GA Metro ", "phone_number": "7706946234", "tags": [{"primary": false, "id": 12839, "name": "Chicken"}, {"primary": true, "id": 1722, "name": "Restaurants"}], "fax_number": null, "expansion": {"count": null, "uri": null}, "impression_id": "000b00000019fdee571205413d8b393326569e087c", "profile": "http://www.citysearch.com/profile/632898430/kennesaw_ga/big_chic.html", "address": {"city": "Kennesaw", "state": "GA", "street": "3140 Cobb Pkwy Nw", "postal_code": "30152"}, "capProviderId": null, "distance": null, "has_offers": false, "name": "Big Chic", "longitude": -84.657284, "has_menu": false, "awards": null, "user_review_count": 0}, {"business_operation_status": 1, "rating": null, "neighborhood": null, "image": null, "scorecard": null, "featured": false, "sample_categories": "Restaurants, Pizza", "public_id": "atena-pizza-kennesaw", "id": 827581250, "votes": null, "tagline": null, "has_video": false, "website": null, "offers": null, "latitude": 34.020819, "politanName": "Atlanta, GA Metro ", "phone_number": "6787971888", "tags": [{"primary": false, "id": 1722, "name": "Restaurants"}, {"primary": true, "id": 11299, "name": "Pizza"}], "fax_number": null, "expansion": {"count": null, "uri": null}, "impression_id": "000b000000f8e5a8a5a8ca499aa9edbdabee3eccad", "profile": "http://www.citysearch.com/profile/827581250/kennesaw_ga/atena_pizza.html", "address": {"city": "Kennesaw", "state": "GA", "street": "2754 S Main St NW", "postal_code": "30144"}, "capProviderId": null, "distance": null, "has_offers": false, "name": "Atena Pizza", "longitude": -84.613657, "has_menu": false, "awards": null, "user_review_count": 0}, {"business_operation_status": 1, "rating": null, "neighborhood": null, "image": null, "scorecard": null, "featured": false, "sample_categories": "Restaurants, Pizza", "public_id": "emkay-llc-marietta", "id": 802504650, "votes": null, "tagline": null, "has_video": false, "website": null, "offers": null, "latitude": 34.032174, "politanName": "Atlanta, GA Metro ", "phone_number": "6783248066", "tags": [{"primary": false, "id": 11299, "name": "Pizza"}, {"primary": true, "id": 1722, "name": "Restaurants"}], "fax_number": null, "expansion": {"count": null, "uri": null}, "impression_id": "000b0000000addce3a040441b1b0d1abce42846b6e", "profile": "http://www.citysearch.com/profile/802504650/marietta_ga/emkay_llc.html", "address": {"city": "Marietta", "state": "GA", "street": "3372 Canton Rd", "postal_code": "30066"}, "capProviderId": null, "distance": null, "has_offers": false, "name": "Emkay LLC", "longitude": -84.527817, "has_menu": false, "awards": null, "user_review_count": 0}, {"business_operation_status": 1, "rating": null, "neighborhood": null, "image": null, "scorecard": null, "featured": false, "sample_categories": "Restaurants", "public_id": "buffalos-cafe-kennesaw", "id": 803506350, "votes": null, "tagline": null, "has_video": false, "website": null, "offers": null, "latitude": 34.032711, "politanName": "Atlanta, GA Metro ", "phone_number": "6782369464", "tags": [{"primary": true, "id": 1722, "name": "Restaurants"}], "fax_number": null, "expansion": {"count": null, "uri": null}, "impression_id": "000b000000c099d21536c24ba8966d8d9bbca6d404", "profile": "http://www.citysearch.com/profile/803506350/kennesaw_ga/buffalos_cafe.html", "address": {"city": "Kennesaw", "state": "GA", "street": "3161 Cobb Pkwy NW", "postal_code": "30152"}, "capProviderId": null, "distance": null, "has_offers": false, "name": "Buffalos Cafe", "longitude": -84.673088, "has_menu": false, "awards": null, "user_review_count": 0}], "histograms": [], "tag_ids": [1722], "uri": "http://api.citygridmedia.com:8080/search/places/v2/search/where?has_offers=false&type=restaurant&format=json&page=4&where=30156&rpp=50&histograms=false&publisher=10000009598&region_type=circle", "did_you_mean": "", "regions": [{"latitude": 33.9919, "default_radius": 0.25, "type": "postal_code", "name": "30156", "longitude": -84.6543}], "call_id": "000b0000008180bff835c44103943128e6893e2530", "first_hit": 151, "total_hits": 371, "geo_ids": [137052], "page": 4, "last_hit": 200}}