{"results": {"rpp": 50, "locations": [{"business_operation_status": 1, "rating": 10.0, "neighborhood": null, "image": null, "scorecard": null, "featured": false, "sample_categories": "Restaurants, Food Delivery, Traditional American, Carry Out", "public_id": "jolly-joes-cafe-mableton", "id": 2949724, "votes": null, "tagline": null, "has_video": false, "website": null, "offers": null, "latitude": 33.81733, "politanName": "Atlanta, GA Metro ", "phone_number": "7709410484", "tags": [{"primary": false, "id": 1722, "name": "Restaurants"}, {"primary": false, "id": 11190, "name": "Traditional American"}, {"primary": false, "id": 11247, "name": "Carry Out"}, {"primary": true, "id": 11267, "name": "Food Delivery"}], "fax_number": null, "expansion": {"count": null, "uri": null}, "impression_id": "000b0000006fafbdffd1ed406bb929a1e92137def3", "profile": "http://www.citysearch.com/profile/2949724/mableton_ga/jolly_joes_cafe.html", "address": {"city": "Mableton", "state": "GA", "street": "1153 Veterans Memorial Hwy SW", "postal_code": "30126"}, "capProviderId": null, "distance": null, "has_offers": false, "name": "Jolly Joes Cafe", "longitude": -84.588134, "has_menu": false, "awards": null, "user_review_count": 2}, {"business_operation_status": 1, "rating": null, "neighborhood": null, "image": null, "scorecard": null, "featured": false, "sample_categories": "Barbecue Restaurants", "public_id": "24-bbq-breakfast-llc-mableton", "id": 728055840, "votes": null, "tagline": null, "has_video": false, "website": null, "offers": null, "latitude": 33.783418, "politanName": "Atlanta, GA Metro ", "phone_number": "7704856433", "tags": [{"primary": true, "id": 1724, "name": "Barbecue Restaurants"}], "fax_number": null, "expansion": {"count": null, "uri": null}, "impression_id": "000b00000073a0bcfada9449628a577e521fb341f7", "profile": "http://www.citysearch.com/profile/728055840/mableton_ga/24_bbq_breakfast_llc.html", "address": {"city": "Mableton", "state": "GA", "street": "6960 Mableton Pkwy Se", "postal_code": "30126"}, "capProviderId": null, "distance": null, "has_offers": false, "name": "24 BBQ & Breakfast LLC", "longitude": -84.541117, "has_menu": false, "awards": null, "user_review_count": 0}, {"business_operation_status": 1, "rating": null, "neighborhood": null, "image": null, "scorecard": null, "featured": false, "sample_categories": "Restaurants, Barbecue Restaurants, Carry Out", "public_id": "ruchda-wings-fairburn", "id": 728059440, "votes": null, "tagline": null, "has_video": false, "website": "http://www.citysearch.com/profile/external/728059440/fairburn_ga/ruchda_wings.html", "offers": null, "latitude": 33.645076, "politanName": "Atlanta, GA Metro ", "phone_number": "7703064884", "tags": [{"primary": false, "id": 1724, "name": "Barbecue Restaurants"}, {"primary": false, "id": 11247, "name": "Carry Out"}, {"primary": true, "id": 1722, "name": "Restaurants"}], "fax_number": null, "expansion": {"count": null, "uri": null}, "impression_id": "000b00000040e056a603e34103a712b8de55fb2b4d", "profile": "http://www.citysearch.com/profile/728059440/fairburn_ga/ruchda_wings.html", "address": {"city": "Fairburn", "state": "GA", "street": "5370 Highway 92 # 630", "postal_code": "30213"}, "capProviderId": null, "distance": null, "has_offers": false, "name": "Ruchda Wings", "longitude": -84.650695, "has_menu": true, "awards": null, "user_review_count": 0}, {"business_operation_status": 1, "rating": null, "neighborhood": null, "image": null, "scorecard": null, "featured": false, "sample_categories": "Restaurants, Delis And Delicatessens, Carry Out, Shop Online", "public_id": "jimmy-johns-atlanta-17", "id": 793342280, "votes": null, "tagline": null, "has_video": false, "website": "http://www.citysearch.com/profile/external/793342280/atlanta_ga/jimmy_john_s.html", "offers": null, "latitude": 33.731141, "politanName": "Atlanta, GA Metro ", "phone_number": "4046370350", "tags": [{"primary": false, "id": 1727, "name": "Delis And Delicatessens"}, {"primary": false, "id": 11247, "name": "Carry Out"}, {"primary": false, "id": 11375, "name": "Shop Online"}, {"primary": true, "id": 1722, "name": "Restaurants"}], "fax_number": null, "expansion": {"count": null, "uri": null}, "impression_id": "000b000000fb64dbea9cc14596937df5636c50b8af", "profile": "http://www.citysearch.com/profile/793342280/atlanta_ga/jimmy_john_s.html", "address": {"city": "Atlanta", "state": "GA", "street": "5626 Fulton Industrial Blvd Sw", "postal_code": "30336"}, "capProviderId": null, "distance": null, "has_offers": false, "name": "Jimmy John's", "longitude": -84.570206, "has_menu": false, "awards": null, "user_review_count": 0}, {"business_operation_status": 0, "rating": null, "neighborhood": null, "image": null, "scorecard": null, "featured": false, "sample_categories": "Restaurants", "public_id": "mrs-winners-chicken-biscuits-atlanta-4", "id": 3025839, "votes": null, "tagline": null, "has_video": false, "website": null, "offers": null, "latitude": 33.769016, "politanName": "Atlanta, GA Metro ", "phone_number": "4046964784", "tags": [{"primary": true, "id": 1722, "name": "Restaurants"}], "fax_number": null, "expansion": {"count": null, "uri": null}, "impression_id": "000b00000037cd339453b04fc8a4723c49b66b91d0", "profile": "http://www.citysearch.com/profile/3025839/atlanta_ga/mrs_winners_chicken_biscuits.html", "address": {"city": "Atlanta", "state": "GA", "street": "4145 Fulton Industrial Blvd SW", "postal_code": "30336"}, "capProviderId": null, "distance": null, "has_offers": false, "name": "Mrs Winners Chicken & Biscuits", "longitude": -84.522945, "has_menu": true, "awards": null, "user_review_count": 0}, {"business_operation_status": 1, "rating": null, "neighborhood": null, "image": null, "scorecard": null, "featured": false, "sample_categories": "Restaurants, Carry Out, Hamburgers", "public_id": "mc-donalds-austell-3", "id": 742217920, "votes": null, "tagline": null, "has_video": false, "website": "http://www.citysearch.com/profile/external/742217920/austell_ga/mc_donald_s.html", "offers": null, "latitude": 33.866346, "politanName": "Atlanta, GA Metro ", "phone_number": "7702221927", "tags": [{"primary": false, "id": 11247, "name": "Carry Out"}, {"primary": false, "id": 11270, "name": "Hamburgers"}, {"primary": true, "id": 1722, "name": "Restaurants"}], "fax_number": null, "expansion": {"count": null, "uri": null}, "impression_id": "000b00000072ac62947e014e4cb6fab9da197940eb", "profile": "http://www.citysearch.com/profile/742217920/austell_ga/mc_donald_s.html", "address": {"city": "Austell", "state": "GA", "street": "E West Connector & Marathon", "postal_code": "30106"}, "capProviderId": null, "distance": null, "has_offers": false, "name": "Mc Donald's", "longitude": -84.626708, "has_menu": false, "awards": null, "user_review_count": 0}, {"business_operation_status": 1, "rating": null, "neighborhood": null, "image": null, "scorecard": null, "featured": false, "sample_categories": "Restaurants, Seafood", "public_id": "house-crab-atlanta", "id": 742329070, "votes": null, "tagline": null, "has_video": false, "website": null, "offers": null, "latitude": 33.731895, "politanName": "Atlanta, GA Metro ", "phone_number": "6787053960", "tags": [{"primary": false, "id": 11228, "name": "Seafood"}, {"primary": true, "id": 1722, "name": "Restaurants"}], "fax_number": null, "expansion": {"count": null, "uri": null}, "impression_id": "000b000000a08164510a724b7e8d49a152d1edd6a2", "profile": "http://www.citysearch.com/profile/742329070/atlanta_ga/house_crab.html", "address": {"city": "Atlanta", "state": "GA", "street": "815 Cascade Ave Sw", "postal_code": "30310"}, "capProviderId": null, "distance": null, "has_offers": false, "name": "House Crab", "longitude": -84.535385, "has_menu": false, "awards": null, "user_review_count": 0}, {"business_operation_status": 1, "rating": null, "neighborhood": null, "image": null, "scorecard": null, "featured": false, "sample_categories": "Juice & Smoothie Shops, Vitamins", "public_id": "juice-plus-douglasville", "id": 821859010, "votes": null, "tagline": null, "has_video": false, "website": null, "offers": null, "latitude": 33.724983, "politanName": "Atlanta, GA Metro ", "phone_number": "4048805471", "tags": [{"primary": false, "id": 11164, "name": "Vitamins"}, {"primary": true, "id": 1735, "name": "Juice & Smoothie Shops"}], "fax_number": null, "expansion": {"count": null, "uri": null}, "impression_id": "000b000000ea037335276f435ba7b68ce2b6232d1f", "profile": "http://www.citysearch.com/profile/821859010/douglasville_ga/juice_plus.html", "address": {"city": "Douglasville", "state": "GA", "street": "2959 Chapel Hill Rd", "postal_code": "30135"}, "capProviderId": null, "distance": null, "has_offers": false, "name": "Juice Plus", "longitude": -84.73576, "has_menu": false, "awards": null, "user_review_count": 0}, {"business_operation_status": 1, "rating": null, "neighborhood": null, "image": null, "scorecard": null, "featured": false, "sample_categories": "Restaurants", "public_id": "valindas-cozy-kitchen-austell-2", "id": 814424400, "votes": null, "tagline": null, "has_video": false, "website": null, "offers": null, "latitude": 33.834562, "politanName": "Atlanta, GA Metro ", "phone_number": "7709440410", "tags": [{"primary": true, "id": 1722, "name": "Restaurants"}], "fax_number": null, "expansion": {"count": null, "uri": null}, "impression_id": "000b000000a3c5af87f2e849df98a7b675c521db2b", "profile": "http://www.citysearch.com/profile/814424400/austell_ga/valinda_s_cozy_kitchen.html", "address": {"city": "Austell", "state": "GA", "street": "2075 Warren Dr", "postal_code": "30106"}, "capProviderId": null, "distance": null, "has_offers": false, "name": "Valinda's Cozy Kitchen", "longitude": -84.61502, "has_menu": false, "awards": null, "user_review_count": 0}, {"business_operation_status": 1, "rating": null, "neighborhood": null, "image": null, "scorecard": null, "featured": false, "sample_categories": "Restaurants, Pizza, Carry Out", "public_id": "little-caesars-pizza-austell", "id": 817405370, "votes": null, "tagline": null, "has_video": false, "website": null, "offers": null, "latitude": 33.836659, "politanName": "Atlanta, GA Metro ", "phone_number": "7709485001", "tags": [{"primary": false, "id": 1722, "name": "Restaurants"}, {"primary": false, "id": 11247, "name": "Carry Out"}, {"primary": true, "id": 11299, "name": "Pizza"}], "fax_number": null, "expansion": {"count": null, "uri": null}, "impression_id": "000b0000000340cef65bc647f5bba2e6cb6148c5a8", "profile": "http://www.citysearch.com/profile/817405370/austell_ga/little_caesars_pizza.html", "address": {"city": "Austell", "state": "GA", "street": "3753 Austell Rd", "postal_code": "30106"}, "capProviderId": null, "distance": null, "has_offers": false, "name": "Little Caesars Pizza", "longitude": -84.611909, "has_menu": false, "awards": null, "user_review_count": 0}, {"business_operation_status": 1, "rating": null, "neighborhood": null, "image": null, "scorecard": null, "featured": false, "sample_categories": "Restaurants, Pizza, Carry Out", "public_id": "little-caesars-pizza-fairburn", "id": 653563600, "votes": null, "tagline": null, "has_video": false, "website": "http://www.citysearch.com/profile/external/653563600/fairburn_ga/little_caesars_pizza.html", "offers": null, "latitude": 33.645076, "politanName": "Atlanta, GA Metro ", "phone_number": "7703061130", "tags": [{"primary": false, "id": 1722, "name": "Restaurants"}, {"primary": false, "id": 11247, "name": "Carry Out"}, {"primary": true, "id": 11299, "name": "Pizza"}], "fax_number": null, "expansion": {"count": null, "uri": null}, "impression_id": "000b000000332637286c814b76b7ed0c943d4849d4", "profile": "http://www.citysearch.com/profile/653563600/fairburn_ga/little_caesars_pizza.html", "address": {"city": "Fairburn", "state": "GA", "street": "5370 Highway 92 # 710", "postal_code": "30213"}, "capProviderId": null, "distance": null, "has_offers": false, "name": "Little Caesars Pizza", "longitude": -84.650695, "has_menu": true, "awards": null, "user_review_count": 0}, {"business_operation_status": 1, "rating": null, "neighborhood": null, "image": null, "scorecard": null, "featured": false, "sample_categories": "Restaurants, Chinese", "public_id": "panda-xpress-lithia", "id": 787089480, "votes": null, "tagline": null, "has_video": false, "website": null, "offers": null, "latitude": 33.793995, "politanName": "Atlanta, GA Metro ", "phone_number": "6782323124", "tags": [{"primary": false, "id": 11252, "name": "Chinese"}, {"primary": true, "id": 1722, "name": "Restaurants"}], "fax_number": null, "expansion": {"count": null, "uri": null}, "impression_id": "000b0000006e5efbf5ada5447faab1345a8e94d7a0", "profile": "http://www.citysearch.com/profile/787089480/lithia_springs_ga/panda_xpress.html", "address": {"city": "Lithia Springs", "state": "GA", "street": "Po Box 1365", "postal_code": "30122"}, "capProviderId": null, "distance": null, "has_offers": false, "name": "Panda Xpress", "longitude": -84.66049, "has_menu": false, "awards": null, "user_review_count": 0}, {"business_operation_status": 1, "rating": null, "neighborhood": null, "image": null, "scorecard": null, "featured": false, "sample_categories": "Restaurants", "public_id": "kds-cafe-inc-powder", "id": 828806350, "votes": null, "tagline": null, "has_video": false, "website": null, "offers": null, "latitude": 33.842913, "politanName": "Atlanta, GA Metro ", "phone_number": "7709434912", "tags": [{"primary": true, "id": 1722, "name": "Restaurants"}], "fax_number": null, "expansion": {"count": null, "uri": null}, "impression_id": "000b00000010b4bd16d54442fea7c29ab0b9b00598", "profile": "http://www.citysearch.com/profile/828806350/powder_springs_ga/kds_cafe_inc.html", "address": {"city": "Powder Springs", "state": "GA", "street": "4565 Ridgeview Dr", "postal_code": "30127"}, "capProviderId": null, "distance": null, "has_offers": false, "name": "Kds Cafe Inc", "longitude": -84.721382, "has_menu": false, "awards": null, "user_review_count": 0}, {"business_operation_status": 1, "rating": null, "neighborhood": null, "image": null, "scorecard": null, "featured": false, "sample_categories": "Restaurants", "public_id": "el-tapatio-mableton", "id": 832623600, "votes": null, "tagline": null, "has_video": false, "website": null, "offers": null, "latitude": 33.823999, "politanName": "Atlanta, GA Metro ", "phone_number": "7707458920", "tags": [{"primary": true, "id": 1722, "name": "Restaurants"}], "fax_number": null, "expansion": {"count": null, "uri": null}, "impression_id": "000b00000084858c78388b40568e5ce3c5fbb2dea9", "profile": "http://www.citysearch.com/profile/832623600/mableton_ga/el_tapatio.html", "address": {"city": "Mableton", "state": "GA", "street": "5345 Floyd Rd Sw", "postal_code": "30126"}, "capProviderId": null, "distance": null, "has_offers": false, "name": "El Tapatio", "longitude": -84.574687, "has_menu": true, "awards": null, "user_review_count": 0}, {"business_operation_status": 1, "rating": null, "neighborhood": null, "image": null, "scorecard": null, "featured": false, "sample_categories": "Restaurants", "public_id": "underwood-enterprises-inc-mableton", "id": 732242390, "votes": null, "tagline": null, "has_video": false, "website": null, "offers": null, "latitude": 33.835202, "politanName": "Atlanta, GA Metro ", "phone_number": "7708238349", "tags": [{"primary": true, "id": 1722, "name": "Restaurants"}], "fax_number": null, "expansion": {"count": null, "uri": null}, "impression_id": "000b000000596a5df6d74a4be6a83878e3c70021f6", "profile": "http://www.citysearch.com/profile/732242390/mableton_ga/underwood_enterprises_inc.html", "address": {"city": "Mableton", "state": "GA", "street": "4870 Floyd Rd SW # 30", "postal_code": "30126"}, "capProviderId": null, "distance": null, "has_offers": false, "name": "Underwood Enterprises Inc", "longitude": -84.576887, "has_menu": false, "awards": null, "user_review_count": 0}, {"business_operation_status": 1, "rating": null, "neighborhood": null, "image": null, "scorecard": null, "featured": false, "sample_categories": "Restaurants", "public_id": "pegasus-foods-inc-powder", "id": 732186320, "votes": null, "tagline": null, "has_video": false, "website": null, "offers": null, "latitude": 33.906794, "politanName": "Atlanta, GA Metro ", "phone_number": "7704391489", "tags": [{"primary": true, "id": 1722, "name": "Restaurants"}], "fax_number": null, "expansion": {"count": null, "uri": null}, "impression_id": "000b00000004382540e05e4275997edf0eb56ab2c7", "profile": "http://www.citysearch.com/profile/732186320/powder_springs_ga/pegasus_foods_inc.html", "address": {"city": "Powder Springs", "state": "GA", "street": "3640 Velma Dr", "postal_code": "30127"}, "capProviderId": null, "distance": null, "has_offers": false, "name": "Pegasus Foods Inc", "longitude": -84.660285, "has_menu": false, "awards": null, "user_review_count": 0}, {"business_operation_status": 1, "rating": null, "neighborhood": null, "image": null, "scorecard": null, "featured": false, "sample_categories": "Restaurants", "public_id": "joe-joes-hsesoul-rstrnt-atlanta", "id": 802522330, "votes": null, "tagline": null, "has_video": false, "website": null, "offers": null, "latitude": 33.665579, "politanName": "Atlanta, GA Metro ", "phone_number": "6785158640", "tags": [{"primary": true, "id": 1722, "name": "Restaurants"}], "fax_number": null, "expansion": {"count": null, "uri": null}, "impression_id": "000b000000167540e69baa43e09a3d70dc23bf9a23", "profile": "http://www.citysearch.com/profile/802522330/atlanta_ga/joe_joe_s_hse_soul_rstrnt.html", "address": {"city": "Atlanta", "state": "GA", "street": "3220 Butner Rd Sw", "postal_code": "30331"}, "capProviderId": null, "distance": null, "has_offers": false, "name": "Joe Joe's Hse-Soul Rstrnt", "longitude": -84.551163, "has_menu": false, "awards": null, "user_review_count": 0}, {"business_operation_status": 1, "rating": null, "neighborhood": null, "image": null, "scorecard": null, "featured": false, "sample_categories": "Restaurants", "public_id": "international-delights-ja-douglasville", "id": 732232890, "votes": null, "tagline": null, "has_video": false, "website": null, "offers": null, "latitude": 33.697665, "politanName": "Atlanta, GA Metro ", "phone_number": "6787150619", "tags": [{"primary": true, "id": 1722, "name": "Restaurants"}], "fax_number": null, "expansion": {"count": null, "uri": null}, "impression_id": "000b000000f4c602be27df484fb6ac34c4b50b08ae", "profile": "http://www.citysearch.com/profile/732232890/douglasville_ga/international_delights_ja.html", "address": {"city": "Douglasville", "state": "GA", "street": "4005 Willow Ridge Rd", "postal_code": "30135"}, "capProviderId": null, "distance": null, "has_offers": false, "name": "International Delights Ja", "longitude": -84.705855, "has_menu": false, "awards": null, "user_review_count": 0}, {"business_operation_status": 1, "rating": null, "neighborhood": "Southwest, Southwest", "image": null, "scorecard": null, "featured": false, "sample_categories": "Seafood Markets, Restaurants, Variety Stores, Seafood", "public_id": "rahims-seafood-variety-str-atlanta", "id": 655816860, "votes": null, "tagline": null, "has_video": false, "website": null, "offers": null, "latitude": 33.696354, "politanName": "Atlanta, GA Metro ", "phone_number": "4043498818", "tags": [{"primary": false, "id": 1722, "name": "Restaurants"}, {"primary": false, "id": 3928, "name": "Variety Stores"}, {"primary": false, "id": 11228, "name": "Seafood"}, {"primary": true, "id": 1719, "name": "Seafood Markets"}], "fax_number": null, "expansion": {"count": null, "uri": null}, "impression_id": "000b000000f0f0b6f6b0584edabe44b934fcf497d3", "profile": "http://www.citysearch.com/profile/655816860/atlanta_ga/rahim_s_seafood_variety_str.html", "address": {"city": "Atlanta", "state": "GA", "street": "4485 Campbellton Rd Sw", "postal_code": "30331"}, "capProviderId": null, "distance": null, "has_offers": false, "name": "Rahim's Seafood & Variety Str", "longitude": -84.534969, "has_menu": false, "awards": null, "user_review_count": 0}, {"business_operation_status": 1, "rating": null, "neighborhood": null, "image": null, "scorecard": null, "featured": false, "sample_categories": "Restaurants, Carry Out, Shop Online, Chicken", "public_id": "kfc-lithia", "id": 802463510, "votes": null, "tagline": null, "has_video": false, "website": "http://www.citysearch.com/profile/external/802463510/lithia_springs_ga/kfc.html", "offers": null, "latitude": 33.793036, "politanName": "Atlanta, GA Metro ", "phone_number": "7707454141", "tags": [{"primary": false, "id": 11247, "name": "Carry Out"}, {"primary": false, "id": 11375, "name": "Shop Online"}, {"primary": false, "id": 12839, "name": "Chicken"}, {"primary": true, "id": 1722, "name": "Restaurants"}], "fax_number": null, "expansion": {"count": null, "uri": null}, "impression_id": "000b0000001c0d98cd891b418e9ad34592ea28a4d7", "profile": "http://www.citysearch.com/profile/802463510/lithia_springs_ga/kfc.html", "address": {"city": "Lithia Springs", "state": "GA", "street": "4001 Veterans Memorial Hwy", "postal_code": "30122"}, "capProviderId": null, "distance": null, "has_offers": false, "name": "KFC", "longitude": -84.671606, "has_menu": true, "awards": null, "user_review_count": 0}, {"business_operation_status": 1, "rating": null, "neighborhood": null, "image": null, "scorecard": null, "featured": false, "sample_categories": "Restaurants, Soul", "public_id": "acko-frank-soul-food-ctrng-atlanta", "id": 777731350, "votes": null, "tagline": null, "has_video": false, "website": null, "offers": null, "latitude": 33.768286, "politanName": "Atlanta, GA Metro ", "phone_number": "4046963369", "tags": [{"primary": false, "id": 15140, "name": "Soul"}, {"primary": true, "id": 1722, "name": "Restaurants"}], "fax_number": null, "expansion": {"count": null, "uri": null}, "impression_id": "000b000000ec6a2b3a1ccb473581c4cc0301d07b01", "profile": "http://www.citysearch.com/profile/777731350/atlanta_ga/acko_frank_soul_food_ctrng.html", "address": {"city": "Atlanta", "state": "GA", "street": "4120 Fulton Industrial Blvd Sw", "postal_code": "30336"}, "capProviderId": null, "distance": null, "has_offers": false, "name": "Acko Frank Soul Food & Ctrng", "longitude": -84.521534, "has_menu": false, "awards": null, "user_review_count": 0}, {"business_operation_status": 1, "rating": null, "neighborhood": null, "image": null, "scorecard": null, "featured": false, "sample_categories": "Restaurants", "public_id": "rahims-seafood-inc-powder", "id": 806264920, "votes": null, "tagline": null, "has_video": false, "website": null, "offers": null, "latitude": 33.822061, "politanName": "Atlanta, GA Metro ", "phone_number": "7709435544", "tags": [{"primary": true, "id": 1722, "name": "Restaurants"}], "fax_number": null, "expansion": {"count": null, "uri": null}, "impression_id": "000b0000007f5cd112691d4a33b484041194cdcbe8", "profile": "http://www.citysearch.com/profile/806264920/powder_springs_ga/rahim_s_seafood_inc.html", "address": {"city": "Powder Springs", "state": "GA", "street": "4123 Sweetsprings Ter SW", "postal_code": "30127"}, "capProviderId": null, "distance": null, "has_offers": false, "name": "Rahim's Seafood Inc", "longitude": -84.676431, "has_menu": false, "awards": null, "user_review_count": 0}, {"business_operation_status": 1, "rating": null, "neighborhood": null, "image": null, "scorecard": null, "featured": false, "sample_categories": "Restaurants", "public_id": "wan-fu-chinese-austell", "id": 814396930, "votes": null, "tagline": null, "has_video": false, "website": null, "offers": null, "latitude": 33.829858, "politanName": "Atlanta, GA Metro ", "phone_number": "7709486668", "tags": [{"primary": true, "id": 1722, "name": "Restaurants"}], "fax_number": null, "expansion": {"count": null, "uri": null}, "impression_id": "000b0000004da3c77b63bb4489a624b18041c8002c", "profile": "http://www.citysearch.com/profile/814396930/austell_ga/wan_fu_chinese.html", "address": {"city": "Austell", "state": "GA", "street": "5055 Austell Rd # 153", "postal_code": "30106"}, "capProviderId": null, "distance": null, "has_offers": false, "name": "Wan Fu Chinese", "longitude": -84.612138, "has_menu": false, "awards": null, "user_review_count": 0}, {"business_operation_status": 1, "rating": null, "neighborhood": null, "image": null, "scorecard": null, "featured": false, "sample_categories": "Restaurants", "public_id": "ml-products-llc-douglasville", "id": 732238190, "votes": null, "tagline": null, "has_video": false, "website": null, "offers": null, "latitude": 33.68408, "politanName": "Atlanta, GA Metro ", "phone_number": "4045809501", "tags": [{"primary": true, "id": 1722, "name": "Restaurants"}], "fax_number": null, "expansion": {"count": null, "uri": null}, "impression_id": "000b00000096d228f8209b4db4b3af945bef7415df", "profile": "http://www.citysearch.com/profile/732238190/douglasville_ga/m_l_products_llc.html", "address": {"city": "Douglasville", "state": "GA", "street": "4447 Pipemaker Blf", "postal_code": "30135"}, "capProviderId": null, "distance": null, "has_offers": false, "name": "M&L Products LLC", "longitude": -84.690445, "has_menu": false, "awards": null, "user_review_count": 0}, {"business_operation_status": 1, "rating": null, "neighborhood": null, "image": null, "scorecard": null, "featured": false, "sample_categories": "Restaurants", "public_id": "johnnys-jerk-barbeque-mableton", "id": 808729280, "votes": null, "tagline": null, "has_video": false, "website": null, "offers": null, "latitude": 33.835173, "politanName": "Atlanta, GA Metro ", "phone_number": "6788386770", "tags": [{"primary": true, "id": 1722, "name": "Restaurants"}], "fax_number": null, "expansion": {"count": null, "uri": null}, "impression_id": "000b000000ab10b1105c2941aba73e40b50d22ffbf", "profile": "http://www.citysearch.com/profile/808729280/mableton_ga/johnny_s_jerk_barbeque.html", "address": {"city": "Mableton", "state": "GA", "street": "4875 Floyd Rd SW", "postal_code": "30126"}, "capProviderId": null, "distance": null, "has_offers": false, "name": "Johnny's Jerk & Barbeque", "longitude": -84.574622, "has_menu": false, "awards": null, "user_review_count": 0}, {"business_operation_status": 1, "rating": null, "neighborhood": null, "image": null, "scorecard": null, "featured": false, "sample_categories": "Restaurants", "public_id": "cafe-moms-douglasville", "id": 622212590, "votes": null, "tagline": null, "has_video": false, "website": null, "offers": null, "latitude": 33.78174, "politanName": "Atlanta, GA Metro ", "phone_number": "6784027897", "tags": [{"primary": true, "id": 1722, "name": "Restaurants"}], "fax_number": null, "expansion": {"count": null, "uri": null}, "impression_id": "000b0000005f359da2b1874db5909c98d1a2c05ba3", "profile": "http://www.citysearch.com/profile/622212590/douglasville_ga/cafe_mom_s.html", "address": {"city": "Douglasville", "state": "GA", "street": "4010 Bankhead Hwy", "postal_code": "30134"}, "capProviderId": null, "distance": null, "has_offers": false, "name": "Cafe Mom's", "longitude": -84.702227, "has_menu": false, "awards": null, "user_review_count": 0}, {"business_operation_status": 1, "rating": null, "neighborhood": null, "image": null, "scorecard": null, "featured": false, "sample_categories": "Ice Cream Parlors, Restaurants, Dessert Shops", "public_id": "baskin-robbins-distr-center-atlanta", "id": 43873335, "votes": null, "tagline": null, "has_video": false, "website": null, "offers": null, "latitude": 33.705735, "politanName": "Atlanta, GA Metro ", "phone_number": "4043492900", "tags": [{"primary": false, "id": 1722, "name": "Restaurants"}, {"primary": false, "id": 1728, "name": "Dessert Shops"}, {"primary": true, "id": 1730, "name": "Ice Cream Parlors"}], "fax_number": null, "expansion": {"count": null, "uri": null}, "impression_id": "000b0000007808a34b01b741cc83ee1543130b1c14", "profile": "http://www.citysearch.com/profile/43873335/atlanta_ga/baskin_robbins_distr_center.html", "address": {"city": "Atlanta", "state": "GA", "street": "1845 Westgate Pkwy SW", "postal_code": "30336"}, "capProviderId": null, "distance": null, "has_offers": false, "name": "Baskin Robbins Distr Center", "longitude": -84.609579, "has_menu": true, "awards": null, "user_review_count": 0}, {"business_operation_status": 1, "rating": null, "neighborhood": null, "image": null, "scorecard": null, "featured": false, "sample_categories": "Restaurants", "public_id": "tme-enterprises-i-ltd-lithia-spg", "id": 699265630, "votes": null, "tagline": null, "has_video": false, "website": null, "offers": null, "latitude": 33.778818, "politanName": "Atlanta, GA Metro ", "phone_number": "7707391194", "tags": [{"primary": true, "id": 1722, "name": "Restaurants"}], "fax_number": null, "expansion": {"count": null, "uri": null}, "impression_id": "000b00000010cc9f8ce4d5477c9f254f80a433f2e7", "profile": "http://www.citysearch.com/profile/699265630/lithia_springs_ga/tme_enterprises_i_ltd.html", "address": {"city": "Lithia Springs", "state": "GA", "street": "987 Thornton Rd", "postal_code": "30122"}, "capProviderId": null, "distance": null, "has_offers": false, "name": "Tme Enterprises I LTD", "longitude": -84.60743, "has_menu": false, "awards": null, "user_review_count": 0}, {"business_operation_status": 1, "rating": null, "neighborhood": null, "image": null, "scorecard": null, "featured": false, "sample_categories": "Delis And Delicatessens, Sandwich Shops", "public_id": "threadmill-deli-austell", "id": 695583100, "votes": null, "tagline": null, "has_video": false, "website": null, "offers": null, "latitude": 33.832536, "politanName": "Atlanta, GA Metro ", "phone_number": "7707459100", "tags": [{"primary": false, "id": 1736, "name": "Sandwich Shops"}, {"primary": true, "id": 1727, "name": "Delis And Delicatessens"}], "fax_number": null, "expansion": {"count": null, "uri": null}, "impression_id": "000b000000aa2f8f5476ff46809ded713a9b37b17a", "profile": "http://www.citysearch.com/profile/695583100/austell_ga/threadmill_deli.html", "address": {"city": "Austell", "state": "GA", "street": "5000 Austell Powder Spngs#289", "postal_code": "30106"}, "capProviderId": null, "distance": null, "has_offers": false, "name": "Threadmill Deli", "longitude": -84.654686, "has_menu": false, "awards": null, "user_review_count": 0}, {"business_operation_status": 1, "rating": null, "neighborhood": null, "image": null, "scorecard": null, "featured": false, "sample_categories": "Restaurants, Delis And Delicatessens, Sandwich Shops, Carry Out, Soups", "public_id": "subway-atlanta-60", "id": 622293720, "votes": null, "tagline": null, "has_video": false, "website": "http://www.citysearch.com/profile/external/622293720/atlanta_ga/subway.html", "offers": null, "latitude": 33.731746, "politanName": "Atlanta, GA Metro ", "phone_number": "4043448400", "tags": [{"primary": false, "id": 1727, "name": "Delis And Delicatessens"}, {"primary": false, "id": 1736, "name": "Sandwich Shops"}, {"primary": false, "id": 11247, "name": "Carry Out"}, {"primary": false, "id": 11311, "name": "Soups"}, {"primary": true, "id": 1722, "name": "Restaurants"}], "fax_number": null, "expansion": {"count": null, "uri": null}, "impression_id": "000b0000008caef026f22e4fe4a34255f84e3d4fe5", "profile": "http://www.citysearch.com/profile/622293720/atlanta_ga/subway.html", "address": {"city": "Atlanta", "state": "GA", "street": "5630 Fulton Industrial Blvd Sw", "postal_code": "30336"}, "capProviderId": null, "distance": null, "has_offers": false, "name": "Subway", "longitude": -84.569295, "has_menu": true, "awards": null, "user_review_count": 0}, {"business_operation_status": 1, "rating": null, "neighborhood": null, "image": null, "scorecard": null, "featured": false, "sample_categories": "Restaurants", "public_id": "bzz-southern-delight-atlanta", "id": 43881357, "votes": null, "tagline": null, "has_video": false, "website": null, "offers": null, "latitude": 33.768286, "politanName": "Atlanta, GA Metro ", "phone_number": "4046963991", "tags": [{"primary": true, "id": 1722, "name": "Restaurants"}], "fax_number": null, "expansion": {"count": null, "uri": null}, "impression_id": "000b000000d6857163d04b46e5a5214e456a1e6a0e", "profile": "http://www.citysearch.com/profile/43881357/atlanta_ga/b_zz_southern_delight.html", "address": {"city": "Atlanta", "state": "GA", "street": "4120 Fulton Industrial Blvd SW", "postal_code": "30336"}, "capProviderId": null, "distance": null, "has_offers": false, "name": "B'zz Southern Delight", "longitude": -84.521534, "has_menu": false, "awards": null, "user_review_count": 0}, {"business_operation_status": 1, "rating": null, "neighborhood": null, "image": null, "scorecard": null, "featured": false, "sample_categories": "Restaurants, Chinese", "public_id": "china-88-fairburn-2", "id": 632963890, "votes": null, "tagline": null, "has_video": false, "website": null, "offers": null, "latitude": 33.645076, "politanName": "Atlanta, GA Metro ", "phone_number": "7709648288", "tags": [{"primary": false, "id": 11252, "name": "Chinese"}, {"primary": true, "id": 1722, "name": "Restaurants"}], "fax_number": null, "expansion": {"count": null, "uri": null}, "impression_id": "000b000000b7a47fe02cee4454a4da5abf834634d3", "profile": "http://www.citysearch.com/profile/632963890/fairburn_ga/china_88.html", "address": {"city": "Fairburn", "state": "GA", "street": "5370 Highway 92 # 520", "postal_code": "30213"}, "capProviderId": null, "distance": null, "has_offers": false, "name": "China 88", "longitude": -84.650695, "has_menu": false, "awards": null, "user_review_count": 1}, {"business_operation_status": 1, "rating": null, "neighborhood": "Southwest, Southwest", "image": null, "scorecard": null, "featured": false, "sample_categories": "Restaurants, Seafood", "public_id": "ts-fish-more-atlanta", "id": 655891990, "votes": null, "tagline": null, "has_video": false, "website": null, "offers": null, "latitude": 33.698565, "politanName": "Atlanta, GA Metro ", "phone_number": "4043444456", "tags": [{"primary": false, "id": 11228, "name": "Seafood"}, {"primary": true, "id": 1722, "name": "Restaurants"}], "fax_number": null, "expansion": {"count": null, "uri": null}, "impression_id": "000b000000fb9a07cb862a43c6bb36967fdce8924c", "profile": "http://www.citysearch.com/profile/655891990/atlanta_ga/t_s_fish_more.html", "address": {"city": "Atlanta", "state": "GA", "street": "2841 Greenbriar Pkwy Sw #N316a", "postal_code": "30331"}, "capProviderId": null, "distance": null, "has_offers": false, "name": "T's Fish & More", "longitude": -84.543187, "has_menu": false, "awards": null, "user_review_count": 0}, {"business_operation_status": 1, "rating": null, "neighborhood": null, "image": null, "scorecard": null, "featured": false, "sample_categories": "Restaurants", "public_id": "ragazzis-marietta", "id": 775214350, "votes": null, "tagline": null, "has_video": false, "website": null, "offers": null, "latitude": 33.863583, "politanName": "Atlanta, GA Metro ", "phone_number": "7704326846", "tags": [{"primary": true, "id": 1722, "name": "Restaurants"}], "fax_number": null, "expansion": {"count": null, "uri": null}, "impression_id": "000b000000a949f661b0c248ed8c635faf447a3537", "profile": "http://www.citysearch.com/profile/775214350/marietta_ga/ragazzi_s.html", "address": {"city": "Marietta", "state": "GA", "street": "3696 Austell Rd SW", "postal_code": "30008"}, "capProviderId": null, "distance": null, "has_offers": false, "name": "Ragazzi's", "longitude": -84.595971, "has_menu": false, "awards": null, "user_review_count": 0}, {"business_operation_status": 1, "rating": null, "neighborhood": null, "image": null, "scorecard": null, "featured": false, "sample_categories": "Restaurants, Restaurant Management", "public_id": "jimlar-corp-mableton", "id": 37648465, "votes": null, "tagline": null, "has_video": false, "website": null, "offers": null, "latitude": 33.829896, "politanName": "Atlanta, GA Metro ", "phone_number": "7709486558", "tags": [{"primary": false, "id": 1722, "name": "Restaurants"}, {"primary": false, "id": 11122, "name": "Restaurant Management"}], "fax_number": null, "expansion": {"count": null, "uri": null}, "impression_id": "000b000000475cef9a6240487dbc69d779c6d9c648", "profile": "http://www.citysearch.com/profile/37648465/mableton_ga/jim_lar_corp.html", "address": {"city": "Mableton", "state": "GA", "street": "665 Vinings Estates Dr SE", "postal_code": "30126"}, "capProviderId": null, "distance": null, "has_offers": false, "name": "Jim-Lar Corp", "longitude": -84.534087, "has_menu": false, "awards": null, "user_review_count": 0}, {"business_operation_status": 1, "rating": 8.0, "neighborhood": null, "image": null, "scorecard": null, "featured": false, "sample_categories": "Restaurants, Seafood", "public_id": "on-the-bay-seafood-restaurant-austell", "id": 43863836, "votes": null, "tagline": null, "has_video": false, "website": null, "offers": null, "latitude": 33.814998, "politanName": "Atlanta, GA Metro ", "phone_number": "7707391175", "tags": [{"primary": false, "id": 1722, "name": "Restaurants"}, {"primary": true, "id": 11228, "name": "Seafood"}], "fax_number": null, "expansion": {"count": null, "uri": null}, "impression_id": "000b000000584d754c497f46208d93e2797447bac9", "profile": "http://www.citysearch.com/profile/43863836/austell_ga/on_the_bay_seafood_restaurant.html", "address": {"city": "Austell", "state": "GA", "street": "5742 Austell Powder Springs Rd", "postal_code": "30106"}, "capProviderId": null, "distance": null, "has_offers": false, "name": "On The Bay Seafood Restaurant", "longitude": -84.635173, "has_menu": false, "awards": null, "user_review_count": 0}, {"business_operation_status": 1, "rating": null, "neighborhood": "Southwest, Southwest", "image": null, "scorecard": null, "featured": false, "sample_categories": "Restaurants", "public_id": "e-b-enterprise-inc-atlanta", "id": 812756610, "votes": null, "tagline": null, "has_video": false, "website": null, "offers": null, "latitude": 33.708988, "politanName": "Atlanta, GA Metro ", "phone_number": "4046295774", "tags": [{"primary": true, "id": 1722, "name": "Restaurants"}], "fax_number": null, "expansion": {"count": null, "uri": null}, "impression_id": "000b0000009555b1af3bde4dbb821616dab7dad6c6", "profile": "http://www.citysearch.com/profile/812756610/atlanta_ga/e_b_enterprise_inc.html", "address": {"city": "Atlanta", "state": "GA", "street": "330 Hidden Oak CT SW", "postal_code": "30331"}, "capProviderId": null, "distance": null, "has_offers": false, "name": "E B Enterprise Inc", "longitude": -84.542917, "has_menu": false, "awards": null, "user_review_count": 0}, {"business_operation_status": 1, "rating": null, "neighborhood": null, "image": null, "scorecard": null, "featured": false, "sample_categories": "Restaurants", "public_id": "mels-atlanta", "id": 810279390, "votes": null, "tagline": null, "has_video": false, "website": null, "offers": null, "latitude": 33.764562, "politanName": "Atlanta, GA Metro ", "phone_number": "4046912221", "tags": [{"primary": true, "id": 1722, "name": "Restaurants"}], "fax_number": null, "expansion": {"count": null, "uri": null}, "impression_id": "000b000000fe19f123b2814bbabe177ec03c7c5bd1", "profile": "http://www.citysearch.com/profile/810279390/atlanta_ga/mel_s.html", "address": {"city": "Atlanta", "state": "GA", "street": "4403 Fulton Industrial Blvd SW", "postal_code": "30336"}, "capProviderId": null, "distance": null, "has_offers": false, "name": "Mel's", "longitude": -84.531854, "has_menu": false, "awards": null, "user_review_count": 0}, {"business_operation_status": 1, "rating": null, "neighborhood": null, "image": null, "scorecard": null, "featured": false, "sample_categories": "Restaurants, Delis And Delicatessens, Sandwich Shops, Carry Out, Soups", "public_id": "subway-marietta-23", "id": 45988791, "votes": null, "tagline": null, "has_video": false, "website": "http://www.citysearch.com/profile/external/45988791/marietta_ga/subway.html", "offers": null, "latitude": 33.868309, "politanName": "Atlanta, GA Metro ", "phone_number": "6783841428", "tags": [{"primary": false, "id": 1727, "name": "Delis And Delicatessens"}, {"primary": false, "id": 1736, "name": "Sandwich Shops"}, {"primary": false, "id": 11247, "name": "Carry Out"}, {"primary": false, "id": 11311, "name": "Soups"}, {"primary": true, "id": 1722, "name": "Restaurants"}], "fax_number": null, "expansion": {"count": null, "uri": null}, "impression_id": "000b000000790e307ec6f64c4ca65bbb4168a75acf", "profile": "http://www.citysearch.com/profile/45988791/marietta_ga/subway.html", "address": {"city": "Marietta", "state": "GA", "street": "6520 Ernest W Barrett Pkwy SW", "postal_code": "30064"}, "capProviderId": null, "distance": null, "has_offers": false, "name": "Subway", "longitude": -84.632278, "has_menu": true, "awards": null, "user_review_count": 0}, {"business_operation_status": 1, "rating": null, "neighborhood": null, "image": null, "scorecard": null, "featured": false, "sample_categories": "Restaurants", "public_id": "sonnys-home-cooking-mableton", "id": 832454830, "votes": null, "tagline": null, "has_video": false, "website": null, "offers": null, "latitude": 33.791518, "politanName": "Atlanta, GA Metro ", "phone_number": "7707396474", "tags": [{"primary": true, "id": 1722, "name": "Restaurants"}], "fax_number": null, "expansion": {"count": null, "uri": null}, "impression_id": "000b000000c541bb526f51430c82e22ea08b0c9ecb", "profile": "http://www.citysearch.com/profile/832454830/mableton_ga/sonnys_home_cooking.html", "address": {"city": "Mableton", "state": "GA", "street": "6200 Mableton Pkwy SE", "postal_code": "30126"}, "capProviderId": null, "distance": null, "has_offers": false, "name": "Sonnys Home Cooking", "longitude": -84.555588, "has_menu": false, "awards": null, "user_review_count": 1}, {"business_operation_status": 1, "rating": null, "neighborhood": "Southwest, Southwest", "image": null, "scorecard": null, "featured": false, "sample_categories": "Food Delivery", "public_id": "here-at-last-atlanta", "id": 704781080, "votes": null, "tagline": null, "has_video": false, "website": null, "offers": null, "latitude": 33.687977, "politanName": "Atlanta, GA Metro ", "phone_number": "6785953694", "tags": [{"primary": true, "id": 11267, "name": "Food Delivery"}], "fax_number": null, "expansion": {"count": null, "uri": null}, "impression_id": "000b0000006730c9e24c22436f97e4e8ac5a83419a", "profile": "http://www.citysearch.com/profile/704781080/atlanta_ga/here_at_last.html", "address": {"city": "Atlanta", "state": "GA", "street": "2440 Fairburn Rd Sw # 101", "postal_code": "30331"}, "capProviderId": null, "distance": null, "has_offers": false, "name": "Here At Last", "longitude": -84.510349, "has_menu": false, "awards": null, "user_review_count": 0}, {"business_operation_status": 1, "rating": null, "neighborhood": null, "image": null, "scorecard": null, "featured": false, "sample_categories": "Restaurants, Carry Out, Chicken", "public_id": "bojangles-famous-chicken-lithia", "id": 748313860, "votes": null, "tagline": null, "has_video": false, "website": "http://www.citysearch.com/profile/external/748313860/lithia_springs_ga/bojangles_famous_chicken.html", "offers": null, "latitude": 33.779843, "politanName": "Atlanta, GA Metro ", "phone_number": "7707459090", "tags": [{"primary": false, "id": 11247, "name": "Carry Out"}, {"primary": false, "id": 12839, "name": "Chicken"}, {"primary": true, "id": 1722, "name": "Restaurants"}], "fax_number": null, "expansion": {"count": null, "uri": null}, "impression_id": "000b000000ab34fa1bf11a487499d13e8458f0f3b1", "profile": "http://www.citysearch.com/profile/748313860/lithia_springs_ga/bojangles_famous_chicken.html", "address": {"city": "Lithia Springs", "state": "GA", "street": "885 Thornton Rd", "postal_code": "30122"}, "capProviderId": null, "distance": null, "has_offers": false, "name": "Bojangles' Famous Chicken", "longitude": -84.608462, "has_menu": false, "awards": null, "user_review_count": 0}, {"business_operation_status": 1, "rating": null, "neighborhood": null, "image": null, "scorecard": null, "featured": false, "sample_categories": "Restaurants, Asian", "public_id": "china-express-blue-ocean-atlanta", "id": 751313180, "votes": null, "tagline": null, "has_video": false, "website": null, "offers": null, "latitude": 33.768682, "politanName": "Atlanta, GA Metro ", "phone_number": "6789748977", "tags": [{"primary": false, "id": 11235, "name": "Asian"}, {"primary": true, "id": 1722, "name": "Restaurants"}], "fax_number": null, "expansion": {"count": null, "uri": null}, "impression_id": "000b000000007f57da71124ddd9c3146d02350b6c6", "profile": "http://www.citysearch.com/profile/751313180/atlanta_ga/china_express_blue_ocean.html", "address": {"city": "Atlanta", "state": "GA", "street": "4155 Fulton Industrial Blvd SW", "postal_code": "30336"}, "capProviderId": null, "distance": null, "has_offers": false, "name": "China Express Blue Ocean", "longitude": -84.523698, "has_menu": false, "awards": null, "user_review_count": 0}, {"business_operation_status": 1, "rating": null, "neighborhood": null, "image": null, "scorecard": null, "featured": false, "sample_categories": "Restaurants", "public_id": "dwights-delights-cafe-ctrng-douglasville", "id": 751340090, "votes": null, "tagline": null, "has_video": false, "website": null, "offers": null, "latitude": 33.695172, "politanName": "Atlanta, GA Metro ", "phone_number": "7709472860", "tags": [{"primary": true, "id": 1722, "name": "Restaurants"}], "fax_number": null, "expansion": {"count": null, "uri": null}, "impression_id": "000b0000008c6b65942d0c447e8df02453198bd9b7", "profile": "http://www.citysearch.com/profile/751340090/douglasville_ga/dwight_s_delights_cafe_ctrng.html", "address": {"city": "Douglasville", "state": "GA", "street": "4040 Chapel Hill Rd", "postal_code": "30135"}, "capProviderId": null, "distance": null, "has_offers": false, "name": "Dwight's Delights Cafe & Ctrng", "longitude": -84.714956, "has_menu": false, "awards": null, "user_review_count": 0}, {"business_operation_status": 0, "rating": null, "neighborhood": null, "image": null, "scorecard": null, "featured": false, "sample_categories": "Restaurants, Carry Out, Pizza", "public_id": "jets-pizza-mableton", "id": 764891790, "votes": null, "tagline": null, "has_video": false, "website": null, "offers": null, "latitude": 33.79697, "politanName": "Atlanta, GA Metro ", "phone_number": "4046966091", "tags": [{"primary": false, "id": 11247, "name": "Carry Out"}, {"primary": false, "id": 11299, "name": "Pizza"}, {"primary": true, "id": 1722, "name": "Restaurants"}], "fax_number": null, "expansion": {"count": null, "uri": null}, "impression_id": "000b00000021c1a440186447598a6e070065b16f67", "profile": "http://www.citysearch.com/profile/764891790/mableton_ga/jet_s_pizza.html", "address": {"city": "Mableton", "state": "GA", "street": "6375 Discovery Blvd", "postal_code": "30126"}, "capProviderId": null, "distance": null, "has_offers": false, "name": "Jet's Pizza", "longitude": -84.515016, "has_menu": true, "awards": null, "user_review_count": 0}, {"business_operation_status": 1, "rating": null, "neighborhood": null, "image": null, "scorecard": null, "featured": false, "sample_categories": "Restaurants", "public_id": "pearls-country-kitchen-mableton", "id": 777716180, "votes": null, "tagline": null, "has_video": false, "website": null, "offers": null, "latitude": 33.817665, "politanName": "Atlanta, GA Metro ", "phone_number": "7707398739", "tags": [{"primary": true, "id": 1722, "name": "Restaurants"}], "fax_number": null, "expansion": {"count": null, "uri": null}, "impression_id": "000b00000055d4007daf09460a954fcb487ab760e2", "profile": "http://www.citysearch.com/profile/777716180/mableton_ga/pearl_s_country_kitchen.html", "address": {"city": "Mableton", "state": "GA", "street": "1129 Veterans Memorial Hwy Sw", "postal_code": "30126"}, "capProviderId": null, "distance": null, "has_offers": false, "name": "Pearl's Country Kitchen", "longitude": -84.58707, "has_menu": false, "awards": null, "user_review_count": 2}, {"business_operation_status": 1, "rating": null, "neighborhood": null, "image": null, "scorecard": null, "featured": false, "sample_categories": "Restaurants", "public_id": "monicas-restaurant-mableton", "id": 777643360, "votes": null, "tagline": null, "has_video": false, "website": null, "offers": null, "latitude": 33.783418, "politanName": "Atlanta, GA Metro ", "phone_number": "7704850955", "tags": [{"primary": true, "id": 1722, "name": "Restaurants"}], "fax_number": null, "expansion": {"count": null, "uri": null}, "impression_id": "000b00000052b5c86f42d245f68c32be729d188576", "profile": "http://www.citysearch.com/profile/777643360/mableton_ga/monica_s_restaurant.html", "address": {"city": "Mableton", "state": "GA", "street": "6960 Mableton Pkwy Se", "postal_code": "30126"}, "capProviderId": null, "distance": null, "has_offers": false, "name": "Monica's Restaurant", "longitude": -84.541117, "has_menu": false, "awards": null, "user_review_count": 0}, {"business_operation_status": 1, "rating": null, "neighborhood": null, "image": null, "scorecard": null, "featured": false, "sample_categories": "Restaurants, Thai", "public_id": "thai-kitchen-douglasville", "id": 777791050, "votes": null, "tagline": null, "has_video": false, "website": null, "offers": null, "latitude": 33.709134, "politanName": "Atlanta, GA Metro ", "phone_number": "7709496016", "tags": [{"primary": false, "id": 11319, "name": "Thai"}, {"primary": true, "id": 1722, "name": "Restaurants"}], "fax_number": null, "expansion": {"count": null, "uri": null}, "impression_id": "000b0000006bd3a5c0e152465eaf4d375dc8714651", "profile": "http://www.citysearch.com/profile/777791050/douglasville_ga/thai_kitchen.html", "address": {"city": "Douglasville", "state": "GA", "street": "3532 Lanier Dr", "postal_code": "30135"}, "capProviderId": null, "distance": null, "has_offers": false, "name": "Thai Kitchen", "longitude": -84.743199, "has_menu": false, "awards": null, "user_review_count": 0}, {"business_operation_status": 1, "rating": null, "neighborhood": null, "image": null, "scorecard": null, "featured": false, "sample_categories": "Restaurants, Japanese", "public_id": "yuki-japanese-restaurant-lithia", "id": 777807160, "votes": null, "tagline": null, "has_video": false, "website": null, "offers": null, "latitude": 33.790812, "politanName": "Atlanta, GA Metro ", "phone_number": "7707321212", "tags": [{"primary": false, "id": 11202, "name": "Japanese"}, {"primary": true, "id": 1722, "name": "Restaurants"}], "fax_number": null, "expansion": {"count": null, "uri": null}, "impression_id": "000b00000006fa14f4cfeb4d6081bd7dc7e668c867", "profile": "http://www.citysearch.com/profile/777807160/lithia_springs_ga/yuki_japanese_restaurant.html", "address": {"city": "Lithia Springs", "state": "GA", "street": "470 Westfork Blvd", "postal_code": "30122"}, "capProviderId": null, "distance": null, "has_offers": false, "name": "Yuki Japanese Restaurant", "longitude": -84.62506, "has_menu": true, "awards": null, "user_review_count": 1}, {"business_operation_status": 1, "rating": null, "neighborhood": null, "image": null, "scorecard": null, "featured": false, "sample_categories": "Restaurants", "public_id": "pauliees-place-douglasville", "id": 698701760, "votes": null, "tagline": null, "has_video": false, "website": null, "offers": null, "latitude": 33.782161, "politanName": "Atlanta, GA Metro ", "phone_number": "7709420084", "tags": [{"primary": true, "id": 1722, "name": "Restaurants"}], "fax_number": null, "expansion": {"count": null, "uri": null}, "impression_id": "000b000000f2226d5144f8497ea1d3dfcd6f7b178d", "profile": "http://www.citysearch.com/profile/698701760/douglasville_ga/pauliees_place.html", "address": {"city": "Douglasville", "state": "GA", "street": "870 Dallas Hwy", "postal_code": "30134"}, "capProviderId": null, "distance": null, "has_offers": false, "name": "Pauliees Place", "longitude": -84.747828, "has_menu": false, "awards": null, "user_review_count": 0}], "histograms": [], "tag_ids": [1722], "uri": "http://api.citygridmedia.com:8080/search/places/v2/search/where?has_offers=false&type=restaurant&format=json&page=8&where=30168&rpp=50&histograms=false&publisher=10000009598&region_type=circle", "did_you_mean": "", "regions": [{"latitude": 33.78436, "default_radius": 3.57, "type": "postal_code", "name": "30168", "longitude": -84.586443}], "call_id": "000b000000c14f47e98939433c934787cc911e5552", "first_hit": 351, "total_hits": 592, "geo_ids": [26319], "page": 8, "last_hit": 400}}