{"results": {"rpp": 50, "locations": [{"business_operation_status": 1, "rating": null, "neighborhood": null, "image": null, "scorecard": null, "featured": false, "sample_categories": "Restaurants", "public_id": "hot-skillet-marietta", "id": 798833310, "votes": null, "tagline": null, "has_video": false, "website": null, "offers": null, "latitude": 33.883313, "politanName": "Atlanta, GA Metro ", "phone_number": "4043746897", "tags": [{"primary": true, "id": 1722, "name": "Restaurants"}], "fax_number": null, "expansion": {"count": null, "uri": null}, "impression_id": "000b0000003f3d7338063845c6b6a7579d47082294", "profile": "http://www.citysearch.com/profile/798833310/marietta_ga/hot_skillet.html", "address": {"city": "Marietta", "state": "GA", "street": "2200 Powder Springs Rd Sw", "postal_code": "30064"}, "capProviderId": null, "distance": null, "has_offers": false, "name": "Hot Skillet", "longitude": -84.620092, "has_menu": false, "awards": null, "user_review_count": 0}, {"business_operation_status": 1, "rating": null, "neighborhood": null, "image": null, "scorecard": null, "featured": false, "sample_categories": "Restaurants", "public_id": "atlanta-leftovers-inc-powder", "id": 732147950, "votes": null, "tagline": null, "has_video": false, "website": null, "offers": null, "latitude": 33.814495, "politanName": "Atlanta, GA Metro ", "phone_number": "6786137741", "tags": [{"primary": true, "id": 1722, "name": "Restaurants"}], "fax_number": null, "expansion": {"count": null, "uri": null}, "impression_id": "000b00000032e903c9b176487a85986ded8fb58fa8", "profile": "http://www.citysearch.com/profile/732147950/powder_springs_ga/atlanta_leftovers_inc.html", "address": {"city": "Powder Springs", "state": "GA", "street": "5430 Beaver Lake Dr", "postal_code": "30127"}, "capProviderId": null, "distance": null, "has_offers": false, "name": "Atlanta Leftovers Inc", "longitude": -84.715276, "has_menu": false, "awards": null, "user_review_count": 0}, {"business_operation_status": 1, "rating": null, "neighborhood": null, "image": null, "scorecard": null, "featured": false, "sample_categories": "Restaurants", "public_id": "mama-bettys-home-cooking-douglasville", "id": 777754260, "votes": null, "tagline": null, "has_video": false, "website": null, "offers": null, "latitude": 33.69212, "politanName": "Atlanta, GA Metro ", "phone_number": "6783918812", "tags": [{"primary": true, "id": 1722, "name": "Restaurants"}], "fax_number": null, "expansion": {"count": null, "uri": null}, "impression_id": "000b000000628118c42e8a436c808e6855aeed6ad0", "profile": "http://www.citysearch.com/profile/777754260/douglasville_ga/mama_betty_s_home_cooking.html", "address": {"city": "Douglasville", "state": "GA", "street": "4081 Anneewakee Rd", "postal_code": "30135"}, "capProviderId": null, "distance": null, "has_offers": false, "name": "Mama Betty's Home Cooking", "longitude": -84.699613, "has_menu": false, "awards": null, "user_review_count": 0}, {"business_operation_status": 1, "rating": null, "neighborhood": "Southwest, Southwest", "image": null, "scorecard": null, "featured": false, "sample_categories": "Restaurants", "public_id": "gorilla-hoagie-atlanta", "id": 37308079, "votes": null, "tagline": null, "has_video": false, "website": null, "offers": null, "latitude": 33.752906, "politanName": "Atlanta, GA Metro ", "phone_number": "4046914448", "tags": [{"primary": true, "id": 1722, "name": "Restaurants"}], "fax_number": null, "expansion": {"count": null, "uri": null}, "impression_id": "000b00000056b99d9d476a479697c5a9bbda5c11e8", "profile": "http://www.citysearch.com/profile/37308079/atlanta_ga/gorilla_hoagie.html", "address": {"city": "Atlanta", "state": "GA", "street": "3024 Martin Luther King Jr SW", "postal_code": "30311"}, "capProviderId": null, "distance": null, "has_offers": false, "name": "Gorilla Hoagie", "longitude": -84.485967, "has_menu": false, "awards": null, "user_review_count": 0}, {"business_operation_status": 1, "rating": null, "neighborhood": null, "image": null, "scorecard": null, "featured": false, "sample_categories": "Health Food Stores, Restaurants, Health Food Stores", "public_id": "smoothie-king-austell", "id": 601307784, "votes": null, "tagline": null, "has_video": false, "website": "http://www.citysearch.com/profile/external/601307784/austell_ga/smoothie_king.html", "offers": null, "latitude": 33.866983, "politanName": "Atlanta, GA Metro ", "phone_number": "7704395464", "tags": [{"primary": false, "id": 1722, "name": "Restaurants"}, {"primary": false, "id": 17570, "name": "Health Food Stores"}, {"primary": true, "id": 1716, "name": "Health Food Stores"}], "fax_number": null, "expansion": {"count": null, "uri": null}, "impression_id": "000b000000ffe88bb7ccf249e89e8a5ab6fc7c0e8d", "profile": "http://www.citysearch.com/profile/601307784/austell_ga/smoothie_king.html", "address": {"city": "Austell", "state": "GA", "street": "2840 E West Connector 340", "postal_code": "30106"}, "capProviderId": null, "distance": null, "has_offers": false, "name": "Smoothie King", "longitude": -84.624721, "has_menu": false, "awards": null, "user_review_count": 0}, {"business_operation_status": 1, "rating": null, "neighborhood": "Northwest, Northwest", "image": null, "scorecard": null, "featured": false, "sample_categories": "Delis And Delicatessens, Restaurants", "public_id": "tillmans-deli-catering-atlanta", "id": 3024951, "votes": null, "tagline": null, "has_video": false, "website": null, "offers": null, "latitude": 33.791998, "politanName": "Atlanta, GA Metro ", "phone_number": "4046961302", "tags": [{"primary": false, "id": 1727, "name": "Delis And Delicatessens"}, {"primary": true, "id": 1722, "name": "Restaurants"}], "fax_number": null, "expansion": {"count": null, "uri": null}, "impression_id": "000b0000003b805f326273478fb5dae46c1301260d", "profile": "http://www.citysearch.com/profile/3024951/atlanta_ga/tillman_s_deli_catering.html", "address": {"city": "Atlanta", "state": "GA", "street": "3201 Atlanta Industrial Pkwy NW", "postal_code": "30331"}, "capProviderId": null, "distance": null, "has_offers": false, "name": "Tillman's Deli & Catering", "longitude": -84.494999, "has_menu": false, "awards": null, "user_review_count": 0}, {"business_operation_status": 1, "rating": null, "neighborhood": null, "image": null, "scorecard": null, "featured": false, "sample_categories": "Restaurants, Pizza, Carry Out, Shop Online", "public_id": "hungry-howies-pizza-douglasville", "id": 739038280, "votes": null, "tagline": null, "has_video": false, "website": "http://www.citysearch.com/profile/external/739038280/douglasville_ga/hungry_howie_s_pizza.html", "offers": null, "latitude": 33.723081, "politanName": "Atlanta, GA Metro ", "phone_number": "6788388300", "tags": [{"primary": false, "id": 1722, "name": "Restaurants"}, {"primary": false, "id": 11247, "name": "Carry Out"}, {"primary": false, "id": 11375, "name": "Shop Online"}, {"primary": true, "id": 11299, "name": "Pizza"}], "fax_number": null, "expansion": {"count": null, "uri": null}, "impression_id": "000b000000c3dd91dc8b1048fe92b344a44253978d", "profile": "http://www.citysearch.com/profile/739038280/douglasville_ga/hungry_howie_s_pizza.html", "address": {"city": "Douglasville", "state": "GA", "street": "2987 Chapel Hill Rd", "postal_code": "30135"}, "capProviderId": null, "distance": null, "has_offers": false, "name": "Hungry Howie's Pizza", "longitude": -84.733546, "has_menu": false, "awards": null, "user_review_count": 0}, {"business_operation_status": 1, "rating": null, "neighborhood": null, "image": null, "scorecard": null, "featured": false, "sample_categories": "Restaurants, Environmental Studies, Fast Food, Carry Out", "public_id": "e-q-ind-service-atlanta", "id": 37309864, "votes": null, "tagline": null, "has_video": false, "website": null, "offers": null, "latitude": 33.733851, "politanName": "Atlanta, GA Metro ", "phone_number": "4044943520", "tags": [{"primary": false, "id": 1722, "name": "Restaurants"}, {"primary": false, "id": 11199, "name": "Fast Food"}, {"primary": false, "id": 11247, "name": "Carry Out"}, {"primary": true, "id": 3704, "name": "Environmental Studies"}], "fax_number": null, "expansion": {"count": null, "uri": null}, "impression_id": "000b0000008810bf34841b4db4a2690e9ec2930efc", "profile": "http://www.citysearch.com/profile/37309864/atlanta_ga/e_q_ind_service.html", "address": {"city": "Atlanta", "state": "GA", "street": "5600 Fulton Industrial Blvd SW", "postal_code": "30336"}, "capProviderId": null, "distance": null, "has_offers": false, "name": "E Q Ind Service", "longitude": -84.567284, "has_menu": false, "awards": null, "user_review_count": 0}, {"business_operation_status": 1, "rating": null, "neighborhood": null, "image": null, "scorecard": null, "featured": false, "sample_categories": "Delis And Delicatessens", "public_id": "kroger-deli-powder-spg-2", "id": 694161420, "votes": null, "tagline": null, "has_video": false, "website": null, "offers": null, "latitude": 33.903473, "politanName": "Atlanta, GA Metro ", "phone_number": "7702225180", "tags": [{"primary": true, "id": 1727, "name": "Delis And Delicatessens"}], "fax_number": null, "expansion": {"count": null, "uri": null}, "impression_id": "000b000000ca428bb137c6435f91811a77bf69d1ab", "profile": "http://www.citysearch.com/profile/694161420/powder_springs_ga/kroger_deli.html", "address": {"city": "Powder Springs", "state": "GA", "street": "4150 Macland Rd", "postal_code": "30127"}, "capProviderId": null, "distance": null, "has_offers": false, "name": "Kroger Deli", "longitude": -84.67471, "has_menu": false, "awards": null, "user_review_count": 0}, {"business_operation_status": 1, "rating": null, "neighborhood": "Southwest, Southwest", "image": null, "scorecard": null, "featured": false, "sample_categories": "Restaurants, Seafood", "public_id": "hooks-fish-chicken-3-atlanta", "id": 748299030, "votes": null, "tagline": null, "has_video": false, "website": null, "offers": null, "latitude": 33.690388, "politanName": "Atlanta, GA Metro ", "phone_number": "4042280380", "tags": [{"primary": false, "id": 11228, "name": "Seafood"}, {"primary": true, "id": 1722, "name": "Restaurants"}], "fax_number": null, "expansion": {"count": null, "uri": null}, "impression_id": "000b00000042907076bc1a4635a69dd963ed5d5b36", "profile": "http://www.citysearch.com/profile/748299030/atlanta_ga/hooks_fish_chicken_3.html", "address": {"city": "Atlanta", "state": "GA", "street": "3740 Campbellton Rd SW", "postal_code": "30331"}, "capProviderId": null, "distance": null, "has_offers": false, "name": "Hooks Fish & Chicken 3", "longitude": -84.510732, "has_menu": false, "awards": null, "user_review_count": 0}, {"business_operation_status": 1, "rating": null, "neighborhood": null, "image": null, "scorecard": null, "featured": false, "sample_categories": "Restaurants, Carry Out, Chicken", "public_id": "chickfila-atlanta-41", "id": 775192080, "votes": null, "tagline": null, "has_video": false, "website": "http://www.citysearch.com/profile/external/775192080/atlanta_ga/chick_fil_a.html", "offers": null, "latitude": 33.857869, "politanName": "Atlanta, GA Metro ", "phone_number": "7704281230", "tags": [{"primary": false, "id": 11247, "name": "Carry Out"}, {"primary": false, "id": 12839, "name": "Chicken"}, {"primary": true, "id": 1722, "name": "Restaurants"}], "fax_number": null, "expansion": {"count": null, "uri": null}, "impression_id": "000b0000008fa28471759f401281f0cc59f494324b", "profile": "http://www.citysearch.com/profile/775192080/atlanta_ga/chick_fil_a.html", "address": {"city": "Atlanta", "state": "GA", "street": "3951 Austell Re SW", "postal_code": "30303"}, "capProviderId": null, "distance": null, "has_offers": false, "name": "Chick-Fil-A", "longitude": -84.59993, "has_menu": false, "awards": null, "user_review_count": 0}, {"business_operation_status": 1, "rating": null, "neighborhood": "Southwest, Southwest", "image": null, "scorecard": null, "featured": false, "sample_categories": "Barbecue Restaurants, Restaurants", "public_id": "southern-select-bbq-atlanta", "id": 777693800, "votes": null, "tagline": null, "has_video": false, "website": null, "offers": null, "latitude": 33.722961, "politanName": "Atlanta, GA Metro ", "phone_number": "4043445771", "tags": [{"primary": false, "id": 1722, "name": "Restaurants"}, {"primary": true, "id": 1724, "name": "Barbecue Restaurants"}], "fax_number": null, "expansion": {"count": null, "uri": null}, "impression_id": "000b00000071fd49c9be2d4626aa36cc796e31e98b", "profile": "http://www.citysearch.com/profile/777693800/atlanta_ga/southern_select_bbq.html", "address": {"city": "Atlanta", "state": "GA", "street": "3580 Cascade Rd Sw", "postal_code": "30331"}, "capProviderId": null, "distance": null, "has_offers": false, "name": "Southern Select BBQ", "longitude": -84.505517, "has_menu": false, "awards": null, "user_review_count": 0}, {"business_operation_status": 1, "rating": null, "neighborhood": null, "image": null, "scorecard": null, "featured": false, "sample_categories": "Restaurants", "public_id": "miyako-hibachi-sushi-steak-house-austell", "id": 672372180, "votes": null, "tagline": null, "has_video": false, "website": null, "offers": null, "latitude": 33.855384, "politanName": "Atlanta, GA Metro ", "phone_number": "7708056336", "tags": [{"primary": true, "id": 1722, "name": "Restaurants"}], "fax_number": null, "expansion": {"count": null, "uri": null}, "impression_id": "000b000000dca751df39a74e4e9a6fd2a38936a5d6", "profile": "http://www.citysearch.com/profile/672372180/austell_ga/miyako_hibachi_sushi_steak_house.html", "address": {"city": "Austell", "state": "GA", "street": "1025 East-West Connector", "postal_code": "30106"}, "capProviderId": null, "distance": null, "has_offers": false, "name": "Miyako Hibachi, Sushi & Steak House", "longitude": -84.583167, "has_menu": false, "awards": null, "user_review_count": 0}, {"business_operation_status": 1, "rating": null, "neighborhood": null, "image": null, "scorecard": null, "featured": false, "sample_categories": "Restaurants", "public_id": "fletchers-a-taste-of-country-powder-spgs", "id": 33652244, "votes": null, "tagline": null, "has_video": false, "website": null, "offers": null, "latitude": 33.838943, "politanName": "Atlanta, GA Metro ", "phone_number": "7709438067", "tags": [{"primary": true, "id": 1722, "name": "Restaurants"}], "fax_number": null, "expansion": {"count": null, "uri": null}, "impression_id": "000b0000004cede4598da0483eb47f858d14415859", "profile": "http://www.citysearch.com/profile/33652244/powder_springs_ga/fletcher_s_a_taste_of_country.html", "address": {"city": "Powder Springs", "state": "GA", "street": "1948 Douglasville Hwy", "postal_code": "30127"}, "capProviderId": null, "distance": null, "has_offers": false, "name": "Fletcher's A Taste Of Country", "longitude": -84.758449, "has_menu": false, "awards": null, "user_review_count": 0}, {"business_operation_status": 1, "rating": null, "neighborhood": null, "image": null, "scorecard": null, "featured": false, "sample_categories": "Delis And Delicatessens", "public_id": "kroger-deli-lithia-spg", "id": 696292440, "votes": null, "tagline": null, "has_video": false, "website": null, "offers": null, "latitude": 33.796626, "politanName": "Atlanta, GA Metro ", "phone_number": "7707326999", "tags": [{"primary": true, "id": 1727, "name": "Delis And Delicatessens"}], "fax_number": null, "expansion": {"count": null, "uri": null}, "impression_id": "000b00000096ac4298cabd4ab7b9ee9065f59b079e", "profile": "http://www.citysearch.com/profile/696292440/lithia_springs_ga/kroger_deli.html", "address": {"city": "Lithia Springs", "state": "GA", "street": "630 Thornton Rd", "postal_code": "30122"}, "capProviderId": null, "distance": null, "has_offers": false, "name": "Kroger Deli", "longitude": -84.641616, "has_menu": false, "awards": null, "user_review_count": 0}, {"business_operation_status": 1, "rating": null, "neighborhood": null, "image": null, "scorecard": null, "featured": false, "sample_categories": "Restaurants, Delis And Delicatessens, Carry Out", "public_id": "firehouse-subs-lithia", "id": 798825170, "votes": null, "tagline": null, "has_video": false, "website": null, "offers": null, "latitude": 33.7867, "politanName": "Atlanta, GA Metro ", "phone_number": "7704854552", "tags": [{"primary": false, "id": 1727, "name": "Delis And Delicatessens"}, {"primary": false, "id": 11247, "name": "Carry Out"}, {"primary": true, "id": 1722, "name": "Restaurants"}], "fax_number": null, "expansion": {"count": null, "uri": null}, "impression_id": "000b0000004b587ef98dca42909b863c46768c3c20", "profile": "http://www.citysearch.com/profile/798825170/lithia_springs_ga/firehouse_subs.html", "address": {"city": "Lithia Springs", "state": "GA", "street": "1300 W Corporate Ct", "postal_code": "30122"}, "capProviderId": null, "distance": null, "has_offers": false, "name": "Firehouse Subs", "longitude": -84.618514, "has_menu": true, "awards": null, "user_review_count": 0}, {"business_operation_status": 1, "rating": null, "neighborhood": "Northwest, Northwest", "image": null, "scorecard": null, "featured": false, "sample_categories": "Restaurants, Spices", "public_id": "georgia-spice-co-inc-atlanta", "id": 713521050, "votes": null, "tagline": null, "has_video": false, "website": null, "offers": null, "latitude": 33.799035, "politanName": "Atlanta, GA Metro ", "phone_number": "4046966200", "tags": [{"primary": false, "id": 1722, "name": "Restaurants"}, {"primary": true, "id": 11175, "name": "Spices"}], "fax_number": null, "expansion": {"count": null, "uri": null}, "impression_id": "000b00000083efa681c3eb4fe1a2c2d784d6c5ff5f", "profile": "http://www.citysearch.com/profile/713521050/atlanta_ga/georgia_spice_co_inc.html", "address": {"city": "Atlanta", "state": "GA", "street": "3600 Atlanta Industrial Pkwy N", "postal_code": "30331"}, "capProviderId": null, "distance": null, "has_offers": false, "name": "Georgia Spice Co INC", "longitude": -84.497102, "has_menu": false, "awards": null, "user_review_count": 0}, {"business_operation_status": 1, "rating": null, "neighborhood": null, "image": null, "scorecard": null, "featured": false, "sample_categories": "Restaurants, Mexican, American Express, Discover, MasterCard", "public_id": "tortillas-de-casa-atlanta", "id": 33609531, "votes": null, "tagline": null, "has_video": false, "website": "http://www.citysearch.com/profile/external/33609531/atlanta_ga/tortillas_de_casa.html", "offers": null, "latitude": 33.741576, "politanName": "Atlanta, GA Metro ", "phone_number": "4043446355", "tags": [{"primary": false, "id": 11208, "name": "Mexican"}, {"primary": false, "id": 11333, "name": "American Express"}, {"primary": false, "id": 11349, "name": "Discover"}, {"primary": false, "id": 11361, "name": "MasterCard"}, {"primary": false, "id": 11382, "name": "Visa"}, {"primary": true, "id": 1722, "name": "Restaurants"}], "fax_number": null, "expansion": {"count": null, "uri": null}, "impression_id": "000b0000004e371975f3fb4121bb03077dbda56ed4", "profile": "http://www.citysearch.com/profile/33609531/atlanta_ga/tortillas_de_casa.html", "address": {"city": "Atlanta", "state": "GA", "street": "5500 Bucknell Dr SW", "postal_code": "30336"}, "capProviderId": null, "distance": null, "has_offers": false, "name": "Tortillas De Casa", "longitude": -84.572913, "has_menu": false, "awards": null, "user_review_count": 1}, {"business_operation_status": 0, "rating": null, "neighborhood": null, "image": null, "scorecard": null, "featured": false, "sample_categories": "Restaurants, Mexican", "public_id": "pipiolo-mexican-cafe-atlanta", "id": 33614724, "votes": null, "tagline": null, "has_video": false, "website": null, "offers": null, "latitude": 33.740022, "politanName": "Atlanta, GA Metro ", "phone_number": "4043498766", "tags": [{"primary": false, "id": 11208, "name": "Mexican"}, {"primary": true, "id": 1722, "name": "Restaurants"}], "fax_number": null, "expansion": {"count": null, "uri": null}, "impression_id": "000b000000db0c73514cae488e99e798f99ef754e4", "profile": "http://www.citysearch.com/profile/33614724/atlanta_ga/pipiolo_mexican_cafe.html", "address": {"city": "Atlanta", "state": "GA", "street": "5220 Bucknell Dr SW", "postal_code": "30336"}, "capProviderId": null, "distance": null, "has_offers": false, "name": "Pipiolo Mexican Cafe", "longitude": -84.565429, "has_menu": false, "awards": null, "user_review_count": 0}, {"business_operation_status": 1, "rating": null, "neighborhood": null, "image": null, "scorecard": null, "featured": false, "sample_categories": "Restaurants", "public_id": "jimbos-cafe-atlanta", "id": 816043340, "votes": null, "tagline": null, "has_video": false, "website": null, "offers": null, "latitude": 33.740022, "politanName": "Atlanta, GA Metro ", "phone_number": "4043448877", "tags": [{"primary": true, "id": 1722, "name": "Restaurants"}], "fax_number": null, "expansion": {"count": null, "uri": null}, "impression_id": "000b00000094299db748654863917f576124217cd9", "profile": "http://www.citysearch.com/profile/816043340/atlanta_ga/jimbo_s_cafe.html", "address": {"city": "Atlanta", "state": "GA", "street": "5220 Bucknell Dr SW", "postal_code": "30336"}, "capProviderId": null, "distance": null, "has_offers": false, "name": "Jimbo's Cafe", "longitude": -84.565429, "has_menu": false, "awards": null, "user_review_count": 0}, {"business_operation_status": 1, "rating": null, "neighborhood": null, "image": null, "scorecard": null, "featured": false, "sample_categories": "Restaurants, Coffee & Tea Shops", "public_id": "coffee-pause-co-inc-atlanta", "id": 814720000, "votes": null, "tagline": null, "has_video": false, "website": null, "offers": null, "latitude": 33.758773, "politanName": "Atlanta, GA Metro ", "phone_number": "4046964497", "tags": [{"primary": false, "id": 1722, "name": "Restaurants"}, {"primary": true, "id": 1711, "name": "Coffee & Tea Shops"}], "fax_number": null, "expansion": {"count": null, "uri": null}, "impression_id": "000b0000003aefa8f00a044ee0a10cd0885cb5f73a", "profile": "http://www.citysearch.com/profile/814720000/atlanta_ga/coffee_pause_co_inc.html", "address": {"city": "Atlanta", "state": "GA", "street": "110 Selig Dr SW", "postal_code": "30336"}, "capProviderId": null, "distance": null, "has_offers": false, "name": "Coffee Pause Co Inc", "longitude": -84.538748, "has_menu": false, "awards": null, "user_review_count": 0}, {"business_operation_status": 1, "rating": null, "neighborhood": null, "image": null, "scorecard": null, "featured": false, "sample_categories": "Restaurants, Delis And Delicatessens, Sandwich Shops, Carry Out", "public_id": "quiznos-austell", "id": 827661580, "votes": null, "tagline": null, "has_video": false, "website": null, "offers": null, "latitude": 33.860912, "politanName": "Atlanta, GA Metro ", "phone_number": "6783840005", "tags": [{"primary": false, "id": 1727, "name": "Delis And Delicatessens"}, {"primary": false, "id": 1736, "name": "Sandwich Shops"}, {"primary": false, "id": 11247, "name": "Carry Out"}, {"primary": true, "id": 1722, "name": "Restaurants"}], "fax_number": null, "expansion": {"count": null, "uri": null}, "impression_id": "000b00000064f786d2994a453d99eb8a0535afc874", "profile": "http://www.citysearch.com/profile/827661580/austell_ga/quiznos.html", "address": {"city": "Austell", "state": "GA", "street": "2495 E West Connector # 80", "postal_code": "30106"}, "capProviderId": null, "distance": null, "has_offers": false, "name": "Quiznos", "longitude": -84.620637, "has_menu": false, "awards": null, "user_review_count": 0}, {"business_operation_status": 1, "rating": null, "neighborhood": null, "image": null, "scorecard": null, "featured": false, "sample_categories": "Restaurants", "public_id": "westside-diner-lithia", "id": 823709610, "votes": null, "tagline": null, "has_video": false, "website": null, "offers": null, "latitude": 33.785807, "politanName": "Atlanta, GA Metro ", "phone_number": "6789450070", "tags": [{"primary": true, "id": 1722, "name": "Restaurants"}], "fax_number": null, "expansion": {"count": null, "uri": null}, "impression_id": "000b000000476f8032d5144dc29c48a423016546f6", "profile": "http://www.citysearch.com/profile/823709610/lithia_springs_ga/westside_diner.html", "address": {"city": "Lithia Springs", "state": "GA", "street": "6945 S Sweetwater Rd", "postal_code": "30122"}, "capProviderId": null, "distance": null, "has_offers": false, "name": "Westside Diner", "longitude": -84.656793, "has_menu": false, "awards": null, "user_review_count": 0}, {"business_operation_status": 1, "rating": null, "neighborhood": null, "image": null, "scorecard": null, "featured": false, "sample_categories": "Restaurants", "public_id": "j-r-cricket-mableton", "id": 832544960, "votes": null, "tagline": null, "has_video": false, "website": null, "offers": null, "latitude": 33.823999, "politanName": "Atlanta, GA Metro ", "phone_number": "7707455475", "tags": [{"primary": true, "id": 1722, "name": "Restaurants"}], "fax_number": null, "expansion": {"count": null, "uri": null}, "impression_id": "000b000000a453ac51133446a8ba43d38a48ff5073", "profile": "http://www.citysearch.com/profile/832544960/mableton_ga/j_r_cricket.html", "address": {"city": "Mableton", "state": "GA", "street": "5345 Floyd Rd SW # J", "postal_code": "30126"}, "capProviderId": null, "distance": null, "has_offers": false, "name": "J R Cricket", "longitude": -84.574687, "has_menu": true, "awards": null, "user_review_count": 0}, {"business_operation_status": 1, "rating": null, "neighborhood": null, "image": null, "scorecard": null, "featured": false, "sample_categories": "Restaurants, Pizza", "public_id": "johnnys-new-york-style-pizza-smyrna-5", "id": 824318460, "votes": null, "tagline": null, "has_video": false, "website": null, "offers": null, "latitude": 33.846135, "politanName": "Atlanta, GA Metro ", "phone_number": "7703498191", "tags": [{"primary": false, "id": 1722, "name": "Restaurants"}, {"primary": true, "id": 11299, "name": "Pizza"}], "fax_number": null, "expansion": {"count": null, "uri": null}, "impression_id": "000b0000001c83cc43b6904a63b97f10b1265a6838", "profile": "http://www.citysearch.com/profile/824318460/smyrna_ga/johnny_s_new_york_style_pizza.html", "address": {"city": "Smyrna", "state": "GA", "street": "4268 Mill Grove Ln SW", "postal_code": "30082"}, "capProviderId": null, "distance": null, "has_offers": false, "name": "Johnny's New York Style Pizza", "longitude": -84.563226, "has_menu": false, "awards": null, "user_review_count": 0}, {"business_operation_status": 1, "rating": null, "neighborhood": null, "image": null, "scorecard": null, "featured": false, "sample_categories": "Restaurants, Barbecue Restaurants", "public_id": "hurricane-grill-wings-austell", "id": 777739530, "votes": null, "tagline": null, "has_video": false, "website": "http://www.citysearch.com/profile/external/777739530/austell_ga/hurricane_grill_wings.html", "offers": null, "latitude": 33.856949, "politanName": "Atlanta, GA Metro ", "phone_number": "7708011345", "tags": [{"primary": false, "id": 1724, "name": "Barbecue Restaurants"}, {"primary": true, "id": 1722, "name": "Restaurants"}], "fax_number": null, "expansion": {"count": null, "uri": null}, "impression_id": "000b000000655bd78f25334d6680984c3985f96b37", "profile": "http://www.citysearch.com/profile/777739530/austell_ga/hurricane_grill_wings.html", "address": {"city": "Austell", "state": "GA", "street": "3961 Floyd Rd # 100", "postal_code": "30106"}, "capProviderId": null, "distance": null, "has_offers": false, "name": "Hurricane Grill & Wings", "longitude": -84.590442, "has_menu": true, "awards": null, "user_review_count": 0}, {"business_operation_status": 1, "rating": 8.0, "neighborhood": null, "image": null, "scorecard": null, "featured": false, "sample_categories": "Dessert Shops, Traditional American", "public_id": "darlenes-philadelphia-water-austell", "id": 36286186, "votes": null, "tagline": null, "has_video": false, "website": null, "offers": null, "latitude": 33.827117, "politanName": "Atlanta, GA Metro ", "phone_number": "7707397199", "tags": [{"primary": false, "id": 1728, "name": "Dessert Shops"}, {"primary": true, "id": 11190, "name": "Traditional American"}], "fax_number": null, "expansion": {"count": null, "uri": null}, "impression_id": "000b0000009a9324da191842809b09b3fea4cbf112", "profile": "http://www.citysearch.com/profile/36286186/austell_ga/darlene_s_philadelphia_water.html", "address": {"city": "Austell", "state": "GA", "street": "5220 Austell RdSte C", "postal_code": "30106"}, "capProviderId": null, "distance": null, "has_offers": false, "name": "Darlene's Philadelphia Water", "longitude": -84.61505, "has_menu": false, "awards": null, "user_review_count": 0}, {"business_operation_status": 1, "rating": null, "neighborhood": null, "image": null, "scorecard": null, "featured": false, "sample_categories": "Restaurants", "public_id": "garveys-west-indian-marietta", "id": 672435580, "votes": null, "tagline": null, "has_video": false, "website": null, "offers": null, "latitude": 33.869778, "politanName": "Atlanta, GA Metro ", "phone_number": "6783840766", "tags": [{"primary": true, "id": 1722, "name": "Restaurants"}], "fax_number": null, "expansion": {"count": null, "uri": null}, "impression_id": "000b000000b8f241361a124771a2aa2e87aa1cc5ca", "profile": "http://www.citysearch.com/profile/672435580/marietta_ga/garvey_s_west_indian.html", "address": {"city": "Marietta", "state": "GA", "street": "2575 Whitehaven dr", "postal_code": "30064"}, "capProviderId": null, "distance": null, "has_offers": false, "name": "Garvey's West Indian", "longitude": -84.629052, "has_menu": false, "awards": null, "user_review_count": 0}, {"business_operation_status": 1, "rating": null, "neighborhood": null, "image": null, "scorecard": null, "featured": false, "sample_categories": "Restaurants, Delis And Delicatessens, Sandwich Shops, Carry Out", "public_id": "subway-powder", "id": 713516600, "votes": null, "tagline": null, "has_video": false, "website": "http://www.citysearch.com/profile/external/713516600/powder_springs_ga/subway.html", "offers": null, "latitude": 33.903473, "politanName": "Atlanta, GA Metro ", "phone_number": "7702222710", "tags": [{"primary": false, "id": 1727, "name": "Delis And Delicatessens"}, {"primary": false, "id": 1736, "name": "Sandwich Shops"}, {"primary": false, "id": 11247, "name": "Carry Out"}, {"primary": true, "id": 1722, "name": "Restaurants"}], "fax_number": null, "expansion": {"count": null, "uri": null}, "impression_id": "000b000000c95e36e7b4a54089a111fc9f0b8c2314", "profile": "http://www.citysearch.com/profile/713516600/powder_springs_ga/subway.html", "address": {"city": "Powder Springs", "state": "GA", "street": "4150 Macland Rd", "postal_code": "30127"}, "capProviderId": null, "distance": null, "has_offers": false, "name": "SUBWAY", "longitude": -84.67471, "has_menu": true, "awards": null, "user_review_count": 0}, {"business_operation_status": 1, "rating": null, "neighborhood": null, "image": null, "scorecard": null, "featured": false, "sample_categories": "Restaurants", "public_id": "island-breeze-restaurant-mableton-2", "id": 713524240, "votes": null, "tagline": null, "has_video": false, "website": null, "offers": null, "latitude": 33.783961, "politanName": "Atlanta, GA Metro ", "phone_number": "6784645910", "tags": [{"primary": true, "id": 1722, "name": "Restaurants"}], "fax_number": null, "expansion": {"count": null, "uri": null}, "impression_id": "000b0000001dc71392012e455185e4cbc8fa570751", "profile": "http://www.citysearch.com/profile/713524240/mableton_ga/island_breeze_restaurant.html", "address": {"city": "Mableton", "state": "GA", "street": "6981 Mableton Pkwy Se # 115", "postal_code": "30126"}, "capProviderId": null, "distance": null, "has_offers": false, "name": "Island Breeze Restaurant", "longitude": -84.540201, "has_menu": false, "awards": null, "user_review_count": 0}, {"business_operation_status": 1, "rating": null, "neighborhood": null, "image": null, "scorecard": null, "featured": false, "sample_categories": "Restaurants, Mexican", "public_id": "el-barco-mexican-restaurant-marietta", "id": 638790530, "votes": null, "tagline": null, "has_video": false, "website": null, "offers": null, "latitude": 33.890372, "politanName": "Atlanta, GA Metro ", "phone_number": "6782906778", "tags": [{"primary": false, "id": 11208, "name": "Mexican"}, {"primary": true, "id": 1722, "name": "Restaurants"}], "fax_number": null, "expansion": {"count": null, "uri": null}, "impression_id": "000b0000004aaa97e567aa4fff828071216e22c187", "profile": "http://www.citysearch.com/profile/638790530/marietta_ga/el_barco_mexican_restaurant.html", "address": {"city": "Marietta", "state": "GA", "street": "2586 Thorns Hill Pl Sw", "postal_code": "30064"}, "capProviderId": null, "distance": null, "has_offers": false, "name": "El Barco Mexican Restaurant", "longitude": -84.630827, "has_menu": false, "awards": null, "user_review_count": 0}, {"business_operation_status": 1, "rating": null, "neighborhood": null, "image": null, "scorecard": null, "featured": false, "sample_categories": "Restaurants, Fast Food, Carry Out, Chicken", "public_id": "bojangles-famous-chicken-atlanta", "id": 601366479, "votes": null, "tagline": null, "has_video": false, "website": "http://www.citysearch.com/profile/external/601366479/atlanta_ga/bojangles_famous_chicken.html", "offers": null, "latitude": 33.731758, "politanName": "Atlanta, GA Metro ", "phone_number": "4043469959", "tags": [{"primary": false, "id": 11199, "name": "Fast Food"}, {"primary": false, "id": 11247, "name": "Carry Out"}, {"primary": false, "id": 12839, "name": "Chicken"}, {"primary": true, "id": 1722, "name": "Restaurants"}], "fax_number": null, "expansion": {"count": null, "uri": null}, "impression_id": "000b000000051e40d92756437da3014922340ee4d9", "profile": "http://www.citysearch.com/profile/601366479/atlanta_ga/bojangles_famous_chicken.html", "address": {"city": "Atlanta", "state": "GA", "street": "5628 Fulton Industrial Blvd Sw", "postal_code": "30336"}, "capProviderId": null, "distance": null, "has_offers": false, "name": "Bojangles' Famous Chicken", "longitude": -84.56928, "has_menu": false, "awards": null, "user_review_count": 0}, {"business_operation_status": 1, "rating": null, "neighborhood": null, "image": null, "scorecard": null, "featured": false, "sample_categories": "Restaurants, Mexican, Buffet, Family-Friendly Dining, Food Delivery", "public_id": "lalos-mexican-restaurant-aus", "id": 681698390, "votes": null, "tagline": null, "has_video": false, "website": null, "offers": null, "latitude": 33.75841, "politanName": "Atlanta, GA Metro ", "phone_number": "7709414444", "tags": [{"primary": false, "id": 11208, "name": "Mexican"}, {"primary": false, "id": 11241, "name": "Buffet"}, {"primary": false, "id": 11263, "name": "Family-Friendly Dining"}, {"primary": false, "id": 11267, "name": "Food Delivery"}, {"primary": true, "id": 1722, "name": "Restaurants"}], "fax_number": null, "expansion": {"count": null, "uri": null}, "impression_id": "000b000000d88812ff903d45749b57a4cde442fef9", "profile": "http://www.citysearch.com/profile/681698390/aus_ga/lalos_mexican_restaurant.html", "address": {"city": "Aus", "state": "GA", "street": "3999 Austell Rd SW", "postal_code": "30122"}, "capProviderId": null, "distance": null, "has_offers": false, "name": "LaLos Mexican Restaurant", "longitude": -84.637448, "has_menu": false, "awards": null, "user_review_count": 0}, {"business_operation_status": 1, "rating": null, "neighborhood": null, "image": null, "scorecard": null, "featured": false, "sample_categories": "Restaurants", "public_id": "la-joya-taqueira-mableton", "id": 837082200, "votes": null, "tagline": null, "has_video": false, "website": null, "offers": null, "latitude": 33.783418, "politanName": "Atlanta, GA Metro ", "phone_number": "6788876324", "tags": [{"primary": true, "id": 1722, "name": "Restaurants"}], "fax_number": null, "expansion": {"count": null, "uri": null}, "impression_id": "000b00000070656a85ae704a4f92f119e2fb7a27b5", "profile": "http://www.citysearch.com/profile/837082200/mableton_ga/la_joya_taqueira.html", "address": {"city": "Mableton", "state": "GA", "street": "6960 Mableton Pkwy SE # B", "postal_code": "30126"}, "capProviderId": null, "distance": null, "has_offers": false, "name": "La Joya Taqueira", "longitude": -84.541117, "has_menu": false, "awards": null, "user_review_count": 0}, {"business_operation_status": 1, "rating": null, "neighborhood": null, "image": null, "scorecard": null, "featured": false, "sample_categories": "Restaurants, Fast Food, Carry Out, Hamburgers, American Express", "public_id": "mc-donalds-lithia-spgs", "id": 39888447, "votes": null, "tagline": null, "has_video": false, "website": "http://www.citysearch.com/profile/external/39888447/lithia_springs_ga/mc_donald_s.html", "offers": null, "latitude": 33.773654, "politanName": "Atlanta, GA Metro ", "phone_number": "7707399572", "tags": [{"primary": false, "id": 11199, "name": "Fast Food"}, {"primary": false, "id": 11247, "name": "Carry Out"}, {"primary": false, "id": 11270, "name": "Hamburgers"}, {"primary": false, "id": 11333, "name": "American Express"}, {"primary": false, "id": 11349, "name": "Discover"}, {"primary": false, "id": 11361, "name": "MasterCard"}, {"primary": false, "id": 11382, "name": "Visa"}, {"primary": true, "id": 1722, "name": "Restaurants"}], "fax_number": null, "expansion": {"count": null, "uri": null}, "impression_id": "000b00000046666ba19ce24dd5860419356995466a", "profile": "http://www.citysearch.com/profile/39888447/lithia_springs_ga/mc_donald_s.html", "address": {"city": "Lithia Springs", "state": "GA", "street": "1100 Thornton Rd", "postal_code": "30122"}, "capProviderId": null, "distance": null, "has_offers": false, "name": "Mc Donald's", "longitude": -84.602752, "has_menu": true, "awards": null, "user_review_count": 0}, {"business_operation_status": 1, "rating": null, "neighborhood": "Southwest, Southwest", "image": null, "scorecard": null, "featured": false, "sample_categories": "Restaurants", "public_id": "atlanta-checkers-rallys-atlanta", "id": 825245560, "votes": null, "tagline": null, "has_video": false, "website": null, "offers": null, "latitude": 33.698565, "politanName": "Atlanta, GA Metro ", "phone_number": "4046964626", "tags": [{"primary": true, "id": 1722, "name": "Restaurants"}], "fax_number": null, "expansion": {"count": null, "uri": null}, "impression_id": "000b000000e40b0f37638349048abd7bf13a06f5af", "profile": "http://www.citysearch.com/profile/825245560/atlanta_ga/atlanta_checkers_rallys.html", "address": {"city": "Atlanta", "state": "GA", "street": "3566 M L King Jr Dr SW", "postal_code": "30331"}, "capProviderId": null, "distance": null, "has_offers": false, "name": "Atlanta Checkers Rallys", "longitude": -84.543187, "has_menu": false, "awards": null, "user_review_count": 0}, {"business_operation_status": 1, "rating": null, "neighborhood": null, "image": null, "scorecard": null, "featured": false, "sample_categories": "Restaurants, Pizza, Carry Out", "public_id": "mellow-mushroom-atlanta-14", "id": 607710224, "votes": null, "tagline": null, "has_video": false, "website": "http://www.citysearch.com/profile/external/607710224/atlanta_ga/mellow_mushroom.html", "offers": null, "latitude": 33.748947, "politanName": "Atlanta, GA Metro ", "phone_number": "6785398990", "tags": [{"primary": false, "id": 1722, "name": "Restaurants"}, {"primary": false, "id": 11247, "name": "Carry Out"}, {"primary": true, "id": 11299, "name": "Pizza"}], "fax_number": null, "expansion": {"count": null, "uri": null}, "impression_id": "000b00000012c57fa1c07b4f0c98863be5b82cbd5e", "profile": "http://www.citysearch.com/profile/607710224/atlanta_ga/mellow_mushroom.html", "address": {"city": "Atlanta", "state": "GA", "street": "Fulton Industurial", "postal_code": "30336"}, "capProviderId": null, "distance": null, "has_offers": false, "name": "Mellow Mushroom", "longitude": -84.548428, "has_menu": false, "awards": null, "user_review_count": 0}, {"business_operation_status": 1, "rating": null, "neighborhood": null, "image": null, "scorecard": null, "featured": false, "sample_categories": "Restaurants", "public_id": "poppa-gs-famous-cheeseburger-atlanta", "id": 821667140, "votes": null, "tagline": null, "has_video": false, "website": null, "offers": null, "latitude": 33.666328, "politanName": "Atlanta, GA Metro ", "phone_number": "7708415293", "tags": [{"primary": true, "id": 1722, "name": "Restaurants"}], "fax_number": null, "expansion": {"count": null, "uri": null}, "impression_id": "000b000000aa3ae224dee64cd193807f0f6d2be8c9", "profile": "http://www.citysearch.com/profile/821667140/atlanta_ga/poppa_g_s_famous_cheeseburger.html", "address": {"city": "Atlanta", "state": "GA", "street": "3220 Butner Rd SW # 250", "postal_code": "30331"}, "capProviderId": null, "distance": null, "has_offers": false, "name": "Poppa G's Famous Cheeseburger", "longitude": -84.549695, "has_menu": false, "awards": null, "user_review_count": 0}, {"business_operation_status": 1, "rating": null, "neighborhood": null, "image": null, "scorecard": null, "featured": false, "sample_categories": "Restaurants, Mexican", "public_id": "restaurante-salvadoreno-santa-mableton", "id": 40944476, "votes": null, "tagline": null, "has_video": false, "website": null, "offers": null, "latitude": 33.801687, "politanName": "Atlanta, GA Metro ", "phone_number": "7707398147", "tags": [{"primary": false, "id": 11208, "name": "Mexican"}, {"primary": true, "id": 1722, "name": "Restaurants"}], "fax_number": null, "expansion": {"count": null, "uri": null}, "impression_id": "000b000000d3457869a852483da7a329c5ce7a37ee", "profile": "http://www.citysearch.com/profile/40944476/mableton_ga/restaurante_salvadoreno_santa.html", "address": {"city": "Mableton", "state": "GA", "street": "6231 Mabletn Pkwy SW", "postal_code": "30126"}, "capProviderId": null, "distance": null, "has_offers": false, "name": "Restaurante Salvadoreno Santa", "longitude": -84.566851, "has_menu": false, "awards": null, "user_review_count": 0}, {"business_operation_status": 1, "rating": null, "neighborhood": null, "image": null, "scorecard": null, "featured": false, "sample_categories": "Delis And Delicatessens, Restaurants, Fast Food", "public_id": "best-wings-deli-douglasville", "id": 682618300, "votes": null, "tagline": null, "has_video": false, "website": null, "offers": null, "latitude": 33.747372, "politanName": "Atlanta, GA Metro ", "phone_number": "7709477880", "tags": [{"primary": false, "id": 1722, "name": "Restaurants"}, {"primary": false, "id": 11199, "name": "Fast Food"}, {"primary": true, "id": 1727, "name": "Delis And Delicatessens"}], "fax_number": null, "expansion": {"count": null, "uri": null}, "impression_id": "000b0000000b609077827c40f59ecac168ba077b5b", "profile": "http://www.citysearch.com/profile/682618300/douglasville_ga/city_s_best_wings_and_deli.html", "address": {"city": "Douglasville", "state": "GA", "street": "2134 Fairburn Rd", "postal_code": "30135"}, "capProviderId": null, "distance": null, "has_offers": false, "name": "City's Best Wings and Deli", "longitude": -84.699929, "has_menu": false, "awards": null, "user_review_count": 0}, {"business_operation_status": 1, "rating": null, "neighborhood": null, "image": null, "scorecard": null, "featured": false, "sample_categories": "Restaurants, Traditional American, Carry Out, American Express, Discover", "public_id": "golden-corral-buffet-grill-marietta", "id": 682491030, "votes": null, "tagline": null, "has_video": false, "website": "http://www.citysearch.com/profile/external/682491030/marietta_ga/golden_corral_buffet_grill.html", "offers": null, "latitude": 33.858906, "politanName": "Atlanta, GA Metro ", "phone_number": "7707328014", "tags": [{"primary": false, "id": 11190, "name": "Traditional American"}, {"primary": false, "id": 11247, "name": "Carry Out"}, {"primary": false, "id": 11333, "name": "American Express"}, {"primary": false, "id": 11349, "name": "Discover"}, {"primary": false, "id": 11361, "name": "MasterCard"}, {"primary": false, "id": 11382, "name": "Visa"}, {"primary": true, "id": 1722, "name": "Restaurants"}], "fax_number": null, "expansion": {"count": null, "uri": null}, "impression_id": "000b000000c33679b85918498194059dc62a5ba806", "profile": "http://www.citysearch.com/profile/682491030/marietta_ga/golden_corral_buffet_grill.html", "address": {"city": "Marietta", "state": "GA", "street": "3845 Austell Rd Sw", "postal_code": "30008"}, "capProviderId": null, "distance": null, "has_offers": false, "name": "Golden Corral Buffet & Grill", "longitude": -84.598385, "has_menu": false, "awards": null, "user_review_count": 0}, {"business_operation_status": 1, "rating": null, "neighborhood": "Southwest, Southwest", "image": null, "scorecard": null, "featured": false, "sample_categories": "Restaurants", "public_id": "raging-cajun-atlanta", "id": 820900360, "votes": null, "tagline": null, "has_video": false, "website": null, "offers": null, "latitude": 33.698565, "politanName": "Atlanta, GA Metro ", "phone_number": "4042862833", "tags": [{"primary": true, "id": 1722, "name": "Restaurants"}], "fax_number": null, "expansion": {"count": null, "uri": null}, "impression_id": "000b000000af84af4d8742455b83ed070e80b15b22", "profile": "http://www.citysearch.com/profile/820900360/atlanta_ga/raging_cajun.html", "address": {"city": "Atlanta", "state": "GA", "street": "3554 M L King Jr Dr SW", "postal_code": "30331"}, "capProviderId": null, "distance": null, "has_offers": false, "name": "Raging Cajun", "longitude": -84.543187, "has_menu": false, "awards": null, "user_review_count": 0}, {"business_operation_status": 1, "rating": null, "neighborhood": null, "image": null, "scorecard": null, "featured": false, "sample_categories": "Restaurants", "public_id": "el-barco-mexican-restaurant-marietta-3", "id": 822028770, "votes": null, "tagline": null, "has_video": false, "website": null, "offers": null, "latitude": 33.883313, "politanName": "Atlanta, GA Metro ", "phone_number": "6783555007", "tags": [{"primary": true, "id": 1722, "name": "Restaurants"}], "fax_number": null, "expansion": {"count": null, "uri": null}, "impression_id": "000b000000d7ce44f1d0744455beed789eed9018a8", "profile": "http://www.citysearch.com/profile/822028770/marietta_ga/el_barco_mexican_restaurant.html", "address": {"city": "Marietta", "state": "GA", "street": "2200 Powder Springs Rd SW #100", "postal_code": "30064"}, "capProviderId": null, "distance": null, "has_offers": false, "name": "El Barco Mexican Restaurant", "longitude": -84.620092, "has_menu": false, "awards": null, "user_review_count": 0}, {"business_operation_status": 1, "rating": null, "neighborhood": null, "image": null, "scorecard": null, "featured": false, "sample_categories": "Delis And Delicatessens", "public_id": "deli-express-lithia", "id": 742225870, "votes": null, "tagline": null, "has_video": false, "website": null, "offers": null, "latitude": 33.761023, "politanName": "Atlanta, GA Metro ", "phone_number": "4043842309", "tags": [{"primary": true, "id": 1727, "name": "Delis And Delicatessens"}], "fax_number": null, "expansion": {"count": null, "uri": null}, "impression_id": "000b000000d989e5106c6b44beb63debf0e558c4dd", "profile": "http://www.citysearch.com/profile/742225870/lithia_springs_ga/deli_express.html", "address": {"city": "Lithia Springs", "state": "GA", "street": "8003 Wrightwood Way", "postal_code": "30122"}, "capProviderId": null, "distance": null, "has_offers": false, "name": "Deli Express", "longitude": -84.657278, "has_menu": false, "awards": null, "user_review_count": 0}, {"business_operation_status": 1, "rating": null, "neighborhood": null, "image": null, "scorecard": null, "featured": false, "sample_categories": "Restaurants, Bistros", "public_id": "pearls-southern-bistro-mableton", "id": 787089110, "votes": null, "tagline": null, "has_video": false, "website": null, "offers": null, "latitude": 33.817233, "politanName": "Atlanta, GA Metro ", "phone_number": "7707092666", "tags": [{"primary": false, "id": 13690, "name": "Bistros"}, {"primary": true, "id": 1722, "name": "Restaurants"}], "fax_number": null, "expansion": {"count": null, "uri": null}, "impression_id": "000b000000807b335d5cee4c4eb3f48abdcc24dd89", "profile": "http://www.citysearch.com/profile/787089110/mableton_ga/pearl_s_southern_bistro.html", "address": {"city": "Mableton", "state": "GA", "street": "1174 Veterans Memorial Hwy Sw", "postal_code": "30126"}, "capProviderId": null, "distance": null, "has_offers": false, "name": "Pearl's Southern Bistro", "longitude": -84.588574, "has_menu": false, "awards": null, "user_review_count": 0}, {"business_operation_status": 0, "rating": null, "neighborhood": null, "image": null, "scorecard": null, "featured": false, "sample_categories": "Restaurants, Carry Out", "public_id": "shoneys-restaurant-atlanta", "id": 3025962, "votes": null, "tagline": null, "has_video": false, "website": null, "offers": null, "latitude": 33.771143, "politanName": "Atlanta, GA Metro ", "phone_number": "4046969393", "tags": [{"primary": false, "id": 11247, "name": "Carry Out"}, {"primary": true, "id": 1722, "name": "Restaurants"}], "fax_number": null, "expansion": {"count": null, "uri": null}, "impression_id": "000b0000002cab26f992a2458b834de627c967eca3", "profile": "http://www.citysearch.com/profile/3025962/atlanta_ga/shoney_s_restaurant.html", "address": {"city": "Atlanta", "state": "GA", "street": "3930 Fulton Industrial Blvd SW", "postal_code": "30336"}, "capProviderId": null, "distance": null, "has_offers": false, "name": "Shoney's Restaurant", "longitude": -84.516707, "has_menu": true, "awards": null, "user_review_count": 0}, {"business_operation_status": 1, "rating": null, "neighborhood": null, "image": null, "scorecard": null, "featured": false, "sample_categories": "Seafood Markets, Restaurants, Barbecue Restaurants", "public_id": "stonewall-fish-wings-and-things-atlanta", "id": 766301790, "votes": null, "tagline": null, "has_video": false, "website": null, "offers": null, "latitude": 33.650627, "politanName": "Atlanta, GA Metro ", "phone_number": "7703066130", "tags": [{"primary": false, "id": 1722, "name": "Restaurants"}, {"primary": false, "id": 1724, "name": "Barbecue Restaurants"}, {"primary": true, "id": 1719, "name": "Seafood Markets"}], "fax_number": null, "expansion": {"count": null, "uri": null}, "impression_id": "000b000000e8a015168e8d4c3084836883ff7cbd31", "profile": "http://www.citysearch.com/profile/766301790/atlanta_ga/stonewall_fish_wings_and_things.html", "address": {"city": "Atlanta", "state": "GA", "street": "3840 Stonewall Tell Rd", "postal_code": "30349"}, "capProviderId": null, "distance": null, "has_offers": false, "name": "Stonewall Fish Wings And Things", "longitude": -84.594665, "has_menu": false, "awards": null, "user_review_count": 0}, {"business_operation_status": 1, "rating": null, "neighborhood": null, "image": null, "scorecard": null, "featured": false, "sample_categories": "Coffeehouses", "public_id": "partners-coffee-llc-atlanta", "id": 3026457, "votes": null, "tagline": null, "has_video": false, "website": "http://www.citysearch.com/profile/external/3026457/atlanta_ga/partners_coffee_llc.html", "offers": null, "latitude": 33.734722, "politanName": "Atlanta, GA Metro ", "phone_number": "4043445282", "tags": [{"primary": true, "id": 1726, "name": "Coffeehouses"}], "fax_number": null, "expansion": {"count": null, "uri": null}, "impression_id": "000b000000866fedb6c9f14b69bc8c26dc59896a8f", "profile": "http://www.citysearch.com/profile/3026457/atlanta_ga/partners_coffee_llc.html", "address": {"city": "Atlanta", "state": "GA", "street": "4225 Westfield Dr SW", "postal_code": "30336"}, "capProviderId": null, "distance": null, "has_offers": false, "name": "Partners Coffee Llc", "longitude": -84.560644, "has_menu": false, "awards": null, "user_review_count": 0}, {"business_operation_status": 1, "rating": null, "neighborhood": null, "image": null, "scorecard": null, "featured": false, "sample_categories": "Restaurants, Barbecue Restaurants", "public_id": "wings-chinese-douglasville", "id": 728130330, "votes": null, "tagline": null, "has_video": false, "website": null, "offers": null, "latitude": 33.688571, "politanName": "Atlanta, GA Metro ", "phone_number": "7709496666", "tags": [{"primary": false, "id": 1724, "name": "Barbecue Restaurants"}, {"primary": true, "id": 1722, "name": "Restaurants"}], "fax_number": null, "expansion": {"count": null, "uri": null}, "impression_id": "000b000000e0881b79b5434bbdbce2fbd2bb751b12", "profile": "http://www.citysearch.com/profile/728130330/douglasville_ga/wings_chinese.html", "address": {"city": "Douglasville", "state": "GA", "street": "4300 Chapel Hill Rd # 300", "postal_code": "30135"}, "capProviderId": null, "distance": null, "has_offers": false, "name": "Wings & Chinese", "longitude": -84.714641, "has_menu": false, "awards": null, "user_review_count": 0}, {"business_operation_status": 1, "rating": null, "neighborhood": null, "image": null, "scorecard": null, "featured": false, "sample_categories": "Restaurants, Traditional American, Carry Out, Shop Online", "public_id": "ruby-tuesday-douglasville", "id": 801071690, "votes": null, "tagline": null, "has_video": false, "website": null, "offers": null, "latitude": 33.713058, "politanName": "Atlanta, GA Metro ", "phone_number": "7709428522", "tags": [{"primary": false, "id": 11190, "name": "Traditional American"}, {"primary": false, "id": 11247, "name": "Carry Out"}, {"primary": false, "id": 11375, "name": "Shop Online"}, {"primary": true, "id": 1722, "name": "Restaurants"}], "fax_number": null, "expansion": {"count": null, "uri": null}, "impression_id": "000b0000006e34964ee6f748e6a7f1d37acf6ade3b", "profile": "http://www.citysearch.com/profile/801071690/douglasville_ga/ruby_tuesday.html", "address": {"city": "Douglasville", "state": "GA", "street": "Market Sq", "postal_code": "30135"}, "capProviderId": null, "distance": null, "has_offers": false, "name": "Ruby Tuesday", "longitude": -84.634802, "has_menu": false, "awards": null, "user_review_count": 0}], "histograms": [], "tag_ids": [1722], "uri": "http://api.citygridmedia.com:8080/search/places/v2/search/where?has_offers=false&type=restaurant&format=json&page=9&where=30168&rpp=50&histograms=false&publisher=10000009598&region_type=circle", "did_you_mean": "", "regions": [{"latitude": 33.78436, "default_radius": 3.57, "type": "postal_code", "name": "30168", "longitude": -84.586443}], "call_id": "000b000000d94e93fcba9f4c439a0475e7fa156ecd", "first_hit": 401, "total_hits": 592, "geo_ids": [26319], "page": 9, "last_hit": 450}}