{"results": {"rpp": 50, "locations": [{"business_operation_status": 1, "rating": null, "neighborhood": null, "image": null, "scorecard": null, "featured": false, "sample_categories": "Restaurants", "public_id": "la-fiesta-mexican-restaurant-kennesaw", "id": 825185560, "votes": null, "tagline": null, "has_video": false, "website": null, "offers": null, "latitude": 34.049477, "politanName": "Atlanta, GA Metro ", "phone_number": "6783544621", "tags": [{"primary": true, "id": 1722, "name": "Restaurants"}], "fax_number": null, "expansion": {"count": null, "uri": null}, "impression_id": "000b00000027ba81f3ad6f4371ba3e501307cdf931", "profile": "http://www.citysearch.com/profile/825185560/kennesaw_ga/la_fiesta_mexican_restaurant.html", "address": {"city": "Kennesaw", "state": "GA", "street": "3940 Cherokee St NW # 303", "postal_code": "30144"}, "capProviderId": null, "distance": null, "has_offers": false, "name": "La Fiesta Mexican Restaurant", "longitude": -84.596636, "has_menu": true, "awards": null, "user_review_count": 0}, {"business_operation_status": 1, "rating": null, "neighborhood": null, "image": null, "scorecard": null, "featured": false, "sample_categories": "Restaurants", "public_id": "asian-express-marietta", "id": 617926934, "votes": null, "tagline": null, "has_video": false, "website": null, "offers": null, "latitude": 34.020818, "politanName": "Atlanta, GA Metro ", "phone_number": "7704201819", "tags": [{"primary": true, "id": 1722, "name": "Restaurants"}], "fax_number": null, "expansion": {"count": null, "uri": null}, "impression_id": "000b00000078bdce2a9ae440b7892f8c8633bc2979", "profile": "http://www.citysearch.com/profile/617926934/marietta_ga/asian_express.html", "address": {"city": "Marietta", "state": "GA", "street": "2821 Chastain Meadows Pkwy", "postal_code": "30066"}, "capProviderId": null, "distance": null, "has_offers": false, "name": "Asian Express", "longitude": -84.55554, "has_menu": false, "awards": null, "user_review_count": 0}, {"business_operation_status": 1, "rating": null, "neighborhood": null, "image": null, "scorecard": null, "featured": false, "sample_categories": "Restaurants", "public_id": "good-fatts-country-cookin-acworth", "id": 653578880, "votes": null, "tagline": null, "has_video": false, "website": null, "offers": null, "latitude": 34.06489, "politanName": "Atlanta, GA Metro ", "phone_number": "6784014805", "tags": [{"primary": true, "id": 1722, "name": "Restaurants"}], "fax_number": null, "expansion": {"count": null, "uri": null}, "impression_id": "000b000000f38fbdb2ffb240e8aab932cb55bb5570", "profile": "http://www.citysearch.com/profile/653578880/acworth_ga/good_fatts_country_cookin.html", "address": {"city": "Acworth", "state": "GA", "street": "2535 Hickory Grove Rd Nw # 105", "postal_code": "30101"}, "capProviderId": null, "distance": null, "has_offers": false, "name": "Good Fatts Country Cookin", "longitude": -84.624038, "has_menu": false, "awards": null, "user_review_count": 0}, {"business_operation_status": 0, "rating": null, "neighborhood": null, "image": null, "scorecard": null, "featured": false, "sample_categories": "Restaurants", "public_id": "big-city-deli-kennesaw", "id": 672288520, "votes": null, "tagline": null, "has_video": false, "website": null, "offers": null, "latitude": 34.018515, "politanName": "Atlanta, GA Metro ", "phone_number": "7709759237", "tags": [{"primary": true, "id": 1722, "name": "Restaurants"}], "fax_number": null, "expansion": {"count": null, "uri": null}, "impression_id": "000b000000bb45772ec56045978a0075056ba34185", "profile": "http://www.citysearch.com/profile/672288520/kennesaw_ga/big_city_deli.html", "address": {"city": "Kennesaw", "state": "GA", "street": "3061 Jim Owens Road", "postal_code": "30152"}, "capProviderId": null, "distance": null, "has_offers": false, "name": "Big City Deli", "longitude": -84.657278, "has_menu": false, "awards": null, "user_review_count": 0}, {"business_operation_status": 1, "rating": null, "neighborhood": null, "image": null, "scorecard": null, "featured": false, "sample_categories": "Delis And Delicatessens", "public_id": "kroger-deli-dallas-6", "id": 698385790, "votes": null, "tagline": null, "has_video": false, "website": null, "offers": null, "latitude": 34.010309, "politanName": "Atlanta, GA Metro ", "phone_number": "6784393372", "tags": [{"primary": true, "id": 1727, "name": "Delis And Delicatessens"}], "fax_number": null, "expansion": {"count": null, "uri": null}, "impression_id": "000b000000b2c0408f3fb1494b9d4d146dbc1b55ac", "profile": "http://www.citysearch.com/profile/698385790/dallas_ga/kroger_deli.html", "address": {"city": "Dallas", "state": "GA", "street": "8876 Dallas Acworth Hwy", "postal_code": "30132"}, "capProviderId": null, "distance": null, "has_offers": false, "name": "Kroger Deli", "longitude": -84.753348, "has_menu": false, "awards": null, "user_review_count": 0}, {"business_operation_status": 1, "rating": null, "neighborhood": null, "image": null, "scorecard": null, "featured": false, "sample_categories": "Restaurants", "public_id": "dinner-afare-marietta", "id": 621938470, "votes": null, "tagline": null, "has_video": false, "website": null, "offers": null, "latitude": 33.963729, "politanName": "Atlanta, GA Metro ", "phone_number": "7704261838", "tags": [{"primary": true, "id": 1722, "name": "Restaurants"}], "fax_number": null, "expansion": {"count": null, "uri": null}, "impression_id": "000b000000c31bd1b319b045cca72854f71bb70e96", "profile": "http://www.citysearch.com/profile/621938470/marietta_ga/dinner_a_fare.html", "address": {"city": "Marietta", "state": "GA", "street": "3391 Bridle Run Trl Nw", "postal_code": "30064"}, "capProviderId": null, "distance": null, "has_offers": false, "name": "Dinner A'Fare", "longitude": -84.649114, "has_menu": false, "awards": null, "user_review_count": 0}, {"business_operation_status": 1, "rating": null, "neighborhood": null, "image": null, "scorecard": null, "featured": false, "sample_categories": "Restaurants, Bakeries", "public_id": "tajmahal-grill-kennesaw", "id": 713543660, "votes": null, "tagline": null, "has_video": false, "website": "http://www.citysearch.com/profile/external/713543660/kennesaw_ga/taj_mahal_grill.html", "offers": null, "latitude": 34.000514, "politanName": "Atlanta, GA Metro ", "phone_number": "7709199990", "tags": [{"primary": false, "id": 1685, "name": "Bakeries"}, {"primary": true, "id": 1722, "name": "Restaurants"}], "fax_number": null, "expansion": {"count": null, "uri": null}, "impression_id": "000b000000e0ca5f268e844d3c85ac5ff6981912f4", "profile": "http://www.citysearch.com/profile/713543660/kennesaw_ga/taj_mahal_grill.html", "address": {"city": "Kennesaw", "state": "GA", "street": "1200 Earnest W Barrett Pkwy NW St 18", "postal_code": "30144"}, "capProviderId": null, "distance": null, "has_offers": false, "name": "Taj Mahal Grill", "longitude": -84.587423, "has_menu": true, "awards": null, "user_review_count": 2}, {"business_operation_status": 1, "rating": null, "neighborhood": null, "image": null, "scorecard": null, "featured": false, "sample_categories": "Restaurants, Pizza, Carry Out", "public_id": "little-caesars-pizza-acworth-3", "id": 682324320, "votes": null, "tagline": null, "has_video": false, "website": "http://www.citysearch.com/profile/external/682324320/acworth_ga/little_caesars_pizza.html", "offers": null, "latitude": 33.997403, "politanName": "Atlanta, GA Metro ", "phone_number": "7704999981", "tags": [{"primary": false, "id": 1722, "name": "Restaurants"}, {"primary": false, "id": 11247, "name": "Carry Out"}, {"primary": true, "id": 11299, "name": "Pizza"}], "fax_number": null, "expansion": {"count": null, "uri": null}, "impression_id": "000b000000787cbe944aba4633b71cfb8d3b0c30bc", "profile": "http://www.citysearch.com/profile/682324320/acworth_ga/little_caesars_pizza.html", "address": {"city": "Acworth", "state": "GA", "street": "1727 Mars Hill Rd NW # 8", "postal_code": "30101"}, "capProviderId": null, "distance": null, "has_offers": false, "name": "Little Caesars Pizza", "longitude": -84.707837, "has_menu": false, "awards": null, "user_review_count": 0}, {"business_operation_status": 1, "rating": null, "neighborhood": null, "image": null, "scorecard": null, "featured": false, "sample_categories": "Restaurants", "public_id": "dangling-carrot-creative-kennesaw", "id": 770761700, "votes": null, "tagline": null, "has_video": false, "website": null, "offers": null, "latitude": 34.049037, "politanName": "Atlanta, GA Metro ", "phone_number": "7707921848", "tags": [{"primary": true, "id": 1722, "name": "Restaurants"}], "fax_number": null, "expansion": {"count": null, "uri": null}, "impression_id": "000b000000f6d0c7c26fed4996b7276e22d498a97b", "profile": "http://www.citysearch.com/profile/770761700/kennesaw_ga/dangling_carrot_creative.html", "address": {"city": "Kennesaw", "state": "GA", "street": "3939 Royal Dr NW", "postal_code": "30144"}, "capProviderId": null, "distance": null, "has_offers": false, "name": "Dangling Carrot Creative", "longitude": -84.605715, "has_menu": false, "awards": null, "user_review_count": 0}, {"business_operation_status": 1, "rating": null, "neighborhood": null, "image": null, "scorecard": null, "featured": false, "sample_categories": "Restaurants", "public_id": "daily-bread-cafe-marietta", "id": 787129630, "votes": null, "tagline": null, "has_video": false, "website": null, "offers": null, "latitude": 33.964179, "politanName": "Atlanta, GA Metro ", "phone_number": "7704237288", "tags": [{"primary": true, "id": 1722, "name": "Restaurants"}], "fax_number": null, "expansion": {"count": null, "uri": null}, "impression_id": "000b0000000fbe637cf72f45ab80f946db25e78f81", "profile": "http://www.citysearch.com/profile/787129630/marietta_ga/daily_bread_cafe.html", "address": {"city": "Marietta", "state": "GA", "street": "531 Roselane St NW", "postal_code": "30060"}, "capProviderId": null, "distance": null, "has_offers": false, "name": "Daily Bread Cafe", "longitude": -84.556876, "has_menu": false, "awards": null, "user_review_count": 0}, {"business_operation_status": 1, "rating": null, "neighborhood": null, "image": null, "scorecard": null, "featured": false, "sample_categories": "Restaurants", "public_id": "j-k-island-cafe-marietta", "id": 808002760, "votes": null, "tagline": null, "has_video": false, "website": null, "offers": null, "latitude": 33.953203, "politanName": "Atlanta, GA Metro ", "phone_number": "6782909933", "tags": [{"primary": true, "id": 1722, "name": "Restaurants"}], "fax_number": null, "expansion": {"count": null, "uri": null}, "impression_id": "000b000000cc2fc698e3d040beb789164c647b9fbe", "profile": "http://www.citysearch.com/profile/808002760/marietta_ga/j_k_island_cafe.html", "address": {"city": "Marietta", "state": "GA", "street": "2503 Zachary Woods Dr NW", "postal_code": "30064"}, "capProviderId": null, "distance": null, "has_offers": false, "name": "J & K Island Cafe", "longitude": -84.630386, "has_menu": false, "awards": null, "user_review_count": 0}, {"business_operation_status": 1, "rating": null, "neighborhood": null, "image": null, "scorecard": null, "featured": false, "sample_categories": "Restaurants", "public_id": "my-cousin-vinnys-kennesaw-2", "id": 615555824, "votes": null, "tagline": null, "has_video": false, "website": null, "offers": null, "latitude": 34.013172, "politanName": "Atlanta, GA Metro ", "phone_number": "7704230391", "tags": [{"primary": true, "id": 1722, "name": "Restaurants"}], "fax_number": null, "expansion": {"count": null, "uri": null}, "impression_id": "000b00000000f44195533e4c519dcb1c969ac62164", "profile": "http://www.citysearch.com/profile/615555824/kennesaw_ga/my_cousin_vinny_s.html", "address": {"city": "Kennesaw", "state": "GA", "street": "2615 George Busbee Pkwy NW 26", "postal_code": "30144"}, "capProviderId": null, "distance": null, "has_offers": false, "name": "My Cousin Vinny's", "longitude": -84.567215, "has_menu": false, "awards": null, "user_review_count": 0}, {"business_operation_status": 1, "rating": null, "neighborhood": null, "image": null, "scorecard": null, "featured": false, "sample_categories": "Restaurants, Caribbean", "public_id": "caribbean-cafe-dallas", "id": 732148300, "votes": null, "tagline": null, "has_video": false, "website": null, "offers": null, "latitude": 33.909628, "politanName": "Atlanta, GA Metro ", "phone_number": "7702228844", "tags": [{"primary": false, "id": 11195, "name": "Caribbean"}, {"primary": true, "id": 1722, "name": "Restaurants"}], "fax_number": null, "expansion": {"count": null, "uri": null}, "impression_id": "000b0000002d4f9e41024d4bce9f2ccae1165dc352", "profile": "http://www.citysearch.com/profile/732148300/dallas_ga/caribbean_cafe.html", "address": {"city": "Dallas", "state": "GA", "street": "1336 Hiram Acworth Hwy", "postal_code": "30157"}, "capProviderId": null, "distance": null, "has_offers": false, "name": "Caribbean Cafe", "longitude": -84.746817, "has_menu": false, "awards": null, "user_review_count": 0}, {"business_operation_status": 1, "rating": null, "neighborhood": null, "image": null, "scorecard": null, "featured": false, "sample_categories": "Restaurants", "public_id": "d-e-restaurant-equipment-acworth", "id": 732160900, "votes": null, "tagline": null, "has_video": false, "website": null, "offers": null, "latitude": 34.028974, "politanName": "Atlanta, GA Metro ", "phone_number": "4049759264", "tags": [{"primary": true, "id": 1722, "name": "Restaurants"}], "fax_number": null, "expansion": {"count": null, "uri": null}, "impression_id": "000b000000385dd2ee0df8434fa66afdafc81cf01b", "profile": "http://www.citysearch.com/profile/732160900/acworth_ga/d_e_restaurant_equipment.html", "address": {"city": "Acworth", "state": "GA", "street": "3112 Maplewood Dr", "postal_code": "30101"}, "capProviderId": null, "distance": null, "has_offers": false, "name": "D & E Restaurant Equipment", "longitude": -84.740837, "has_menu": false, "awards": null, "user_review_count": 0}, {"business_operation_status": 1, "rating": null, "neighborhood": null, "image": null, "scorecard": null, "featured": false, "sample_categories": "Restaurants", "public_id": "tin-drum-asiacafe-marietta", "id": 614029774, "votes": null, "tagline": null, "has_video": false, "website": null, "offers": null, "latitude": 34.013358, "politanName": "Atlanta, GA Metro ", "phone_number": "6785403471", "tags": [{"primary": true, "id": 1722, "name": "Restaurants"}], "fax_number": null, "expansion": {"count": null, "uri": null}, "impression_id": "000b0000005abebec294cf4c67a517aa060865f049", "profile": "http://www.citysearch.com/profile/614029774/marietta_ga/tin_drum_asiacafe.html", "address": {"city": "Marietta", "state": "GA", "street": "125 Ernest Barrett Pkwy NW", "postal_code": "30066"}, "capProviderId": null, "distance": null, "has_offers": false, "name": "Tin Drum Asiacafe", "longitude": -84.553529, "has_menu": false, "awards": null, "user_review_count": 0}, {"business_operation_status": 1, "rating": null, "neighborhood": null, "image": null, "scorecard": null, "featured": false, "sample_categories": "Restaurants, Bakeries, Delis And Delicatessens, MasterCard, Visa", "public_id": "sunnys-bagel-deli-kennesaw", "id": 2954916, "votes": null, "tagline": null, "has_video": false, "website": "http://www.citysearch.com/profile/external/2954916/kennesaw_ga/sunny_s_bagel_deli.html", "offers": null, "latitude": 34.012738, "politanName": "Atlanta, GA Metro ", "phone_number": "7707950099", "tags": [{"primary": false, "id": 1685, "name": "Bakeries"}, {"primary": false, "id": 1727, "name": "Delis And Delicatessens"}, {"primary": false, "id": 11361, "name": "MasterCard"}, {"primary": false, "id": 11382, "name": "Visa"}, {"primary": true, "id": 1722, "name": "Restaurants"}], "fax_number": null, "expansion": {"count": null, "uri": null}, "impression_id": "000b0000006fa05d53b8df4b8fa02a83e9f4bc766b", "profile": "http://www.citysearch.com/profile/2954916/kennesaw_ga/sunny_s_bagel_deli.html", "address": {"city": "Kennesaw", "state": "GA", "street": "440 Ernest W Barrett Pkwy NW # 8", "postal_code": "30144"}, "capProviderId": null, "distance": null, "has_offers": false, "name": "Sunny's Bagel & Deli", "longitude": -84.5643, "has_menu": false, "awards": null, "user_review_count": 0}, {"business_operation_status": 1, "rating": null, "neighborhood": null, "image": null, "scorecard": null, "featured": false, "sample_categories": "Restaurants", "public_id": "sarb-services-inc-kennesaw", "id": 764871430, "votes": null, "tagline": null, "has_video": false, "website": "http://www.citysearch.com/profile/external/764871430/kennesaw_ga/sarb_services_inc.html", "offers": null, "latitude": 34.011992, "politanName": "Atlanta, GA Metro ", "phone_number": "7704237375", "tags": [{"primary": true, "id": 1722, "name": "Restaurants"}], "fax_number": null, "expansion": {"count": null, "uri": null}, "impression_id": "000b0000009d7c6956c37b409e8b63fd3048e22b45", "profile": "http://www.citysearch.com/profile/764871430/kennesaw_ga/sarb_services_inc.html", "address": {"city": "Kennesaw", "state": "GA", "street": "2420 Cobb Pkwy NW", "postal_code": "30152"}, "capProviderId": null, "distance": null, "has_offers": false, "name": "Sarb Services Inc", "longitude": -84.610653, "has_menu": false, "awards": null, "user_review_count": 0}, {"business_operation_status": 1, "rating": null, "neighborhood": null, "image": null, "scorecard": null, "featured": false, "sample_categories": "Restaurants", "public_id": "totopos-dallas", "id": 764911840, "votes": null, "tagline": null, "has_video": false, "website": null, "offers": null, "latitude": 33.957866, "politanName": "Atlanta, GA Metro ", "phone_number": "7704433070", "tags": [{"primary": true, "id": 1722, "name": "Restaurants"}], "fax_number": null, "expansion": {"count": null, "uri": null}, "impression_id": "000b000000d9828a7924254dcaa61dac3a6654134e", "profile": "http://www.citysearch.com/profile/764911840/dallas_ga/totopos.html", "address": {"city": "Dallas", "state": "GA", "street": "55 E Paulding Dr", "postal_code": "30157"}, "capProviderId": null, "distance": null, "has_offers": false, "name": "Totopos", "longitude": -84.787071, "has_menu": false, "awards": null, "user_review_count": 0}, {"business_operation_status": 1, "rating": null, "neighborhood": null, "image": null, "scorecard": null, "featured": false, "sample_categories": "Restaurants", "public_id": "atlwest-mariett-marietta", "id": 787106980, "votes": null, "tagline": null, "has_video": false, "website": null, "offers": null, "latitude": 33.944719, "politanName": "Atlanta, GA Metro ", "phone_number": "7707927933", "tags": [{"primary": true, "id": 1722, "name": "Restaurants"}], "fax_number": null, "expansion": {"count": null, "uri": null}, "impression_id": "000b0000004325037355d24382801f4452e5fa4b43", "profile": "http://www.citysearch.com/profile/787106980/marietta_ga/atl_west_mariett.html", "address": {"city": "Marietta", "state": "GA", "street": "2535 Dallas Hwy Sw", "postal_code": "30064"}, "capProviderId": null, "distance": null, "has_offers": false, "name": "Atl-West Mariett", "longitude": -84.625194, "has_menu": false, "awards": null, "user_review_count": 0}, {"business_operation_status": 1, "rating": null, "neighborhood": null, "image": null, "scorecard": null, "featured": false, "sample_categories": "Restaurants, Italian", "public_id": "martinos-italian-restaurant-dallas", "id": 766757000, "votes": null, "tagline": null, "has_video": false, "website": null, "offers": null, "latitude": 33.98438, "politanName": "Atlanta, GA Metro ", "phone_number": "6787385561", "tags": [{"primary": false, "id": 11279, "name": "Italian"}, {"primary": true, "id": 1722, "name": "Restaurants"}], "fax_number": null, "expansion": {"count": null, "uri": null}, "impression_id": "000b0000005c83b249b10d4e96b4ab6d6162232618", "profile": "http://www.citysearch.com/profile/766757000/dallas_ga/martino_s_italian_restaurant.html", "address": {"city": "Dallas", "state": "GA", "street": "8877 Acwoth Dallas Hwy", "postal_code": "30132"}, "capProviderId": null, "distance": null, "has_offers": false, "name": "Martino's Italian Restaurant", "longitude": -84.772457, "has_menu": false, "awards": null, "user_review_count": 0}, {"business_operation_status": 1, "rating": null, "neighborhood": null, "image": null, "scorecard": null, "featured": false, "sample_categories": "Restaurants", "public_id": "la-tagliatellakennesaw-kennesaw", "id": 768794230, "votes": null, "tagline": null, "has_video": false, "website": null, "offers": null, "latitude": 34.002327, "politanName": "Atlanta, GA Metro ", "phone_number": "6789053611", "tags": [{"primary": true, "id": 1722, "name": "Restaurants"}], "fax_number": null, "expansion": {"count": null, "uri": null}, "impression_id": "000b00000002951d10f4a9432a8a23a8ef1da9a6e8", "profile": "http://www.citysearch.com/profile/768794230/kennesaw_ga/la_tagliatella_kennesaw.html", "address": {"city": "Kennesaw", "state": "GA", "street": "2045 Attic Pkwy NW", "postal_code": "30152"}, "capProviderId": null, "distance": null, "has_offers": false, "name": "La Tagliatella-Kennesaw", "longitude": -84.604376, "has_menu": false, "awards": null, "user_review_count": 0}, {"business_operation_status": 1, "rating": null, "neighborhood": null, "image": null, "scorecard": null, "featured": false, "sample_categories": "Restaurants, Thai", "public_id": "f-j-thai-pepper-llc-kennesaw", "id": 793231080, "votes": null, "tagline": null, "has_video": false, "website": null, "offers": null, "latitude": 34.01386, "politanName": "Atlanta, GA Metro ", "phone_number": "7704199500", "tags": [{"primary": false, "id": 11319, "name": "Thai"}, {"primary": true, "id": 1722, "name": "Restaurants"}], "fax_number": null, "expansion": {"count": null, "uri": null}, "impression_id": "000b00000026913f8b061a4a81b7719aec6d6d1c29", "profile": "http://www.citysearch.com/profile/793231080/kennesaw_ga/f_j_thai_pepper_llc.html", "address": {"city": "Kennesaw", "state": "GA", "street": "2606 George Busbee Pkwy NW", "postal_code": "30144"}, "capProviderId": null, "distance": null, "has_offers": false, "name": "F J Thai Pepper LLC", "longitude": -84.565725, "has_menu": false, "awards": null, "user_review_count": 0}, {"business_operation_status": 1, "rating": null, "neighborhood": null, "image": null, "scorecard": null, "featured": false, "sample_categories": "Restaurants", "public_id": "el-sarape-marietta", "id": 815403830, "votes": null, "tagline": null, "has_video": false, "website": null, "offers": null, "latitude": 33.969085, "politanName": "Atlanta, GA Metro ", "phone_number": "7705908887", "tags": [{"primary": true, "id": 1722, "name": "Restaurants"}], "fax_number": null, "expansion": {"count": null, "uri": null}, "impression_id": "000b00000085bac7ba3d094f989ddf4c1e222ccbf9", "profile": "http://www.citysearch.com/profile/815403830/marietta_ga/el_sarape.html", "address": {"city": "Marietta", "state": "GA", "street": "745 Cobb Pkwy N", "postal_code": "30062"}, "capProviderId": null, "distance": null, "has_offers": false, "name": "El Sarape", "longitude": -84.538349, "has_menu": false, "awards": null, "user_review_count": 0}, {"business_operation_status": 1, "rating": null, "neighborhood": null, "image": null, "scorecard": null, "featured": false, "sample_categories": "Restaurants", "public_id": "j-mann-cafe-grille-marietta", "id": 815522810, "votes": null, "tagline": null, "has_video": false, "website": null, "offers": null, "latitude": 33.948544, "politanName": "Atlanta, GA Metro ", "phone_number": "7705280262", "tags": [{"primary": true, "id": 1722, "name": "Restaurants"}], "fax_number": null, "expansion": {"count": null, "uri": null}, "impression_id": "000b000000336fe67b7dd14f19a4f4b68e48644c16", "profile": "http://www.citysearch.com/profile/815522810/marietta_ga/j_mann_cafe_grille.html", "address": {"city": "Marietta", "state": "GA", "street": "191 S Marietta Pkwy SW", "postal_code": "30064"}, "capProviderId": null, "distance": null, "has_offers": false, "name": "J Mann Cafe & Grille", "longitude": -84.550204, "has_menu": false, "awards": null, "user_review_count": 0}, {"business_operation_status": 1, "rating": null, "neighborhood": null, "image": null, "scorecard": null, "featured": false, "sample_categories": "Restaurants", "public_id": "cobb-kennesaw", "id": 812569790, "votes": null, "tagline": null, "has_video": false, "website": null, "offers": null, "latitude": 34.007674, "politanName": "Atlanta, GA Metro ", "phone_number": "7704256895", "tags": [{"primary": true, "id": 1722, "name": "Restaurants"}], "fax_number": null, "expansion": {"count": null, "uri": null}, "impression_id": "000b000000350ee51f436446f6a57e62327ddfca35", "profile": "http://www.citysearch.com/profile/812569790/kennesaw_ga/cobb.html", "address": {"city": "Kennesaw", "state": "GA", "street": "740 Ernest W Barrett Pkwy NW", "postal_code": "30144"}, "capProviderId": null, "distance": null, "has_offers": false, "name": "Cobb", "longitude": -84.571702, "has_menu": false, "awards": null, "user_review_count": 0}, {"business_operation_status": 1, "rating": null, "neighborhood": null, "image": null, "scorecard": null, "featured": false, "sample_categories": "Restaurants", "public_id": "caits-tea-room-kennesaw", "id": 820023430, "votes": null, "tagline": null, "has_video": false, "website": null, "offers": null, "latitude": 34.034038, "politanName": "Atlanta, GA Metro ", "phone_number": "7704265177", "tags": [{"primary": true, "id": 1722, "name": "Restaurants"}], "fax_number": null, "expansion": {"count": null, "uri": null}, "impression_id": "000b0000009d131058bdd644f48e78530924c07694", "profile": "http://www.citysearch.com/profile/820023430/kennesaw_ga/cait_s_tea_room.html", "address": {"city": "Kennesaw", "state": "GA", "street": "2950 Moon Station Rd NW", "postal_code": "30144"}, "capProviderId": null, "distance": null, "has_offers": false, "name": "Cait's Tea Room", "longitude": -84.616388, "has_menu": false, "awards": null, "user_review_count": 0}, {"business_operation_status": 1, "rating": null, "neighborhood": null, "image": null, "scorecard": null, "featured": false, "sample_categories": "Restaurants", "public_id": "b-a-b-smokehouse-marietta", "id": 818380670, "votes": null, "tagline": null, "has_video": false, "website": null, "offers": null, "latitude": 34.02684, "politanName": "Atlanta, GA Metro ", "phone_number": "7704220604", "tags": [{"primary": true, "id": 1722, "name": "Restaurants"}], "fax_number": null, "expansion": {"count": null, "uri": null}, "impression_id": "000b0000008e7ff6ee71104d089a16ae42a065861b", "profile": "http://www.citysearch.com/profile/818380670/marietta_ga/b_a_b_smokehouse.html", "address": {"city": "Marietta", "state": "GA", "street": "3050 Canton Rd", "postal_code": "30066"}, "capProviderId": null, "distance": null, "has_offers": false, "name": "B A B Smokehouse", "longitude": -84.527483, "has_menu": false, "awards": null, "user_review_count": 0}, {"business_operation_status": 1, "rating": null, "neighborhood": null, "image": null, "scorecard": null, "featured": false, "sample_categories": "Restaurants, Pizza", "public_id": "bella-bocca-marietta", "id": 822361720, "votes": null, "tagline": null, "has_video": false, "website": null, "offers": null, "latitude": 33.951001, "politanName": "Atlanta, GA Metro ", "phone_number": "7707958984", "tags": [{"primary": false, "id": 1722, "name": "Restaurants"}, {"primary": true, "id": 11299, "name": "Pizza"}], "fax_number": null, "expansion": {"count": null, "uri": null}, "impression_id": "000b000000a816100fc1d046bb88339726fa7ce5fe", "profile": "http://www.citysearch.com/profile/822361720/marietta_ga/bella_bocca.html", "address": {"city": "Marietta", "state": "GA", "street": "999 Whitlock Ave SW", "postal_code": "30064"}, "capProviderId": null, "distance": null, "has_offers": false, "name": "Bella Bocca", "longitude": -84.57917, "has_menu": false, "awards": null, "user_review_count": 1}, {"business_operation_status": 0, "rating": null, "neighborhood": null, "image": null, "scorecard": null, "featured": false, "sample_categories": "Restaurants, Pizza", "public_id": "luna-pizza-kennesaw", "id": 824661650, "votes": null, "tagline": null, "has_video": false, "website": null, "offers": null, "latitude": 34.013172, "politanName": "Atlanta, GA Metro ", "phone_number": "6787660449", "tags": [{"primary": false, "id": 1722, "name": "Restaurants"}, {"primary": true, "id": 11299, "name": "Pizza"}], "fax_number": null, "expansion": {"count": null, "uri": null}, "impression_id": "000b000000505999147649483b93364a5063097db0", "profile": "http://www.citysearch.com/profile/824661650/kennesaw_ga/luna_pizza.html", "address": {"city": "Kennesaw", "state": "GA", "street": "2615 George Busbee Pkwy NW", "postal_code": "30144"}, "capProviderId": null, "distance": null, "has_offers": false, "name": "Luna Pizza", "longitude": -84.567215, "has_menu": false, "awards": null, "user_review_count": 0}, {"business_operation_status": 1, "rating": null, "neighborhood": null, "image": null, "scorecard": null, "featured": false, "sample_categories": "Restaurants", "public_id": "boxcara-cheesecake-cafe-kennesaw", "id": 823298160, "votes": null, "tagline": null, "has_video": false, "website": null, "offers": null, "latitude": 34.024396, "politanName": "Atlanta, GA Metro ", "phone_number": "7709197740", "tags": [{"primary": true, "id": 1722, "name": "Restaurants"}], "fax_number": null, "expansion": {"count": null, "uri": null}, "impression_id": "000b000000dad0e217d7cc47839f53013a5e9fa274", "profile": "http://www.citysearch.com/profile/823298160/kennesaw_ga/boxcar_a_cheesecake_cafe.html", "address": {"city": "Kennesaw", "state": "GA", "street": "2893 N Main St NW", "postal_code": "30144"}, "capProviderId": null, "distance": null, "has_offers": false, "name": "Boxcar-A Cheesecake Cafe", "longitude": -84.615917, "has_menu": true, "awards": null, "user_review_count": 3}, {"business_operation_status": 1, "rating": null, "neighborhood": null, "image": null, "scorecard": null, "featured": false, "sample_categories": "Ice Cream Parlors", "public_id": "phoenician-gyro-cafe-marietta", "id": 824983320, "votes": null, "tagline": null, "has_video": false, "website": null, "offers": null, "latitude": 34.068476, "politanName": "Atlanta, GA Metro ", "phone_number": "7705925158", "tags": [{"primary": true, "id": 1730, "name": "Ice Cream Parlors"}], "fax_number": null, "expansion": {"count": null, "uri": null}, "impression_id": "000b000000add41eee8b3a4cb18b830bb7170582e2", "profile": "http://www.citysearch.com/profile/824983320/marietta_ga/phoenician_gyro_cafe.html", "address": {"city": "Marietta", "state": "GA", "street": "4796 Canton Rd # 700", "postal_code": "30066"}, "capProviderId": null, "distance": null, "has_offers": false, "name": "Phoenician Gyro Cafe", "longitude": -84.520809, "has_menu": false, "awards": null, "user_review_count": 0}, {"business_operation_status": 0, "rating": null, "neighborhood": null, "image": null, "scorecard": null, "featured": false, "sample_categories": "Restaurants, Carry Out", "public_id": "atlanta-bread-co-marietta-3", "id": 818761800, "votes": null, "tagline": null, "has_video": false, "website": null, "offers": null, "latitude": 33.947326, "politanName": "Atlanta, GA Metro ", "phone_number": "7704250442", "tags": [{"primary": false, "id": 11247, "name": "Carry Out"}, {"primary": true, "id": 1722, "name": "Restaurants"}], "fax_number": null, "expansion": {"count": null, "uri": null}, "impression_id": "000b00000094754f991492438fb787aeece1295f4b", "profile": "http://www.citysearch.com/profile/818761800/marietta_ga/atlanta_bread_co.html", "address": {"city": "Marietta", "state": "GA", "street": "3451 Ernest W Barrett NW # 200", "postal_code": "30064"}, "capProviderId": null, "distance": null, "has_offers": false, "name": "Atlanta Bread Co", "longitude": -84.622965, "has_menu": false, "awards": null, "user_review_count": 0}, {"business_operation_status": 1, "rating": null, "neighborhood": null, "image": null, "scorecard": null, "featured": false, "sample_categories": "Restaurants", "public_id": "golden-choice-pet-foods-llc-kennesaw", "id": 787124940, "votes": null, "tagline": null, "has_video": false, "website": "http://www.citysearch.com/profile/external/787124940/kennesaw_ga/golden_choice_pet_foods_llc.html", "offers": null, "latitude": 34.003702, "politanName": "Atlanta, GA Metro ", "phone_number": "7704255412", "tags": [{"primary": true, "id": 1722, "name": "Restaurants"}], "fax_number": null, "expansion": {"count": null, "uri": null}, "impression_id": "000b000000074c90f8d0434befb41efe942fdbec03", "profile": "http://www.citysearch.com/profile/787124940/kennesaw_ga/golden_choice_pet_foods_llc.html", "address": {"city": "Kennesaw", "state": "GA", "street": "2084 Battlewood Dr NW", "postal_code": "30152"}, "capProviderId": null, "distance": null, "has_offers": false, "name": "Golden Choice Pet Foods LLC", "longitude": -84.622899, "has_menu": false, "awards": null, "user_review_count": 0}, {"business_operation_status": 1, "rating": null, "neighborhood": null, "image": null, "scorecard": null, "featured": false, "sample_categories": "Restaurants, Chinese, MasterCard, Visa", "public_id": "mr-won-ton-marietta", "id": 2908318, "votes": null, "tagline": null, "has_video": false, "website": "http://www.citysearch.com/profile/external/2908318/marietta_ga/mr_won_ton.html", "offers": null, "latitude": 34.038928, "politanName": "Atlanta, GA Metro ", "phone_number": "7705917706", "tags": [{"primary": false, "id": 11252, "name": "Chinese"}, {"primary": false, "id": 11361, "name": "MasterCard"}, {"primary": false, "id": 11382, "name": "Visa"}, {"primary": true, "id": 1722, "name": "Restaurants"}], "fax_number": null, "expansion": {"count": null, "uri": null}, "impression_id": "000b000000aee2f9e467c5477aadb9b54b3e00aedb", "profile": "http://www.citysearch.com/profile/2908318/marietta_ga/mr_won_ton.html", "address": {"city": "Marietta", "state": "GA", "street": "3595 Canton Rd # Ste 328", "postal_code": "30066"}, "capProviderId": null, "distance": null, "has_offers": false, "name": "Mr Won Ton", "longitude": -84.530249, "has_menu": false, "awards": null, "user_review_count": 0}, {"business_operation_status": 1, "rating": null, "neighborhood": null, "image": null, "scorecard": null, "featured": false, "sample_categories": "Restaurants", "public_id": "gyro-bros-kennesaw", "id": 836770140, "votes": null, "tagline": null, "has_video": false, "website": null, "offers": null, "latitude": 34.017369, "politanName": "Atlanta, GA Metro ", "phone_number": "7704238887", "tags": [{"primary": true, "id": 1722, "name": "Restaurants"}], "fax_number": null, "expansion": {"count": null, "uri": null}, "impression_id": "000b0000008958c4d43f8c4f7ebd476cf354c716fb", "profile": "http://www.citysearch.com/profile/836770140/kennesaw_ga/gyro_bros.html", "address": {"city": "Kennesaw", "state": "GA", "street": "400 Ernest W Barrett Pkwy NW", "postal_code": "30144"}, "capProviderId": null, "distance": null, "has_offers": false, "name": "Gyro Bros", "longitude": -84.564255, "has_menu": false, "awards": null, "user_review_count": 0}, {"business_operation_status": 1, "rating": null, "neighborhood": null, "image": null, "scorecard": null, "featured": false, "sample_categories": "Restaurants", "public_id": "l-maries-southern-cuisine-kennesaw", "id": 611429574, "votes": null, "tagline": null, "has_video": false, "website": null, "offers": null, "latitude": 34.047379, "politanName": "Atlanta, GA Metro ", "phone_number": "6784012549", "tags": [{"primary": true, "id": 1722, "name": "Restaurants"}], "fax_number": null, "expansion": {"count": null, "uri": null}, "impression_id": "000b000000fcaecb89b7854702a968772958690cb2", "profile": "http://www.citysearch.com/profile/611429574/kennesaw_ga/l_marie_s_southern_cuisine.html", "address": {"city": "Kennesaw", "state": "GA", "street": "4240 Jiles Rd NW", "postal_code": "30144"}, "capProviderId": null, "distance": null, "has_offers": false, "name": "L Marie's Southern Cuisine", "longitude": -84.601698, "has_menu": true, "awards": null, "user_review_count": 0}, {"business_operation_status": 1, "rating": null, "neighborhood": null, "image": null, "scorecard": null, "featured": false, "sample_categories": "Restaurants, Pizza, Carry Out", "public_id": "little-caesars-pizza-marietta-2", "id": 653582070, "votes": null, "tagline": null, "has_video": false, "website": "http://www.citysearch.com/profile/external/653582070/marietta_ga/little_caesars_pizza.html", "offers": null, "latitude": 33.952972, "politanName": "Atlanta, GA Metro ", "phone_number": "6784014181", "tags": [{"primary": false, "id": 1722, "name": "Restaurants"}, {"primary": false, "id": 11247, "name": "Carry Out"}, {"primary": true, "id": 11299, "name": "Pizza"}], "fax_number": null, "expansion": {"count": null, "uri": null}, "impression_id": "000b000000b874b1a2b97941cdb1b477ff275a7081", "profile": "http://www.citysearch.com/profile/653582070/marietta_ga/little_caesars_pizza.html", "address": {"city": "Marietta", "state": "GA", "street": "3405 Dallas Hwy Sw", "postal_code": "30064"}, "capProviderId": null, "distance": null, "has_offers": false, "name": "Little Caesars Pizza", "longitude": -84.651096, "has_menu": false, "awards": null, "user_review_count": 0}, {"business_operation_status": 1, "rating": null, "neighborhood": null, "image": null, "scorecard": null, "featured": false, "sample_categories": "Restaurants, Pizza, Carry Out", "public_id": "dominos-pizza-dallas-38", "id": 682657320, "votes": null, "tagline": null, "has_video": false, "website": "http://www.citysearch.com/profile/external/682657320/dallas_ga/domino_s_pizza.html", "offers": null, "latitude": 34.016676, "politanName": "Atlanta, GA Metro ", "phone_number": "7705053030", "tags": [{"primary": false, "id": 1722, "name": "Restaurants"}, {"primary": false, "id": 11247, "name": "Carry Out"}, {"primary": true, "id": 11299, "name": "Pizza"}], "fax_number": null, "expansion": {"count": null, "uri": null}, "impression_id": "000b0000002654901c43f647b0a714096964e26184", "profile": "http://www.citysearch.com/profile/682657320/dallas_ga/domino_s_pizza.html", "address": {"city": "Dallas", "state": "GA", "street": "423 Old Dallas Acworth Rd N", "postal_code": "30132"}, "capProviderId": null, "distance": null, "has_offers": false, "name": "Domino's Pizza", "longitude": -84.753746, "has_menu": false, "awards": null, "user_review_count": 0}, {"business_operation_status": 1, "rating": null, "neighborhood": null, "image": null, "scorecard": null, "featured": false, "sample_categories": "Bakeries, Restaurants", "public_id": "lapepite-france-bakery-marietta", "id": 793328380, "votes": null, "tagline": null, "has_video": false, "website": null, "offers": null, "latitude": 33.978482, "politanName": "Atlanta, GA Metro ", "phone_number": "7707904140", "tags": [{"primary": false, "id": 1722, "name": "Restaurants"}, {"primary": true, "id": 1685, "name": "Bakeries"}], "fax_number": null, "expansion": {"count": null, "uri": null}, "impression_id": "000b0000008cbef80b3361457da90cb4a6ae24401d", "profile": "http://www.citysearch.com/profile/793328380/marietta_ga/lapepite_france_bakery.html", "address": {"city": "Marietta", "state": "GA", "street": "1070 Atlanta Industrial Dr", "postal_code": "30066"}, "capProviderId": null, "distance": null, "has_offers": false, "name": "Lapepite France Bakery", "longitude": -84.532674, "has_menu": false, "awards": null, "user_review_count": 0}, {"business_operation_status": 1, "rating": null, "neighborhood": null, "image": null, "scorecard": null, "featured": false, "sample_categories": "Restaurants, Carry Out", "public_id": "charleys-grilled-subs-kennesaw", "id": 822392670, "votes": null, "tagline": null, "has_video": false, "website": null, "offers": null, "latitude": 34.017369, "politanName": "Atlanta, GA Metro ", "phone_number": "7702188285", "tags": [{"primary": false, "id": 11247, "name": "Carry Out"}, {"primary": true, "id": 1722, "name": "Restaurants"}], "fax_number": null, "expansion": {"count": null, "uri": null}, "impression_id": "000b000000fec2ee7b15c546efa877e6ea4f630b58", "profile": "http://www.citysearch.com/profile/822392670/kennesaw_ga/charley_s_grilled_subs.html", "address": {"city": "Kennesaw", "state": "GA", "street": "400 Ernest W Barrett Pkwy NW", "postal_code": "30144"}, "capProviderId": null, "distance": null, "has_offers": false, "name": "Charley's Grilled Subs", "longitude": -84.564255, "has_menu": true, "awards": null, "user_review_count": 0}, {"business_operation_status": 1, "rating": null, "neighborhood": null, "image": null, "scorecard": null, "featured": false, "sample_categories": "Restaurants, Pizza", "public_id": "mac-daddys-first-ten-pizza-kennesaw", "id": 823959380, "votes": null, "tagline": null, "has_video": false, "website": null, "offers": null, "latitude": 34.046915, "politanName": "Atlanta, GA Metro ", "phone_number": "6782246724", "tags": [{"primary": false, "id": 11299, "name": "Pizza"}, {"primary": true, "id": 1722, "name": "Restaurants"}], "fax_number": null, "expansion": {"count": null, "uri": null}, "impression_id": "000b0000008f0aa0fa9981494489917f721a05cedf", "profile": "http://www.citysearch.com/profile/823959380/kennesaw_ga/mac_daddys_first_ten_pizza.html", "address": {"city": "Kennesaw", "state": "GA", "street": "3930 George Busbee Pkwy NW", "postal_code": "30144"}, "capProviderId": null, "distance": null, "has_offers": false, "name": "Mac Daddys First & Ten Pizza", "longitude": -84.581594, "has_menu": false, "awards": null, "user_review_count": 0}, {"business_operation_status": 1, "rating": null, "neighborhood": null, "image": null, "scorecard": null, "featured": false, "sample_categories": "Restaurants", "public_id": "dogfathers-marietta", "id": 793344660, "votes": null, "tagline": null, "has_video": false, "website": null, "offers": null, "latitude": 34.017341, "politanName": "Atlanta, GA Metro ", "phone_number": "6783543223", "tags": [{"primary": true, "id": 1722, "name": "Restaurants"}], "fax_number": null, "expansion": {"count": null, "uri": null}, "impression_id": "000b0000004b00243a3ee64608a077fd804b335491", "profile": "http://www.citysearch.com/profile/793344660/marietta_ga/dogfathers.html", "address": {"city": "Marietta", "state": "GA", "street": "2769 Chastain Meadows Pkwy", "postal_code": "30066"}, "capProviderId": null, "distance": null, "has_offers": false, "name": "Dogfathers", "longitude": -84.555709, "has_menu": false, "awards": null, "user_review_count": 0}, {"business_operation_status": 1, "rating": null, "neighborhood": null, "image": null, "scorecard": null, "featured": false, "sample_categories": "Restaurants", "public_id": "whistle-stop-cafe-kennesaw", "id": 611247574, "votes": null, "tagline": null, "has_video": false, "website": null, "offers": null, "latitude": 33.999345, "politanName": "Atlanta, GA Metro ", "phone_number": "7707940100", "tags": [{"primary": true, "id": 1722, "name": "Restaurants"}], "fax_number": null, "expansion": {"count": null, "uri": null}, "impression_id": "000b0000000c884ddeb8924c9b99ab355541cb8700", "profile": "http://www.citysearch.com/profile/611247574/kennesaw_ga/whistle_stop_cafe.html", "address": {"city": "Kennesaw", "state": "GA", "street": "1200 Ernest W Barrett Pkwy NW # Ste 144", "postal_code": "30144"}, "capProviderId": null, "distance": null, "has_offers": false, "name": "Whistle Stop Cafe", "longitude": -84.586888, "has_menu": false, "awards": null, "user_review_count": 0}, {"business_operation_status": 1, "rating": null, "neighborhood": null, "image": null, "scorecard": null, "featured": false, "sample_categories": "Restaurants, Delis And Delicatessens, Sandwich Shops, Carry Out, Soups", "public_id": "subway-dallas-125", "id": 43861470, "votes": null, "tagline": null, "has_video": false, "website": "http://www.citysearch.com/profile/external/43861470/dallas_ga/subway.html", "offers": null, "latitude": 33.985034, "politanName": "Atlanta, GA Metro ", "phone_number": "6785747185", "tags": [{"primary": false, "id": 1727, "name": "Delis And Delicatessens"}, {"primary": false, "id": 1736, "name": "Sandwich Shops"}, {"primary": false, "id": 11247, "name": "Carry Out"}, {"primary": false, "id": 11311, "name": "Soups"}, {"primary": false, "id": 11361, "name": "MasterCard"}, {"primary": false, "id": 11382, "name": "Visa"}, {"primary": true, "id": 1722, "name": "Restaurants"}], "fax_number": null, "expansion": {"count": null, "uri": null}, "impression_id": "000b0000007d5d18ef4d05466191fb217f46d91928", "profile": "http://www.citysearch.com/profile/43861470/dallas_ga/subway.html", "address": {"city": "Dallas", "state": "GA", "street": "8876 Dallas Acworth HwySte 134", "postal_code": "30132"}, "capProviderId": null, "distance": null, "has_offers": false, "name": "Subway", "longitude": -84.771736, "has_menu": true, "awards": null, "user_review_count": 0}, {"business_operation_status": 1, "rating": null, "neighborhood": null, "image": null, "scorecard": null, "featured": false, "sample_categories": "Restaurants", "public_id": "mythos-pizzeria-marietta", "id": 627338904, "votes": null, "tagline": null, "has_video": false, "website": null, "offers": null, "latitude": 33.953414, "politanName": "Atlanta, GA Metro ", "phone_number": "7704255100", "tags": [{"primary": true, "id": 1722, "name": "Restaurants"}], "fax_number": null, "expansion": {"count": null, "uri": null}, "impression_id": "000b000000e5f1417d55d14e2ea4221032cf0100a0", "profile": "http://www.citysearch.com/profile/627338904/marietta_ga/mythos_pizzeria.html", "address": {"city": "Marietta", "state": "GA", "street": "1000 Whitlock Ave NW", "postal_code": "30064"}, "capProviderId": null, "distance": null, "has_offers": false, "name": "Mythos Pizzeria", "longitude": -84.581304, "has_menu": false, "awards": null, "user_review_count": 0}, {"business_operation_status": 1, "rating": null, "neighborhood": null, "image": null, "scorecard": null, "featured": false, "sample_categories": "Restaurants", "public_id": "niks-place-marietta", "id": 618038054, "votes": null, "tagline": null, "has_video": false, "website": "http://www.citysearch.com/profile/external/618038054/marietta_ga/niks_place.html", "offers": null, "latitude": 33.952096, "politanName": "Atlanta, GA Metro ", "phone_number": "7707926666", "tags": [{"primary": true, "id": 1722, "name": "Restaurants"}], "fax_number": null, "expansion": {"count": null, "uri": null}, "impression_id": "000b00000099a094df50a546cd8e31231aafa30cd0", "profile": "http://www.citysearch.com/profile/618038054/marietta_ga/niks_place.html", "address": {"city": "Marietta", "state": "GA", "street": "Whitlock Ave NW", "postal_code": "30064"}, "capProviderId": null, "distance": null, "has_offers": false, "name": "Niks Place", "longitude": -84.576903, "has_menu": true, "awards": null, "user_review_count": 0}, {"business_operation_status": 1, "rating": null, "neighborhood": null, "image": null, "scorecard": null, "featured": false, "sample_categories": "Restaurants", "public_id": "sarku-japan-kennesaw", "id": 820884340, "votes": null, "tagline": null, "has_video": false, "website": null, "offers": null, "latitude": 34.017369, "politanName": "Atlanta, GA Metro ", "phone_number": "7702189700", "tags": [{"primary": true, "id": 1722, "name": "Restaurants"}], "fax_number": null, "expansion": {"count": null, "uri": null}, "impression_id": "000b000000acad7ddaf46a4ef4bb56e63064d967a6", "profile": "http://www.citysearch.com/profile/820884340/kennesaw_ga/sarku_japan.html", "address": {"city": "Kennesaw", "state": "GA", "street": "400 Ernest W Barrett Pkwy NW", "postal_code": "30144"}, "capProviderId": null, "distance": null, "has_offers": false, "name": "Sarku Japan", "longitude": -84.564255, "has_menu": true, "awards": null, "user_review_count": 0}, {"business_operation_status": 1, "rating": null, "neighborhood": null, "image": null, "scorecard": null, "featured": false, "sample_categories": "Restaurants, Chicken", "public_id": "rotisserie-shop-kennesaw", "id": 786376760, "votes": null, "tagline": null, "has_video": false, "website": null, "offers": null, "latitude": 34.013172, "politanName": "Atlanta, GA Metro ", "phone_number": "6785408244", "tags": [{"primary": false, "id": 12839, "name": "Chicken"}, {"primary": true, "id": 1722, "name": "Restaurants"}], "fax_number": null, "expansion": {"count": null, "uri": null}, "impression_id": "000b0000001cb028e0b3c04fa994ff2a429463128e", "profile": "http://www.citysearch.com/profile/786376760/kennesaw_ga/rotisserie_shop.html", "address": {"city": "Kennesaw", "state": "GA", "street": "2615 George Busbee Pkwy NW", "postal_code": "30144"}, "capProviderId": null, "distance": null, "has_offers": false, "name": "Rotisserie Shop", "longitude": -84.567215, "has_menu": false, "awards": null, "user_review_count": 0}, {"business_operation_status": 1, "rating": null, "neighborhood": null, "image": null, "scorecard": null, "featured": false, "sample_categories": "Restaurants", "public_id": "vito-goldbergs-marietta", "id": 814374650, "votes": null, "tagline": null, "has_video": false, "website": "http://www.citysearch.com/profile/external/814374650/marietta_ga/vito_goldberg_s.html", "offers": null, "latitude": 33.951001, "politanName": "Atlanta, GA Metro ", "phone_number": "7707958631", "tags": [{"primary": true, "id": 1722, "name": "Restaurants"}], "fax_number": null, "expansion": {"count": null, "uri": null}, "impression_id": "000b000000046ede62ffc942a9898d66616d8ac56f", "profile": "http://www.citysearch.com/profile/814374650/marietta_ga/vito_goldberg_s.html", "address": {"city": "Marietta", "state": "GA", "street": "999 Whitlock Ave SW", "postal_code": "30064"}, "capProviderId": null, "distance": null, "has_offers": false, "name": "Vito Goldberg's", "longitude": -84.57917, "has_menu": false, "awards": null, "user_review_count": 0}, {"business_operation_status": 1, "rating": null, "neighborhood": null, "image": null, "scorecard": null, "featured": false, "sample_categories": "Catering, Restaurants, Sandwich Shops, Ham, Pork", "public_id": "honeybaked-ham-marietta-2", "id": 45112957, "votes": null, "tagline": null, "has_video": false, "website": "http://www.citysearch.com/profile/external/45112957/marietta_ga/honeybaked_ham.html", "offers": null, "latitude": 33.944997, "politanName": "Atlanta, GA Metro ", "phone_number": "7707950196", "tags": [{"primary": false, "id": 1705, "name": "Catering"}, {"primary": false, "id": 1722, "name": "Restaurants"}, {"primary": false, "id": 1736, "name": "Sandwich Shops"}, {"primary": false, "id": 11125, "name": "Pork"}, {"primary": false, "id": 11333, "name": "American Express"}, {"primary": false, "id": 11347, "name": "Debit Card"}, {"primary": false, "id": 11349, "name": "Discover"}, {"primary": false, "id": 11361, "name": "MasterCard"}, {"primary": false, "id": 11382, "name": "Visa"}, {"primary": true, "id": 11124, "name": "Ham"}], "fax_number": null, "expansion": {"count": null, "uri": null}, "impression_id": "000b000000332726739a204ada86833e0fbec50c26", "profile": "http://www.citysearch.com/profile/45112957/marietta_ga/honeybaked_ham.html", "address": {"city": "Marietta", "state": "GA", "street": "3405 Dallas Hwy SW 408", "postal_code": "30064"}, "capProviderId": null, "distance": null, "has_offers": false, "name": "Honeybaked Ham", "longitude": -84.623325, "has_menu": true, "awards": null, "user_review_count": 0}], "histograms": [], "tag_ids": [1722], "uri": "http://api.citygridmedia.com:8080/search/places/v2/search/where?has_offers=false&type=restaurant&format=json&page=3&where=30160&rpp=50&histograms=false&publisher=10000009598&region_type=circle", "did_you_mean": "", "regions": [{"latitude": 33.9919, "default_radius": 0.25, "type": "postal_code", "name": "30160", "longitude": -84.6543}], "call_id": "000b000000d2a01c4467194b63909cd4ff29a2a261", "first_hit": 101, "total_hits": 371, "geo_ids": [137053], "page": 3, "last_hit": 150}}