{"results": {"rpp": 50, "locations": [{"business_operation_status": 1, "rating": null, "neighborhood": null, "image": null, "scorecard": null, "featured": false, "sample_categories": "Restaurants", "public_id": "kennesaw-thai-kennesaw", "id": 608222434, "votes": null, "tagline": null, "has_video": false, "website": null, "offers": null, "latitude": 34.020591, "politanName": "Atlanta, GA Metro ", "phone_number": "6783311988", "tags": [{"primary": true, "id": 1722, "name": "Restaurants"}], "fax_number": null, "expansion": {"count": null, "uri": null}, "impression_id": "000b000000d213f3666f4545e2a4d0792d69cec3fe", "profile": "http://www.citysearch.com/profile/608222434/kennesaw_ga/kennesaw_thai.html", "address": {"city": "Kennesaw", "state": "GA", "street": "2754 S Main Street", "postal_code": "30144"}, "capProviderId": null, "distance": null, "has_offers": false, "name": "Kennesaw Thai", "longitude": -84.612586, "has_menu": true, "awards": null, "user_review_count": 1}, {"business_operation_status": 1, "rating": null, "neighborhood": null, "image": null, "scorecard": null, "featured": false, "sample_categories": "Barbecue Restaurants", "public_id": "apple-two-peach-barbecue-marietta", "id": 614162144, "votes": null, "tagline": null, "has_video": false, "website": null, "offers": null, "latitude": 33.936816, "politanName": "Atlanta, GA Metro ", "phone_number": "7706756411", "tags": [{"primary": true, "id": 1724, "name": "Barbecue Restaurants"}], "fax_number": null, "expansion": {"count": null, "uri": null}, "impression_id": "000b00000022e290f4d9ee4713ade9f6e6dd0473d9", "profile": "http://www.citysearch.com/profile/614162144/marietta_ga/apple_two_peach_barbecue.html", "address": {"city": "Marietta", "state": "GA", "street": "680 Powder Springs St", "postal_code": "30064"}, "capProviderId": null, "distance": null, "has_offers": false, "name": "Apple Two Peach Barbecue", "longitude": -84.557309, "has_menu": false, "awards": null, "user_review_count": 0}, {"business_operation_status": 1, "rating": null, "neighborhood": null, "image": null, "scorecard": null, "featured": false, "sample_categories": "Restaurants", "public_id": "mediterranean-bistro-kennesaw", "id": 614254214, "votes": null, "tagline": null, "has_video": false, "website": null, "offers": null, "latitude": 34.049477, "politanName": "Atlanta, GA Metro ", "phone_number": "7704291999", "tags": [{"primary": true, "id": 1722, "name": "Restaurants"}], "fax_number": null, "expansion": {"count": null, "uri": null}, "impression_id": "000b00000004a3d3cb20c34b5990d7676eccee9cab", "profile": "http://www.citysearch.com/profile/614254214/kennesaw_ga/mediterranean_bistro.html", "address": {"city": "Kennesaw", "state": "GA", "street": "3940 Cherokee St NW", "postal_code": "30144"}, "capProviderId": null, "distance": null, "has_offers": false, "name": "Mediterranean Bistro", "longitude": -84.596636, "has_menu": false, "awards": null, "user_review_count": 0}, {"business_operation_status": 1, "rating": null, "neighborhood": null, "image": null, "scorecard": null, "featured": false, "sample_categories": "Restaurants, Delis And Delicatessens, Sandwich Shops, Carry Out, Food Delivery", "public_id": "subway-kennesaw-9", "id": 764838880, "votes": null, "tagline": null, "has_video": false, "website": "http://www.citysearch.com/profile/external/764838880/kennesaw_ga/subway.html", "offers": null, "latitude": 33.992719, "politanName": "Atlanta, GA Metro ", "phone_number": "6783248948", "tags": [{"primary": false, "id": 1727, "name": "Delis And Delicatessens"}, {"primary": false, "id": 1736, "name": "Sandwich Shops"}, {"primary": false, "id": 11247, "name": "Carry Out"}, {"primary": false, "id": 11267, "name": "Food Delivery"}, {"primary": true, "id": 1722, "name": "Restaurants"}], "fax_number": null, "expansion": {"count": null, "uri": null}, "impression_id": "000b0000001e435c5703eb4c6e8e05e238d2c57129", "profile": "http://www.citysearch.com/profile/764838880/kennesaw_ga/subway.html", "address": {"city": "Kennesaw", "state": "GA", "street": "1600 Kennesaw Due West Rd NW", "postal_code": "30152"}, "capProviderId": null, "distance": null, "has_offers": false, "name": "SUBWAY", "longitude": -84.627117, "has_menu": false, "awards": null, "user_review_count": 0}, {"business_operation_status": 1, "rating": null, "neighborhood": null, "image": null, "scorecard": null, "featured": false, "sample_categories": "Restaurants, Barbecue Restaurants", "public_id": "briar-patch-bar-b-que-dallas", "id": 773453060, "votes": null, "tagline": null, "has_video": false, "website": null, "offers": null, "latitude": 33.924129, "politanName": "Atlanta, GA Metro ", "phone_number": "7704453737", "tags": [{"primary": false, "id": 1724, "name": "Barbecue Restaurants"}, {"primary": true, "id": 1722, "name": "Restaurants"}], "fax_number": null, "expansion": {"count": null, "uri": null}, "impression_id": "000b0000008e6f9a73aa9f4d439a836480538d59d1", "profile": "http://www.citysearch.com/profile/773453060/dallas_ga/briar_patch_bar_b_que.html", "address": {"city": "Dallas", "state": "GA", "street": "588 Charles Hardy Pkwy", "postal_code": "30157"}, "capProviderId": null, "distance": null, "has_offers": false, "name": "Briar Patch Bar B Que", "longitude": -84.752659, "has_menu": false, "awards": null, "user_review_count": 0}, {"business_operation_status": 1, "rating": null, "neighborhood": null, "image": null, "scorecard": null, "featured": false, "sample_categories": "Restaurants, Pizza", "public_id": "jimmys-pizza-kennesaw", "id": 777771070, "votes": null, "tagline": null, "has_video": false, "website": null, "offers": null, "latitude": 34.031208, "politanName": "Atlanta, GA Metro ", "phone_number": "6783915812", "tags": [{"primary": false, "id": 11299, "name": "Pizza"}, {"primary": true, "id": 1722, "name": "Restaurants"}], "fax_number": null, "expansion": {"count": null, "uri": null}, "impression_id": "000b000000622726fc4b21429182a69b8996fc8dda", "profile": "http://www.citysearch.com/profile/777771070/kennesaw_ga/jimmy_s_pizza.html", "address": {"city": "Kennesaw", "state": "GA", "street": "3102 Loring Rd NW", "postal_code": "30152"}, "capProviderId": null, "distance": null, "has_offers": false, "name": "Jimmy's Pizza", "longitude": -84.662476, "has_menu": true, "awards": null, "user_review_count": 0}, {"business_operation_status": 1, "rating": null, "neighborhood": null, "image": null, "scorecard": null, "featured": false, "sample_categories": "Restaurants, Delis And Delicatessens, Carry Out, American Express, Debit Card", "public_id": "panera-bread-kennesaw-2", "id": 779662590, "votes": null, "tagline": null, "has_video": false, "website": "http://www.citysearch.com/profile/external/779662590/kennesaw_ga/panera_bread.html", "offers": null, "latitude": 34.003608, "politanName": "Atlanta, GA Metro ", "phone_number": "7707992750", "tags": [{"primary": false, "id": 1727, "name": "Delis And Delicatessens"}, {"primary": false, "id": 11247, "name": "Carry Out"}, {"primary": false, "id": 11333, "name": "American Express"}, {"primary": false, "id": 11347, "name": "Debit Card"}, {"primary": false, "id": 11349, "name": "Discover"}, {"primary": false, "id": 11361, "name": "MasterCard"}, {"primary": false, "id": 11382, "name": "Visa"}, {"primary": true, "id": 1722, "name": "Restaurants"}], "fax_number": null, "expansion": {"count": null, "uri": null}, "impression_id": "000b0000002d5d2e072d4e4974a22dab710c59dddd", "profile": "http://www.citysearch.com/profile/779662590/kennesaw_ga/panera_bread.html", "address": {"city": "Kennesaw", "state": "GA", "street": "964 Ernest W Barrett Pkwy NW", "postal_code": "30144"}, "capProviderId": null, "distance": null, "has_offers": false, "name": "Panera Bread", "longitude": -84.580197, "has_menu": false, "awards": null, "user_review_count": 0}, {"business_operation_status": 1, "rating": null, "neighborhood": null, "image": null, "scorecard": null, "featured": false, "sample_categories": "Coffeehouses", "public_id": "java-juice-smoothie-co-kennesaw", "id": 807031020, "votes": null, "tagline": null, "has_video": false, "website": null, "offers": null, "latitude": 34.010391, "politanName": "Atlanta, GA Metro ", "phone_number": "7704999306", "tags": [{"primary": true, "id": 1726, "name": "Coffeehouses"}], "fax_number": null, "expansion": {"count": null, "uri": null}, "impression_id": "000b0000008f461c79214d4bd6a66aba4910743521", "profile": "http://www.citysearch.com/profile/807031020/kennesaw_ga/java_juice_smoothie_co.html", "address": {"city": "Kennesaw", "state": "GA", "street": "501 Roberts CT NW", "postal_code": "30144"}, "capProviderId": null, "distance": null, "has_offers": false, "name": "Java & Juice Smoothie Co", "longitude": -84.563237, "has_menu": false, "awards": null, "user_review_count": 0}, {"business_operation_status": 1, "rating": null, "neighborhood": null, "image": null, "scorecard": null, "featured": false, "sample_categories": "Restaurants, Carry Out", "public_id": "atlanta-bread-co-marietta-4", "id": 825753830, "votes": null, "tagline": null, "has_video": false, "website": null, "offers": null, "latitude": 33.948083, "politanName": "Atlanta, GA Metro ", "phone_number": "7704250442", "tags": [{"primary": false, "id": 11247, "name": "Carry Out"}, {"primary": true, "id": 1722, "name": "Restaurants"}], "fax_number": null, "expansion": {"count": null, "uri": null}, "impression_id": "000b000000bc60982955dc45238028123ce16f4c40", "profile": "http://www.citysearch.com/profile/825753830/marietta_ga/atlanta_bread_co.html", "address": {"city": "Marietta", "state": "GA", "street": "245 Rdgeway Rd NW Ste 200", "postal_code": "30064"}, "capProviderId": null, "distance": null, "has_offers": false, "name": "Atlanta Bread Co", "longitude": -84.626672, "has_menu": false, "awards": null, "user_review_count": 0}, {"business_operation_status": 1, "rating": null, "neighborhood": null, "image": null, "scorecard": null, "featured": false, "sample_categories": "Restaurants", "public_id": "ocharleys-regional-office-marietta", "id": 826459340, "votes": null, "tagline": null, "has_video": false, "website": null, "offers": null, "latitude": 34.009709, "politanName": "Atlanta, GA Metro ", "phone_number": "7705098868", "tags": [{"primary": true, "id": 1722, "name": "Restaurants"}], "fax_number": null, "expansion": {"count": null, "uri": null}, "impression_id": "000b000000db27ce1bac4b47a1927f9cd708b5087b", "profile": "http://www.citysearch.com/profile/826459340/marietta_ga/o_charley_s_regional_office.html", "address": {"city": "Marietta", "state": "GA", "street": "2440 Sandy Plains Rd", "postal_code": "30066"}, "capProviderId": null, "distance": null, "has_offers": false, "name": "O'Charley's Regional Office", "longitude": -84.496627, "has_menu": true, "awards": null, "user_review_count": 0}, {"business_operation_status": 1, "rating": null, "neighborhood": null, "image": null, "scorecard": null, "featured": false, "sample_categories": "Restaurants", "public_id": "taqueria-tecolotes-marietta", "id": 826288150, "votes": null, "tagline": null, "has_video": false, "website": null, "offers": null, "latitude": 34.048278, "politanName": "Atlanta, GA Metro ", "phone_number": "7705921277", "tags": [{"primary": true, "id": 1722, "name": "Restaurants"}], "fax_number": null, "expansion": {"count": null, "uri": null}, "impression_id": "000b000000311c4f8995ba461a9d62a22a2e158cda", "profile": "http://www.citysearch.com/profile/826288150/marietta_ga/taqueria_tecolotes.html", "address": {"city": "Marietta", "state": "GA", "street": "4017 Canton Rd", "postal_code": "30066"}, "capProviderId": null, "distance": null, "has_offers": false, "name": "Taqueria Tecolotes", "longitude": -84.52851, "has_menu": false, "awards": null, "user_review_count": 0}, {"business_operation_status": 1, "rating": null, "neighborhood": null, "image": null, "scorecard": null, "featured": false, "sample_categories": "Ice Cream Parlors", "public_id": "eatin-ice-cream-daily-inc-kennesaw", "id": 826821860, "votes": null, "tagline": null, "has_video": false, "website": null, "offers": null, "latitude": 34.023018, "politanName": "Atlanta, GA Metro ", "phone_number": "7704275378", "tags": [{"primary": true, "id": 1730, "name": "Ice Cream Parlors"}], "fax_number": null, "expansion": {"count": null, "uri": null}, "impression_id": "000b000000e2717e4093784737888c225c3374822c", "profile": "http://www.citysearch.com/profile/826821860/kennesaw_ga/eatin_ice_cream_daily_inc.html", "address": {"city": "Kennesaw", "state": "GA", "street": "2847 S Main St NW", "postal_code": "30144"}, "capProviderId": null, "distance": null, "has_offers": false, "name": "Eatin Ice Cream Daily Inc", "longitude": -84.615298, "has_menu": false, "awards": null, "user_review_count": 0}, {"business_operation_status": 1, "rating": null, "neighborhood": null, "image": null, "scorecard": null, "featured": false, "sample_categories": "Restaurants", "public_id": "el-poco-grill-acworth", "id": 829828930, "votes": null, "tagline": null, "has_video": false, "website": null, "offers": null, "latitude": 34.08519, "politanName": "Atlanta, GA Metro ", "phone_number": "7705916310", "tags": [{"primary": true, "id": 1722, "name": "Restaurants"}], "fax_number": null, "expansion": {"count": null, "uri": null}, "impression_id": "000b000000b83c62570b29467499cd57cf7fe98647", "profile": "http://www.citysearch.com/profile/829828930/acworth_ga/el_poco_grill.html", "address": {"city": "Acworth", "state": "GA", "street": "5505 Bells Ferry Rd", "postal_code": "30102"}, "capProviderId": null, "distance": null, "has_offers": false, "name": "El Poco Grill", "longitude": -84.576887, "has_menu": false, "awards": null, "user_review_count": 0}, {"business_operation_status": 1, "rating": null, "neighborhood": null, "image": null, "scorecard": null, "featured": false, "sample_categories": "Restaurants", "public_id": "philly-connection-marietta-5", "id": 833997530, "votes": null, "tagline": null, "has_video": false, "website": null, "offers": null, "latitude": 34.037983, "politanName": "Atlanta, GA Metro ", "phone_number": "7709263120", "tags": [{"primary": true, "id": 1722, "name": "Restaurants"}], "fax_number": null, "expansion": {"count": null, "uri": null}, "impression_id": "000b000000367c2c03e93544e9b1a02af8ee89829c", "profile": "http://www.citysearch.com/profile/833997530/marietta_ga/philly_connection.html", "address": {"city": "Marietta", "state": "GA", "street": "3545 Canton Rd", "postal_code": "30066"}, "capProviderId": null, "distance": null, "has_offers": false, "name": "Philly Connection", "longitude": -84.528616, "has_menu": true, "awards": null, "user_review_count": 0}, {"business_operation_status": 1, "rating": null, "neighborhood": null, "image": null, "scorecard": null, "featured": false, "sample_categories": "Restaurants, Mexican", "public_id": "los-cabos-mexican-restaurant-kennesaw", "id": 777728160, "votes": null, "tagline": null, "has_video": false, "website": null, "offers": null, "latitude": 34.014676, "politanName": "Atlanta, GA Metro ", "phone_number": "7705909742", "tags": [{"primary": false, "id": 11208, "name": "Mexican"}, {"primary": true, "id": 1722, "name": "Restaurants"}], "fax_number": null, "expansion": {"count": null, "uri": null}, "impression_id": "000b000000d73d08532a93498da03a28fd5a4b08f7", "profile": "http://www.citysearch.com/profile/777728160/kennesaw_ga/los_cabos_mexican_restaurant.html", "address": {"city": "Kennesaw", "state": "GA", "street": "2500 Cobb Pkwy NW # B3", "postal_code": "30152"}, "capProviderId": null, "distance": null, "has_offers": false, "name": "Los Cabos Mexican Restaurant", "longitude": -84.614309, "has_menu": false, "awards": null, "user_review_count": 3}, {"business_operation_status": 1, "rating": null, "neighborhood": null, "image": null, "scorecard": null, "featured": false, "sample_categories": "Restaurants, Pizza, Carry Out", "public_id": "little-caesars-pizza-dallas-5", "id": 655896980, "votes": null, "tagline": null, "has_video": false, "website": "http://www.citysearch.com/profile/external/655896980/dallas_ga/little_caesars_pizza.html", "offers": null, "latitude": 33.957866, "politanName": "Atlanta, GA Metro ", "phone_number": "7704432345", "tags": [{"primary": false, "id": 1722, "name": "Restaurants"}, {"primary": false, "id": 11247, "name": "Carry Out"}, {"primary": true, "id": 11299, "name": "Pizza"}], "fax_number": null, "expansion": {"count": null, "uri": null}, "impression_id": "000b0000001e173b42860c402ba388b41f8d9cc8ac", "profile": "http://www.citysearch.com/profile/655896980/dallas_ga/little_caesars_pizza.html", "address": {"city": "Dallas", "state": "GA", "street": "55 E Paulding Dr # 118", "postal_code": "30157"}, "capProviderId": null, "distance": null, "has_offers": false, "name": "Little Caesars Pizza", "longitude": -84.787071, "has_menu": true, "awards": null, "user_review_count": 0}, {"business_operation_status": 1, "rating": null, "neighborhood": null, "image": null, "scorecard": null, "featured": false, "sample_categories": "Restaurants, Mexican, Caribbean", "public_id": "mangos-caribbean-and-mexican-cuisine-acworth", "id": 603937682, "votes": null, "tagline": null, "has_video": false, "website": null, "offers": null, "latitude": 34.06489, "politanName": "Atlanta, GA Metro ", "phone_number": "6789054714", "tags": [{"primary": false, "id": 1722, "name": "Restaurants"}, {"primary": false, "id": 11195, "name": "Caribbean"}, {"primary": true, "id": 11208, "name": "Mexican"}], "fax_number": null, "expansion": {"count": null, "uri": null}, "impression_id": "000b0000003f2a545487c84b4aa6ff292ada41acca", "profile": "http://www.citysearch.com/profile/603937682/acworth_ga/mangos_caribbean_and_mexican_cuisine.html", "address": {"city": "Acworth", "state": "GA", "street": "2535 Hickory Grove Rd NW", "postal_code": "30101"}, "capProviderId": null, "distance": null, "has_offers": false, "name": "Mangos Caribbean and Mexican Cuisine", "longitude": -84.624038, "has_menu": false, "awards": null, "user_review_count": 0}, {"business_operation_status": 1, "rating": null, "neighborhood": null, "image": null, "scorecard": null, "featured": false, "sample_categories": "Restaurants, Frozen Yogurt Shops, Yogurt Manufacturers", "public_id": "yogli-mogli-marietta-2", "id": 673019480, "votes": null, "tagline": null, "has_video": false, "website": null, "offers": null, "latitude": 33.955116, "politanName": "Atlanta, GA Metro ", "phone_number": "7704997009", "tags": [{"primary": false, "id": 1722, "name": "Restaurants"}, {"primary": false, "id": 1729, "name": "Frozen Yogurt Shops"}, {"primary": false, "id": 2342, "name": "Yogurt Manufacturers"}], "fax_number": null, "expansion": {"count": null, "uri": null}, "impression_id": "000b0000007e76b74500654c70954d0f04990a7a4f", "profile": "http://www.citysearch.com/profile/673019480/marietta_ga/yogli_mogli.html", "address": {"city": "Marietta", "state": "GA", "street": "3600 Dallas Highway", "postal_code": "30064"}, "capProviderId": null, "distance": null, "has_offers": false, "name": "Yogli Mogli", "longitude": -84.656027, "has_menu": false, "awards": null, "user_review_count": 0}, {"business_operation_status": 1, "rating": null, "neighborhood": null, "image": null, "scorecard": null, "featured": false, "sample_categories": "Restaurants, Delis And Delicatessens, Sandwich Shops, Carry Out", "public_id": "blimpie-xpress-marietta", "id": 713310460, "votes": null, "tagline": null, "has_video": false, "website": "http://www.citysearch.com/profile/external/713310460/marietta_ga/blimpie_xpress.html", "offers": null, "latitude": 33.967672, "politanName": "Atlanta, GA Metro ", "phone_number": "7709171550", "tags": [{"primary": false, "id": 1727, "name": "Delis And Delicatessens"}, {"primary": false, "id": 1736, "name": "Sandwich Shops"}, {"primary": false, "id": 11247, "name": "Carry Out"}, {"primary": true, "id": 1722, "name": "Restaurants"}], "fax_number": null, "expansion": {"count": null, "uri": null}, "impression_id": "000b000000e3a3add90716482c8fb58f7cf5b3480e", "profile": "http://www.citysearch.com/profile/713310460/marietta_ga/blimpie_xpress.html", "address": {"city": "Marietta", "state": "GA", "street": "3960 Mary Eliza Trce NW", "postal_code": "30064"}, "capProviderId": null, "distance": null, "has_offers": false, "name": "Blimpie Xpress", "longitude": -84.667328, "has_menu": false, "awards": null, "user_review_count": 0}, {"business_operation_status": 1, "rating": null, "neighborhood": null, "image": null, "scorecard": null, "featured": false, "sample_categories": "Coffeehouses", "public_id": "viazza-coffee-marietta", "id": 621400894, "votes": null, "tagline": null, "has_video": false, "website": null, "offers": null, "latitude": 34.06925, "politanName": "Atlanta, GA Metro ", "phone_number": "6782476599", "tags": [{"primary": true, "id": 1726, "name": "Coffeehouses"}], "fax_number": null, "expansion": {"count": null, "uri": null}, "impression_id": "000b0000002923bedcc21641e09703c21d0adfb29e", "profile": "http://www.citysearch.com/profile/621400894/marietta_ga/viazza_coffee.html", "address": {"city": "Marietta", "state": "GA", "street": "825 Jamerson Rd 528", "postal_code": "30066"}, "capProviderId": null, "distance": null, "has_offers": false, "name": "Viazza Coffee", "longitude": -84.525415, "has_menu": false, "awards": null, "user_review_count": 0}, {"business_operation_status": 1, "rating": null, "neighborhood": null, "image": null, "scorecard": null, "featured": false, "sample_categories": "Restaurants, Traditional American", "public_id": "huddle-house-kennesaw", "id": 713615300, "votes": null, "tagline": null, "has_video": false, "website": "http://www.citysearch.com/profile/external/713615300/kennesaw_ga/huddle_house.html", "offers": null, "latitude": 34.022601, "politanName": "Atlanta, GA Metro ", "phone_number": "7704990330", "tags": [{"primary": false, "id": 11190, "name": "Traditional American"}, {"primary": true, "id": 1722, "name": "Restaurants"}], "fax_number": null, "expansion": {"count": null, "uri": null}, "impression_id": "000b000000b382ea39f9814cf98fc530a65117fed3", "profile": "http://www.citysearch.com/profile/713615300/kennesaw_ga/huddle_house.html", "address": {"city": "Kennesaw", "state": "GA", "street": "2420 Cobb Pkwy NW", "postal_code": "30152"}, "capProviderId": null, "distance": null, "has_offers": false, "name": "Huddle House", "longitude": -84.626408, "has_menu": true, "awards": null, "user_review_count": 1}, {"business_operation_status": 1, "rating": null, "neighborhood": null, "image": null, "scorecard": null, "featured": false, "sample_categories": "Restaurants", "public_id": "vinevera-kennesaw", "id": 793361100, "votes": null, "tagline": null, "has_video": false, "website": null, "offers": null, "latitude": 34.01771, "politanName": "Atlanta, GA Metro ", "phone_number": "7705909522", "tags": [{"primary": true, "id": 1722, "name": "Restaurants"}], "fax_number": null, "expansion": {"count": null, "uri": null}, "impression_id": "000b000000f500baa8713240dab520b325a3479876", "profile": "http://www.citysearch.com/profile/793361100/kennesaw_ga/vinevera.html", "address": {"city": "Kennesaw", "state": "GA", "street": "400 Ernest W Barrett Pkwy NW", "postal_code": "30144"}, "capProviderId": null, "distance": null, "has_offers": false, "name": "Vinevera", "longitude": -84.564475, "has_menu": false, "awards": null, "user_review_count": 0}, {"business_operation_status": 1, "rating": null, "neighborhood": null, "image": null, "scorecard": null, "featured": false, "sample_categories": "Restaurants", "public_id": "china-town-gourmet-marietta", "id": 827846610, "votes": null, "tagline": null, "has_video": false, "website": null, "offers": null, "latitude": 34.032195, "politanName": "Atlanta, GA Metro ", "phone_number": "7704291387", "tags": [{"primary": true, "id": 1722, "name": "Restaurants"}], "fax_number": null, "expansion": {"count": null, "uri": null}, "impression_id": "000b00000040d44d09b25e4683b51a17e87dcebfb9", "profile": "http://www.citysearch.com/profile/827846610/marietta_ga/china_town_gourmet.html", "address": {"city": "Marietta", "state": "GA", "street": "3402 Canton Rd", "postal_code": "30066"}, "capProviderId": null, "distance": null, "has_offers": false, "name": "China Town Gourmet", "longitude": -84.527689, "has_menu": false, "awards": null, "user_review_count": 0}, {"business_operation_status": 1, "rating": null, "neighborhood": null, "image": null, "scorecard": null, "featured": false, "sample_categories": "Delis And Delicatessens", "public_id": "kroger-deli-powder-spg-2", "id": 694161420, "votes": null, "tagline": null, "has_video": false, "website": null, "offers": null, "latitude": 33.903473, "politanName": "Atlanta, GA Metro ", "phone_number": "7702225180", "tags": [{"primary": true, "id": 1727, "name": "Delis And Delicatessens"}], "fax_number": null, "expansion": {"count": null, "uri": null}, "impression_id": "000b0000004d635cbd8f5f413f89a33c6dee0537dd", "profile": "http://www.citysearch.com/profile/694161420/powder_springs_ga/kroger_deli.html", "address": {"city": "Powder Springs", "state": "GA", "street": "4150 Macland Rd", "postal_code": "30127"}, "capProviderId": null, "distance": null, "has_offers": false, "name": "Kroger Deli", "longitude": -84.67471, "has_menu": false, "awards": null, "user_review_count": 0}, {"business_operation_status": 1, "rating": null, "neighborhood": null, "image": null, "scorecard": null, "featured": false, "sample_categories": "Delis And Delicatessens", "public_id": "kroger-deli-acworth-2", "id": 702138550, "votes": null, "tagline": null, "has_video": false, "website": "http://www.citysearch.com/profile/external/702138550/acworth_ga/kroger_deli.html", "offers": null, "latitude": 33.996583, "politanName": "Atlanta, GA Metro ", "phone_number": "7704195490", "tags": [{"primary": true, "id": 1727, "name": "Delis And Delicatessens"}], "fax_number": null, "expansion": {"count": null, "uri": null}, "impression_id": "000b000000b0bbe01298324d07a79dc324e86f922a", "profile": "http://www.citysearch.com/profile/702138550/acworth_ga/kroger_deli.html", "address": {"city": "Acworth", "state": "GA", "street": "1720 Mars Hill Rd NW", "postal_code": "30101"}, "capProviderId": null, "distance": null, "has_offers": false, "name": "Kroger Deli", "longitude": -84.705934, "has_menu": false, "awards": null, "user_review_count": 0}, {"business_operation_status": 1, "rating": null, "neighborhood": null, "image": null, "scorecard": null, "featured": false, "sample_categories": "Restaurants, Delis And Delicatessens, Sandwich Shops, Carry Out", "public_id": "blimpie-subs-salads-kennesaw-4", "id": 775190640, "votes": null, "tagline": null, "has_video": false, "website": "http://www.citysearch.com/profile/external/775190640/kennesaw_ga/blimpie_subs_salads.html", "offers": null, "latitude": 34.029977, "politanName": "Atlanta, GA Metro ", "phone_number": "7709665363", "tags": [{"primary": false, "id": 1727, "name": "Delis And Delicatessens"}, {"primary": false, "id": 1736, "name": "Sandwich Shops"}, {"primary": false, "id": 11247, "name": "Carry Out"}, {"primary": true, "id": 1722, "name": "Restaurants"}], "fax_number": null, "expansion": {"count": null, "uri": null}, "impression_id": "000b0000005343b5e448284d3f9dc57fd6e131185c", "profile": "http://www.citysearch.com/profile/775190640/kennesaw_ga/blimpie_subs_salads.html", "address": {"city": "Kennesaw", "state": "GA", "street": "3103 Cobb Pkwy NW", "postal_code": "30152"}, "capProviderId": null, "distance": null, "has_offers": false, "name": "Blimpie Subs & Salads", "longitude": -84.656263, "has_menu": false, "awards": null, "user_review_count": 0}, {"business_operation_status": 1, "rating": null, "neighborhood": null, "image": null, "scorecard": null, "featured": false, "sample_categories": "Restaurants, Delis And Delicatessens, Sandwich Shops, Carry Out", "public_id": "subway-marietta-54", "id": 779672970, "votes": null, "tagline": null, "has_video": false, "website": "http://www.citysearch.com/profile/external/779672970/marietta_ga/subway.html", "offers": null, "latitude": 34.027594, "politanName": "Atlanta, GA Metro ", "phone_number": "7706934723", "tags": [{"primary": false, "id": 1727, "name": "Delis And Delicatessens"}, {"primary": false, "id": 1736, "name": "Sandwich Shops"}, {"primary": false, "id": 11247, "name": "Carry Out"}, {"primary": true, "id": 1722, "name": "Restaurants"}], "fax_number": null, "expansion": {"count": null, "uri": null}, "impression_id": "000b00000099e979d215494bd5a044460b9be1217f", "profile": "http://www.citysearch.com/profile/779672970/marietta_ga/subway.html", "address": {"city": "Marietta", "state": "GA", "street": "3079 Hidden Forest Ct", "postal_code": "30066"}, "capProviderId": null, "distance": null, "has_offers": false, "name": "SUBWAY", "longitude": -84.564373, "has_menu": false, "awards": null, "user_review_count": 0}, {"business_operation_status": 1, "rating": null, "neighborhood": null, "image": null, "scorecard": null, "featured": false, "sample_categories": "Restaurants, Mexican", "public_id": "buckhead-burrito-grill-dallas", "id": 777827380, "votes": null, "tagline": null, "has_video": false, "website": null, "offers": null, "latitude": 34.012752, "politanName": "Atlanta, GA Metro ", "phone_number": "6785744133", "tags": [{"primary": false, "id": 11208, "name": "Mexican"}, {"primary": true, "id": 1722, "name": "Restaurants"}], "fax_number": null, "expansion": {"count": null, "uri": null}, "impression_id": "000b000000157b977686944a95b76ad3129a16a6cf", "profile": "http://www.citysearch.com/profile/777827380/dallas_ga/buckhead_burrito_grill.html", "address": {"city": "Dallas", "state": "GA", "street": "8879 Dallas Acworth Hwy", "postal_code": "30132"}, "capProviderId": null, "distance": null, "has_offers": false, "name": "Buckhead Burrito Grill", "longitude": -84.754548, "has_menu": false, "awards": null, "user_review_count": 1}, {"business_operation_status": 1, "rating": null, "neighborhood": null, "image": null, "scorecard": null, "featured": false, "sample_categories": "Coffeehouses", "public_id": "house-of-brews-llc-kennesaw", "id": 777659260, "votes": null, "tagline": null, "has_video": false, "website": null, "offers": null, "latitude": 34.018008, "politanName": "Atlanta, GA Metro ", "phone_number": "7704274005", "tags": [{"primary": true, "id": 1726, "name": "Coffeehouses"}], "fax_number": null, "expansion": {"count": null, "uri": null}, "impression_id": "000b0000007ef96af9e1a94a86a2215a2942868fa4", "profile": "http://www.citysearch.com/profile/777659260/kennesaw_ga/house_of_brews_llc.html", "address": {"city": "Kennesaw", "state": "GA", "street": "2655 Cobb Pkwy NW # 2101", "postal_code": "30152"}, "capProviderId": null, "distance": null, "has_offers": false, "name": "House of Brews LLC", "longitude": -84.619527, "has_menu": false, "awards": null, "user_review_count": 0}, {"business_operation_status": 0, "rating": null, "neighborhood": null, "image": null, "scorecard": null, "featured": false, "sample_categories": "Restaurants, Chicken", "public_id": "teriyaki-chicken-kennesaw", "id": 777806690, "votes": null, "tagline": null, "has_video": false, "website": null, "offers": null, "latitude": 34.061692, "politanName": "Atlanta, GA Metro ", "phone_number": "7704269225", "tags": [{"primary": false, "id": 12839, "name": "Chicken"}, {"primary": true, "id": 1722, "name": "Restaurants"}], "fax_number": null, "expansion": {"count": null, "uri": null}, "impression_id": "000b0000005e59b3f284924930bf4649c40c93d685", "profile": "http://www.citysearch.com/profile/777806690/kennesaw_ga/teriyaki_chicken.html", "address": {"city": "Kennesaw", "state": "GA", "street": "4430 Wade Green Rd NW", "postal_code": "30144"}, "capProviderId": null, "distance": null, "has_offers": false, "name": "Teriyaki Chicken", "longitude": -84.591055, "has_menu": true, "awards": null, "user_review_count": 2}, {"business_operation_status": 1, "rating": null, "neighborhood": null, "image": null, "scorecard": null, "featured": false, "sample_categories": "Restaurants", "public_id": "moms-specialties-marietta", "id": 787117300, "votes": null, "tagline": null, "has_video": false, "website": null, "offers": null, "latitude": 34.05296, "politanName": "Atlanta, GA Metro ", "phone_number": "7709284476", "tags": [{"primary": true, "id": 1722, "name": "Restaurants"}], "fax_number": null, "expansion": {"count": null, "uri": null}, "impression_id": "000b000000e6d0eeffeecd4fb596b1b48504c7d13a", "profile": "http://www.citysearch.com/profile/787117300/marietta_ga/moms_specialties.html", "address": {"city": "Marietta", "state": "GA", "street": "4193 Inlet Rd", "postal_code": "30066"}, "capProviderId": null, "distance": null, "has_offers": false, "name": "Moms Specialties", "longitude": -84.509403, "has_menu": false, "awards": null, "user_review_count": 0}, {"business_operation_status": 1, "rating": null, "neighborhood": null, "image": null, "scorecard": null, "featured": false, "sample_categories": "Restaurants", "public_id": "cappys-oyster-bar-kennesaw", "id": 805596570, "votes": null, "tagline": null, "has_video": false, "website": null, "offers": null, "latitude": 34.015064, "politanName": "Atlanta, GA Metro ", "phone_number": "7705909742", "tags": [{"primary": true, "id": 1722, "name": "Restaurants"}], "fax_number": null, "expansion": {"count": null, "uri": null}, "impression_id": "000b000000ca8f92741fcc420785992af921c7646a", "profile": "http://www.citysearch.com/profile/805596570/kennesaw_ga/cappy_s_oyster_bar.html", "address": {"city": "Kennesaw", "state": "GA", "street": "2500 Cobb Pkwy NW # B3", "postal_code": "30152"}, "capProviderId": null, "distance": null, "has_offers": false, "name": "Cappy's Oyster Bar", "longitude": -84.613619, "has_menu": false, "awards": null, "user_review_count": 0}, {"business_operation_status": 1, "rating": null, "neighborhood": null, "image": null, "scorecard": null, "featured": false, "sample_categories": "Restaurants, Pizza, Carry Out", "public_id": "little-caesars-pizza-marietta-13", "id": 798841470, "votes": null, "tagline": null, "has_video": false, "website": "http://www.citysearch.com/profile/external/798841470/marietta_ga/little_caesars_pizza.html", "offers": null, "latitude": 34.033796, "politanName": "Atlanta, GA Metro ", "phone_number": "7704245051", "tags": [{"primary": false, "id": 1722, "name": "Restaurants"}, {"primary": false, "id": 11247, "name": "Carry Out"}, {"primary": true, "id": 11299, "name": "Pizza"}], "fax_number": null, "expansion": {"count": null, "uri": null}, "impression_id": "000b0000002e1c85b1a0e149f2887dc85331cbdcd5", "profile": "http://www.citysearch.com/profile/798841470/marietta_ga/little_caesars_pizza.html", "address": {"city": "Marietta", "state": "GA", "street": "3372 Canton Rd", "postal_code": "30066"}, "capProviderId": null, "distance": null, "has_offers": false, "name": "Little Caesars Pizza", "longitude": -84.527673, "has_menu": false, "awards": null, "user_review_count": 0}, {"business_operation_status": 1, "rating": null, "neighborhood": null, "image": null, "scorecard": null, "featured": false, "sample_categories": "Luaus", "public_id": "bergamo-kennesaw", "id": 827735830, "votes": null, "tagline": null, "has_video": false, "website": null, "offers": null, "latitude": 34.05561, "politanName": "Atlanta, GA Metro ", "phone_number": "6784458585", "tags": [{"primary": true, "id": 11285, "name": "Luaus"}], "fax_number": null, "expansion": {"count": null, "uri": null}, "impression_id": "000b000000ee38a17043a04e09bd4d0b4ee7138db5", "profile": "http://www.citysearch.com/profile/827735830/kennesaw_ga/bergamo.html", "address": {"city": "Kennesaw", "state": "GA", "street": "4290 Bells Ferry Rd NW # 114", "postal_code": "30144"}, "capProviderId": null, "distance": null, "has_offers": false, "name": "Bergamo", "longitude": -84.554213, "has_menu": false, "awards": null, "user_review_count": 4}, {"business_operation_status": 1, "rating": null, "neighborhood": null, "image": null, "scorecard": null, "featured": false, "sample_categories": "Restaurants", "public_id": "el-toro-mexican-kennesaw", "id": 827881360, "votes": null, "tagline": null, "has_video": false, "website": null, "offers": null, "latitude": 34.02334, "politanName": "Atlanta, GA Metro ", "phone_number": "7704192244", "tags": [{"primary": true, "id": 1722, "name": "Restaurants"}], "fax_number": null, "expansion": {"count": null, "uri": null}, "impression_id": "000b0000005fcfb3e0315e49feaeb1898ef714a2c8", "profile": "http://www.citysearch.com/profile/827881360/kennesaw_ga/el_toro_mexican.html", "address": {"city": "Kennesaw", "state": "GA", "street": "2774 Cobb Pkwy NW", "postal_code": "30152"}, "capProviderId": null, "distance": null, "has_offers": false, "name": "El Toro Mexican", "longitude": -84.624608, "has_menu": false, "awards": null, "user_review_count": 0}, {"business_operation_status": 1, "rating": null, "neighborhood": null, "image": null, "scorecard": null, "featured": false, "sample_categories": "Restaurants", "public_id": "grazie-a-bistro-marietta", "id": 823574700, "votes": null, "tagline": null, "has_video": false, "website": null, "offers": null, "latitude": 33.953111, "politanName": "Atlanta, GA Metro ", "phone_number": "7704998585", "tags": [{"primary": true, "id": 1722, "name": "Restaurants"}], "fax_number": null, "expansion": {"count": null, "uri": null}, "impression_id": "000b000000891fc274379746fda04f5c96f808006a", "profile": "http://www.citysearch.com/profile/823574700/marietta_ga/grazie_a_bistro.html", "address": {"city": "Marietta", "state": "GA", "street": "1000 Whitlock Ave NW # 410", "postal_code": "30064"}, "capProviderId": null, "distance": null, "has_offers": false, "name": "Grazie A Bistro", "longitude": -84.581272, "has_menu": false, "awards": null, "user_review_count": 0}, {"business_operation_status": 1, "rating": null, "neighborhood": null, "image": null, "scorecard": null, "featured": false, "sample_categories": "Restaurants, Carry Out, Pizza", "public_id": "johnnys-pizza-kennesaw-kennesaw", "id": 617559314, "votes": null, "tagline": null, "has_video": false, "website": "http://www.citysearch.com/profile/external/617559314/kennesaw_ga/johnny_s_new_york_style_pizza.html", "offers": null, "latitude": 33.993905, "politanName": "Atlanta, GA Metro ", "phone_number": "6789960911", "tags": [{"primary": false, "id": 1722, "name": "Restaurants"}, {"primary": false, "id": 11299, "name": "Pizza"}, {"primary": true, "id": 11247, "name": "Carry Out"}], "fax_number": null, "expansion": {"count": null, "uri": null}, "impression_id": "000b000000fff8ecac38994c7394b844f9d13e1ac7", "profile": "http://www.citysearch.com/profile/617559314/kennesaw_ga/johnny_s_new_york_style_pizza.html", "address": {"city": "Kennesaw", "state": "GA", "street": "1635 Old 41 Hwy NW", "postal_code": "30152"}, "capProviderId": null, "distance": null, "has_offers": false, "name": "Johnny's New York Style Pizza", "longitude": -84.599461, "has_menu": false, "awards": null, "user_review_count": 0}, {"business_operation_status": 1, "rating": null, "neighborhood": null, "image": null, "scorecard": null, "featured": false, "sample_categories": "Restaurants, Carry Out", "public_id": "firehouse-subs-marietta-4", "id": 621046074, "votes": null, "tagline": null, "has_video": false, "website": null, "offers": null, "latitude": 33.948258, "politanName": "Atlanta, GA Metro ", "phone_number": null, "tags": [{"primary": false, "id": 11247, "name": "Carry Out"}, {"primary": true, "id": 1722, "name": "Restaurants"}], "fax_number": null, "expansion": {"count": null, "uri": null}, "impression_id": "000b000000499e41ad9522467ca6e7c999377533d2", "profile": "http://www.citysearch.com/profile/621046074/marietta_ga/firehouse_subs.html", "address": {"city": "Marietta", "state": "GA", "street": "2500 Dallas Hwy SW 650", "postal_code": "30064"}, "capProviderId": null, "distance": null, "has_offers": false, "name": "Firehouse Subs", "longitude": -84.62566, "has_menu": false, "awards": null, "user_review_count": 0}, {"business_operation_status": 1, "rating": null, "neighborhood": null, "image": null, "scorecard": null, "featured": false, "sample_categories": "Restaurants, Delis And Delicatessens, Sandwich Shops, Carry Out", "public_id": "subway-powder", "id": 713516600, "votes": null, "tagline": null, "has_video": false, "website": "http://www.citysearch.com/profile/external/713516600/powder_springs_ga/subway.html", "offers": null, "latitude": 33.903473, "politanName": "Atlanta, GA Metro ", "phone_number": "7702222710", "tags": [{"primary": false, "id": 1727, "name": "Delis And Delicatessens"}, {"primary": false, "id": 1736, "name": "Sandwich Shops"}, {"primary": false, "id": 11247, "name": "Carry Out"}, {"primary": true, "id": 1722, "name": "Restaurants"}], "fax_number": null, "expansion": {"count": null, "uri": null}, "impression_id": "000b000000570df4c0ab0f4bb4934057edf74b529a", "profile": "http://www.citysearch.com/profile/713516600/powder_springs_ga/subway.html", "address": {"city": "Powder Springs", "state": "GA", "street": "4150 Macland Rd", "postal_code": "30127"}, "capProviderId": null, "distance": null, "has_offers": false, "name": "SUBWAY", "longitude": -84.67471, "has_menu": true, "awards": null, "user_review_count": 0}, {"business_operation_status": 1, "rating": null, "neighborhood": null, "image": null, "scorecard": null, "featured": false, "sample_categories": "Restaurants, Catering, Delis And Delicatessens, American Express, Discover", "public_id": "mc-alisters-deli-kennesaw", "id": 36940938, "votes": null, "tagline": null, "has_video": false, "website": "http://www.citysearch.com/profile/external/36940938/kennesaw_ga/mc_alister_s_deli.html", "offers": null, "latitude": 34.025429, "politanName": "Atlanta, GA Metro ", "phone_number": "7704991581", "tags": [{"primary": false, "id": 1705, "name": "Catering"}, {"primary": false, "id": 1727, "name": "Delis And Delicatessens"}, {"primary": false, "id": 11333, "name": "American Express"}, {"primary": false, "id": 11349, "name": "Discover"}, {"primary": false, "id": 11361, "name": "MasterCard"}, {"primary": false, "id": 11382, "name": "Visa"}, {"primary": true, "id": 1722, "name": "Restaurants"}], "fax_number": null, "expansion": {"count": null, "uri": null}, "impression_id": "000b0000002c3e1cc1d640438ebf4613ed90ff20c1", "profile": "http://www.citysearch.com/profile/36940938/kennesaw_ga/mc_alister_s_deli.html", "address": {"city": "Kennesaw", "state": "GA", "street": "2950 George Busbee Pkwy NW # 102", "postal_code": "30144"}, "capProviderId": null, "distance": null, "has_offers": false, "name": "Mc Alister's Deli", "longitude": -84.566908, "has_menu": true, "awards": null, "user_review_count": 1}, {"business_operation_status": 1, "rating": null, "neighborhood": null, "image": null, "scorecard": null, "featured": false, "sample_categories": "Restaurants, Carry Out", "public_id": "jimmy-johns-kennesaw-2", "id": 621138804, "votes": null, "tagline": null, "has_video": false, "website": "http://www.citysearch.com/profile/external/621138804/kennesaw_ga/jimmy_john_s.html", "offers": null, "latitude": 34.012833, "politanName": "Atlanta, GA Metro ", "phone_number": "6784264030", "tags": [{"primary": false, "id": 11247, "name": "Carry Out"}, {"primary": true, "id": 1722, "name": "Restaurants"}], "fax_number": null, "expansion": {"count": null, "uri": null}, "impression_id": "000b000000e8f32ebc032940d7a47b9b1ccad75c66", "profile": "http://www.citysearch.com/profile/621138804/kennesaw_ga/jimmy_john_s.html", "address": {"city": "Kennesaw", "state": "GA", "street": "440 Ernest W Barrett Pkwy NW", "postal_code": "30144"}, "capProviderId": null, "distance": null, "has_offers": false, "name": "Jimmy John's", "longitude": -84.564302, "has_menu": false, "awards": null, "user_review_count": 0}, {"business_operation_status": 1, "rating": null, "neighborhood": null, "image": null, "scorecard": null, "featured": false, "sample_categories": "Ice Cream Parlors", "public_id": "tios-mexican-grill-marietta", "id": 830806670, "votes": null, "tagline": null, "has_video": false, "website": null, "offers": null, "latitude": 33.970818, "politanName": "Atlanta, GA Metro ", "phone_number": "7709779727", "tags": [{"primary": true, "id": 1730, "name": "Ice Cream Parlors"}], "fax_number": null, "expansion": {"count": null, "uri": null}, "impression_id": "000b000000e2c4f5e6f91445fa823de1243445d3e6", "profile": "http://www.citysearch.com/profile/830806670/marietta_ga/tios_mexican_grill.html", "address": {"city": "Marietta", "state": "GA", "street": "821 Woodmont Dr", "postal_code": "30062"}, "capProviderId": null, "distance": null, "has_offers": false, "name": "Tios Mexican Grill", "longitude": -84.49593, "has_menu": true, "awards": null, "user_review_count": 0}, {"business_operation_status": 1, "rating": null, "neighborhood": null, "image": null, "scorecard": null, "featured": false, "sample_categories": "Restaurants", "public_id": "eat-smart-solutions-marietta", "id": 613912764, "votes": null, "tagline": null, "has_video": false, "website": null, "offers": null, "latitude": 34.041728, "politanName": "Atlanta, GA Metro ", "phone_number": "6782478574", "tags": [{"primary": true, "id": 1722, "name": "Restaurants"}], "fax_number": null, "expansion": {"count": null, "uri": null}, "impression_id": "000b0000003c23ef8b37e347b0bbe1987427028cf3", "profile": "http://www.citysearch.com/profile/613912764/marietta_ga/eat_smart_solutions.html", "address": {"city": "Marietta", "state": "GA", "street": "3653 Canton Rd", "postal_code": "30066"}, "capProviderId": null, "distance": null, "has_offers": false, "name": "Eat Smart Solutions", "longitude": -84.529523, "has_menu": false, "awards": null, "user_review_count": 0}, {"business_operation_status": 1, "rating": null, "neighborhood": null, "image": null, "scorecard": null, "featured": false, "sample_categories": "Restaurants, Carry Out", "public_id": "waffle-house-marietta-17", "id": 617872834, "votes": null, "tagline": null, "has_video": false, "website": "http://www.citysearch.com/profile/external/617872834/marietta_ga/waffle_house.html", "offers": null, "latitude": 34.067847, "politanName": "Atlanta, GA Metro ", "phone_number": "7709249199", "tags": [{"primary": false, "id": 11247, "name": "Carry Out"}, {"primary": true, "id": 1722, "name": "Restaurants"}], "fax_number": null, "expansion": {"count": null, "uri": null}, "impression_id": "000b000000fae2c16668434ef38a45d8086d3a902c", "profile": "http://www.citysearch.com/profile/617872834/marietta_ga/waffle_house.html", "address": {"city": "Marietta", "state": "GA", "street": "4797 Canton Rd", "postal_code": "30066"}, "capProviderId": null, "distance": null, "has_offers": false, "name": "Waffle House", "longitude": -84.521855, "has_menu": false, "awards": null, "user_review_count": 0}, {"business_operation_status": 1, "rating": null, "neighborhood": null, "image": null, "scorecard": null, "featured": false, "sample_categories": "Restaurants, Traditional American, Carry Out", "public_id": "ihop-restaurant-marietta-3", "id": 682450140, "votes": null, "tagline": null, "has_video": false, "website": "http://www.citysearch.com/profile/external/682450140/marietta_ga/ihop.html", "offers": null, "latitude": 33.94651, "politanName": "Atlanta, GA Metro ", "phone_number": "7704851267", "tags": [{"primary": false, "id": 11190, "name": "Traditional American"}, {"primary": false, "id": 11247, "name": "Carry Out"}, {"primary": true, "id": 1722, "name": "Restaurants"}], "fax_number": null, "expansion": {"count": null, "uri": null}, "impression_id": "000b000000c929d2373ae040c89407ba99dfd697d5", "profile": "http://www.citysearch.com/profile/682450140/marietta_ga/ihop.html", "address": {"city": "Marietta", "state": "GA", "street": "2390 Dallas Hwy SW", "postal_code": "30064"}, "capProviderId": null, "distance": null, "has_offers": false, "name": "IHOP", "longitude": -84.62155, "has_menu": false, "awards": null, "user_review_count": 0}, {"business_operation_status": 1, "rating": null, "neighborhood": null, "image": null, "scorecard": null, "featured": false, "sample_categories": "Luaus", "public_id": "el-herradero-kennesaw", "id": 818931270, "votes": null, "tagline": null, "has_video": false, "website": null, "offers": null, "latitude": 34.014345, "politanName": "Atlanta, GA Metro ", "phone_number": "7704231213", "tags": [{"primary": true, "id": 11285, "name": "Luaus"}], "fax_number": null, "expansion": {"count": null, "uri": null}, "impression_id": "000b000000c1fc6ee3f43d4549875b3e8b63234b3f", "profile": "http://www.citysearch.com/profile/818931270/kennesaw_ga/el_herradero.html", "address": {"city": "Kennesaw", "state": "GA", "street": "2479 Cobb Pkwy NW", "postal_code": "30152"}, "capProviderId": null, "distance": null, "has_offers": false, "name": "El Herradero", "longitude": -84.614253, "has_menu": false, "awards": null, "user_review_count": 0}, {"business_operation_status": 1, "rating": null, "neighborhood": null, "image": null, "scorecard": null, "featured": false, "sample_categories": "Restaurants, Carry Out", "public_id": "jimmy-johns-kennesaw", "id": 612255804, "votes": null, "tagline": null, "has_video": false, "website": "http://www.citysearch.com/profile/external/612255804/kennesaw_ga/jimmy_john_s.html", "offers": null, "latitude": 34.030272, "politanName": "Atlanta, GA Metro ", "phone_number": "6783100766", "tags": [{"primary": false, "id": 11247, "name": "Carry Out"}, {"primary": true, "id": 1722, "name": "Restaurants"}], "fax_number": null, "expansion": {"count": null, "uri": null}, "impression_id": "000b000000bb9a10f5d8094f82b4c0cc91a7e57c9b", "profile": "http://www.citysearch.com/profile/612255804/kennesaw_ga/jimmy_john_s.html", "address": {"city": "Kennesaw", "state": "GA", "street": "1133 Chastain Rd NW # 300", "postal_code": "30144"}, "capProviderId": null, "distance": null, "has_offers": false, "name": "Jimmy John's", "longitude": -84.582584, "has_menu": false, "awards": null, "user_review_count": 0}, {"business_operation_status": 1, "rating": null, "neighborhood": null, "image": null, "scorecard": null, "featured": false, "sample_categories": "Restaurants, Grocery Stores", "public_id": "snack-paradise-kennesaw", "id": 655941070, "votes": null, "tagline": null, "has_video": false, "website": null, "offers": null, "latitude": 34.022182, "politanName": "Atlanta, GA Metro ", "phone_number": "6784027506", "tags": [{"primary": false, "id": 1713, "name": "Grocery Stores"}, {"primary": true, "id": 1722, "name": "Restaurants"}], "fax_number": null, "expansion": {"count": null, "uri": null}, "impression_id": "000b00000034ed511d99624b4d8cbd6fc348067823", "profile": "http://www.citysearch.com/profile/655941070/kennesaw_ga/snack_paradise.html", "address": {"city": "Kennesaw", "state": "GA", "street": "2851 Cobb Pkwy Nw", "postal_code": "30152"}, "capProviderId": null, "distance": null, "has_offers": false, "name": "Snack Paradise", "longitude": -84.626291, "has_menu": false, "awards": null, "user_review_count": 0}, {"business_operation_status": 1, "rating": null, "neighborhood": null, "image": null, "scorecard": null, "featured": false, "sample_categories": "Restaurants, Mexican, Carry Out, American Express, Discover", "public_id": "taco-bell-marietta-7", "id": 682721700, "votes": null, "tagline": null, "has_video": false, "website": "http://www.citysearch.com/profile/external/682721700/marietta_ga/taco_bell.html", "offers": null, "latitude": 33.944909, "politanName": "Atlanta, GA Metro ", "phone_number": "7704218815", "tags": [{"primary": false, "id": 11208, "name": "Mexican"}, {"primary": false, "id": 11247, "name": "Carry Out"}, {"primary": false, "id": 11333, "name": "American Express"}, {"primary": false, "id": 11349, "name": "Discover"}, {"primary": false, "id": 11361, "name": "MasterCard"}, {"primary": false, "id": 11382, "name": "Visa"}, {"primary": true, "id": 1722, "name": "Restaurants"}], "fax_number": null, "expansion": {"count": null, "uri": null}, "impression_id": "000b000000af6ab9ae06bb421b8deb7eaa62d885de", "profile": "http://www.citysearch.com/profile/682721700/marietta_ga/taco_bell.html", "address": {"city": "Marietta", "state": "GA", "street": "3480 Ernest W Barrett Pkwy Sw", "postal_code": "30064"}, "capProviderId": null, "distance": null, "has_offers": false, "name": "Taco Bell", "longitude": -84.624717, "has_menu": true, "awards": null, "user_review_count": 0}, {"business_operation_status": 1, "rating": null, "neighborhood": null, "image": null, "scorecard": null, "featured": false, "sample_categories": "Restaurants", "public_id": "willamsonbros-marietta-2", "id": 609749214, "votes": null, "tagline": null, "has_video": false, "website": null, "offers": null, "latitude": 33.977691, "politanName": "Atlanta, GA Metro ", "phone_number": "7704999797", "tags": [{"primary": true, "id": 1722, "name": "Restaurants"}], "fax_number": null, "expansion": {"count": null, "uri": null}, "impression_id": "000b000000a0303804971c4605a166ef9c07cc0961", "profile": "http://www.citysearch.com/profile/609749214/marietta_ga/willamsonbros.html", "address": {"city": "Marietta", "state": "GA", "street": "1160 Hayes Industrial Dr", "postal_code": "30062"}, "capProviderId": null, "distance": null, "has_offers": false, "name": "Willamsonbros", "longitude": -84.542327, "has_menu": false, "awards": null, "user_review_count": 0}], "histograms": [], "tag_ids": [1722], "uri": "http://api.citygridmedia.com:8080/search/places/v2/search/where?has_offers=false&type=restaurant&format=json&page=5&where=30160&rpp=50&histograms=false&publisher=10000009598&region_type=circle", "did_you_mean": "", "regions": [{"latitude": 33.9919, "default_radius": 0.25, "type": "postal_code", "name": "30160", "longitude": -84.6543}], "call_id": "000b000000671f3d2829164e98a8a62a53a0ba065f", "first_hit": 201, "total_hits": 371, "geo_ids": [137053], "page": 5, "last_hit": 250}}