{"results": {"rpp": 50, "locations": [{"business_operation_status": 1, "rating": null, "neighborhood": "Southwest, Southwest", "image": null, "scorecard": null, "featured": false, "sample_categories": "Luaus", "public_id": "number-one-china-atlanta", "id": 819617710, "votes": null, "tagline": null, "has_video": false, "website": null, "offers": null, "latitude": 33.752751, "politanName": "Atlanta, GA Metro ", "phone_number": "4044723550", "tags": [{"primary": true, "id": 11285, "name": "Luaus"}], "fax_number": null, "expansion": {"count": null, "uri": null}, "impression_id": "000b0000009df7fcda7b524477999f6916fdeea246", "profile": "http://www.citysearch.com/profile/819617710/atlanta_ga/number_one_china.html", "address": {"city": "Atlanta", "state": "GA", "street": "3024 Martin L King Jr Dr SW", "postal_code": "30311"}, "capProviderId": null, "distance": null, "has_offers": false, "name": "NUMBER ONE CHINA", "longitude": -84.486156, "has_menu": false, "awards": null, "user_review_count": 0}, {"business_operation_status": 1, "rating": null, "neighborhood": null, "image": null, "scorecard": null, "featured": false, "sample_categories": "Restaurants", "public_id": "crazy-cupcakes-atlanta", "id": 819546530, "votes": null, "tagline": null, "has_video": false, "website": null, "offers": null, "latitude": 33.657246, "politanName": "Atlanta, GA Metro ", "phone_number": "7706720081", "tags": [{"primary": true, "id": 1722, "name": "Restaurants"}], "fax_number": null, "expansion": {"count": null, "uri": null}, "impression_id": "000b00000084d07b5402f94b148a79445d02372b8c", "profile": "http://www.citysearch.com/profile/819546530/atlanta_ga/crazy_cupcakes.html", "address": {"city": "Atlanta", "state": "GA", "street": "731 Miller Run", "postal_code": "30349"}, "capProviderId": null, "distance": null, "has_offers": false, "name": "Crazy Cupcakes", "longitude": -84.631876, "has_menu": false, "awards": null, "user_review_count": 0}, {"business_operation_status": 1, "rating": null, "neighborhood": null, "image": null, "scorecard": null, "featured": false, "sample_categories": "Restaurants", "public_id": "flight-deck-cafe-atlanta", "id": 821291530, "votes": null, "tagline": null, "has_video": false, "website": null, "offers": null, "latitude": 33.774718, "politanName": "Atlanta, GA Metro ", "phone_number": "4046997730", "tags": [{"primary": true, "id": 1722, "name": "Restaurants"}], "fax_number": null, "expansion": {"count": null, "uri": null}, "impression_id": "000b000000e0a997d343d54336b55cb5ce66d71b72", "profile": "http://www.citysearch.com/profile/821291530/atlanta_ga/flight_deck_cafe.html", "address": {"city": "Atlanta", "state": "GA", "street": "3952 Aviation Cir NW", "postal_code": "30336"}, "capProviderId": null, "distance": null, "has_offers": false, "name": "Flight Deck Cafe", "longitude": -84.520529, "has_menu": false, "awards": null, "user_review_count": 1}, {"business_operation_status": 1, "rating": null, "neighborhood": "Southwest, Southwest", "image": null, "scorecard": null, "featured": false, "sample_categories": "Restaurants", "public_id": "mrs-winners-chkn-biscuits-605-atlanta", "id": 824219850, "votes": null, "tagline": null, "has_video": false, "website": null, "offers": null, "latitude": 33.698565, "politanName": "Atlanta, GA Metro ", "phone_number": "4045057557", "tags": [{"primary": true, "id": 1722, "name": "Restaurants"}], "fax_number": null, "expansion": {"count": null, "uri": null}, "impression_id": "000b00000063e8e3828e754d6db01d540225bfa3d2", "profile": "http://www.citysearch.com/profile/824219850/atlanta_ga/mrs_winners_chkn_biscuits_605.html", "address": {"city": "Atlanta", "state": "GA", "street": "1005 Res Ctr Atl Dr SW", "postal_code": "30331"}, "capProviderId": null, "distance": null, "has_offers": false, "name": "Mrs Winners Chkn Biscuits 605", "longitude": -84.543187, "has_menu": false, "awards": null, "user_review_count": 0}, {"business_operation_status": 1, "rating": null, "neighborhood": null, "image": null, "scorecard": null, "featured": false, "sample_categories": "Restaurants, Carry Out", "public_id": "waffle-house-lithia", "id": 832999140, "votes": null, "tagline": null, "has_video": false, "website": "http://www.citysearch.com/profile/external/832999140/lithia_springs_ga/waffle_house.html", "offers": null, "latitude": 33.766845, "politanName": "Atlanta, GA Metro ", "phone_number": "7709446713", "tags": [{"primary": false, "id": 11247, "name": "Carry Out"}, {"primary": true, "id": 1722, "name": "Restaurants"}], "fax_number": null, "expansion": {"count": null, "uri": null}, "impression_id": "000b000000836027c41b9a47ad85b5424246e7684a", "profile": "http://www.citysearch.com/profile/832999140/lithia_springs_ga/waffle_house.html", "address": {"city": "Lithia Springs", "state": "GA", "street": "1371 Lee Rd", "postal_code": "30122"}, "capProviderId": null, "distance": null, "has_offers": false, "name": "Waffle House", "longitude": -84.651868, "has_menu": true, "awards": null, "user_review_count": 0}, {"business_operation_status": 1, "rating": null, "neighborhood": null, "image": null, "scorecard": null, "featured": false, "sample_categories": "Restaurants", "public_id": "jmc-restaurant-distribution-atlanta", "id": 816880000, "votes": null, "tagline": null, "has_video": false, "website": null, "offers": null, "latitude": 33.743799, "politanName": "Atlanta, GA Metro ", "phone_number": "4046960245", "tags": [{"primary": true, "id": 1722, "name": "Restaurants"}], "fax_number": null, "expansion": {"count": null, "uri": null}, "impression_id": "000b00000080034b2b2bce4ad9b840c667f9af9aa1", "profile": "http://www.citysearch.com/profile/816880000/atlanta_ga/jmc_restaurant_distribution.html", "address": {"city": "Atlanta", "state": "GA", "street": "5250 Fulton Industrial Blvd SW", "postal_code": "30336"}, "capProviderId": null, "distance": null, "has_offers": false, "name": "Jmc Restaurant Distribution", "longitude": -84.559986, "has_menu": false, "awards": null, "user_review_count": 0}, {"business_operation_status": 1, "rating": null, "neighborhood": null, "image": null, "scorecard": null, "featured": false, "sample_categories": "Restaurants", "public_id": "mrs-winners-austell", "id": 822291490, "votes": null, "tagline": null, "has_video": false, "website": null, "offers": null, "latitude": 33.839909, "politanName": "Atlanta, GA Metro ", "phone_number": "7704386204", "tags": [{"primary": true, "id": 1722, "name": "Restaurants"}], "fax_number": null, "expansion": {"count": null, "uri": null}, "impression_id": "000b0000005d56521c43574d518147bc67ddea1624", "profile": "http://www.citysearch.com/profile/822291490/austell_ga/mrs_winners.html", "address": {"city": "Austell", "state": "GA", "street": "Austell Rd", "postal_code": "30106"}, "capProviderId": null, "distance": null, "has_offers": false, "name": "Mrs Winners", "longitude": -84.610817, "has_menu": false, "awards": null, "user_review_count": 0}, {"business_operation_status": 1, "rating": null, "neighborhood": null, "image": null, "scorecard": null, "featured": false, "sample_categories": "Restaurants", "public_id": "el-caribe-restaurant-mableton", "id": 790752020, "votes": null, "tagline": null, "has_video": false, "website": null, "offers": null, "latitude": 33.818318, "politanName": "Atlanta, GA Metro ", "phone_number": "7709447982", "tags": [{"primary": true, "id": 1722, "name": "Restaurants"}], "fax_number": null, "expansion": {"count": null, "uri": null}, "impression_id": "000b000000a2fee549377e40e1ae5108a099df0da8", "profile": "http://www.citysearch.com/profile/790752020/mableton_ga/el_caribe_restaurant.html", "address": {"city": "Mableton", "state": "GA", "street": "679 Veterans Memorial Hwy Sw", "postal_code": "30126"}, "capProviderId": null, "distance": null, "has_offers": false, "name": "El Caribe Restaurant", "longitude": -84.574544, "has_menu": false, "awards": null, "user_review_count": 0}, {"business_operation_status": 1, "rating": null, "neighborhood": null, "image": null, "scorecard": null, "featured": false, "sample_categories": "Restaurants", "public_id": "pink-camel-douglasville", "id": 798852890, "votes": null, "tagline": null, "has_video": false, "website": null, "offers": null, "latitude": 33.689438, "politanName": "Atlanta, GA Metro ", "phone_number": "7709499222", "tags": [{"primary": true, "id": 1722, "name": "Restaurants"}], "fax_number": null, "expansion": {"count": null, "uri": null}, "impression_id": "000b0000008c2526a5f9054d57a9b8e0ef9911478e", "profile": "http://www.citysearch.com/profile/798852890/douglasville_ga/pink_camel.html", "address": {"city": "Douglasville", "state": "GA", "street": "3756 Chisel Ct", "postal_code": "30135"}, "capProviderId": null, "distance": null, "has_offers": false, "name": "Pink Camel", "longitude": -84.697858, "has_menu": false, "awards": null, "user_review_count": 0}, {"business_operation_status": 1, "rating": null, "neighborhood": null, "image": null, "scorecard": null, "featured": false, "sample_categories": "Restaurants", "public_id": "beaver-creek-mableton", "id": 820805410, "votes": null, "tagline": null, "has_video": false, "website": null, "offers": null, "latitude": 33.81695, "politanName": "Atlanta, GA Metro ", "phone_number": "7709489451", "tags": [{"primary": true, "id": 1722, "name": "Restaurants"}], "fax_number": null, "expansion": {"count": null, "uri": null}, "impression_id": "000b0000001c03f56a8a33472dbf4fd6db844e9fa4", "profile": "http://www.citysearch.com/profile/820805410/mableton_ga/beaver_creek.html", "address": {"city": "Mableton", "state": "GA", "street": "499 Veterans Memorial Hwy SW", "postal_code": "30126"}, "capProviderId": null, "distance": null, "has_offers": false, "name": "Beaver Creek", "longitude": -84.568566, "has_menu": false, "awards": null, "user_review_count": 0}, {"business_operation_status": 1, "rating": null, "neighborhood": null, "image": null, "scorecard": null, "featured": false, "sample_categories": "Restaurants, Catering, Barbecue Restaurants", "public_id": "sonnys-real-pit-barbq-austell", "id": 827597680, "votes": null, "tagline": null, "has_video": false, "website": null, "offers": null, "latitude": 33.854519, "politanName": "Atlanta, GA Metro ", "phone_number": "7707457240", "tags": [{"primary": false, "id": 1705, "name": "Catering"}, {"primary": false, "id": 1724, "name": "Barbecue Restaurants"}, {"primary": true, "id": 1722, "name": "Restaurants"}], "fax_number": null, "expansion": {"count": null, "uri": null}, "impression_id": "000b000000c274b7d744204fbe80be7617e319e763", "profile": "http://www.citysearch.com/profile/827597680/austell_ga/sonny_s_real_pit_bar_b_q.html", "address": {"city": "Austell", "state": "GA", "street": "1804 E West Connector", "postal_code": "30106"}, "capProviderId": null, "distance": null, "has_offers": false, "name": "Sonny's Real Pit Bar-B-Q", "longitude": -84.605012, "has_menu": true, "awards": null, "user_review_count": 0}, {"business_operation_status": 1, "rating": null, "neighborhood": null, "image": null, "scorecard": null, "featured": false, "sample_categories": "Catering, Restaurants", "public_id": "cuisine-for-all-seasons-inc-atlanta", "id": 3043975, "votes": null, "tagline": null, "has_video": false, "website": null, "offers": null, "latitude": 33.652194, "politanName": "Atlanta, GA Metro ", "phone_number": "7703061394", "tags": [{"primary": false, "id": 1722, "name": "Restaurants"}, {"primary": true, "id": 1705, "name": "Catering"}], "fax_number": null, "expansion": {"count": null, "uri": null}, "impression_id": "000b0000008a5701a753e0431e8faf09c8b7b7281b", "profile": "http://www.citysearch.com/profile/3043975/atlanta_ga/cuisine_for_all_seasons_inc.html", "address": {"city": "Atlanta", "state": "GA", "street": "3805 Stonewall Tell Rd", "postal_code": "30349"}, "capProviderId": null, "distance": null, "has_offers": false, "name": "Cuisine For All Seasons Inc", "longitude": -84.594332, "has_menu": false, "awards": null, "user_review_count": 0}, {"business_operation_status": 1, "rating": null, "neighborhood": null, "image": null, "scorecard": null, "featured": false, "sample_categories": "Restaurants", "public_id": "southern-cuisine-sc-atlanta", "id": 632906660, "votes": null, "tagline": null, "has_video": false, "website": null, "offers": null, "latitude": 33.657546, "politanName": "Atlanta, GA Metro ", "phone_number": "6785451713", "tags": [{"primary": true, "id": 1722, "name": "Restaurants"}], "fax_number": null, "expansion": {"count": null, "uri": null}, "impression_id": "000b000000d79356f2731c4fa6b9b0c6ce4454d9d6", "profile": "http://www.citysearch.com/profile/632906660/atlanta_ga/southern_cuisine_sc.html", "address": {"city": "Atlanta", "state": "GA", "street": "140 Fitzgerald Pl", "postal_code": "30349"}, "capProviderId": null, "distance": null, "has_offers": false, "name": "Southern Cuisine Sc", "longitude": -84.627877, "has_menu": false, "awards": null, "user_review_count": 0}, {"business_operation_status": 1, "rating": null, "neighborhood": null, "image": null, "scorecard": null, "featured": false, "sample_categories": "Delis And Delicatessens", "public_id": "craig-family-deli-llc-atlanta", "id": 617965984, "votes": null, "tagline": null, "has_video": false, "website": null, "offers": null, "latitude": 33.747167, "politanName": "Atlanta, GA Metro ", "phone_number": "4703551333", "tags": [{"primary": true, "id": 1727, "name": "Delis And Delicatessens"}], "fax_number": null, "expansion": {"count": null, "uri": null}, "impression_id": "000b000000a3142b5b0a894f5cb1777e06b9828ad9", "profile": "http://www.citysearch.com/profile/617965984/atlanta_ga/craig_family_deli_llc.html", "address": {"city": "Atlanta", "state": "GA", "street": "370 Great Southwest Pkwy SW", "postal_code": "30336"}, "capProviderId": null, "distance": null, "has_offers": false, "name": "Craig Family Deli LLC", "longitude": -84.5657, "has_menu": false, "awards": null, "user_review_count": 0}, {"business_operation_status": 1, "rating": null, "neighborhood": null, "image": null, "scorecard": null, "featured": false, "sample_categories": "Restaurants, Cajun & Creole", "public_id": "carlas-cajun-kitchen-lithia-spgs", "id": 648925220, "votes": null, "tagline": null, "has_video": false, "website": null, "offers": null, "latitude": 33.774233, "politanName": "Atlanta, GA Metro ", "phone_number": "6783989159", "tags": [{"primary": false, "id": 11245, "name": "Cajun & Creole"}, {"primary": true, "id": 1722, "name": "Restaurants"}], "fax_number": null, "expansion": {"count": null, "uri": null}, "impression_id": "000b00000082e254338df248c7b17734839f10df15", "profile": "http://www.citysearch.com/profile/648925220/lithia_springs_ga/carla_s_cajun_kitchen.html", "address": {"city": "Lithia Springs", "state": "GA", "street": "7413 Lee Rd", "postal_code": "30122"}, "capProviderId": null, "distance": null, "has_offers": false, "name": "Carla's Cajun Kitchen", "longitude": -84.654048, "has_menu": false, "awards": null, "user_review_count": 1}, {"business_operation_status": 1, "rating": null, "neighborhood": null, "image": null, "scorecard": null, "featured": false, "sample_categories": "Restaurants, Fast Food, Carry Out, Hamburgers, American Express", "public_id": "mc-donalds-mableton", "id": 45993503, "votes": null, "tagline": null, "has_video": false, "website": "http://www.citysearch.com/profile/external/45993503/mableton_ga/mc_donald_s.html", "offers": null, "latitude": 33.806368, "politanName": "Atlanta, GA Metro ", "phone_number": "6783988614", "tags": [{"primary": false, "id": 11199, "name": "Fast Food"}, {"primary": false, "id": 11247, "name": "Carry Out"}, {"primary": false, "id": 11270, "name": "Hamburgers"}, {"primary": false, "id": 11333, "name": "American Express"}, {"primary": false, "id": 11349, "name": "Discover"}, {"primary": false, "id": 11361, "name": "MasterCard"}, {"primary": false, "id": 11382, "name": "Visa"}, {"primary": true, "id": 1722, "name": "Restaurants"}], "fax_number": null, "expansion": {"count": null, "uri": null}, "impression_id": "000b000000992d0989659846168315a9ff85dd6058", "profile": "http://www.citysearch.com/profile/45993503/mableton_ga/mc_donald_s.html", "address": {"city": "Mableton", "state": "GA", "street": "840 Veterans Memorial Hwy SE", "postal_code": "30126"}, "capProviderId": null, "distance": null, "has_offers": false, "name": "Mc Donald's", "longitude": -84.530894, "has_menu": true, "awards": null, "user_review_count": 0}, {"business_operation_status": 1, "rating": null, "neighborhood": null, "image": null, "scorecard": null, "featured": false, "sample_categories": "Restaurants, Carry Out", "public_id": "waffle-house-mableton-2", "id": 609393684, "votes": null, "tagline": null, "has_video": false, "website": "http://www.citysearch.com/profile/external/609393684/mableton_ga/waffle_house.html", "offers": null, "latitude": 33.799338, "politanName": "Atlanta, GA Metro ", "phone_number": "4046997114", "tags": [{"primary": false, "id": 11247, "name": "Carry Out"}, {"primary": true, "id": 1722, "name": "Restaurants"}], "fax_number": null, "expansion": {"count": null, "uri": null}, "impression_id": "000b0000008aa107d731534d7a9577aca3f40cb413", "profile": "http://www.citysearch.com/profile/609393684/mableton_ga/waffle_house.html", "address": {"city": "Mableton", "state": "GA", "street": "1450 Veterans Memorial Hwy SE # 300", "postal_code": "30126"}, "capProviderId": null, "distance": null, "has_offers": false, "name": "Waffle House", "longitude": -84.513029, "has_menu": false, "awards": null, "user_review_count": 0}, {"business_operation_status": 1, "rating": null, "neighborhood": null, "image": null, "scorecard": null, "featured": false, "sample_categories": "Restaurants, Seafood, Carry Out, MasterCard, Visa", "public_id": "captain-ds-seafood-mableton-2", "id": 682515390, "votes": null, "tagline": null, "has_video": false, "website": "http://www.citysearch.com/profile/external/682515390/mableton_ga/captain_d_s_seafood.html", "offers": null, "latitude": 33.819503, "politanName": "Atlanta, GA Metro ", "phone_number": "7709486116", "tags": [{"primary": false, "id": 11228, "name": "Seafood"}, {"primary": false, "id": 11247, "name": "Carry Out"}, {"primary": false, "id": 11361, "name": "MasterCard"}, {"primary": false, "id": 11382, "name": "Visa"}, {"primary": true, "id": 1722, "name": "Restaurants"}], "fax_number": null, "expansion": {"count": null, "uri": null}, "impression_id": "000b00000090f7887ae3bc4642a422c67076468d0d", "profile": "http://www.citysearch.com/profile/682515390/mableton_ga/captain_d_s_seafood.html", "address": {"city": "Mableton", "state": "GA", "street": "5545 Floyd Rd Sw", "postal_code": "30126"}, "capProviderId": null, "distance": null, "has_offers": false, "name": "Captain D's Seafood", "longitude": -84.576206, "has_menu": true, "awards": null, "user_review_count": 0}, {"business_operation_status": 0, "rating": null, "neighborhood": null, "image": null, "scorecard": null, "featured": false, "sample_categories": "Restaurants", "public_id": "williams-poboys-snowballs-douglasville", "id": 768839770, "votes": null, "tagline": null, "has_video": false, "website": null, "offers": null, "latitude": 33.680221, "politanName": "Atlanta, GA Metro ", "phone_number": "7707453644", "tags": [{"primary": true, "id": 1722, "name": "Restaurants"}], "fax_number": null, "expansion": {"count": null, "uri": null}, "impression_id": "000b0000005738767096b2424f8c13009b9585628a", "profile": "http://www.citysearch.com/profile/768839770/douglasville_ga/william_s_poboys_snowballs.html", "address": {"city": "Douglasville", "state": "GA", "street": "3153 Lower Creek Dr", "postal_code": "30135"}, "capProviderId": null, "distance": null, "has_offers": false, "name": "William's Poboys & Snowballs", "longitude": -84.690636, "has_menu": false, "awards": null, "user_review_count": 0}, {"business_operation_status": 1, "rating": null, "neighborhood": null, "image": null, "scorecard": null, "featured": false, "sample_categories": "Delis And Delicatessens", "public_id": "us-deli-mableton", "id": 764935400, "votes": null, "tagline": null, "has_video": false, "website": null, "offers": null, "latitude": 33.806264, "politanName": "Atlanta, GA Metro ", "phone_number": "7709484700", "tags": [{"primary": true, "id": 1727, "name": "Delis And Delicatessens"}], "fax_number": null, "expansion": {"count": null, "uri": null}, "impression_id": "000b000000bdd4fa8ae46542b9a10d15387b4ce5ca", "profile": "http://www.citysearch.com/profile/764935400/mableton_ga/us_deli.html", "address": {"city": "Mableton", "state": "GA", "street": "873 Veterans Memorial Hwy SE", "postal_code": "30126"}, "capProviderId": null, "distance": null, "has_offers": false, "name": "US Deli", "longitude": -84.528772, "has_menu": false, "awards": null, "user_review_count": 0}, {"business_operation_status": 1, "rating": null, "neighborhood": null, "image": null, "scorecard": null, "featured": false, "sample_categories": "Restaurants", "public_id": "tme-enterprises-i-ltd-mableton", "id": 2949244, "votes": null, "tagline": null, "has_video": false, "website": null, "offers": null, "latitude": 33.818546, "politanName": "Atlanta, GA Metro ", "phone_number": "7709443911", "tags": [{"primary": true, "id": 1722, "name": "Restaurants"}], "fax_number": null, "expansion": {"count": null, "uri": null}, "impression_id": "000b000000df927c71aeec481398f0bc987cf4e447", "profile": "http://www.citysearch.com/profile/2949244/mableton_ga/tme_enterprises_i_ltd.html", "address": {"city": "Mableton", "state": "GA", "street": "737 Veterans Memorial Hwy SW", "postal_code": "30126"}, "capProviderId": null, "distance": null, "has_offers": false, "name": "Tme Enterprises I Ltd", "longitude": -84.575739, "has_menu": false, "awards": null, "user_review_count": 0}, {"business_operation_status": 1, "rating": null, "neighborhood": "Southwest, Southwest", "image": null, "scorecard": null, "featured": false, "sample_categories": "Restaurants", "public_id": "sadiqs-bistro-atlanta", "id": 839586620, "votes": null, "tagline": null, "has_video": false, "website": null, "offers": null, "latitude": 33.690309, "politanName": "Atlanta, GA Metro ", "phone_number": "4047484997", "tags": [{"primary": true, "id": 1722, "name": "Restaurants"}], "fax_number": null, "expansion": {"count": null, "uri": null}, "impression_id": "000b000000aabd392873fa4a0581248107d32cb171", "profile": "http://www.citysearch.com/profile/839586620/atlanta_ga/sadiq_s_bistro.html", "address": {"city": "Atlanta", "state": "GA", "street": "3762 Campbellton Rd SW", "postal_code": "30331"}, "capProviderId": null, "distance": null, "has_offers": false, "name": "Sadiq's Bistro", "longitude": -84.51181, "has_menu": false, "awards": null, "user_review_count": 0}, {"business_operation_status": 1, "rating": null, "neighborhood": null, "image": null, "scorecard": null, "featured": false, "sample_categories": "Bakeries, Restaurants", "public_id": "vie-de-france-yamazaki-atlanta", "id": 3025879, "votes": null, "tagline": null, "has_video": false, "website": "http://www.citysearch.com/profile/external/3025879/atlanta_ga/vie_de_france_yamazaki.html", "offers": null, "latitude": 33.763624, "politanName": "Atlanta, GA Metro ", "phone_number": "4046965486", "tags": [{"primary": false, "id": 1722, "name": "Restaurants"}, {"primary": true, "id": 1685, "name": "Bakeries"}], "fax_number": null, "expansion": {"count": null, "uri": null}, "impression_id": "000b0000004f38828110ee4d71971a108662f900a7", "profile": "http://www.citysearch.com/profile/3025879/atlanta_ga/vie_de_france_yamazaki.html", "address": {"city": "Atlanta", "state": "GA", "street": "4507 Mills Pl SW Ste R", "postal_code": "30336"}, "capProviderId": null, "distance": null, "has_offers": false, "name": "Vie De France Yamazaki", "longitude": -84.536183, "has_menu": false, "awards": null, "user_review_count": 0}, {"business_operation_status": 0, "rating": null, "neighborhood": null, "image": null, "scorecard": null, "featured": false, "sample_categories": "Restaurants, Bars & Pubs", "public_id": "benos-sports-bar-grill-austell", "id": 647356910, "votes": null, "tagline": null, "has_video": false, "website": null, "offers": null, "latitude": 33.833761, "politanName": "Atlanta, GA Metro ", "phone_number": "7707458810", "tags": [{"primary": false, "id": 1686, "name": "Bars & Pubs"}, {"primary": true, "id": 1722, "name": "Restaurants"}], "fax_number": null, "expansion": {"count": null, "uri": null}, "impression_id": "000b00000016f9a12b3f4c4284a0cd5ee1cdc40d12", "profile": "http://www.citysearch.com/profile/647356910/austell_ga/beno_s_sports_bar_grill.html", "address": {"city": "Austell", "state": "GA", "street": "3156 Mosley Chase Dr", "postal_code": "30106"}, "capProviderId": null, "distance": null, "has_offers": false, "name": "Beno's Sports Bar & Grill", "longitude": -84.646818, "has_menu": false, "awards": null, "user_review_count": 0}, {"business_operation_status": 1, "rating": null, "neighborhood": null, "image": null, "scorecard": null, "featured": false, "sample_categories": "Restaurants, Seafood", "public_id": "cat-fish-alley-atlanta", "id": 45566133, "votes": null, "tagline": null, "has_video": false, "website": null, "offers": null, "latitude": 33.764656, "politanName": "Atlanta, GA Metro ", "phone_number": "4046964367", "tags": [{"primary": false, "id": 11228, "name": "Seafood"}, {"primary": true, "id": 1722, "name": "Restaurants"}], "fax_number": null, "expansion": {"count": null, "uri": null}, "impression_id": "000b0000004a69e5d290fa42fd99bcd5234f0c1279", "profile": "http://www.citysearch.com/profile/45566133/atlanta_ga/cat_fish_alley.html", "address": {"city": "Atlanta", "state": "GA", "street": "304 Fulton Industrial Cir SW", "postal_code": "30336"}, "capProviderId": null, "distance": null, "has_offers": false, "name": "Cat Fish Alley", "longitude": -84.53182, "has_menu": false, "awards": null, "user_review_count": 1}, {"business_operation_status": 1, "rating": null, "neighborhood": null, "image": null, "scorecard": null, "featured": false, "sample_categories": "Restaurants, Fast Food, Carry Out, Hamburgers, American Express", "public_id": "mc-donalds-mableton-2", "id": 601310556, "votes": null, "tagline": null, "has_video": false, "website": "http://www.citysearch.com/profile/external/601310556/mableton_ga/mcdonald_s.html", "offers": null, "latitude": 33.835672, "politanName": "Atlanta, GA Metro ", "phone_number": "7709444853", "tags": [{"primary": false, "id": 11199, "name": "Fast Food"}, {"primary": false, "id": 11247, "name": "Carry Out"}, {"primary": false, "id": 11270, "name": "Hamburgers"}, {"primary": false, "id": 11333, "name": "American Express"}, {"primary": false, "id": 11349, "name": "Discover"}, {"primary": false, "id": 11361, "name": "MasterCard"}, {"primary": false, "id": 11382, "name": "Visa"}, {"primary": true, "id": 1722, "name": "Restaurants"}], "fax_number": null, "expansion": {"count": null, "uri": null}, "impression_id": "000b000000cf306e1aceb54c8384222bc1910c1184", "profile": "http://www.citysearch.com/profile/601310556/mableton_ga/mcdonald_s.html", "address": {"city": "Mableton", "state": "GA", "street": "4860 Floyd Rd Sw", "postal_code": "30126"}, "capProviderId": null, "distance": null, "has_offers": false, "name": "McDonald's", "longitude": -84.576914, "has_menu": false, "awards": null, "user_review_count": 0}, {"business_operation_status": 1, "rating": null, "neighborhood": null, "image": null, "scorecard": null, "featured": false, "sample_categories": "Restaurants", "public_id": "the-olive-tree-lithia-spgs", "id": 673007600, "votes": null, "tagline": null, "has_video": false, "website": "http://www.citysearch.com/profile/external/673007600/lithia_springs_ga/the_olive_tree.html", "offers": null, "latitude": 33.784778, "politanName": "Atlanta, GA Metro ", "phone_number": "7709481288", "tags": [{"primary": true, "id": 1722, "name": "Restaurants"}], "fax_number": null, "expansion": {"count": null, "uri": null}, "impression_id": "000b000000b7e5ebb74f15485998c4061dbc689144", "profile": "http://www.citysearch.com/profile/673007600/lithia_springs_ga/the_olive_tree.html", "address": {"city": "Lithia Springs", "state": "GA", "street": "849 Thornton Rd", "postal_code": "30122"}, "capProviderId": null, "distance": null, "has_offers": false, "name": "The Olive Tree", "longitude": -84.612367, "has_menu": false, "awards": null, "user_review_count": 0}, {"business_operation_status": 0, "rating": null, "neighborhood": null, "image": null, "scorecard": null, "featured": false, "sample_categories": "Restaurants, Barbecue Restaurants", "public_id": "wingz-n-thingz-powder-spgs", "id": 647346910, "votes": null, "tagline": null, "has_video": false, "website": null, "offers": null, "latitude": 33.80062, "politanName": "Atlanta, GA Metro ", "phone_number": "7706272889", "tags": [{"primary": false, "id": 1724, "name": "Barbecue Restaurants"}, {"primary": true, "id": 1722, "name": "Restaurants"}], "fax_number": null, "expansion": {"count": null, "uri": null}, "impression_id": "000b0000002be07daeb08c4116a10d98d176b01706", "profile": "http://www.citysearch.com/profile/647346910/powder_springs_ga/wingz_n_thingz.html", "address": {"city": "Powder Springs", "state": "GA", "street": "105 Brownsville Rd", "postal_code": "30127"}, "capProviderId": null, "distance": null, "has_offers": false, "name": "Wingz N Thingz", "longitude": -84.75614, "has_menu": false, "awards": null, "user_review_count": 0}, {"business_operation_status": 1, "rating": null, "neighborhood": "Southwest, Southwest", "image": null, "scorecard": null, "featured": false, "sample_categories": "Restaurants, Pizza, Carry Out", "public_id": "little-caesars-pizza-atlanta-2", "id": 682444590, "votes": null, "tagline": null, "has_video": false, "website": "http://www.citysearch.com/profile/external/682444590/atlanta_ga/little_caesars_pizza.html", "offers": null, "latitude": 33.726029, "politanName": "Atlanta, GA Metro ", "phone_number": "4046999190", "tags": [{"primary": false, "id": 1722, "name": "Restaurants"}, {"primary": false, "id": 11247, "name": "Carry Out"}, {"primary": true, "id": 11299, "name": "Pizza"}], "fax_number": null, "expansion": {"count": null, "uri": null}, "impression_id": "000b0000005aba41ae65594ccfbe630b9e5f6dc86e", "profile": "http://www.citysearch.com/profile/682444590/atlanta_ga/little_caesars_pizza.html", "address": {"city": "Atlanta", "state": "GA", "street": "1075 Fairburn Rd Sw", "postal_code": "30331"}, "capProviderId": null, "distance": null, "has_offers": false, "name": "Little Caesars Pizza", "longitude": -84.51095, "has_menu": false, "awards": null, "user_review_count": 0}, {"business_operation_status": 1, "rating": null, "neighborhood": null, "image": null, "scorecard": null, "featured": false, "sample_categories": "Delis And Delicatessens", "public_id": "kroger-deli-douglasville-4", "id": 706880660, "votes": null, "tagline": null, "has_video": false, "website": null, "offers": null, "latitude": 33.699445, "politanName": "Atlanta, GA Metro ", "phone_number": "7709477144", "tags": [{"primary": true, "id": 1727, "name": "Delis And Delicatessens"}], "fax_number": null, "expansion": {"count": null, "uri": null}, "impression_id": "000b000000d12070b2937345039e5264cdb24e6a63", "profile": "http://www.citysearch.com/profile/706880660/douglasville_ga/kroger_deli.html", "address": {"city": "Douglasville", "state": "GA", "street": "3875 Chapel Hill Rd", "postal_code": "30135"}, "capProviderId": null, "distance": null, "has_offers": false, "name": "Kroger Deli", "longitude": -84.718495, "has_menu": false, "awards": null, "user_review_count": 0}, {"business_operation_status": 0, "rating": null, "neighborhood": null, "image": null, "scorecard": null, "featured": false, "sample_categories": "Restaurants, Delis And Delicatessens, Sandwich Shops, Carry Out", "public_id": "blimpie-subs-salads-mableton", "id": 764922590, "votes": null, "tagline": null, "has_video": false, "website": "http://www.citysearch.com/profile/external/764922590/mableton_ga/blimpie_subs_salads.html", "offers": null, "latitude": 33.816948, "politanName": "Atlanta, GA Metro ", "phone_number": "7709443663", "tags": [{"primary": false, "id": 1727, "name": "Delis And Delicatessens"}, {"primary": false, "id": 1736, "name": "Sandwich Shops"}, {"primary": false, "id": 11247, "name": "Carry Out"}, {"primary": true, "id": 1722, "name": "Restaurants"}], "fax_number": null, "expansion": {"count": null, "uri": null}, "impression_id": "000b000000cef4524d48cd498c82e00800672dea36", "profile": "http://www.citysearch.com/profile/764922590/mableton_ga/blimpie_subs_salads.html", "address": {"city": "Mableton", "state": "GA", "street": "5624 Mableton Pkwy SW", "postal_code": "30126"}, "capProviderId": null, "distance": null, "has_offers": false, "name": "Blimpie Subs & Salads", "longitude": -84.575419, "has_menu": true, "awards": null, "user_review_count": 0}, {"business_operation_status": 1, "rating": null, "neighborhood": null, "image": null, "scorecard": null, "featured": false, "sample_categories": "Restaurants", "public_id": "a-t-l-best-wings-mableton", "id": 802512510, "votes": null, "tagline": null, "has_video": false, "website": null, "offers": null, "latitude": 33.833318, "politanName": "Atlanta, GA Metro ", "phone_number": "7709418700", "tags": [{"primary": true, "id": 1722, "name": "Restaurants"}], "fax_number": null, "expansion": {"count": null, "uri": null}, "impression_id": "000b000000382def83d22a4b6384ff802af6afe355", "profile": "http://www.citysearch.com/profile/802512510/mableton_ga/a_t_l_best_wings.html", "address": {"city": "Mableton", "state": "GA", "street": "5005 Floyd Rd Sw", "postal_code": "30126"}, "capProviderId": null, "distance": null, "has_offers": false, "name": "A T L Best Wings", "longitude": -84.575479, "has_menu": false, "awards": null, "user_review_count": 0}, {"business_operation_status": 1, "rating": null, "neighborhood": "Southwest, Southwest", "image": null, "scorecard": null, "featured": false, "sample_categories": "Restaurants, Delis And Delicatessens, Sandwich Shops, Carry Out, American Express", "public_id": "quiznos-atlanta-11", "id": 43880704, "votes": null, "tagline": null, "has_video": false, "website": "http://www.citysearch.com/profile/external/43880704/atlanta_ga/quiznos_sub.html", "offers": null, "latitude": 33.726029, "politanName": "Atlanta, GA Metro ", "phone_number": "4046967166", "tags": [{"primary": false, "id": 1727, "name": "Delis And Delicatessens"}, {"primary": false, "id": 1736, "name": "Sandwich Shops"}, {"primary": false, "id": 11247, "name": "Carry Out"}, {"primary": false, "id": 11333, "name": "American Express"}, {"primary": false, "id": 11349, "name": "Discover"}, {"primary": false, "id": 11361, "name": "MasterCard"}, {"primary": false, "id": 11375, "name": "Shop Online"}, {"primary": false, "id": 11382, "name": "Visa"}, {"primary": true, "id": 1722, "name": "Restaurants"}], "fax_number": null, "expansion": {"count": null, "uri": null}, "impression_id": "000b000000bc5dc6e236ae4faa98555d86f0d385c1", "profile": "http://www.citysearch.com/profile/43880704/atlanta_ga/quiznos_sub.html", "address": {"city": "Atlanta", "state": "GA", "street": "1075 Fairburn Rd SW Ste 104", "postal_code": "30331"}, "capProviderId": null, "distance": null, "has_offers": false, "name": "Quiznos Sub", "longitude": -84.51095, "has_menu": true, "awards": null, "user_review_count": 0}, {"business_operation_status": 1, "rating": null, "neighborhood": null, "image": null, "scorecard": null, "featured": false, "sample_categories": "Restaurants", "public_id": "crescent-city-kitchen-atlanta", "id": 824114020, "votes": null, "tagline": null, "has_video": false, "website": null, "offers": null, "latitude": 33.764634, "politanName": "Atlanta, GA Metro ", "phone_number": "4045055599", "tags": [{"primary": true, "id": 1722, "name": "Restaurants"}], "fax_number": null, "expansion": {"count": null, "uri": null}, "impression_id": "000b0000004e0d99199bc643139c13534ce733798d", "profile": "http://www.citysearch.com/profile/824114020/atlanta_ga/crescent_city_kitchen.html", "address": {"city": "Atlanta", "state": "GA", "street": "304 Fulton Industrial Cir SW", "postal_code": "30336"}, "capProviderId": null, "distance": null, "has_offers": false, "name": "Crescent City Kitchen", "longitude": -84.531812, "has_menu": false, "awards": null, "user_review_count": 0}, {"business_operation_status": 1, "rating": null, "neighborhood": null, "image": null, "scorecard": null, "featured": false, "sample_categories": "Restaurants, Diners, Traditional American, Carry Out, MasterCard", "public_id": "waffle-house-atlanta-19", "id": 601366213, "votes": null, "tagline": null, "has_video": false, "website": "http://www.citysearch.com/profile/external/601366213/atlanta_ga/waffle_house.html", "offers": null, "latitude": 33.764472, "politanName": "Atlanta, GA Metro ", "phone_number": "4044723559", "tags": [{"primary": false, "id": 1732, "name": "Diners"}, {"primary": false, "id": 11190, "name": "Traditional American"}, {"primary": false, "id": 11247, "name": "Carry Out"}, {"primary": false, "id": 11361, "name": "MasterCard"}, {"primary": false, "id": 11382, "name": "Visa"}, {"primary": true, "id": 1722, "name": "Restaurants"}], "fax_number": null, "expansion": {"count": null, "uri": null}, "impression_id": "000b000000811da65e38164c8e854795e27129012a", "profile": "http://www.citysearch.com/profile/601366213/atlanta_ga/waffle_house.html", "address": {"city": "Atlanta", "state": "GA", "street": "4346 Fulton Industrial Blvd Sw", "postal_code": "30336"}, "capProviderId": null, "distance": null, "has_offers": false, "name": "Waffle House", "longitude": -84.53149, "has_menu": true, "awards": null, "user_review_count": 0}, {"business_operation_status": 1, "rating": null, "neighborhood": null, "image": null, "scorecard": null, "featured": false, "sample_categories": "Restaurants, Catering", "public_id": "montgomery-foods-llc-atlanta", "id": 732132740, "votes": null, "tagline": null, "has_video": false, "website": "http://www.citysearch.com/profile/external/732132740/atlanta_ga/montgomery_foods_llc.html", "offers": null, "latitude": 33.682865, "politanName": "Atlanta, GA Metro ", "phone_number": "4049923000", "tags": [{"primary": false, "id": 1705, "name": "Catering"}, {"primary": true, "id": 1722, "name": "Restaurants"}], "fax_number": null, "expansion": {"count": null, "uri": null}, "impression_id": "000b000000e0034bda4d05473ba872dfe1050f70ca", "profile": "http://www.citysearch.com/profile/732132740/atlanta_ga/montgomery_foods_llc.html", "address": {"city": "Atlanta", "state": "GA", "street": "6470 Stonelake Pl SW", "postal_code": "30331"}, "capProviderId": null, "distance": null, "has_offers": false, "name": "Montgomery Foods LLC", "longitude": -84.598693, "has_menu": false, "awards": null, "user_review_count": 0}, {"business_operation_status": 1, "rating": null, "neighborhood": null, "image": null, "scorecard": null, "featured": false, "sample_categories": "Bakeries, Restaurants", "public_id": "colonial-baking-co-atlanta", "id": 3025999, "votes": null, "tagline": null, "has_video": false, "website": null, "offers": null, "latitude": 33.747273, "politanName": "Atlanta, GA Metro ", "phone_number": "4046914094", "tags": [{"primary": false, "id": 1722, "name": "Restaurants"}, {"primary": true, "id": 1685, "name": "Bakeries"}], "fax_number": null, "expansion": {"count": null, "uri": null}, "impression_id": "000b000000e634e4f3e18446d59da1ec7b8452e0c5", "profile": "http://www.citysearch.com/profile/3025999/atlanta_ga/colonial_baking_co.html", "address": {"city": "Atlanta", "state": "GA", "street": "5060 Fulton Industrial Blvd SW", "postal_code": "30336"}, "capProviderId": null, "distance": null, "has_offers": false, "name": "Colonial Baking Co", "longitude": -84.553191, "has_menu": false, "awards": null, "user_review_count": 1}, {"business_operation_status": 1, "rating": null, "neighborhood": null, "image": null, "scorecard": null, "featured": false, "sample_categories": "Restaurants", "public_id": "southern-star-atlanta", "id": 764863250, "votes": null, "tagline": null, "has_video": false, "website": null, "offers": null, "latitude": 33.757439, "politanName": "Atlanta, GA Metro ", "phone_number": "4046913012", "tags": [{"primary": true, "id": 1722, "name": "Restaurants"}], "fax_number": null, "expansion": {"count": null, "uri": null}, "impression_id": "000b000000d293f486e5d64d01b2e32eb995a13abb", "profile": "http://www.citysearch.com/profile/764863250/atlanta_ga/southern_star.html", "address": {"city": "Atlanta", "state": "GA", "street": "152 Selig Dr SW", "postal_code": "30336"}, "capProviderId": null, "distance": null, "has_offers": false, "name": "Southern Star", "longitude": -84.54014, "has_menu": false, "awards": null, "user_review_count": 0}, {"business_operation_status": 1, "rating": null, "neighborhood": null, "image": null, "scorecard": null, "featured": false, "sample_categories": "Restaurants", "public_id": "s-s-soul-food-atlanta", "id": 45566132, "votes": null, "tagline": null, "has_video": false, "website": null, "offers": null, "latitude": 33.768286, "politanName": "Atlanta, GA Metro ", "phone_number": "4046912226", "tags": [{"primary": true, "id": 1722, "name": "Restaurants"}], "fax_number": null, "expansion": {"count": null, "uri": null}, "impression_id": "000b0000004d8b3e07db2c48cdb77e76f14a724fd3", "profile": "http://www.citysearch.com/profile/45566132/atlanta_ga/s_s_soul_food.html", "address": {"city": "Atlanta", "state": "GA", "street": "4120 Fulton Industrial Blvd SW", "postal_code": "30336"}, "capProviderId": null, "distance": null, "has_offers": false, "name": "S & S Soul Food", "longitude": -84.521534, "has_menu": false, "awards": null, "user_review_count": 0}, {"business_operation_status": 1, "rating": 5.0, "neighborhood": null, "image": null, "scorecard": null, "featured": false, "sample_categories": "Restaurants, Chinese, Food Delivery", "public_id": "great-wall-atlanta", "id": 45566131, "votes": null, "tagline": null, "has_video": false, "website": null, "offers": null, "latitude": 33.732325, "politanName": "Atlanta, GA Metro ", "phone_number": "4043447550", "tags": [{"primary": false, "id": 11252, "name": "Chinese"}, {"primary": false, "id": 11267, "name": "Food Delivery"}, {"primary": true, "id": 1722, "name": "Restaurants"}], "fax_number": null, "expansion": {"count": null, "uri": null}, "impression_id": "000b00000093be55a79fa04d34936beee42474fb49", "profile": "http://www.citysearch.com/profile/45566131/atlanta_ga/great_wall.html", "address": {"city": "Atlanta", "state": "GA", "street": "6035 Bakers Ferry Rd SW Ste 220", "postal_code": "30336"}, "capProviderId": null, "distance": null, "has_offers": false, "name": "Great Wall", "longitude": -84.574915, "has_menu": true, "awards": null, "user_review_count": 2}, {"business_operation_status": 1, "rating": null, "neighborhood": null, "image": null, "scorecard": null, "featured": false, "sample_categories": "Bakeries, Restaurants", "public_id": "back-2-basics-bakery-lithia-spgs", "id": 43861078, "votes": null, "tagline": null, "has_video": false, "website": null, "offers": null, "latitude": 33.781495, "politanName": "Atlanta, GA Metro ", "phone_number": "7709417851", "tags": [{"primary": false, "id": 1722, "name": "Restaurants"}, {"primary": true, "id": 1685, "name": "Bakeries"}], "fax_number": null, "expansion": {"count": null, "uri": null}, "impression_id": "000b000000867340d2ef8c4561a68c8ffee181ff3e", "profile": "http://www.citysearch.com/profile/43861078/lithia_springs_ga/back_2_basics_bakery.html", "address": {"city": "Lithia Springs", "state": "GA", "street": "2970 Skyview Dr Lot 94", "postal_code": "30122"}, "capProviderId": null, "distance": null, "has_offers": false, "name": "Back 2 Basics Bakery", "longitude": -84.643902, "has_menu": false, "awards": null, "user_review_count": 0}, {"business_operation_status": 1, "rating": null, "neighborhood": null, "image": null, "scorecard": null, "featured": false, "sample_categories": "Restaurants", "public_id": "jalapeno-joes-lithia", "id": 814946090, "votes": null, "tagline": null, "has_video": false, "website": null, "offers": null, "latitude": 33.784776, "politanName": "Atlanta, GA Metro ", "phone_number": "7707391906", "tags": [{"primary": true, "id": 1722, "name": "Restaurants"}], "fax_number": null, "expansion": {"count": null, "uri": null}, "impression_id": "000b00000082eb6da38d504a6687dbfdf684187fb1", "profile": "http://www.citysearch.com/profile/814946090/lithia_springs_ga/jalapeno_joe_s.html", "address": {"city": "Lithia Springs", "state": "GA", "street": "853 Thornton Rd", "postal_code": "30122"}, "capProviderId": null, "distance": null, "has_offers": false, "name": "Jalapeno Joe's", "longitude": -84.612385, "has_menu": false, "awards": null, "user_review_count": 1}, {"business_operation_status": 1, "rating": null, "neighborhood": null, "image": null, "scorecard": null, "featured": false, "sample_categories": "Restaurants", "public_id": "scotts-eats-sweets-mableton", "id": 608948894, "votes": null, "tagline": null, "has_video": false, "website": null, "offers": null, "latitude": 33.817787, "politanName": "Atlanta, GA Metro ", "phone_number": "4045145322", "tags": [{"primary": true, "id": 1722, "name": "Restaurants"}], "fax_number": null, "expansion": {"count": null, "uri": null}, "impression_id": "000b000000a1a9c5ceba3d40d19f97e346a0f231c6", "profile": "http://www.citysearch.com/profile/608948894/mableton_ga/scott_s_eats_sweets.html", "address": {"city": "Mableton", "state": "GA", "street": "1150 Veterans Memorial Hwy SW", "postal_code": "30126"}, "capProviderId": null, "distance": null, "has_offers": false, "name": "Scott's Eats & Sweets", "longitude": -84.587972, "has_menu": false, "awards": null, "user_review_count": 0}, {"business_operation_status": 1, "rating": null, "neighborhood": null, "image": null, "scorecard": null, "featured": false, "sample_categories": "Restaurants", "public_id": "culture-lab-marietta", "id": 764843290, "votes": null, "tagline": null, "has_video": false, "website": null, "offers": null, "latitude": 33.883313, "politanName": "Atlanta, GA Metro ", "phone_number": "7705750926", "tags": [{"primary": true, "id": 1722, "name": "Restaurants"}], "fax_number": null, "expansion": {"count": null, "uri": null}, "impression_id": "000b000000028b0213718945a0b4e98f40ffd535c9", "profile": "http://www.citysearch.com/profile/764843290/marietta_ga/culture_lab.html", "address": {"city": "Marietta", "state": "GA", "street": "2200 Powder Springs Rd SW", "postal_code": "30064"}, "capProviderId": null, "distance": null, "has_offers": false, "name": "Culture Lab", "longitude": -84.620092, "has_menu": false, "awards": null, "user_review_count": 0}, {"business_operation_status": 1, "rating": null, "neighborhood": null, "image": null, "scorecard": null, "featured": false, "sample_categories": "Restaurants, Carry Out, Pizza", "public_id": "papa-johns-pizza-marietta-17", "id": 764880820, "votes": null, "tagline": null, "has_video": false, "website": null, "offers": null, "latitude": 33.865697, "politanName": "Atlanta, GA Metro ", "phone_number": "4043330301", "tags": [{"primary": false, "id": 11247, "name": "Carry Out"}, {"primary": false, "id": 11299, "name": "Pizza"}, {"primary": true, "id": 1722, "name": "Restaurants"}], "fax_number": null, "expansion": {"count": null, "uri": null}, "impression_id": "000b00000046f17d5b94cb4155aa9e8264867351d3", "profile": "http://www.citysearch.com/profile/764880820/marietta_ga/papa_john_s_pizza.html", "address": {"city": "Marietta", "state": "GA", "street": "3565 Austell Rd SW # 1019", "postal_code": "30008"}, "capProviderId": null, "distance": null, "has_offers": false, "name": "Papa John's Pizza", "longitude": -84.592502, "has_menu": false, "awards": null, "user_review_count": 0}, {"business_operation_status": 1, "rating": null, "neighborhood": null, "image": null, "scorecard": null, "featured": false, "sample_categories": "Restaurants", "public_id": "rancho-el-molcajete-mableton", "id": 728113990, "votes": null, "tagline": null, "has_video": false, "website": null, "offers": null, "latitude": 33.816965, "politanName": "Atlanta, GA Metro ", "phone_number": "7708966031", "tags": [{"primary": true, "id": 1722, "name": "Restaurants"}], "fax_number": null, "expansion": {"count": null, "uri": null}, "impression_id": "000b000000a0814a496fca400a919a33e4a3d23462", "profile": "http://www.citysearch.com/profile/728113990/mableton_ga/rancho_el_molcajete.html", "address": {"city": "Mableton", "state": "GA", "street": "499 Veterans Memorial Hwy Sw", "postal_code": "30126"}, "capProviderId": null, "distance": null, "has_offers": false, "name": "Rancho El Molcajete", "longitude": -84.568558, "has_menu": false, "awards": null, "user_review_count": 0}, {"business_operation_status": 1, "rating": null, "neighborhood": null, "image": null, "scorecard": null, "featured": false, "sample_categories": "Restaurants", "public_id": "tropical-eats-mableton", "id": 787139770, "votes": null, "tagline": null, "has_video": false, "website": null, "offers": null, "latitude": 33.815312, "politanName": "Atlanta, GA Metro ", "phone_number": "7709480044", "tags": [{"primary": true, "id": 1722, "name": "Restaurants"}], "fax_number": null, "expansion": {"count": null, "uri": null}, "impression_id": "000b000000058b4eb062504134ad20738ea6b4c2c7", "profile": "http://www.citysearch.com/profile/787139770/mableton_ga/tropical_eats.html", "address": {"city": "Mableton", "state": "GA", "street": "302 Veterans Memorial Hwy Sw", "postal_code": "30126"}, "capProviderId": null, "distance": null, "has_offers": false, "name": "Tropical Eats", "longitude": -84.561339, "has_menu": false, "awards": null, "user_review_count": 0}, {"business_operation_status": 1, "rating": null, "neighborhood": null, "image": null, "scorecard": null, "featured": false, "sample_categories": "Restaurants, Mexican", "public_id": "la-fiesta-mexican-restaurant-fairburn-2", "id": 682408610, "votes": null, "tagline": null, "has_video": false, "website": "http://www.citysearch.com/profile/external/682408610/fairburn_ga/la_fiesta_mexican_restaurant.html", "offers": null, "latitude": 33.645076, "politanName": "Atlanta, GA Metro ", "phone_number": "7707743303", "tags": [{"primary": false, "id": 11208, "name": "Mexican"}, {"primary": true, "id": 1722, "name": "Restaurants"}], "fax_number": null, "expansion": {"count": null, "uri": null}, "impression_id": "000b000000831172530e5c4ff89ef9ec3571665a22", "profile": "http://www.citysearch.com/profile/682408610/fairburn_ga/la_fiesta_mexican_restaurant.html", "address": {"city": "Fairburn", "state": "GA", "street": "5370 Highway 92", "postal_code": "30213"}, "capProviderId": null, "distance": null, "has_offers": false, "name": "La Fiesta Mexican Restaurant", "longitude": -84.650695, "has_menu": true, "awards": null, "user_review_count": 1}, {"business_operation_status": 0, "rating": null, "neighborhood": null, "image": null, "scorecard": null, "featured": false, "sample_categories": "Restaurants, Pizza", "public_id": "brooklyn-pizza-department-austell", "id": 764860920, "votes": null, "tagline": null, "has_video": false, "website": null, "offers": null, "latitude": 33.860912, "politanName": "Atlanta, GA Metro ", "phone_number": "6783840980", "tags": [{"primary": false, "id": 11299, "name": "Pizza"}, {"primary": true, "id": 1722, "name": "Restaurants"}], "fax_number": null, "expansion": {"count": null, "uri": null}, "impression_id": "000b00000069ee386a4aaa4752abec2170390c62b1", "profile": "http://www.citysearch.com/profile/764860920/austell_ga/brooklyn_pizza_department.html", "address": {"city": "Austell", "state": "GA", "street": "2495 E West Connector", "postal_code": "30106"}, "capProviderId": null, "distance": null, "has_offers": false, "name": "Brooklyn Pizza Department", "longitude": -84.620637, "has_menu": false, "awards": null, "user_review_count": 2}, {"business_operation_status": 1, "rating": null, "neighborhood": "Southwest, Southwest", "image": null, "scorecard": null, "featured": false, "sample_categories": "Restaurants", "public_id": "captain-hook-atlanta", "id": 764921940, "votes": null, "tagline": null, "has_video": false, "website": null, "offers": null, "latitude": 33.690295, "politanName": "Atlanta, GA Metro ", "phone_number": "4049417867", "tags": [{"primary": true, "id": 1722, "name": "Restaurants"}], "fax_number": null, "expansion": {"count": null, "uri": null}, "impression_id": "000b0000004e4ce8a4018d42079f6c97c19603fc38", "profile": "http://www.citysearch.com/profile/764921940/atlanta_ga/captain_hook.html", "address": {"city": "Atlanta", "state": "GA", "street": "3470 Campbellton Rd SW", "postal_code": "30331"}, "capProviderId": null, "distance": null, "has_offers": false, "name": "Captain Hook", "longitude": -84.505049, "has_menu": false, "awards": null, "user_review_count": 0}], "histograms": [], "tag_ids": [1722], "uri": "http://api.citygridmedia.com:8080/search/places/v2/search/where?has_offers=false&type=restaurant&format=json&page=7&where=30168&rpp=50&histograms=false&publisher=10000009598&region_type=circle", "did_you_mean": "", "regions": [{"latitude": 33.78436, "default_radius": 3.57, "type": "postal_code", "name": "30168", "longitude": -84.586443}], "call_id": "000b000000e8d3bd45eedc4293865f6f1fac9891fe", "first_hit": 301, "total_hits": 592, "geo_ids": [26319], "page": 7, "last_hit": 350}}