{"results": {"rpp": 50, "locations": [{"business_operation_status": 1, "rating": null, "neighborhood": null, "image": null, "scorecard": null, "featured": false, "sample_categories": "Restaurants", "public_id": "sage-dining-svc-inc-mableton", "id": 632929260, "votes": null, "tagline": null, "has_video": false, "website": null, "offers": null, "latitude": 33.822283, "politanName": "Atlanta, GA Metro ", "phone_number": "6783051413", "tags": [{"primary": true, "id": 1722, "name": "Restaurants"}], "fax_number": null, "expansion": {"count": null, "uri": null}, "impression_id": "000b0000005371fbd17f0a4c3dade2328ed67fb0e6", "profile": "http://www.citysearch.com/profile/632929260/mableton_ga/sage_dining_svc_inc.html", "address": {"city": "Mableton", "state": "GA", "street": "1 Whitefield Dr Se", "postal_code": "30126"}, "capProviderId": null, "distance": null, "has_offers": false, "name": "Sage Dining Svc Inc", "longitude": -84.509583, "has_menu": false, "awards": null, "user_review_count": 0}, {"business_operation_status": 1, "rating": null, "neighborhood": null, "image": null, "scorecard": null, "featured": false, "sample_categories": "Bars & Pubs, Bars & Clubs, Restaurants", "public_id": "perilli-chicago-grill-atlanta", "id": 762770480, "votes": null, "tagline": null, "has_video": false, "website": null, "offers": null, "latitude": 33.764663, "politanName": "Atlanta, GA Metro ", "phone_number": "4046917300", "tags": [{"primary": false, "id": 164, "name": "Bars & Clubs"}, {"primary": false, "id": 1722, "name": "Restaurants"}, {"primary": true, "id": 1686, "name": "Bars & Pubs"}], "fax_number": null, "expansion": {"count": null, "uri": null}, "impression_id": "000b0000001d7fe299f74e48b3b1740fac12706d69", "profile": "http://www.citysearch.com/profile/762770480/atlanta_ga/perilli_chicago_grill.html", "address": {"city": "Atlanta", "state": "GA", "street": "304 Fulton Industrial Cir SW", "postal_code": "30336"}, "capProviderId": null, "distance": null, "has_offers": false, "name": "Perilli Chicago Grill", "longitude": -84.531844, "has_menu": false, "awards": null, "user_review_count": 0}, {"business_operation_status": 1, "rating": null, "neighborhood": null, "image": null, "scorecard": null, "featured": false, "sample_categories": "Restaurants", "public_id": "east-meets-west-austell", "id": 764918680, "votes": null, "tagline": null, "has_video": false, "website": null, "offers": null, "latitude": 33.831253, "politanName": "Atlanta, GA Metro ", "phone_number": "7709481451", "tags": [{"primary": true, "id": 1722, "name": "Restaurants"}], "fax_number": null, "expansion": {"count": null, "uri": null}, "impression_id": "000b000000ab028056845842aa9778e7c634af4fb7", "profile": "http://www.citysearch.com/profile/764918680/austell_ga/east_meets_west.html", "address": {"city": "Austell", "state": "GA", "street": "5010 Flint Hill Rd", "postal_code": "30106"}, "capProviderId": null, "distance": null, "has_offers": false, "name": "East Meets West", "longitude": -84.624253, "has_menu": false, "awards": null, "user_review_count": 0}, {"business_operation_status": 1, "rating": null, "neighborhood": null, "image": null, "scorecard": null, "featured": false, "sample_categories": "Delis And Delicatessens", "public_id": "american-deli-austell", "id": 764886810, "votes": null, "tagline": null, "has_video": false, "website": null, "offers": null, "latitude": 33.856949, "politanName": "Atlanta, GA Metro ", "phone_number": "7708018888", "tags": [{"primary": true, "id": 1727, "name": "Delis And Delicatessens"}], "fax_number": null, "expansion": {"count": null, "uri": null}, "impression_id": "000b0000005bf91db2b43c4418bd6970f378ee6d3b", "profile": "http://www.citysearch.com/profile/764886810/austell_ga/american_deli.html", "address": {"city": "Austell", "state": "GA", "street": "3961 Floyd Rd", "postal_code": "30106"}, "capProviderId": null, "distance": null, "has_offers": false, "name": "American Deli", "longitude": -84.590442, "has_menu": false, "awards": null, "user_review_count": 0}, {"business_operation_status": 1, "rating": null, "neighborhood": null, "image": null, "scorecard": null, "featured": false, "sample_categories": "Restaurants, Delis And Delicatessens, Sandwich Shops, Carry Out", "public_id": "blimpie-subs-salads-atlanta-40", "id": 764834790, "votes": null, "tagline": null, "has_video": false, "website": null, "offers": null, "latitude": 33.763242, "politanName": "Atlanta, GA Metro ", "phone_number": "4046913663", "tags": [{"primary": false, "id": 1727, "name": "Delis And Delicatessens"}, {"primary": false, "id": 1736, "name": "Sandwich Shops"}, {"primary": false, "id": 11247, "name": "Carry Out"}, {"primary": true, "id": 1722, "name": "Restaurants"}], "fax_number": null, "expansion": {"count": null, "uri": null}, "impression_id": "000b00000099e6ad44233242f38ec9ba8a9b5f5e94", "profile": "http://www.citysearch.com/profile/764834790/atlanta_ga/blimpie_subs_salads.html", "address": {"city": "Atlanta", "state": "GA", "street": "4485 Fulton Industrial Blvd SW", "postal_code": "30336"}, "capProviderId": null, "distance": null, "has_offers": false, "name": "Blimpie Subs & Salads", "longitude": -84.534297, "has_menu": false, "awards": null, "user_review_count": 0}, {"business_operation_status": 1, "rating": null, "neighborhood": "Southwest, Southwest", "image": null, "scorecard": null, "featured": false, "sample_categories": "Restaurants", "public_id": "gladys-knights-signature-atlanta", "id": 790855190, "votes": null, "tagline": null, "has_video": false, "website": null, "offers": null, "latitude": 33.723787, "politanName": "Atlanta, GA Metro ", "phone_number": "4045375670", "tags": [{"primary": true, "id": 1722, "name": "Restaurants"}], "fax_number": null, "expansion": {"count": null, "uri": null}, "impression_id": "000b00000034d572d9c7914b6482c6e4e1f4785326", "profile": "http://www.citysearch.com/profile/790855190/atlanta_ga/gladys_knight_s_signature.html", "address": {"city": "Atlanta", "state": "GA", "street": "3752 Cascade Rd Sw", "postal_code": "30331"}, "capProviderId": null, "distance": null, "has_offers": false, "name": "Gladys Knight's Signature", "longitude": -84.510677, "has_menu": false, "awards": null, "user_review_count": 0}, {"business_operation_status": 1, "rating": null, "neighborhood": null, "image": null, "scorecard": null, "featured": false, "sample_categories": "Restaurants, Hot Dogs", "public_id": "otasty-family-restaurant-mableton", "id": 790765820, "votes": null, "tagline": null, "has_video": false, "website": null, "offers": null, "latitude": 33.780755, "politanName": "Atlanta, GA Metro ", "phone_number": "7707395720", "tags": [{"primary": false, "id": 11274, "name": "Hot Dogs"}, {"primary": true, "id": 1722, "name": "Restaurants"}], "fax_number": null, "expansion": {"count": null, "uri": null}, "impression_id": "000b000000516c580bbf544330b673188bda51b278", "profile": "http://www.citysearch.com/profile/790765820/mableton_ga/o_tasty_family_restaurant.html", "address": {"city": "Mableton", "state": "GA", "street": "559 Six Flags Pkwy", "postal_code": "30126"}, "capProviderId": null, "distance": null, "has_offers": false, "name": "O'tasty Family Restaurant", "longitude": -84.539942, "has_menu": false, "awards": null, "user_review_count": 0}, {"business_operation_status": 1, "rating": null, "neighborhood": null, "image": null, "scorecard": null, "featured": false, "sample_categories": "Restaurants, Barbecue Restaurants", "public_id": "a-town-wings-austell", "id": 706970640, "votes": null, "tagline": null, "has_video": false, "website": null, "offers": null, "latitude": 33.856339, "politanName": "Atlanta, GA Metro ", "phone_number": "7709419460", "tags": [{"primary": false, "id": 1724, "name": "Barbecue Restaurants"}, {"primary": true, "id": 1722, "name": "Restaurants"}], "fax_number": null, "expansion": {"count": null, "uri": null}, "impression_id": "000b0000001e8056f197454d3f83f4aa364770b175", "profile": "http://www.citysearch.com/profile/706970640/austell_ga/a_town_wings.html", "address": {"city": "Austell", "state": "GA", "street": "3999 Austell Rd # 1001", "postal_code": "30106"}, "capProviderId": null, "distance": null, "has_offers": false, "name": "A Town Wings", "longitude": -84.599753, "has_menu": false, "awards": null, "user_review_count": 0}, {"business_operation_status": 1, "rating": null, "neighborhood": null, "image": null, "scorecard": null, "featured": false, "sample_categories": "Restaurants", "public_id": "star-cafe-atlanta-2", "id": 766758660, "votes": null, "tagline": null, "has_video": false, "website": null, "offers": null, "latitude": 33.661348, "politanName": "Atlanta, GA Metro ", "phone_number": "4042284708", "tags": [{"primary": true, "id": 1722, "name": "Restaurants"}], "fax_number": null, "expansion": {"count": null, "uri": null}, "impression_id": "000b000000283c810326044c8586758a989dc4f790", "profile": "http://www.citysearch.com/profile/766758660/atlanta_ga/star_cafe.html", "address": {"city": "Atlanta", "state": "GA", "street": "840 R Abrnty Blvd SW", "postal_code": "30310"}, "capProviderId": null, "distance": null, "has_offers": false, "name": "Star Cafe", "longitude": -84.564318, "has_menu": false, "awards": null, "user_review_count": 0}, {"business_operation_status": 1, "rating": null, "neighborhood": null, "image": null, "scorecard": null, "featured": false, "sample_categories": "Restaurants", "public_id": "mablton-cafe-mableton", "id": 682238240, "votes": null, "tagline": null, "has_video": false, "website": null, "offers": null, "latitude": 33.817964, "politanName": "Atlanta, GA Metro ", "phone_number": "7709412233", "tags": [{"primary": true, "id": 1722, "name": "Restaurants"}], "fax_number": null, "expansion": {"count": null, "uri": null}, "impression_id": "000b000000f430198cd5434e15a4e113f67221fbfb", "profile": "http://www.citysearch.com/profile/682238240/mableton_ga/mablton_cafe.html", "address": {"city": "Mableton", "state": "GA", "street": "5590 Mableton Pkwy Sw # 102", "postal_code": "30126"}, "capProviderId": null, "distance": null, "has_offers": false, "name": "Mablton Cafe", "longitude": -84.576041, "has_menu": false, "awards": null, "user_review_count": 0}, {"business_operation_status": 1, "rating": 8.0, "neighborhood": null, "image": null, "scorecard": null, "featured": false, "sample_categories": "Restaurants", "public_id": "courtnis-iron-skillet-lithia-spgs", "id": 2948167, "votes": null, "tagline": null, "has_video": false, "website": null, "offers": null, "latitude": 33.774233, "politanName": "Atlanta, GA Metro ", "phone_number": "7708190008", "tags": [{"primary": true, "id": 1722, "name": "Restaurants"}], "fax_number": null, "expansion": {"count": null, "uri": null}, "impression_id": "000b00000017cf8a126a22439190bd1590a82f8788", "profile": "http://www.citysearch.com/profile/2948167/lithia_springs_ga/courtnis_iron_skillet.html", "address": {"city": "Lithia Springs", "state": "GA", "street": "7413 Lee Rd", "postal_code": "30122"}, "capProviderId": null, "distance": null, "has_offers": false, "name": "Courtnis Iron Skillet", "longitude": -84.654048, "has_menu": false, "awards": null, "user_review_count": 0}, {"business_operation_status": 1, "rating": null, "neighborhood": "Southwest, Southwest", "image": null, "scorecard": null, "featured": false, "sample_categories": "Restaurants, Delis And Delicatessens", "public_id": "joey-wings-deli-atlanta", "id": 764837740, "votes": null, "tagline": null, "has_video": false, "website": null, "offers": null, "latitude": 33.696354, "politanName": "Atlanta, GA Metro ", "phone_number": "4042545311", "tags": [{"primary": false, "id": 1727, "name": "Delis And Delicatessens"}, {"primary": true, "id": 1722, "name": "Restaurants"}], "fax_number": null, "expansion": {"count": null, "uri": null}, "impression_id": "000b0000009fee6f5507324557bb91a93bc0a6dba0", "profile": "http://www.citysearch.com/profile/764837740/atlanta_ga/joey_wings_deli.html", "address": {"city": "Atlanta", "state": "GA", "street": "4485 Campbellton Rd SW", "postal_code": "30331"}, "capProviderId": null, "distance": null, "has_offers": false, "name": "Joey Wings & Deli", "longitude": -84.534969, "has_menu": false, "awards": null, "user_review_count": 0}, {"business_operation_status": 1, "rating": null, "neighborhood": null, "image": null, "scorecard": null, "featured": false, "sample_categories": "Ice Cream Parlors, Restaurants", "public_id": "milk-shake-douglasville", "id": 764870590, "votes": null, "tagline": null, "has_video": false, "website": null, "offers": null, "latitude": 33.771079, "politanName": "Atlanta, GA Metro ", "phone_number": "6787154327", "tags": [{"primary": false, "id": 1722, "name": "Restaurants"}, {"primary": true, "id": 1730, "name": "Ice Cream Parlors"}], "fax_number": null, "expansion": {"count": null, "uri": null}, "impression_id": "000b000000cf26416bbcd04d63ac69d0c4dc1bdb23", "profile": "http://www.citysearch.com/profile/764870590/douglasville_ga/milk_shake.html", "address": {"city": "Douglasville", "state": "GA", "street": "3849 Glenlake Dr", "postal_code": "30134"}, "capProviderId": null, "distance": null, "has_offers": false, "name": "Milk Shake", "longitude": -84.697252, "has_menu": false, "awards": null, "user_review_count": 0}, {"business_operation_status": 1, "rating": null, "neighborhood": null, "image": null, "scorecard": null, "featured": false, "sample_categories": "Restaurants, Delis And Delicatessens", "public_id": "jazzies-cafe-deli-atlanta", "id": 766789470, "votes": null, "tagline": null, "has_video": false, "website": null, "offers": null, "latitude": 33.666042, "politanName": "Atlanta, GA Metro ", "phone_number": "4045650615", "tags": [{"primary": false, "id": 1727, "name": "Delis And Delicatessens"}, {"primary": true, "id": 1722, "name": "Restaurants"}], "fax_number": null, "expansion": {"count": null, "uri": null}, "impression_id": "000b00000085fed6df116a4f248e1b6d44f8309c3d", "profile": "http://www.citysearch.com/profile/766789470/atlanta_ga/jazzie_s_cafe_deli.html", "address": {"city": "Atlanta", "state": "GA", "street": "3220 Butner Rd SW", "postal_code": "30331"}, "capProviderId": null, "distance": null, "has_offers": false, "name": "Jazzie's Cafe & Deli", "longitude": -84.550827, "has_menu": false, "awards": null, "user_review_count": 0}, {"business_operation_status": 1, "rating": null, "neighborhood": null, "image": null, "scorecard": null, "featured": false, "sample_categories": "Restaurants, Soul", "public_id": "trinas-soul-kitchen-mableton", "id": 762760900, "votes": null, "tagline": null, "has_video": false, "website": null, "offers": null, "latitude": 33.845849, "politanName": "Atlanta, GA Metro ", "phone_number": "7704853300", "tags": [{"primary": false, "id": 15140, "name": "Soul"}, {"primary": true, "id": 1722, "name": "Restaurants"}], "fax_number": null, "expansion": {"count": null, "uri": null}, "impression_id": "000b0000001b670ce42d2a4ec782e2ab7b0eacdf3b", "profile": "http://www.citysearch.com/profile/762760900/mableton_ga/trina_s_soul_kitchen.html", "address": {"city": "Mableton", "state": "GA", "street": "4426 Floyd Rd SW # 100", "postal_code": "30126"}, "capProviderId": null, "distance": null, "has_offers": false, "name": "Trina's Soul Kitchen", "longitude": -84.583979, "has_menu": false, "awards": null, "user_review_count": 0}, {"business_operation_status": 1, "rating": null, "neighborhood": null, "image": null, "scorecard": null, "featured": false, "sample_categories": "Restaurants", "public_id": "tri-dim-filter-corp-atlanta", "id": 762793030, "votes": null, "tagline": null, "has_video": false, "website": null, "offers": null, "latitude": 33.760365, "politanName": "Atlanta, GA Metro ", "phone_number": "4046991330", "tags": [{"primary": true, "id": 1722, "name": "Restaurants"}], "fax_number": null, "expansion": {"count": null, "uri": null}, "impression_id": "000b0000008550442221f248c3802c2f464e2f34ce", "profile": "http://www.citysearch.com/profile/762793030/atlanta_ga/tri_dim_filter_corp.html", "address": {"city": "Atlanta", "state": "GA", "street": "4420 Commerce Cir SW # B", "postal_code": "30336"}, "capProviderId": null, "distance": null, "has_offers": false, "name": "Tri Dim Filter Corp", "longitude": -84.530657, "has_menu": false, "awards": null, "user_review_count": 0}, {"business_operation_status": 1, "rating": null, "neighborhood": null, "image": null, "scorecard": null, "featured": false, "sample_categories": "Restaurants, Barbecue Restaurants", "public_id": "atlanta-wings-lithia", "id": 779667310, "votes": null, "tagline": null, "has_video": false, "website": null, "offers": null, "latitude": 33.789071, "politanName": "Atlanta, GA Metro ", "phone_number": "7707328954", "tags": [{"primary": false, "id": 1724, "name": "Barbecue Restaurants"}, {"primary": true, "id": 1722, "name": "Restaurants"}], "fax_number": null, "expansion": {"count": null, "uri": null}, "impression_id": "000b000000e04cdef89dbe4ce5973e950bd48d6b95", "profile": "http://www.citysearch.com/profile/779667310/lithia_springs_ga/atlanta_wings.html", "address": {"city": "Lithia Springs", "state": "GA", "street": "612 Thornton Rd", "postal_code": "30122"}, "capProviderId": null, "distance": null, "has_offers": false, "name": "Atlanta Wings", "longitude": -84.622313, "has_menu": false, "awards": null, "user_review_count": 0}, {"business_operation_status": 1, "rating": null, "neighborhood": null, "image": null, "scorecard": null, "featured": false, "sample_categories": "Restaurants", "public_id": "blue-agave-douglasville", "id": 655818810, "votes": null, "tagline": null, "has_video": false, "website": null, "offers": null, "latitude": 33.723323, "politanName": "Atlanta, GA Metro ", "phone_number": "7709422844", "tags": [{"primary": true, "id": 1722, "name": "Restaurants"}], "fax_number": null, "expansion": {"count": null, "uri": null}, "impression_id": "000b0000009c28c65d377145d9a86bec6d2dd0e360", "profile": "http://www.citysearch.com/profile/655818810/douglasville_ga/blue_agave.html", "address": {"city": "Douglasville", "state": "GA", "street": "3000 Chapel Hill Rd # 105", "postal_code": "30135"}, "capProviderId": null, "distance": null, "has_offers": false, "name": "Blue Agave", "longitude": -84.732263, "has_menu": false, "awards": null, "user_review_count": 0}, {"business_operation_status": 1, "rating": null, "neighborhood": "Southwest, Southwest", "image": null, "scorecard": null, "featured": false, "sample_categories": "Restaurants", "public_id": "lil-mamas-kitchen-atlanta", "id": 705666510, "votes": null, "tagline": null, "has_video": false, "website": null, "offers": null, "latitude": 33.752906, "politanName": "Atlanta, GA Metro ", "phone_number": "4047481535", "tags": [{"primary": true, "id": 1722, "name": "Restaurants"}], "fax_number": null, "expansion": {"count": null, "uri": null}, "impression_id": "000b000000a0311d8c79f84b588f42cafd8dd0308a", "profile": "http://www.citysearch.com/profile/705666510/atlanta_ga/lil_mama_s_kitchen.html", "address": {"city": "Atlanta", "state": "GA", "street": "3024 Martin L King Jr Dr Sw", "postal_code": "30311"}, "capProviderId": null, "distance": null, "has_offers": false, "name": "Lil Mama's Kitchen", "longitude": -84.485967, "has_menu": false, "awards": null, "user_review_count": 0}, {"business_operation_status": 1, "rating": null, "neighborhood": null, "image": null, "scorecard": null, "featured": false, "sample_categories": "Restaurants, Pizza", "public_id": "pronto-pizza-marietta", "id": 808339910, "votes": null, "tagline": null, "has_video": false, "website": null, "offers": null, "latitude": 33.865697, "politanName": "Atlanta, GA Metro ", "phone_number": "7704330803", "tags": [{"primary": false, "id": 1722, "name": "Restaurants"}, {"primary": true, "id": 11299, "name": "Pizza"}], "fax_number": null, "expansion": {"count": null, "uri": null}, "impression_id": "000b000000fca298e75901441e8f8cd0ccb1bdce2a", "profile": "http://www.citysearch.com/profile/808339910/marietta_ga/pronto_pizza.html", "address": {"city": "Marietta", "state": "GA", "street": "3565 Austell Rd SW # 1019", "postal_code": "30008"}, "capProviderId": null, "distance": null, "has_offers": false, "name": "Pronto Pizza", "longitude": -84.592502, "has_menu": true, "awards": null, "user_review_count": 0}, {"business_operation_status": 1, "rating": null, "neighborhood": null, "image": null, "scorecard": null, "featured": false, "sample_categories": "Restaurants, Pizza", "public_id": "oz-pizza-douglasville", "id": 728065590, "votes": null, "tagline": null, "has_video": false, "website": "http://www.citysearch.com/profile/external/728065590/douglasville_ga/oz_pizza.html", "offers": null, "latitude": 33.713388, "politanName": "Atlanta, GA Metro ", "phone_number": "6782752195", "tags": [{"primary": false, "id": 1722, "name": "Restaurants"}, {"primary": true, "id": 11299, "name": "Pizza"}], "fax_number": null, "expansion": {"count": null, "uri": null}, "impression_id": "000b000000c1823cdce8894a138bafe871bb46ac2c", "profile": "http://www.citysearch.com/profile/728065590/douglasville_ga/oz_pizza.html", "address": {"city": "Douglasville", "state": "GA", "street": "1851 Riverside Pkwy", "postal_code": "30135"}, "capProviderId": null, "distance": null, "has_offers": false, "name": "Oz Pizza", "longitude": -84.623031, "has_menu": false, "awards": null, "user_review_count": 0}, {"business_operation_status": 1, "rating": null, "neighborhood": null, "image": null, "scorecard": null, "featured": false, "sample_categories": "Restaurants", "public_id": "simply-chicken-austell", "id": 823240420, "votes": null, "tagline": null, "has_video": false, "website": null, "offers": null, "latitude": 33.850442, "politanName": "Atlanta, GA Metro ", "phone_number": "6789456144", "tags": [{"primary": true, "id": 1722, "name": "Restaurants"}], "fax_number": null, "expansion": {"count": null, "uri": null}, "impression_id": "000b000000666501b682ca4edc888f39c2f87f8eb1", "profile": "http://www.citysearch.com/profile/823240420/austell_ga/simply_chicken.html", "address": {"city": "Austell", "state": "GA", "street": "4228 Floyd Rd", "postal_code": "30106"}, "capProviderId": null, "distance": null, "has_offers": false, "name": "Simply Chicken", "longitude": -84.588525, "has_menu": false, "awards": null, "user_review_count": 0}, {"business_operation_status": 0, "rating": null, "neighborhood": null, "image": null, "scorecard": null, "featured": false, "sample_categories": "Restaurants, Seafood", "public_id": "love-seafood-restaurant-powder", "id": 622042860, "votes": null, "tagline": null, "has_video": false, "website": null, "offers": null, "latitude": 33.800362, "politanName": "Atlanta, GA Metro ", "phone_number": "7706930672", "tags": [{"primary": false, "id": 11228, "name": "Seafood"}, {"primary": true, "id": 1722, "name": "Restaurants"}], "fax_number": null, "expansion": {"count": null, "uri": null}, "impression_id": "000b0000009a8fa73584e24e82b1cbf0f04b5206cd", "profile": "http://www.citysearch.com/profile/622042860/powder_springs_ga/love_seafood_restaurant.html", "address": {"city": "Powder Springs", "state": "GA", "street": "105 Brownsville Rd", "postal_code": "30127"}, "capProviderId": null, "distance": null, "has_offers": false, "name": "Love Seafood Restaurant", "longitude": -84.755514, "has_menu": false, "awards": null, "user_review_count": 0}, {"business_operation_status": 1, "rating": null, "neighborhood": null, "image": null, "scorecard": null, "featured": false, "sample_categories": "Restaurants, Pizza", "public_id": "bellas-pizzeria-austell", "id": 44775455, "votes": null, "tagline": null, "has_video": false, "website": null, "offers": null, "latitude": 33.860912, "politanName": "Atlanta, GA Metro ", "phone_number": "7064399555", "tags": [{"primary": false, "id": 11299, "name": "Pizza"}, {"primary": true, "id": 1722, "name": "Restaurants"}], "fax_number": null, "expansion": {"count": null, "uri": null}, "impression_id": "000b000000a98f0e10f20e44669395b8143acc154e", "profile": "http://www.citysearch.com/profile/44775455/austell_ga/bellas_pizzeria.html", "address": {"city": "Austell", "state": "GA", "street": "2495 E West Connector", "postal_code": "30106"}, "capProviderId": null, "distance": null, "has_offers": false, "name": "Bellas Pizzeria", "longitude": -84.620637, "has_menu": true, "awards": null, "user_review_count": 0}, {"business_operation_status": 1, "rating": null, "neighborhood": null, "image": null, "scorecard": null, "featured": false, "sample_categories": "Carry Out", "public_id": "jamaican-amer-kitchen-take-austell", "id": 826577100, "votes": null, "tagline": null, "has_video": false, "website": null, "offers": null, "latitude": 33.790432, "politanName": "Atlanta, GA Metro ", "phone_number": "7708190034", "tags": [{"primary": true, "id": 11247, "name": "Carry Out"}], "fax_number": null, "expansion": {"count": null, "uri": null}, "impression_id": "000b00000069882ca9757747a5bcfa302d19ef8b50", "profile": "http://www.citysearch.com/profile/826577100/austell_ga/jamaican_amer_kitchen_take.html", "address": {"city": "Austell", "state": "GA", "street": "530 Thornton Rd # A", "postal_code": "30106"}, "capProviderId": null, "distance": null, "has_offers": false, "name": "Jamaican & Amer Kitchen Take", "longitude": -84.621192, "has_menu": false, "awards": null, "user_review_count": 0}, {"business_operation_status": 1, "rating": null, "neighborhood": null, "image": null, "scorecard": null, "featured": false, "sample_categories": "Restaurants", "public_id": "bjs-country-cooking-mableton", "id": 828752570, "votes": null, "tagline": null, "has_video": false, "website": null, "offers": null, "latitude": 33.81695, "politanName": "Atlanta, GA Metro ", "phone_number": "7708199232", "tags": [{"primary": true, "id": 1722, "name": "Restaurants"}], "fax_number": null, "expansion": {"count": null, "uri": null}, "impression_id": "000b000000b69b03b1286143eab64f7dbf8f56aa40", "profile": "http://www.citysearch.com/profile/828752570/mableton_ga/bjs_country_cooking.html", "address": {"city": "Mableton", "state": "GA", "street": "499 Veterans Memorial Hwy SW", "postal_code": "30126"}, "capProviderId": null, "distance": null, "has_offers": false, "name": "Bjs Country Cooking", "longitude": -84.568566, "has_menu": false, "awards": null, "user_review_count": 0}, {"business_operation_status": 1, "rating": null, "neighborhood": "Southwest, Southwest", "image": null, "scorecard": null, "featured": false, "sample_categories": "Restaurants", "public_id": "wingstop-incorporated-atlanta", "id": 37309731, "votes": null, "tagline": null, "has_video": false, "website": null, "offers": null, "latitude": 33.724313, "politanName": "Atlanta, GA Metro ", "phone_number": "4045050502", "tags": [{"primary": true, "id": 1722, "name": "Restaurants"}], "fax_number": null, "expansion": {"count": null, "uri": null}, "impression_id": "000b0000001cd67d9f70164cdd99ec153cfac9e777", "profile": "http://www.citysearch.com/profile/37309731/atlanta_ga/wingstop_incorporated.html", "address": {"city": "Atlanta", "state": "GA", "street": "3695 Cascade Rd SWSte K", "postal_code": "30331"}, "capProviderId": null, "distance": null, "has_offers": false, "name": "Wingstop Incorporated", "longitude": -84.508412, "has_menu": true, "awards": null, "user_review_count": 0}, {"business_operation_status": 1, "rating": null, "neighborhood": "Southwest, Southwest", "image": null, "scorecard": null, "featured": false, "sample_categories": "Restaurants", "public_id": "outpost-atlanta", "id": 41570743, "votes": null, "tagline": null, "has_video": false, "website": null, "offers": null, "latitude": 33.721912, "politanName": "Atlanta, GA Metro ", "phone_number": "4043447678", "tags": [{"primary": true, "id": 1722, "name": "Restaurants"}], "fax_number": null, "expansion": {"count": null, "uri": null}, "impression_id": "000b0000007a20a96b6d2d404481bab76a554cffcd", "profile": "http://www.citysearch.com/profile/41570743/atlanta_ga/outpost.html", "address": {"city": "Atlanta", "state": "GA", "street": "1195 Fairburn Rd SW", "postal_code": "30331"}, "capProviderId": null, "distance": null, "has_offers": false, "name": "Outpost", "longitude": -84.509411, "has_menu": false, "awards": null, "user_review_count": 0}, {"business_operation_status": 0, "rating": null, "neighborhood": null, "image": null, "scorecard": null, "featured": false, "sample_categories": "Restaurants, Carry Out", "public_id": "cena-atlanta", "id": 622139720, "votes": null, "tagline": null, "has_video": false, "website": null, "offers": null, "latitude": 33.666019, "politanName": "Atlanta, GA Metro ", "phone_number": "6783698907", "tags": [{"primary": false, "id": 11247, "name": "Carry Out"}, {"primary": true, "id": 1722, "name": "Restaurants"}], "fax_number": null, "expansion": {"count": null, "uri": null}, "impression_id": "000b0000007de871b9dd4e48a783d69fa3d7de7a1b", "profile": "http://www.citysearch.com/profile/622139720/atlanta_ga/cena.html", "address": {"city": "Atlanta", "state": "GA", "street": "3220 Butner Rd Sw # 220", "postal_code": "30331"}, "capProviderId": null, "distance": null, "has_offers": false, "name": "Cena", "longitude": -84.550846, "has_menu": false, "awards": null, "user_review_count": 0}, {"business_operation_status": 1, "rating": null, "neighborhood": null, "image": null, "scorecard": null, "featured": false, "sample_categories": "Restaurants, Barbecue Restaurants", "public_id": "hubies-buffalo-wings-austell", "id": 622209390, "votes": null, "tagline": null, "has_video": false, "website": "http://www.citysearch.com/profile/external/622209390/austell_ga/hubie_s_buffalo_wings.html", "offers": null, "latitude": 33.812606, "politanName": "Atlanta, GA Metro ", "phone_number": "7704325112", "tags": [{"primary": false, "id": 1724, "name": "Barbecue Restaurants"}, {"primary": true, "id": 1722, "name": "Restaurants"}], "fax_number": null, "expansion": {"count": null, "uri": null}, "impression_id": "000b00000080826eb73331458e872da8cfb19bdf93", "profile": "http://www.citysearch.com/profile/622209390/austell_ga/hubie_s_buffalo_wings.html", "address": {"city": "Austell", "state": "GA", "street": "1133 E West ConnectorSte 300", "postal_code": "30106"}, "capProviderId": null, "distance": null, "has_offers": false, "name": "Hubie's Buffalo Wings", "longitude": -84.634378, "has_menu": false, "awards": null, "user_review_count": 0}, {"business_operation_status": 1, "rating": null, "neighborhood": null, "image": null, "scorecard": null, "featured": false, "sample_categories": "Restaurants, Barbecue Restaurants", "public_id": "st-louis-barbeque-blues-mableton", "id": 638803040, "votes": null, "tagline": null, "has_video": false, "website": null, "offers": null, "latitude": 33.805377, "politanName": "Atlanta, GA Metro ", "phone_number": "6783985055", "tags": [{"primary": false, "id": 1724, "name": "Barbecue Restaurants"}, {"primary": true, "id": 1722, "name": "Restaurants"}], "fax_number": null, "expansion": {"count": null, "uri": null}, "impression_id": "000b000000f6a37f6c81bf48c4bb8693525a1a61ca", "profile": "http://www.citysearch.com/profile/638803040/mableton_ga/st_louis_barbeque_blues.html", "address": {"city": "Mableton", "state": "GA", "street": "1025 Veterans Memorial Hwy Se", "postal_code": "30126"}, "capProviderId": null, "distance": null, "has_offers": false, "name": "St Louis Barbeque & Blues", "longitude": -84.52581, "has_menu": false, "awards": null, "user_review_count": 0}, {"business_operation_status": 1, "rating": null, "neighborhood": null, "image": null, "scorecard": null, "featured": false, "sample_categories": "Restaurants, Delis And Delicatessens, Sandwich Shops, Carry Out", "public_id": "subway-fairburn-2", "id": 632895950, "votes": null, "tagline": null, "has_video": false, "website": "http://www.citysearch.com/profile/external/632895950/fairburn_ga/subway.html", "offers": null, "latitude": 33.645076, "politanName": "Atlanta, GA Metro ", "phone_number": "7707744151", "tags": [{"primary": false, "id": 1727, "name": "Delis And Delicatessens"}, {"primary": false, "id": 1736, "name": "Sandwich Shops"}, {"primary": false, "id": 11247, "name": "Carry Out"}, {"primary": true, "id": 1722, "name": "Restaurants"}], "fax_number": null, "expansion": {"count": null, "uri": null}, "impression_id": "000b0000001207a910577445deb37ea7c5f18080e6", "profile": "http://www.citysearch.com/profile/632895950/fairburn_ga/subway.html", "address": {"city": "Fairburn", "state": "GA", "street": "5370 Highway 92 # 510", "postal_code": "30213"}, "capProviderId": null, "distance": null, "has_offers": false, "name": "Subway", "longitude": -84.650695, "has_menu": true, "awards": null, "user_review_count": 0}, {"business_operation_status": 1, "rating": null, "neighborhood": null, "image": null, "scorecard": null, "featured": false, "sample_categories": "Restaurants", "public_id": "wing-it-cafe-marietta", "id": 610478634, "votes": null, "tagline": null, "has_video": false, "website": null, "offers": null, "latitude": 33.883197, "politanName": "Atlanta, GA Metro ", "phone_number": "7702189100", "tags": [{"primary": true, "id": 1722, "name": "Restaurants"}], "fax_number": null, "expansion": {"count": null, "uri": null}, "impression_id": "000b0000004dfa2641b31b437c8e368eba4f1d0301", "profile": "http://www.citysearch.com/profile/610478634/marietta_ga/wing_it_cafe.html", "address": {"city": "Marietta", "state": "GA", "street": "2200 Powder Springs Rd SW", "postal_code": "30064"}, "capProviderId": null, "distance": null, "has_offers": false, "name": "Wing It Cafe", "longitude": -84.61985, "has_menu": false, "awards": null, "user_review_count": 0}, {"business_operation_status": 1, "rating": null, "neighborhood": null, "image": null, "scorecard": null, "featured": false, "sample_categories": "Restaurants, MasterCard, Visa, Chicken", "public_id": "mrs-winners-chicken-biscuits-atlanta-11", "id": 3010366, "votes": null, "tagline": null, "has_video": false, "website": null, "offers": null, "latitude": 33.703658, "politanName": "Atlanta, GA Metro ", "phone_number": "4043734840", "tags": [{"primary": false, "id": 11361, "name": "MasterCard"}, {"primary": false, "id": 11382, "name": "Visa"}, {"primary": false, "id": 12839, "name": "Chicken"}, {"primary": true, "id": 1722, "name": "Restaurants"}], "fax_number": null, "expansion": {"count": null, "uri": null}, "impression_id": "000b0000003eeda897ef64475180517b476c5e31b3", "profile": "http://www.citysearch.com/profile/3010366/atlanta_ga/mrs_winners_chicken_biscuits.html", "address": {"city": "Atlanta", "state": "GA", "street": "1950 Blvd Dr NE", "postal_code": "30317"}, "capProviderId": null, "distance": null, "has_offers": false, "name": "Mrs Winners Chicken & Biscuits", "longitude": -84.547391, "has_menu": false, "awards": null, "user_review_count": 0}, {"business_operation_status": 1, "rating": null, "neighborhood": null, "image": null, "scorecard": null, "featured": false, "sample_categories": "Coffeehouses", "public_id": "pet-pet-ltd-smyrna", "id": 732184890, "votes": null, "tagline": null, "has_video": false, "website": null, "offers": null, "latitude": 33.851216, "politanName": "Atlanta, GA Metro ", "phone_number": "7708198835", "tags": [{"primary": true, "id": 1726, "name": "Coffeehouses"}], "fax_number": null, "expansion": {"count": null, "uri": null}, "impression_id": "000b0000008a5bd5cf3a724920b5f16bc69145abdb", "profile": "http://www.citysearch.com/profile/732184890/smyrna_ga/pet_pet_ltd.html", "address": {"city": "Smyrna", "state": "GA", "street": "4131 Gregory Manor Cir SW", "postal_code": "30082"}, "capProviderId": null, "distance": null, "has_offers": false, "name": "Pet Pet Ltd", "longitude": -84.568419, "has_menu": false, "awards": null, "user_review_count": 0}, {"business_operation_status": 1, "rating": null, "neighborhood": null, "image": null, "scorecard": null, "featured": false, "sample_categories": "Restaurants, Fast Food, Carry Out, Hamburgers, American Express", "public_id": "mc-donalds-austell-2", "id": 37648233, "votes": null, "tagline": null, "has_video": false, "website": "http://www.citysearch.com/profile/external/37648233/austell_ga/mc_donald_s.html", "offers": null, "latitude": 33.856577, "politanName": "Atlanta, GA Metro ", "phone_number": "7704344002", "tags": [{"primary": false, "id": 11199, "name": "Fast Food"}, {"primary": false, "id": 11247, "name": "Carry Out"}, {"primary": false, "id": 11270, "name": "Hamburgers"}, {"primary": false, "id": 11333, "name": "American Express"}, {"primary": false, "id": 11349, "name": "Discover"}, {"primary": false, "id": 11361, "name": "MasterCard"}, {"primary": false, "id": 11382, "name": "Visa"}, {"primary": true, "id": 1722, "name": "Restaurants"}], "fax_number": null, "expansion": {"count": null, "uri": null}, "impression_id": "000b00000097be99db10a34733b6fbe32d5186bc12", "profile": "http://www.citysearch.com/profile/37648233/austell_ga/mc_donald_s.html", "address": {"city": "Austell", "state": "GA", "street": "1133 E West Connector", "postal_code": "30106"}, "capProviderId": null, "distance": null, "has_offers": false, "name": "Mc Donald's", "longitude": -84.58945, "has_menu": true, "awards": null, "user_review_count": 0}, {"business_operation_status": 1, "rating": null, "neighborhood": null, "image": null, "scorecard": null, "featured": false, "sample_categories": "Restaurants", "public_id": "jazy-southern-cuisine-atlanta", "id": 801052210, "votes": null, "tagline": null, "has_video": false, "website": null, "offers": null, "latitude": 33.665579, "politanName": "Atlanta, GA Metro ", "phone_number": "4047489172", "tags": [{"primary": true, "id": 1722, "name": "Restaurants"}], "fax_number": null, "expansion": {"count": null, "uri": null}, "impression_id": "000b00000079e4f0417e034640a9da9ec9b6408675", "profile": "http://www.citysearch.com/profile/801052210/atlanta_ga/jazy_southern_cuisine.html", "address": {"city": "Atlanta", "state": "GA", "street": "3220 Butner Rd Sw", "postal_code": "30331"}, "capProviderId": null, "distance": null, "has_offers": false, "name": "Jazy Southern Cuisine", "longitude": -84.551163, "has_menu": false, "awards": null, "user_review_count": 0}, {"business_operation_status": 1, "rating": null, "neighborhood": null, "image": null, "scorecard": null, "featured": false, "sample_categories": "Restaurants", "public_id": "smoothies-more-austell", "id": 43863527, "votes": null, "tagline": null, "has_video": false, "website": null, "offers": null, "latitude": 33.855384, "politanName": "Atlanta, GA Metro ", "phone_number": "6783099699", "tags": [{"primary": true, "id": 1722, "name": "Restaurants"}], "fax_number": null, "expansion": {"count": null, "uri": null}, "impression_id": "000b000000e97f778f3bcd422695d08cfc75ad563c", "profile": "http://www.citysearch.com/profile/43863527/austell_ga/smoothies_more.html", "address": {"city": "Austell", "state": "GA", "street": "1025 E West Connector", "postal_code": "30106"}, "capProviderId": null, "distance": null, "has_offers": false, "name": "Smoothies & More", "longitude": -84.583167, "has_menu": false, "awards": null, "user_review_count": 0}, {"business_operation_status": 1, "rating": null, "neighborhood": null, "image": null, "scorecard": null, "featured": false, "sample_categories": "Restaurants, Carry Out, Pizza", "public_id": "johnnys-new-york-style-pizza-atlanta-5", "id": 601365630, "votes": null, "tagline": null, "has_video": false, "website": "http://www.citysearch.com/profile/external/601365630/atlanta_ga/johnny_s_new_york_style_pizza.html", "offers": null, "latitude": 33.730135, "politanName": "Atlanta, GA Metro ", "phone_number": "6789730634", "tags": [{"primary": false, "id": 1722, "name": "Restaurants"}, {"primary": false, "id": 11299, "name": "Pizza"}, {"primary": true, "id": 11247, "name": "Carry Out"}], "fax_number": null, "expansion": {"count": null, "uri": null}, "impression_id": "000b000000cf7ff3dd37cc4d43ac384dae017ad04e", "profile": "http://www.citysearch.com/profile/601365630/atlanta_ga/johnny_s_new_york_style_pizza.html", "address": {"city": "Atlanta", "state": "GA", "street": "5495 Cascade Rd SW", "postal_code": "30331"}, "capProviderId": null, "distance": null, "has_offers": false, "name": "Johnny's New York Style Pizza", "longitude": -84.555739, "has_menu": true, "awards": null, "user_review_count": 0}, {"business_operation_status": 1, "rating": null, "neighborhood": null, "image": null, "scorecard": null, "featured": false, "sample_categories": "Restaurants, Barbecue Restaurants", "public_id": "in-out-southern-grill-douglasville", "id": 672371140, "votes": null, "tagline": null, "has_video": false, "website": null, "offers": null, "latitude": 33.695172, "politanName": "Atlanta, GA Metro ", "phone_number": "7709426122", "tags": [{"primary": false, "id": 1724, "name": "Barbecue Restaurants"}, {"primary": true, "id": 1722, "name": "Restaurants"}], "fax_number": null, "expansion": {"count": null, "uri": null}, "impression_id": "000b0000008781914ea4334b1da0d5624d12b71eb2", "profile": "http://www.citysearch.com/profile/672371140/douglasville_ga/in_out_southern_grill.html", "address": {"city": "Douglasville", "state": "GA", "street": "4040 Chapel Hill Rd.", "postal_code": "30135"}, "capProviderId": null, "distance": null, "has_offers": false, "name": "In & Out Southern Grill", "longitude": -84.714956, "has_menu": false, "awards": null, "user_review_count": 1}, {"business_operation_status": 1, "rating": null, "neighborhood": null, "image": null, "scorecard": null, "featured": false, "sample_categories": "Restaurants", "public_id": "real-pit-bbq-breakfast-mableton", "id": 672307600, "votes": null, "tagline": null, "has_video": false, "website": null, "offers": null, "latitude": 33.783418, "politanName": "Atlanta, GA Metro ", "phone_number": null, "tags": [{"primary": true, "id": 1722, "name": "Restaurants"}], "fax_number": null, "expansion": {"count": null, "uri": null}, "impression_id": "000b000000ba4a2dee956041d097e0708955ccf638", "profile": "http://www.citysearch.com/profile/672307600/mableton_ga/real_pit_bbq_breakfast.html", "address": {"city": "Mableton", "state": "GA", "street": "6960 Mableton Parkway", "postal_code": "30126"}, "capProviderId": null, "distance": null, "has_offers": false, "name": "Real Pit BBQ & Breakfast", "longitude": -84.541117, "has_menu": false, "awards": null, "user_review_count": 0}, {"business_operation_status": 1, "rating": null, "neighborhood": null, "image": null, "scorecard": null, "featured": false, "sample_categories": "Restaurants", "public_id": "jbones-mableton", "id": 672571120, "votes": null, "tagline": null, "has_video": false, "website": null, "offers": null, "latitude": 33.816965, "politanName": "Atlanta, GA Metro ", "phone_number": null, "tags": [{"primary": true, "id": 1722, "name": "Restaurants"}], "fax_number": null, "expansion": {"count": null, "uri": null}, "impression_id": "000b000000dadfec9253274d2a8f39d1c319b305b5", "profile": "http://www.citysearch.com/profile/672571120/mableton_ga/j_bones.html", "address": {"city": "Mableton", "state": "GA", "street": "499 Veterans Memorial Hwy SW", "postal_code": "30126"}, "capProviderId": null, "distance": null, "has_offers": false, "name": "J-Bones", "longitude": -84.568558, "has_menu": false, "awards": null, "user_review_count": 0}, {"business_operation_status": 1, "rating": null, "neighborhood": null, "image": null, "scorecard": null, "featured": false, "sample_categories": "Restaurants", "public_id": "wings-factory-austell", "id": 673030580, "votes": null, "tagline": null, "has_video": false, "website": null, "offers": null, "latitude": 33.859727, "politanName": "Atlanta, GA Metro ", "phone_number": "6782134040", "tags": [{"primary": true, "id": 1722, "name": "Restaurants"}], "fax_number": null, "expansion": {"count": null, "uri": null}, "impression_id": "000b000000e5b8d37e984e40618be0874a2427ea10", "profile": "http://www.citysearch.com/profile/673030580/austell_ga/wings_factory.html", "address": {"city": "Austell", "state": "GA", "street": "4180 Austell Rd SW", "postal_code": "30106"}, "capProviderId": null, "distance": null, "has_offers": false, "name": "Wings Factory", "longitude": -84.59921, "has_menu": false, "awards": null, "user_review_count": 0}, {"business_operation_status": 1, "rating": null, "neighborhood": null, "image": null, "scorecard": null, "featured": false, "sample_categories": "Restaurants", "public_id": "el-pollo-dorado-llc-lithia", "id": 607566664, "votes": null, "tagline": null, "has_video": false, "website": null, "offers": null, "latitude": 33.78703, "politanName": "Atlanta, GA Metro ", "phone_number": "6783248398", "tags": [{"primary": true, "id": 1722, "name": "Restaurants"}], "fax_number": null, "expansion": {"count": null, "uri": null}, "impression_id": "000b00000085b56edf635a4926a51e9fa0cf421959", "profile": "http://www.citysearch.com/profile/607566664/lithia_springs_ga/el_pollo_dorado_llc.html", "address": {"city": "Lithia Springs", "state": "GA", "street": "639 Thornton Rd", "postal_code": "30122"}, "capProviderId": null, "distance": null, "has_offers": false, "name": "El Pollo Dorado LLC", "longitude": -84.619446, "has_menu": false, "awards": null, "user_review_count": 0}, {"business_operation_status": 1, "rating": null, "neighborhood": null, "image": null, "scorecard": null, "featured": false, "sample_categories": "Personal Trainers, Dancing, Yoga", "public_id": "lailahs-studio-austell", "id": 724382250, "votes": null, "tagline": null, "has_video": false, "website": null, "offers": null, "latitude": 33.833377, "politanName": "Atlanta, GA Metro ", "phone_number": "6784010866", "tags": [{"primary": false, "id": 11255, "name": "Dancing"}, {"primary": false, "id": 12606, "name": "Yoga"}, {"primary": true, "id": 3999, "name": "Personal Trainers"}], "fax_number": null, "expansion": {"count": null, "uri": null}, "impression_id": "000b000000d3683e851a5949918164d123c289d61c", "profile": "http://www.citysearch.com/profile/724382250/austell_ga/lailah_s_studio.html", "address": {"city": "Austell", "state": "GA", "street": "4968 Austell Rd", "postal_code": "30106"}, "capProviderId": null, "distance": null, "has_offers": false, "name": "Lailah's Studio", "longitude": -84.611891, "has_menu": false, "awards": null, "user_review_count": 0}, {"business_operation_status": 1, "rating": null, "neighborhood": null, "image": null, "scorecard": null, "featured": false, "sample_categories": "Restaurants", "public_id": "qiznos-atlanta", "id": 748261380, "votes": null, "tagline": null, "has_video": false, "website": null, "offers": null, "latitude": 33.730459, "politanName": "Atlanta, GA Metro ", "phone_number": "4046290800", "tags": [{"primary": true, "id": 1722, "name": "Restaurants"}], "fax_number": null, "expansion": {"count": null, "uri": null}, "impression_id": "000b000000209b926e4bcf42e28174ceb7e09a0bfb", "profile": "http://www.citysearch.com/profile/748261380/atlanta_ga/qiznos.html", "address": {"city": "Atlanta", "state": "GA", "street": "5495 Cascade Rd SW", "postal_code": "30331"}, "capProviderId": null, "distance": null, "has_offers": false, "name": "Qiznos", "longitude": -84.567461, "has_menu": false, "awards": null, "user_review_count": 0}, {"business_operation_status": 1, "rating": null, "neighborhood": null, "image": null, "scorecard": null, "featured": false, "sample_categories": "Restaurants", "public_id": "hans-new-mableton", "id": 748335370, "votes": null, "tagline": null, "has_video": false, "website": null, "offers": null, "latitude": 33.835173, "politanName": "Atlanta, GA Metro ", "phone_number": "7709412314", "tags": [{"primary": true, "id": 1722, "name": "Restaurants"}], "fax_number": null, "expansion": {"count": null, "uri": null}, "impression_id": "000b00000095ecd11867a44a93a761b771f37369b2", "profile": "http://www.citysearch.com/profile/748335370/mableton_ga/hans_new.html", "address": {"city": "Mableton", "state": "GA", "street": "4875 Floyd Rd SW # 108", "postal_code": "30126"}, "capProviderId": null, "distance": null, "has_offers": false, "name": "Hans New", "longitude": -84.574622, "has_menu": false, "awards": null, "user_review_count": 0}, {"business_operation_status": 1, "rating": null, "neighborhood": null, "image": null, "scorecard": null, "featured": false, "sample_categories": "Restaurants, Southwestern", "public_id": "tico-joes-southwest-gril-lithia", "id": 764846790, "votes": null, "tagline": null, "has_video": false, "website": null, "offers": null, "latitude": 33.78703, "politanName": "Atlanta, GA Metro ", "phone_number": "7706939699", "tags": [{"primary": false, "id": 11313, "name": "Southwestern"}, {"primary": true, "id": 1722, "name": "Restaurants"}], "fax_number": null, "expansion": {"count": null, "uri": null}, "impression_id": "000b00000091c8489dd0954346ae78eeabe187fdb2", "profile": "http://www.citysearch.com/profile/764846790/lithia_springs_ga/tico_joe_s_southwest_gril.html", "address": {"city": "Lithia Springs", "state": "GA", "street": "639 Thornton Rd # 101", "postal_code": "30122"}, "capProviderId": null, "distance": null, "has_offers": false, "name": "Tico Joe's Southwest Gril", "longitude": -84.619446, "has_menu": false, "awards": null, "user_review_count": 0}, {"business_operation_status": 1, "rating": null, "neighborhood": null, "image": null, "scorecard": null, "featured": false, "sample_categories": "Restaurants, Bars & Pubs", "public_id": "tigers-sports-bar-grill-mableton", "id": 764894490, "votes": null, "tagline": null, "has_video": false, "website": null, "offers": null, "latitude": 33.791516, "politanName": "Atlanta, GA Metro ", "phone_number": "7709415349", "tags": [{"primary": false, "id": 1686, "name": "Bars & Pubs"}, {"primary": true, "id": 1722, "name": "Restaurants"}], "fax_number": null, "expansion": {"count": null, "uri": null}, "impression_id": "000b000000a153e4664f9c4ec991cd7c9664326a9a", "profile": "http://www.citysearch.com/profile/764894490/mableton_ga/tigers_sports_bar_grill.html", "address": {"city": "Mableton", "state": "GA", "street": "6175 Mableton Pkwy SE", "postal_code": "30126"}, "capProviderId": null, "distance": null, "has_offers": false, "name": "Tigers Sports Bar & Grill", "longitude": -84.555393, "has_menu": false, "awards": null, "user_review_count": 0}, {"business_operation_status": 1, "rating": null, "neighborhood": null, "image": null, "scorecard": null, "featured": false, "sample_categories": "Restaurants", "public_id": "gut-busters-atlanta", "id": 762717950, "votes": null, "tagline": null, "has_video": false, "website": null, "offers": null, "latitude": 33.730459, "politanName": "Atlanta, GA Metro ", "phone_number": "4042282725", "tags": [{"primary": true, "id": 1722, "name": "Restaurants"}], "fax_number": null, "expansion": {"count": null, "uri": null}, "impression_id": "000b000000e956f3929eec4dfeb6fac9c6cb9d3366", "profile": "http://www.citysearch.com/profile/762717950/atlanta_ga/gut_busters.html", "address": {"city": "Atlanta", "state": "GA", "street": "5495 Cascade Rd SW", "postal_code": "30331"}, "capProviderId": null, "distance": null, "has_offers": false, "name": "Gut Busters", "longitude": -84.567461, "has_menu": false, "awards": null, "user_review_count": 0}], "histograms": [], "tag_ids": [1722], "uri": "http://api.citygridmedia.com:8080/search/places/v2/search/where?has_offers=false&type=restaurant&format=json&page=11&where=30168&rpp=50&histograms=false&publisher=10000009598&region_type=circle", "did_you_mean": "", "regions": [{"latitude": 33.78436, "default_radius": 3.57, "type": "postal_code", "name": "30168", "longitude": -84.586443}], "call_id": "000b0000006b3ed1ccb80a45d1b09a311142b4e962", "first_hit": 501, "total_hits": 592, "geo_ids": [26319], "page": 11, "last_hit": 550}}