{"results": {"rpp": 50, "locations": [{"business_operation_status": 0, "rating": null, "neighborhood": null, "image": null, "scorecard": null, "featured": false, "sample_categories": "Restaurants, Cuban", "public_id": "mojo-grill-cuban-cuisine-mableton", "id": 777749200, "votes": null, "tagline": null, "has_video": false, "website": null, "offers": null, "latitude": 33.817341, "politanName": "Atlanta, GA Metro ", "phone_number": "7708190771", "tags": [{"primary": false, "id": 11192, "name": "Cuban"}, {"primary": true, "id": 1722, "name": "Restaurants"}], "fax_number": null, "expansion": {"count": null, "uri": null}, "impression_id": "000b00000099f8072157124b6f810f6e582fe0a07d", "profile": "http://www.citysearch.com/profile/777749200/mableton_ga/mojo_grill_cuban_cuisine.html", "address": {"city": "Mableton", "state": "GA", "street": "925 Vet Mem Hwy Sw # 168", "postal_code": "30126"}, "capProviderId": null, "distance": null, "has_offers": false, "name": "Mojo Grill Cuban Cuisine", "longitude": -84.580424, "has_menu": false, "awards": null, "user_review_count": 0}, {"business_operation_status": 1, "rating": null, "neighborhood": null, "image": null, "scorecard": null, "featured": false, "sample_categories": "Restaurants, Carry Out", "public_id": "burger-king-powder", "id": 764855980, "votes": null, "tagline": null, "has_video": false, "website": null, "offers": null, "latitude": 33.906794, "politanName": "Atlanta, GA Metro ", "phone_number": "7704391489", "tags": [{"primary": false, "id": 11247, "name": "Carry Out"}, {"primary": true, "id": 1722, "name": "Restaurants"}], "fax_number": null, "expansion": {"count": null, "uri": null}, "impression_id": "000b000000cad279d2677547dfb41cc0a11fa90b79", "profile": "http://www.citysearch.com/profile/764855980/powder_springs_ga/burger_king.html", "address": {"city": "Powder Springs", "state": "GA", "street": "3640 Velma Dr", "postal_code": "30127"}, "capProviderId": null, "distance": null, "has_offers": false, "name": "Burger King", "longitude": -84.660285, "has_menu": false, "awards": null, "user_review_count": 0}, {"business_operation_status": 1, "rating": null, "neighborhood": null, "image": null, "scorecard": null, "featured": false, "sample_categories": "Restaurants", "public_id": "b-bs-steak-seafood-lithia-spgs", "id": 36286812, "votes": null, "tagline": null, "has_video": false, "website": null, "offers": null, "latitude": 33.790812, "politanName": "Atlanta, GA Metro ", "phone_number": "7707393084", "tags": [{"primary": true, "id": 1722, "name": "Restaurants"}], "fax_number": null, "expansion": {"count": null, "uri": null}, "impression_id": "000b0000001bd3bcf1b30840d7a0e13e328a9382f6", "profile": "http://www.citysearch.com/profile/36286812/lithia_springs_ga/b_b_s_steak_seafood.html", "address": {"city": "Lithia Springs", "state": "GA", "street": "470 Westfork Blvd", "postal_code": "30122"}, "capProviderId": null, "distance": null, "has_offers": false, "name": "B B's Steak & Seafood", "longitude": -84.62506, "has_menu": false, "awards": null, "user_review_count": 0}, {"business_operation_status": 1, "rating": null, "neighborhood": null, "image": null, "scorecard": null, "featured": false, "sample_categories": "Restaurants", "public_id": "smokeys-bar-b-que-austell", "id": 36715095, "votes": null, "tagline": null, "has_video": false, "website": null, "offers": null, "latitude": 33.833281, "politanName": "Atlanta, GA Metro ", "phone_number": "7707452040", "tags": [{"primary": true, "id": 1722, "name": "Restaurants"}], "fax_number": null, "expansion": {"count": null, "uri": null}, "impression_id": "000b000000db1143a8e3cf4b1c8c1417876333832f", "profile": "http://www.citysearch.com/profile/36715095/austell_ga/smokey_s_bar_b_que.html", "address": {"city": "Austell", "state": "GA", "street": "4990 Austell Rd", "postal_code": "30106"}, "capProviderId": null, "distance": null, "has_offers": false, "name": "Smokey's Bar B Que", "longitude": -84.611921, "has_menu": false, "awards": null, "user_review_count": 0}, {"business_operation_status": 1, "rating": null, "neighborhood": null, "image": null, "scorecard": null, "featured": false, "sample_categories": "Restaurants", "public_id": "sliders-burger-joint-mableton", "id": 617721644, "votes": null, "tagline": null, "has_video": false, "website": null, "offers": null, "latitude": 33.783961, "politanName": "Atlanta, GA Metro ", "phone_number": "6782478895", "tags": [{"primary": true, "id": 1722, "name": "Restaurants"}], "fax_number": null, "expansion": {"count": null, "uri": null}, "impression_id": "000b0000001b2113948f294aff9a9dfa73ae6ffc9c", "profile": "http://www.citysearch.com/profile/617721644/mableton_ga/sliders_burger_joint.html", "address": {"city": "Mableton", "state": "GA", "street": "6981 Mableton Pkwy SE", "postal_code": "30126"}, "capProviderId": null, "distance": null, "has_offers": false, "name": "Sliders Burger Joint", "longitude": -84.540201, "has_menu": false, "awards": null, "user_review_count": 0}, {"business_operation_status": 1, "rating": null, "neighborhood": null, "image": null, "scorecard": null, "featured": false, "sample_categories": "Restaurants", "public_id": "caribbean-kitchen-express-atlanta", "id": 45569094, "votes": null, "tagline": null, "has_video": false, "website": null, "offers": null, "latitude": 33.650627, "politanName": "Atlanta, GA Metro ", "phone_number": "7708922198", "tags": [{"primary": true, "id": 1722, "name": "Restaurants"}], "fax_number": null, "expansion": {"count": null, "uri": null}, "impression_id": "000b0000004c92198dd5534437b324e58ffbc9c551", "profile": "http://www.citysearch.com/profile/45569094/atlanta_ga/caribbean_kitchen_express.html", "address": {"city": "Atlanta", "state": "GA", "street": "3840 Stonewall Tell Rd Ste C", "postal_code": "30349"}, "capProviderId": null, "distance": null, "has_offers": false, "name": "Caribbean Kitchen Express", "longitude": -84.594665, "has_menu": false, "awards": null, "user_review_count": 0}, {"business_operation_status": 1, "rating": null, "neighborhood": null, "image": null, "scorecard": null, "featured": false, "sample_categories": "Restaurants", "public_id": "sips-cookin-austell", "id": 775236240, "votes": null, "tagline": null, "has_video": false, "website": null, "offers": null, "latitude": 33.826174, "politanName": "Atlanta, GA Metro ", "phone_number": "7708196833", "tags": [{"primary": true, "id": 1722, "name": "Restaurants"}], "fax_number": null, "expansion": {"count": null, "uri": null}, "impression_id": "000b000000587e7e656b3c40418a1ba80303b42d0c", "profile": "http://www.citysearch.com/profile/775236240/austell_ga/sip_s_cookin.html", "address": {"city": "Austell", "state": "GA", "street": "5742 Austell Powder Springs Rd", "postal_code": "30106"}, "capProviderId": null, "distance": null, "has_offers": false, "name": "Sip's Cookin", "longitude": -84.645454, "has_menu": false, "awards": null, "user_review_count": 0}, {"business_operation_status": 1, "rating": null, "neighborhood": null, "image": null, "scorecard": null, "featured": false, "sample_categories": "Restaurants", "public_id": "tiffanys-kitchen-lithia-spg", "id": 697464170, "votes": null, "tagline": null, "has_video": false, "website": "http://www.citysearch.com/profile/external/697464170/lithia_springs_ga/tiffany_s_kitchen.html", "offers": null, "latitude": 33.774233, "politanName": "Atlanta, GA Metro ", "phone_number": "6783988446", "tags": [{"primary": true, "id": 1722, "name": "Restaurants"}], "fax_number": null, "expansion": {"count": null, "uri": null}, "impression_id": "000b0000005af037eca1a14fda8ce1a7b37ac56b69", "profile": "http://www.citysearch.com/profile/697464170/lithia_springs_ga/tiffany_s_kitchen.html", "address": {"city": "Lithia Springs", "state": "GA", "street": "7413 Lee Rd", "postal_code": "30122"}, "capProviderId": null, "distance": null, "has_offers": false, "name": "Tiffany's Kitchen", "longitude": -84.654048, "has_menu": false, "awards": null, "user_review_count": 0}, {"business_operation_status": 1, "rating": null, "neighborhood": "Southwest, Southwest", "image": null, "scorecard": null, "featured": false, "sample_categories": "Ice Cream Parlors", "public_id": "bulay-twiste-llc-atlanta", "id": 781217790, "votes": null, "tagline": null, "has_video": false, "website": null, "offers": null, "latitude": 33.736227, "politanName": "Atlanta, GA Metro ", "phone_number": "4046910444", "tags": [{"primary": true, "id": 1730, "name": "Ice Cream Parlors"}], "fax_number": null, "expansion": {"count": null, "uri": null}, "impression_id": "000b000000a0fba41347cd4ce5ad05aecc8a6544fc", "profile": "http://www.citysearch.com/profile/781217790/atlanta_ga/bu_lay_twiste_llc.html", "address": {"city": "Atlanta", "state": "GA", "street": "4355 Cascade Rd Sw", "postal_code": "30331"}, "capProviderId": null, "distance": null, "has_offers": false, "name": "Bu-Lay Twiste LLC", "longitude": -84.531451, "has_menu": false, "awards": null, "user_review_count": 0}, {"business_operation_status": 1, "rating": null, "neighborhood": null, "image": null, "scorecard": null, "featured": false, "sample_categories": "Restaurants, Bars & Clubs", "public_id": "apollo-bar-grill-austell", "id": 825446100, "votes": null, "tagline": null, "has_video": false, "website": null, "offers": null, "latitude": 33.828601, "politanName": "Atlanta, GA Metro ", "phone_number": "7707326391", "tags": [{"primary": false, "id": 164, "name": "Bars & Clubs"}, {"primary": true, "id": 1722, "name": "Restaurants"}], "fax_number": null, "expansion": {"count": null, "uri": null}, "impression_id": "000b000000caa9351d799b43c580b0bf1301a4edc0", "profile": "http://www.citysearch.com/profile/825446100/austell_ga/apollo_bar_grill.html", "address": {"city": "Austell", "state": "GA", "street": "5141 Austell Rd", "postal_code": "30106"}, "capProviderId": null, "distance": null, "has_offers": false, "name": "Apollo Bar & Grill", "longitude": -84.613561, "has_menu": false, "awards": null, "user_review_count": 0}, {"business_operation_status": 1, "rating": null, "neighborhood": null, "image": null, "scorecard": null, "featured": false, "sample_categories": "Restaurants, Soul", "public_id": "willie-bs-sisters-southern-cuisine-mableton", "id": 837980970, "votes": null, "tagline": null, "has_video": false, "website": null, "offers": null, "latitude": 33.788903, "politanName": "Atlanta, GA Metro ", "phone_number": "6784021792", "tags": [{"primary": false, "id": 1722, "name": "Restaurants"}, {"primary": true, "id": 15140, "name": "Soul"}], "fax_number": null, "expansion": {"count": null, "uri": null}, "impression_id": "000b000000d23a08fec35a4182afba16aed9dedb31", "profile": "http://www.citysearch.com/profile/837980970/mableton_ga/willie_b_s_sisters_southern_cuisine.html", "address": {"city": "Mableton", "state": "GA", "street": "705 S Gordon Rd SW", "postal_code": "30126"}, "capProviderId": null, "distance": null, "has_offers": false, "name": "Willie B's Sisters Southern Cuisine", "longitude": -84.575373, "has_menu": false, "awards": null, "user_review_count": 0}, {"business_operation_status": 1, "rating": null, "neighborhood": null, "image": null, "scorecard": null, "featured": false, "sample_categories": "Restaurants", "public_id": "peramona-home-taste-mableton", "id": 827075450, "votes": null, "tagline": null, "has_video": false, "website": null, "offers": null, "latitude": 33.79153, "politanName": "Atlanta, GA Metro ", "phone_number": "7707395755", "tags": [{"primary": true, "id": 1722, "name": "Restaurants"}], "fax_number": null, "expansion": {"count": null, "uri": null}, "impression_id": "000b000000639269be24d84f0eba4f89173481b08f", "profile": "http://www.citysearch.com/profile/827075450/mableton_ga/peramona_home_taste.html", "address": {"city": "Mableton", "state": "GA", "street": "6029 Mableton Pkwy SE", "postal_code": "30126"}, "capProviderId": null, "distance": null, "has_offers": false, "name": "Peramona Home Taste", "longitude": -84.555407, "has_menu": false, "awards": null, "user_review_count": 0}, {"business_operation_status": 1, "rating": null, "neighborhood": null, "image": null, "scorecard": null, "featured": false, "sample_categories": "Restaurants, Carry Out", "public_id": "planet-smoothie-lithia", "id": 830250820, "votes": null, "tagline": null, "has_video": false, "website": "http://www.citysearch.com/profile/external/830250820/lithia_springs_ga/planet_smoothie.html", "offers": null, "latitude": 33.7871, "politanName": "Atlanta, GA Metro ", "phone_number": "7707459193", "tags": [{"primary": false, "id": 11247, "name": "Carry Out"}, {"primary": true, "id": 1722, "name": "Restaurants"}], "fax_number": null, "expansion": {"count": null, "uri": null}, "impression_id": "000b000000b44f9fa145c14e02b505e4bf0fd58439", "profile": "http://www.citysearch.com/profile/830250820/lithia_springs_ga/planet_smoothie.html", "address": {"city": "Lithia Springs", "state": "GA", "street": "639 Thornton Rd # 110", "postal_code": "30122"}, "capProviderId": null, "distance": null, "has_offers": false, "name": "Planet Smoothie", "longitude": -84.619744, "has_menu": true, "awards": null, "user_review_count": 0}, {"business_operation_status": 1, "rating": null, "neighborhood": null, "image": null, "scorecard": null, "featured": false, "sample_categories": "Restaurants", "public_id": "sweet-tea-restaurant-atlanta", "id": 770794680, "votes": null, "tagline": null, "has_video": false, "website": null, "offers": null, "latitude": 33.768682, "politanName": "Atlanta, GA Metro ", "phone_number": "4046912666", "tags": [{"primary": true, "id": 1722, "name": "Restaurants"}], "fax_number": null, "expansion": {"count": null, "uri": null}, "impression_id": "000b000000f232bfb659da41bbb6b38a05bfca7664", "profile": "http://www.citysearch.com/profile/770794680/atlanta_ga/sweet_tea_restaurant.html", "address": {"city": "Atlanta", "state": "GA", "street": "4155 Fulton Industrial Blvd SW", "postal_code": "30336"}, "capProviderId": null, "distance": null, "has_offers": false, "name": "Sweet Tea Restaurant", "longitude": -84.523698, "has_menu": false, "awards": null, "user_review_count": 0}, {"business_operation_status": 1, "rating": null, "neighborhood": null, "image": null, "scorecard": null, "featured": false, "sample_categories": "Bakeries, Restaurants", "public_id": "moms-bakery-inc-atlanta", "id": 35564264, "votes": null, "tagline": null, "has_video": false, "website": "http://www.citysearch.com/profile/external/35564264/atlanta_ga/mom_s_bakery_inc.html", "offers": null, "latitude": 33.733238, "politanName": "Atlanta, GA Metro ", "phone_number": "4043444189", "tags": [{"primary": false, "id": 1722, "name": "Restaurants"}, {"primary": true, "id": 1685, "name": "Bakeries"}], "fax_number": null, "expansion": {"count": null, "uri": null}, "impression_id": "000b0000001a461270f7ff440f9b245b643787e2e7", "profile": "http://www.citysearch.com/profile/35564264/atlanta_ga/mom_s_bakery_inc.html", "address": {"city": "Atlanta", "state": "GA", "street": "5585 Westfield Dr SW", "postal_code": "30336"}, "capProviderId": null, "distance": null, "has_offers": false, "name": "Mom's Bakery Inc", "longitude": -84.561084, "has_menu": false, "awards": null, "user_review_count": 1}, {"business_operation_status": 1, "rating": null, "neighborhood": "Southwest, Southwest", "image": null, "scorecard": null, "featured": false, "sample_categories": "Restaurants, Delis And Delicatessens, Sandwich Shops, Carry Out", "public_id": "blimpie-subs-salads-atlanta-47", "id": 827834260, "votes": null, "tagline": null, "has_video": false, "website": null, "offers": null, "latitude": 33.729891, "politanName": "Atlanta, GA Metro ", "phone_number": "7709487693", "tags": [{"primary": false, "id": 1727, "name": "Delis And Delicatessens"}, {"primary": false, "id": 1736, "name": "Sandwich Shops"}, {"primary": false, "id": 11247, "name": "Carry Out"}, {"primary": true, "id": 1722, "name": "Restaurants"}], "fax_number": null, "expansion": {"count": null, "uri": null}, "impression_id": "000b000000021f81f0b4ea47a99f17bca42aed1932", "profile": "http://www.citysearch.com/profile/827834260/atlanta_ga/blimpie_subs_salads.html", "address": {"city": "Atlanta", "state": "GA", "street": "860 Niskey Lake Cir SW", "postal_code": "30331"}, "capProviderId": null, "distance": null, "has_offers": false, "name": "Blimpie Subs & Salads", "longitude": -84.535657, "has_menu": false, "awards": null, "user_review_count": 0}, {"business_operation_status": 1, "rating": null, "neighborhood": null, "image": null, "scorecard": null, "featured": false, "sample_categories": "Restaurants", "public_id": "jones-chili-lithia-spgs", "id": 36286813, "votes": null, "tagline": null, "has_video": false, "website": null, "offers": null, "latitude": 33.791296, "politanName": "Atlanta, GA Metro ", "phone_number": "7709417482", "tags": [{"primary": true, "id": 1722, "name": "Restaurants"}], "fax_number": null, "expansion": {"count": null, "uri": null}, "impression_id": "000b000000089c1de9f4ad49c98f7e4c3002beb677", "profile": "http://www.citysearch.com/profile/36286813/lithia_springs_ga/jones_chili.html", "address": {"city": "Lithia Springs", "state": "GA", "street": "1922 Waterford Club Dr", "postal_code": "30122"}, "capProviderId": null, "distance": null, "has_offers": false, "name": "Jones Chili", "longitude": -84.614221, "has_menu": false, "awards": null, "user_review_count": 0}, {"business_operation_status": 1, "rating": null, "neighborhood": null, "image": null, "scorecard": null, "featured": false, "sample_categories": "Restaurants", "public_id": "crate-atlanta", "id": 781194410, "votes": null, "tagline": null, "has_video": false, "website": null, "offers": null, "latitude": 33.717988, "politanName": "Atlanta, GA Metro ", "phone_number": "4046291010", "tags": [{"primary": true, "id": 1722, "name": "Restaurants"}], "fax_number": null, "expansion": {"count": null, "uri": null}, "impression_id": "000b000000145ba5568fb347a998c190b985dfe31b", "profile": "http://www.citysearch.com/profile/781194410/atlanta_ga/crate.html", "address": {"city": "Atlanta", "state": "GA", "street": "6355 Boat Rock Blvd Sw", "postal_code": "30336"}, "capProviderId": null, "distance": null, "has_offers": false, "name": "Crate", "longitude": -84.602032, "has_menu": false, "awards": null, "user_review_count": 0}, {"business_operation_status": 1, "rating": null, "neighborhood": null, "image": null, "scorecard": null, "featured": false, "sample_categories": "Food Delivery", "public_id": "hungry-gorilla-incorporated-powder-spgs", "id": 36287066, "votes": null, "tagline": null, "has_video": false, "website": null, "offers": null, "latitude": 33.820457, "politanName": "Atlanta, GA Metro ", "phone_number": "7707453400", "tags": [{"primary": true, "id": 11267, "name": "Food Delivery"}], "fax_number": null, "expansion": {"count": null, "uri": null}, "impression_id": "000b000000493dfd5639ca4d8f95507fc254aeb24d", "profile": "http://www.citysearch.com/profile/36287066/powder_springs_ga/hungry_gorilla_incorporated.html", "address": {"city": "Powder Springs", "state": "GA", "street": "5450 Sweetsprings Dr SW", "postal_code": "30127"}, "capProviderId": null, "distance": null, "has_offers": false, "name": "Hungry Gorilla Incorporated", "longitude": -84.678464, "has_menu": false, "awards": null, "user_review_count": 0}, {"business_operation_status": 1, "rating": 6.0, "neighborhood": null, "image": null, "scorecard": null, "featured": false, "sample_categories": "Restaurants, Seafood, American Express, Discover, MasterCard", "public_id": "up-the-creek-fish-camp-grill-atlanta", "id": 43876393, "votes": null, "tagline": null, "has_video": false, "website": "http://www.citysearch.com/profile/external/43876393/atlanta_ga/up_the_creek_fish_camp_grill.html", "offers": null, "latitude": 33.730411, "politanName": "Atlanta, GA Metro ", "phone_number": "4046914533", "tags": [{"primary": false, "id": 11228, "name": "Seafood"}, {"primary": false, "id": 11333, "name": "American Express"}, {"primary": false, "id": 11349, "name": "Discover"}, {"primary": false, "id": 11361, "name": "MasterCard"}, {"primary": false, "id": 11382, "name": "Visa"}, {"primary": true, "id": 1722, "name": "Restaurants"}], "fax_number": null, "expansion": {"count": null, "uri": null}, "impression_id": "000b0000000219687bfaca4c66941fea226dc8cb8f", "profile": "http://www.citysearch.com/profile/43876393/atlanta_ga/up_the_creek_fish_camp_grill.html", "address": {"city": "Atlanta", "state": "GA", "street": "3752 Cascade Rd SW", "postal_code": "30331"}, "capProviderId": null, "distance": null, "has_offers": false, "name": "Up The Creek Fish Camp & Grill", "longitude": -84.566581, "has_menu": true, "awards": null, "user_review_count": 1}, {"business_operation_status": 1, "rating": null, "neighborhood": "Southwest, Southwest", "image": null, "scorecard": null, "featured": false, "sample_categories": "Restaurants, Barbecue Restaurants", "public_id": "wing-depot-atlanta", "id": 45565675, "votes": null, "tagline": null, "has_video": false, "website": null, "offers": null, "latitude": 33.690006, "politanName": "Atlanta, GA Metro ", "phone_number": "4043448040", "tags": [{"primary": false, "id": 1724, "name": "Barbecue Restaurants"}, {"primary": true, "id": 1722, "name": "Restaurants"}], "fax_number": null, "expansion": {"count": null, "uri": null}, "impression_id": "000b000000b010dd1ee24740b18931f4f5050b8e39", "profile": "http://www.citysearch.com/profile/45565675/atlanta_ga/wing_depot.html", "address": {"city": "Atlanta", "state": "GA", "street": "3644 Campbellton Rd SW", "postal_code": "30331"}, "capProviderId": null, "distance": null, "has_offers": false, "name": "Wing Depot", "longitude": -84.508129, "has_menu": true, "awards": null, "user_review_count": 0}, {"business_operation_status": 1, "rating": 8.0, "neighborhood": null, "image": null, "scorecard": null, "featured": false, "sample_categories": "Restaurants, Buffet, Russian, American Express, Discover", "public_id": "grand-buffet-atlanta", "id": 3026507, "votes": null, "tagline": null, "has_video": false, "website": null, "offers": null, "latitude": 33.765447, "politanName": "Atlanta, GA Metro ", "phone_number": "4045050588", "tags": [{"primary": false, "id": 11241, "name": "Buffet"}, {"primary": false, "id": 11308, "name": "Russian"}, {"primary": false, "id": 11333, "name": "American Express"}, {"primary": false, "id": 11349, "name": "Discover"}, {"primary": false, "id": 11361, "name": "MasterCard"}, {"primary": false, "id": 11382, "name": "Visa"}, {"primary": true, "id": 1722, "name": "Restaurants"}], "fax_number": null, "expansion": {"count": null, "uri": null}, "impression_id": "000b0000007387fe0c8ebd46db822e083f8b1fde60", "profile": "http://www.citysearch.com/profile/3026507/atlanta_ga/grand_buffet.html", "address": {"city": "Atlanta", "state": "GA", "street": "4365 Fulton Industrial Blvd SW", "postal_code": "30336"}, "capProviderId": null, "distance": null, "has_offers": false, "name": "Grand Buffet", "longitude": -84.529763, "has_menu": true, "awards": null, "user_review_count": 1}, {"business_operation_status": 1, "rating": null, "neighborhood": null, "image": null, "scorecard": null, "featured": false, "sample_categories": "Restaurants, Barbecue Restaurants", "public_id": "r-b-wing-cafe-atlanta", "id": 713430520, "votes": null, "tagline": null, "has_video": false, "website": null, "offers": null, "latitude": 33.770587, "politanName": "Atlanta, GA Metro ", "phone_number": "4046962963", "tags": [{"primary": false, "id": 1724, "name": "Barbecue Restaurants"}, {"primary": true, "id": 1722, "name": "Restaurants"}], "fax_number": null, "expansion": {"count": null, "uri": null}, "impression_id": "000b0000005bd609b25bb848da8f6bf859896e3e51", "profile": "http://www.citysearch.com/profile/713430520/atlanta_ga/r_b_wing_cafe.html", "address": {"city": "Atlanta", "state": "GA", "street": "4090 Martin Luther King Jr Dr", "postal_code": "30336"}, "capProviderId": null, "distance": null, "has_offers": false, "name": "R & B Wing Cafe", "longitude": -84.520738, "has_menu": false, "awards": null, "user_review_count": 0}, {"business_operation_status": 1, "rating": null, "neighborhood": null, "image": null, "scorecard": null, "featured": false, "sample_categories": "Restaurants", "public_id": "wencys-cafe-atlanta", "id": 3026508, "votes": null, "tagline": null, "has_video": false, "website": null, "offers": null, "latitude": 33.764472, "politanName": "Atlanta, GA Metro ", "phone_number": "4046961688", "tags": [{"primary": true, "id": 1722, "name": "Restaurants"}], "fax_number": null, "expansion": {"count": null, "uri": null}, "impression_id": "000b00000003319812ac7540d2baf30899e4ec50cc", "profile": "http://www.citysearch.com/profile/3026508/atlanta_ga/wency_s_cafe.html", "address": {"city": "Atlanta", "state": "GA", "street": "4346 Fulton Industrial Blvd SW", "postal_code": "30336"}, "capProviderId": null, "distance": null, "has_offers": false, "name": "Wency's Cafe", "longitude": -84.53149, "has_menu": false, "awards": null, "user_review_count": 0}, {"business_operation_status": 1, "rating": null, "neighborhood": null, "image": null, "scorecard": null, "featured": false, "sample_categories": "Restaurants, Cafes", "public_id": "atlanta-cafe-douglasville", "id": 745606630, "votes": null, "tagline": null, "has_video": false, "website": null, "offers": null, "latitude": 33.699721, "politanName": "Atlanta, GA Metro ", "phone_number": "7706356588", "tags": [{"primary": false, "id": 6190, "name": "Cafes"}, {"primary": true, "id": 1722, "name": "Restaurants"}], "fax_number": null, "expansion": {"count": null, "uri": null}, "impression_id": "000b0000009ead985161c74bcf82c5fb90866f84f8", "profile": "http://www.citysearch.com/profile/745606630/douglasville_ga/atlanta_cafe.html", "address": {"city": "Douglasville", "state": "GA", "street": "3869 Chapel Hill Rd", "postal_code": "30135"}, "capProviderId": null, "distance": null, "has_offers": false, "name": "Atlanta Cafe", "longitude": -84.7166, "has_menu": false, "awards": null, "user_review_count": 1}, {"business_operation_status": 1, "rating": null, "neighborhood": "Southwest, Southwest", "image": null, "scorecard": null, "featured": false, "sample_categories": "Restaurants, Seafood", "public_id": "boston-supreme-fish-atlanta", "id": 3006427, "votes": null, "tagline": null, "has_video": false, "website": "http://www.citysearch.com/profile/external/3006427/atlanta_ga/boston_supreme_fish.html", "offers": null, "latitude": 33.750661, "politanName": "Atlanta, GA Metro ", "phone_number": "4046915800", "tags": [{"primary": false, "id": 11228, "name": "Seafood"}, {"primary": true, "id": 1722, "name": "Restaurants"}], "fax_number": null, "expansion": {"count": null, "uri": null}, "impression_id": "000b000000aa78f298cb784f7f9f2798b789d42f88", "profile": "http://www.citysearch.com/profile/3006427/atlanta_ga/boston_supreme_fish.html", "address": {"city": "Atlanta", "state": "GA", "street": "3050 Martin Luther King Jr Dr SW # M", "postal_code": "30311"}, "capProviderId": null, "distance": null, "has_offers": false, "name": "Boston Supreme Fish", "longitude": -84.486784, "has_menu": false, "awards": null, "user_review_count": 1}, {"business_operation_status": 1, "rating": null, "neighborhood": "Southwest, Southwest", "image": null, "scorecard": null, "featured": false, "sample_categories": "Seafood Markets, Restaurants, Seafood", "public_id": "baltimore-crab-seafood-atlanta-2", "id": 768807070, "votes": null, "tagline": null, "has_video": false, "website": null, "offers": null, "latitude": 33.725038, "politanName": "Atlanta, GA Metro ", "phone_number": "4045052900", "tags": [{"primary": false, "id": 1722, "name": "Restaurants"}, {"primary": false, "id": 11228, "name": "Seafood"}, {"primary": true, "id": 1719, "name": "Seafood Markets"}], "fax_number": null, "expansion": {"count": null, "uri": null}, "impression_id": "000b0000006e70d55f231948c9b2b389cc4546e0da", "profile": "http://www.citysearch.com/profile/768807070/atlanta_ga/baltimore_crab_seafood.html", "address": {"city": "Atlanta", "state": "GA", "street": "1075 Fairburn Rd SW", "postal_code": "30331"}, "capProviderId": null, "distance": null, "has_offers": false, "name": "Baltimore Crab & Seafood", "longitude": -84.510996, "has_menu": false, "awards": null, "user_review_count": 0}, {"business_operation_status": 1, "rating": null, "neighborhood": null, "image": null, "scorecard": null, "featured": false, "sample_categories": "Restaurants", "public_id": "peramang-home-taste-mableton", "id": 768803810, "votes": null, "tagline": null, "has_video": false, "website": null, "offers": null, "latitude": 33.80705, "politanName": "Atlanta, GA Metro ", "phone_number": "7709481042", "tags": [{"primary": true, "id": 1722, "name": "Restaurants"}], "fax_number": null, "expansion": {"count": null, "uri": null}, "impression_id": "000b00000056ef6e5d83f2497daec74e27bfbd5b60", "profile": "http://www.citysearch.com/profile/768803810/mableton_ga/peramang_home_taste.html", "address": {"city": "Mableton", "state": "GA", "street": "6041 Mableton Pkwy SW # 142", "postal_code": "30126"}, "capProviderId": null, "distance": null, "has_offers": false, "name": "Peramang Home Taste", "longitude": -84.569431, "has_menu": false, "awards": null, "user_review_count": 0}, {"business_operation_status": 1, "rating": null, "neighborhood": null, "image": null, "scorecard": null, "featured": false, "sample_categories": "Restaurants, Pizza", "public_id": "brooklyn-pizza-dept-austell", "id": 790776590, "votes": null, "tagline": null, "has_video": false, "website": null, "offers": null, "latitude": 33.866729, "politanName": "Atlanta, GA Metro ", "phone_number": "7709488778", "tags": [{"primary": false, "id": 1722, "name": "Restaurants"}, {"primary": true, "id": 11299, "name": "Pizza"}], "fax_number": null, "expansion": {"count": null, "uri": null}, "impression_id": "000b0000001183cac27b404378a6fa3bc514c0a061", "profile": "http://www.citysearch.com/profile/790776590/austell_ga/brooklyn_pizza_dept.html", "address": {"city": "Austell", "state": "GA", "street": "2429 E West Connector", "postal_code": "30106"}, "capProviderId": null, "distance": null, "has_offers": false, "name": "Brooklyn Pizza Dept", "longitude": -84.628044, "has_menu": false, "awards": null, "user_review_count": 0}, {"business_operation_status": 1, "rating": null, "neighborhood": null, "image": null, "scorecard": null, "featured": false, "sample_categories": "Restaurants, Barbecue Restaurants", "public_id": "beast-bone-barbecue-mableton", "id": 777755900, "votes": null, "tagline": null, "has_video": false, "website": null, "offers": null, "latitude": 33.805377, "politanName": "Atlanta, GA Metro ", "phone_number": "7707390002", "tags": [{"primary": false, "id": 1724, "name": "Barbecue Restaurants"}, {"primary": true, "id": 1722, "name": "Restaurants"}], "fax_number": null, "expansion": {"count": null, "uri": null}, "impression_id": "000b00000014c46d0d61f14d3181715ae933f3a764", "profile": "http://www.citysearch.com/profile/777755900/mableton_ga/beast_bone_barbecue.html", "address": {"city": "Mableton", "state": "GA", "street": "1025 Veterans Memorial Hwy Se", "postal_code": "30126"}, "capProviderId": null, "distance": null, "has_offers": false, "name": "Beast Bone Barbecue", "longitude": -84.52581, "has_menu": false, "awards": null, "user_review_count": 0}, {"business_operation_status": 1, "rating": null, "neighborhood": null, "image": null, "scorecard": null, "featured": false, "sample_categories": "Restaurants", "public_id": "hungry-international-inc-douglasville", "id": 647344150, "votes": null, "tagline": null, "has_video": false, "website": null, "offers": null, "latitude": 33.730618, "politanName": "Atlanta, GA Metro ", "phone_number": "7709493787", "tags": [{"primary": true, "id": 1722, "name": "Restaurants"}], "fax_number": null, "expansion": {"count": null, "uri": null}, "impression_id": "000b0000004d56a7c46ef3434fa1c378771558ba44", "profile": "http://www.citysearch.com/profile/647344150/douglasville_ga/hungry_international_inc.html", "address": {"city": "Douglasville", "state": "GA", "street": "2765 Whisper Trl", "postal_code": "30135"}, "capProviderId": null, "distance": null, "has_offers": false, "name": "Hungry International Inc", "longitude": -84.684205, "has_menu": false, "awards": null, "user_review_count": 0}, {"business_operation_status": 1, "rating": null, "neighborhood": null, "image": null, "scorecard": null, "featured": false, "sample_categories": "Restaurants", "public_id": "swerve-grill-atlanta", "id": 609264864, "votes": null, "tagline": null, "has_video": false, "website": null, "offers": null, "latitude": 33.666903, "politanName": "Atlanta, GA Metro ", "phone_number": "4046008384", "tags": [{"primary": true, "id": 1722, "name": "Restaurants"}], "fax_number": null, "expansion": {"count": null, "uri": null}, "impression_id": "000b000000f2ffbc09dc294214a0b91a48974e8684", "profile": "http://www.citysearch.com/profile/609264864/atlanta_ga/swerve_grill.html", "address": {"city": "Atlanta", "state": "GA", "street": "3220 Butner Rd SW", "postal_code": "30331"}, "capProviderId": null, "distance": null, "has_offers": false, "name": "Swerve Grill", "longitude": -84.549467, "has_menu": false, "awards": null, "user_review_count": 0}, {"business_operation_status": 1, "rating": null, "neighborhood": null, "image": null, "scorecard": null, "featured": false, "sample_categories": "Restaurants, Traditional American", "public_id": "huddle-house-austell", "id": 777678800, "votes": null, "tagline": null, "has_video": false, "website": "http://www.citysearch.com/profile/external/777678800/austell_ga/huddle_house.html", "offers": null, "latitude": 33.828577, "politanName": "Atlanta, GA Metro ", "phone_number": "7709488283", "tags": [{"primary": false, "id": 11190, "name": "Traditional American"}, {"primary": true, "id": 1722, "name": "Restaurants"}], "fax_number": null, "expansion": {"count": null, "uri": null}, "impression_id": "000b000000ddbd8958432340dcad9fdcf249e7d6e4", "profile": "http://www.citysearch.com/profile/777678800/austell_ga/huddle_house.html", "address": {"city": "Austell", "state": "GA", "street": "5150 Austell Rd", "postal_code": "30106"}, "capProviderId": null, "distance": null, "has_offers": false, "name": "Huddle House", "longitude": -84.614608, "has_menu": true, "awards": null, "user_review_count": 0}, {"business_operation_status": 1, "rating": null, "neighborhood": null, "image": null, "scorecard": null, "featured": false, "sample_categories": "Restaurants, Carry Out, Hamburgers", "public_id": "krystal-austell-2", "id": 777799400, "votes": null, "tagline": null, "has_video": false, "website": null, "offers": null, "latitude": 33.854675, "politanName": "Atlanta, GA Metro ", "phone_number": "7709449191", "tags": [{"primary": false, "id": 11247, "name": "Carry Out"}, {"primary": false, "id": 11270, "name": "Hamburgers"}, {"primary": true, "id": 1722, "name": "Restaurants"}], "fax_number": null, "expansion": {"count": null, "uri": null}, "impression_id": "000b000000d3f9a99a249a47bf8b14ca7e253e3547", "profile": "http://www.citysearch.com/profile/777799400/austell_ga/krystal.html", "address": {"city": "Austell", "state": "GA", "street": "4075 Austell Rd", "postal_code": "30106"}, "capProviderId": null, "distance": null, "has_offers": false, "name": "Krystal", "longitude": -84.602438, "has_menu": true, "awards": null, "user_review_count": 0}, {"business_operation_status": 1, "rating": null, "neighborhood": null, "image": null, "scorecard": null, "featured": false, "sample_categories": "Restaurants, Traditional American, Carry Out", "public_id": "ihop-restaurant-austell-2", "id": 787124400, "votes": null, "tagline": null, "has_video": false, "website": null, "offers": null, "latitude": 33.815341, "politanName": "Atlanta, GA Metro ", "phone_number": "6789454311", "tags": [{"primary": false, "id": 11190, "name": "Traditional American"}, {"primary": false, "id": 11247, "name": "Carry Out"}, {"primary": true, "id": 1722, "name": "Restaurants"}], "fax_number": null, "expansion": {"count": null, "uri": null}, "impression_id": "000b00000019a5aa22f25d45f88939539164f2b36b", "profile": "http://www.citysearch.com/profile/787124400/austell_ga/ihop_restaurant.html", "address": {"city": "Austell", "state": "GA", "street": "1870 E W", "postal_code": "30106"}, "capProviderId": null, "distance": null, "has_offers": false, "name": "IHOP Restaurant", "longitude": -84.597977, "has_menu": false, "awards": null, "user_review_count": 0}, {"business_operation_status": 1, "rating": null, "neighborhood": null, "image": null, "scorecard": null, "featured": false, "sample_categories": "Barbecue Restaurants, Restaurants", "public_id": "biggmans-bbq-atlanta", "id": 713443110, "votes": null, "tagline": null, "has_video": false, "website": null, "offers": null, "latitude": 33.666019, "politanName": "Atlanta, GA Metro ", "phone_number": "6789732561", "tags": [{"primary": false, "id": 1722, "name": "Restaurants"}, {"primary": true, "id": 1724, "name": "Barbecue Restaurants"}], "fax_number": null, "expansion": {"count": null, "uri": null}, "impression_id": "000b000000978aef79f9dc4f2a9a5b6fbe5618b5b7", "profile": "http://www.citysearch.com/profile/713443110/atlanta_ga/biggman_s_bbq.html", "address": {"city": "Atlanta", "state": "GA", "street": "3220 Butner Rd Sw", "postal_code": "30331"}, "capProviderId": null, "distance": null, "has_offers": false, "name": "Biggman's BBQ", "longitude": -84.550846, "has_menu": false, "awards": null, "user_review_count": 0}, {"business_operation_status": 1, "rating": null, "neighborhood": "Southwest, Southwest", "image": null, "scorecard": null, "featured": false, "sample_categories": "Restaurants, Delis And Delicatessens, Sandwich Shops, Carry Out", "public_id": "subway-atlanta-114", "id": 798821840, "votes": null, "tagline": null, "has_video": false, "website": "http://www.citysearch.com/profile/external/798821840/atlanta_ga/subway.html", "offers": null, "latitude": 33.698565, "politanName": "Atlanta, GA Metro ", "phone_number": "4046968866", "tags": [{"primary": false, "id": 1727, "name": "Delis And Delicatessens"}, {"primary": false, "id": 1736, "name": "Sandwich Shops"}, {"primary": false, "id": 11247, "name": "Carry Out"}, {"primary": true, "id": 1722, "name": "Restaurants"}], "fax_number": null, "expansion": {"count": null, "uri": null}, "impression_id": "000b0000002abc0c5f67624b63809092e41b33ca1b", "profile": "http://www.citysearch.com/profile/798821840/atlanta_ga/subway.html", "address": {"city": "Atlanta", "state": "GA", "street": "1105 Res Ctr Atl Dr Sw # D", "postal_code": "30331"}, "capProviderId": null, "distance": null, "has_offers": false, "name": "SUBWAY", "longitude": -84.543187, "has_menu": false, "awards": null, "user_review_count": 0}, {"business_operation_status": 1, "rating": null, "neighborhood": null, "image": null, "scorecard": null, "featured": false, "sample_categories": "Restaurants", "public_id": "aprils-cafe-lithia", "id": 801079500, "votes": null, "tagline": null, "has_video": false, "website": null, "offers": null, "latitude": 33.758037, "politanName": "Atlanta, GA Metro ", "phone_number": "7708205007", "tags": [{"primary": true, "id": 1722, "name": "Restaurants"}], "fax_number": null, "expansion": {"count": null, "uri": null}, "impression_id": "000b000000c827499f168541328b8ec8ee31ea434d", "profile": "http://www.citysearch.com/profile/801079500/lithia_springs_ga/april_s_cafe.html", "address": {"city": "Lithia Springs", "state": "GA", "street": "1752 Lee Rd # 1754", "postal_code": "30122"}, "capProviderId": null, "distance": null, "has_offers": false, "name": "April's Cafe", "longitude": -84.651202, "has_menu": false, "awards": null, "user_review_count": 0}, {"business_operation_status": 1, "rating": null, "neighborhood": null, "image": null, "scorecard": null, "featured": false, "sample_categories": "Coffeehouses", "public_id": "coffee-collection-atlanta", "id": 815672000, "votes": null, "tagline": null, "has_video": false, "website": null, "offers": null, "latitude": 33.758773, "politanName": "Atlanta, GA Metro ", "phone_number": "4043673527", "tags": [{"primary": true, "id": 1726, "name": "Coffeehouses"}], "fax_number": null, "expansion": {"count": null, "uri": null}, "impression_id": "000b00000023b9f3ca9268426d9e75660585dc0f93", "profile": "http://www.citysearch.com/profile/815672000/atlanta_ga/coffee_collection.html", "address": {"city": "Atlanta", "state": "GA", "street": "110 Selig Dr SW", "postal_code": "30336"}, "capProviderId": null, "distance": null, "has_offers": false, "name": "Coffee Collection", "longitude": -84.538748, "has_menu": false, "awards": null, "user_review_count": 0}, {"business_operation_status": 0, "rating": null, "neighborhood": null, "image": null, "scorecard": null, "featured": false, "sample_categories": "Delis And Delicatessens", "public_id": "sweetwater-deli-lithia", "id": 751353730, "votes": null, "tagline": null, "has_video": false, "website": null, "offers": null, "latitude": 33.785508, "politanName": "Atlanta, GA Metro ", "phone_number": "7709480760", "tags": [{"primary": true, "id": 1727, "name": "Delis And Delicatessens"}], "fax_number": null, "expansion": {"count": null, "uri": null}, "impression_id": "000b00000015125727207e4b4d9e8717a85575a3cf", "profile": "http://www.citysearch.com/profile/751353730/lithia_springs_ga/sweetwater_deli.html", "address": {"city": "Lithia Springs", "state": "GA", "street": "6990 S Sweetwater Rd", "postal_code": "30122"}, "capProviderId": null, "distance": null, "has_offers": false, "name": "Sweetwater Deli", "longitude": -84.655647, "has_menu": false, "awards": null, "user_review_count": 0}, {"business_operation_status": 1, "rating": null, "neighborhood": null, "image": null, "scorecard": null, "featured": false, "sample_categories": "Restaurants, Barbecue Restaurants, Carry Out", "public_id": "mani-mani-hotwings-grill-mableton", "id": 768833430, "votes": null, "tagline": null, "has_video": false, "website": null, "offers": null, "latitude": 33.802019, "politanName": "Atlanta, GA Metro ", "phone_number": "7707394999", "tags": [{"primary": false, "id": 1724, "name": "Barbecue Restaurants"}, {"primary": false, "id": 11247, "name": "Carry Out"}, {"primary": true, "id": 1722, "name": "Restaurants"}], "fax_number": null, "expansion": {"count": null, "uri": null}, "impression_id": "000b0000004974a4118edf40d49201d67807c77a85", "profile": "http://www.citysearch.com/profile/768833430/mableton_ga/mani_mani_hotwings_grill.html", "address": {"city": "Mableton", "state": "GA", "street": "6200 Mableton Pkwy SW # 102", "postal_code": "30126"}, "capProviderId": null, "distance": null, "has_offers": false, "name": "Mani & Mani Hotwings Grill", "longitude": -84.568518, "has_menu": false, "awards": null, "user_review_count": 0}, {"business_operation_status": 1, "rating": null, "neighborhood": null, "image": null, "scorecard": null, "featured": false, "sample_categories": "Restaurants", "public_id": "williebes-sisters-southern-mableton", "id": 803550780, "votes": null, "tagline": null, "has_video": false, "website": null, "offers": null, "latitude": 33.788903, "politanName": "Atlanta, GA Metro ", "phone_number": "6784021792", "tags": [{"primary": true, "id": 1722, "name": "Restaurants"}], "fax_number": null, "expansion": {"count": null, "uri": null}, "impression_id": "000b00000003d3f7e8181f4e3bace1066f3d756e53", "profile": "http://www.citysearch.com/profile/803550780/mableton_ga/williebe_s_sisters_southern.html", "address": {"city": "Mableton", "state": "GA", "street": "705 S Gordon Rd Sw # 110", "postal_code": "30126"}, "capProviderId": null, "distance": null, "has_offers": false, "name": "Williebe's Sisters Southern", "longitude": -84.575373, "has_menu": false, "awards": null, "user_review_count": 0}], "histograms": [], "tag_ids": [1722], "uri": "http://api.citygridmedia.com:8080/search/places/v2/search/where?has_offers=false&type=restaurant&format=json&page=12&where=30168&rpp=50&histograms=false&publisher=10000009598&region_type=circle", "did_you_mean": "", "regions": [{"latitude": 33.78436, "default_radius": 3.57, "type": "postal_code", "name": "30168", "longitude": -84.586443}], "call_id": "000b00000028e194b9672c420a8cad3ac46ddd7719", "first_hit": 551, "total_hits": 592, "geo_ids": [26319], "page": 12, "last_hit": 592}}