{"results": {"rpp": 50, "locations": [{"business_operation_status": 1, "rating": null, "neighborhood": null, "image": null, "scorecard": null, "featured": false, "sample_categories": "Restaurants", "public_id": "gorins-homemade-cafe-atlanta", "id": 3024655, "votes": null, "tagline": null, "has_video": false, "website": null, "offers": null, "latitude": 33.689079, "politanName": "Atlanta, GA Metro ", "phone_number": "4043494194", "tags": [{"primary": true, "id": 1722, "name": "Restaurants"}], "fax_number": null, "expansion": {"count": null, "uri": null}, "impression_id": "000b0000005b3c027cf2504ba88dcd17729e13cc03", "profile": "http://www.citysearch.com/profile/3024655/atlanta_ga/gorin_s_homemade_cafe.html", "address": {"city": "Atlanta", "state": "GA", "street": "215 Canaan Glen Way SW", "postal_code": "30331"}, "capProviderId": null, "distance": null, "has_offers": false, "name": "Gorin's Homemade Cafe", "longitude": -84.582304, "has_menu": false, "awards": null, "user_review_count": 0}, {"business_operation_status": 1, "rating": null, "neighborhood": "Southwest, Southwest", "image": null, "scorecard": null, "featured": false, "sample_categories": "Coffee & Tea Shops, Restaurants", "public_id": "best-blends-latte-cafe-atlanta", "id": 748265870, "votes": null, "tagline": null, "has_video": false, "website": null, "offers": null, "latitude": 33.702636, "politanName": "Atlanta, GA Metro ", "phone_number": "4043464600", "tags": [{"primary": false, "id": 1711, "name": "Coffee & Tea Shops"}, {"primary": true, "id": 1722, "name": "Restaurants"}], "fax_number": null, "expansion": {"count": null, "uri": null}, "impression_id": "000b000000c0a65f78143046708b5b6a0ebe525afa", "profile": "http://www.citysearch.com/profile/748265870/atlanta_ga/best_blends_latte_cafe.html", "address": {"city": "Atlanta", "state": "GA", "street": "1901 Niskey Lake Rd SW", "postal_code": "30331"}, "capProviderId": null, "distance": null, "has_offers": false, "name": "Best Blends Latte Cafe", "longitude": -84.529661, "has_menu": false, "awards": null, "user_review_count": 0}, {"business_operation_status": 1, "rating": null, "neighborhood": null, "image": null, "scorecard": null, "featured": false, "sample_categories": "Restaurants", "public_id": "el-rey-loco-douglasville", "id": 822950500, "votes": null, "tagline": null, "has_video": false, "website": null, "offers": null, "latitude": 33.74703, "politanName": "Atlanta, GA Metro ", "phone_number": "7705778257", "tags": [{"primary": true, "id": 1722, "name": "Restaurants"}], "fax_number": null, "expansion": {"count": null, "uri": null}, "impression_id": "000b00000080db20ce62c1468e8267e7fcad5cdcbf", "profile": "http://www.citysearch.com/profile/822950500/douglasville_ga/el_rey_loco.html", "address": {"city": "Douglasville", "state": "GA", "street": "2135 Fairburn Rd", "postal_code": "30135"}, "capProviderId": null, "distance": null, "has_offers": false, "name": "El Rey Loco", "longitude": -84.69897, "has_menu": false, "awards": null, "user_review_count": 0}, {"business_operation_status": 1, "rating": null, "neighborhood": null, "image": null, "scorecard": null, "featured": false, "sample_categories": "Restaurants", "public_id": "ejs-soul-food-restaurant-atlanta", "id": 824429360, "votes": null, "tagline": null, "has_video": false, "website": null, "offers": null, "latitude": 33.769618, "politanName": "Atlanta, GA Metro ", "phone_number": "4046966444", "tags": [{"primary": true, "id": 1722, "name": "Restaurants"}], "fax_number": null, "expansion": {"count": null, "uri": null}, "impression_id": "000b00000089fd34bb5bfd4621b47e88a50e6e11b5", "profile": "http://www.citysearch.com/profile/824429360/atlanta_ga/ejs_soul_food_restaurant.html", "address": {"city": "Atlanta", "state": "GA", "street": "4105 Fulton Industrial Blvd SW", "postal_code": "30336"}, "capProviderId": null, "distance": null, "has_offers": false, "name": "Ejs Soul Food Restaurant", "longitude": -84.521682, "has_menu": false, "awards": null, "user_review_count": 0}, {"business_operation_status": 1, "rating": null, "neighborhood": null, "image": null, "scorecard": null, "featured": false, "sample_categories": "Restaurants", "public_id": "mrs-winners-chicken-bscts-marietta", "id": 824819280, "votes": null, "tagline": null, "has_video": false, "website": null, "offers": null, "latitude": 33.863233, "politanName": "Atlanta, GA Metro ", "phone_number": "7704386204", "tags": [{"primary": true, "id": 1722, "name": "Restaurants"}], "fax_number": null, "expansion": {"count": null, "uri": null}, "impression_id": "000b00000043fa436c9bce431d9f78c3276e092498", "profile": "http://www.citysearch.com/profile/824819280/marietta_ga/mrs_winner_s_chicken_bscts.html", "address": {"city": "Marietta", "state": "GA", "street": "3710 Austell Rd SW", "postal_code": "30008"}, "capProviderId": null, "distance": null, "has_offers": false, "name": "Mrs Winner's Chicken & Bscts", "longitude": -84.596738, "has_menu": false, "awards": null, "user_review_count": 0}, {"business_operation_status": 1, "rating": null, "neighborhood": "Southwest, Southwest", "image": null, "scorecard": null, "featured": false, "sample_categories": "Restaurants, Traditional American, Family-Friendly Dining, Lunch Spot, Casual Date Spot", "public_id": "tgi-fridays-douglasville-2", "id": 603045222, "votes": null, "tagline": null, "has_video": false, "website": null, "offers": null, "latitude": 33.698565, "politanName": "Atlanta, GA Metro ", "phone_number": "4043444180", "tags": [{"primary": false, "id": 11190, "name": "Traditional American"}, {"primary": false, "id": 11263, "name": "Family-Friendly Dining"}, {"primary": false, "id": 11286, "name": "Lunch Spot"}, {"primary": false, "id": 12821, "name": "Casual Date Spot"}, {"primary": true, "id": 1722, "name": "Restaurants"}], "fax_number": null, "expansion": {"count": null, "uri": null}, "impression_id": "000b00000045f6af12ac23488080c2f02aeaf6277d", "profile": "http://www.citysearch.com/profile/603045222/douglasville_ga/t_g_i_friday_s.html", "address": {"city": "Douglasville", "state": "GA", "street": "Spine Pointe Way", "postal_code": "30331"}, "capProviderId": null, "distance": null, "has_offers": false, "name": "T.G.I. Friday's", "longitude": -84.543187, "has_menu": false, "awards": null, "user_review_count": 0}, {"business_operation_status": 1, "rating": null, "neighborhood": null, "image": null, "scorecard": null, "featured": false, "sample_categories": "Restaurants, Pizza, Carry Out", "public_id": "little-caesars-pizza-lithia", "id": 768819580, "votes": null, "tagline": null, "has_video": false, "website": "http://www.citysearch.com/profile/external/768819580/lithia_springs_ga/little_caesars_pizza.html", "offers": null, "latitude": 33.798077, "politanName": "Atlanta, GA Metro ", "phone_number": "7709480159", "tags": [{"primary": false, "id": 1722, "name": "Restaurants"}, {"primary": false, "id": 11247, "name": "Carry Out"}, {"primary": true, "id": 11299, "name": "Pizza"}], "fax_number": null, "expansion": {"count": null, "uri": null}, "impression_id": "000b0000000a84d775490e4f71a38b3e35a6094756", "profile": "http://www.citysearch.com/profile/768819580/lithia_springs_ga/little_caesars_pizza.html", "address": {"city": "Lithia Springs", "state": "GA", "street": "3046 Veterans Memorial Hwy", "postal_code": "30122"}, "capProviderId": null, "distance": null, "has_offers": false, "name": "Little Caesars Pizza", "longitude": -84.642184, "has_menu": false, "awards": null, "user_review_count": 0}, {"business_operation_status": 1, "rating": null, "neighborhood": null, "image": null, "scorecard": null, "featured": false, "sample_categories": "Restaurants", "public_id": "la-isla-dominican-cafe-mableton", "id": 796129680, "votes": null, "tagline": null, "has_video": false, "website": null, "offers": null, "latitude": 33.818318, "politanName": "Atlanta, GA Metro ", "phone_number": "6784017696", "tags": [{"primary": true, "id": 1722, "name": "Restaurants"}], "fax_number": null, "expansion": {"count": null, "uri": null}, "impression_id": "000b000000eeb3cbac106f42d09bc9beb7ae3d3534", "profile": "http://www.citysearch.com/profile/796129680/mableton_ga/la_isla_dominican_cafe.html", "address": {"city": "Mableton", "state": "GA", "street": "679 Veterans Memorial Hwy Sw", "postal_code": "30126"}, "capProviderId": null, "distance": null, "has_offers": false, "name": "La Isla Dominican Cafe", "longitude": -84.574544, "has_menu": false, "awards": null, "user_review_count": 0}, {"business_operation_status": 1, "rating": null, "neighborhood": null, "image": null, "scorecard": null, "featured": false, "sample_categories": "Restaurants", "public_id": "austell-country-cafe-austell", "id": 809553370, "votes": null, "tagline": null, "has_video": false, "website": null, "offers": null, "latitude": 33.826194, "politanName": "Atlanta, GA Metro ", "phone_number": "7707452959", "tags": [{"primary": true, "id": 1722, "name": "Restaurants"}], "fax_number": null, "expansion": {"count": null, "uri": null}, "impression_id": "000b0000006afe508dafd940c28523796745df4c5c", "profile": "http://www.citysearch.com/profile/809553370/austell_ga/austell_country_cafe.html", "address": {"city": "Austell", "state": "GA", "street": "5692 Austell Powder Springs Rd", "postal_code": "30106"}, "capProviderId": null, "distance": null, "has_offers": false, "name": "Austell Country Cafe", "longitude": -84.645431, "has_menu": false, "awards": null, "user_review_count": 0}, {"business_operation_status": 1, "rating": null, "neighborhood": null, "image": null, "scorecard": null, "featured": false, "sample_categories": "Restaurants, Pizza, Carry Out", "public_id": "pizza-pizza-atlanta", "id": 713372260, "votes": null, "tagline": null, "has_video": false, "website": "http://www.citysearch.com/profile/external/713372260/atlanta_ga/pizza_pizza.html", "offers": null, "latitude": 33.764633, "politanName": "Atlanta, GA Metro ", "phone_number": "4046992353", "tags": [{"primary": false, "id": 1722, "name": "Restaurants"}, {"primary": false, "id": 11247, "name": "Carry Out"}, {"primary": true, "id": 11299, "name": "Pizza"}], "fax_number": null, "expansion": {"count": null, "uri": null}, "impression_id": "000b00000096bcc9f8398b4d5ebf415b73c14c4951", "profile": "http://www.citysearch.com/profile/713372260/atlanta_ga/pizza_pizza.html", "address": {"city": "Atlanta", "state": "GA", "street": "4245 Shirley Dr Sw", "postal_code": "30336"}, "capProviderId": null, "distance": null, "has_offers": false, "name": "Pizza Pizza", "longitude": -84.529218, "has_menu": true, "awards": null, "user_review_count": 0}, {"business_operation_status": 1, "rating": null, "neighborhood": null, "image": null, "scorecard": null, "featured": false, "sample_categories": "Restaurants, Catering", "public_id": "tastethe-south-cafe-ctrng-atlanta", "id": 742238900, "votes": null, "tagline": null, "has_video": false, "website": null, "offers": null, "latitude": 33.764656, "politanName": "Atlanta, GA Metro ", "phone_number": "4046992999", "tags": [{"primary": false, "id": 1705, "name": "Catering"}, {"primary": true, "id": 1722, "name": "Restaurants"}], "fax_number": null, "expansion": {"count": null, "uri": null}, "impression_id": "000b0000006df8909e6de642f88b5bd6c8edb39cfa", "profile": "http://www.citysearch.com/profile/742238900/atlanta_ga/taste_the_south_cafe_ctrng.html", "address": {"city": "Atlanta", "state": "GA", "street": "304 Fulton Industrial Cir SW", "postal_code": "30336"}, "capProviderId": null, "distance": null, "has_offers": false, "name": "Taste-The South Cafe & Ctrng", "longitude": -84.53182, "has_menu": false, "awards": null, "user_review_count": 0}, {"business_operation_status": 1, "rating": null, "neighborhood": null, "image": null, "scorecard": null, "featured": false, "sample_categories": "Restaurants, Pizza", "public_id": "acg-pizza-partners-purchasing-atlanta", "id": 766766040, "votes": null, "tagline": null, "has_video": false, "website": null, "offers": null, "latitude": 33.760238, "politanName": "Atlanta, GA Metro ", "phone_number": "6787387807", "tags": [{"primary": false, "id": 1722, "name": "Restaurants"}, {"primary": true, "id": 11299, "name": "Pizza"}], "fax_number": null, "expansion": {"count": null, "uri": null}, "impression_id": "000b00000081ae6977fe6f462fad25e5e7a050f97c", "profile": "http://www.citysearch.com/profile/766766040/atlanta_ga/acg_pizza_partners_purchasing.html", "address": {"city": "Atlanta", "state": "GA", "street": "1100 Circle 75 Pkwy SE # 1500", "postal_code": "30339"}, "capProviderId": null, "distance": null, "has_offers": false, "name": "Acg Pizza Partners Purchasing", "longitude": -84.691581, "has_menu": false, "awards": null, "user_review_count": 0}, {"business_operation_status": 1, "rating": null, "neighborhood": null, "image": null, "scorecard": null, "featured": false, "sample_categories": "Restaurants, Barbecue Restaurants", "public_id": "wings-grill-mableton", "id": 787135080, "votes": null, "tagline": null, "has_video": false, "website": null, "offers": null, "latitude": 33.823999, "politanName": "Atlanta, GA Metro ", "phone_number": "7706757267", "tags": [{"primary": false, "id": 1724, "name": "Barbecue Restaurants"}, {"primary": true, "id": 1722, "name": "Restaurants"}], "fax_number": null, "expansion": {"count": null, "uri": null}, "impression_id": "000b000000b6a918f52d75439b838035b456bd9a12", "profile": "http://www.citysearch.com/profile/787135080/mableton_ga/wings_grill.html", "address": {"city": "Mableton", "state": "GA", "street": "5345 Floyd Rd Sw", "postal_code": "30126"}, "capProviderId": null, "distance": null, "has_offers": false, "name": "Wings & Grill", "longitude": -84.574687, "has_menu": false, "awards": null, "user_review_count": 0}, {"business_operation_status": 1, "rating": null, "neighborhood": "Southwest, Southwest", "image": null, "scorecard": null, "featured": false, "sample_categories": "Restaurants, Chinese", "public_id": "china-one-atlanta-2", "id": 713506080, "votes": null, "tagline": null, "has_video": false, "website": null, "offers": null, "latitude": 33.723109, "politanName": "Atlanta, GA Metro ", "phone_number": "4046996099", "tags": [{"primary": false, "id": 11252, "name": "Chinese"}, {"primary": true, "id": 1722, "name": "Restaurants"}], "fax_number": null, "expansion": {"count": null, "uri": null}, "impression_id": "000b000000413c02b016b54aa596f2e28f442debb4", "profile": "http://www.citysearch.com/profile/713506080/atlanta_ga/china_one.html", "address": {"city": "Atlanta", "state": "GA", "street": "3425 Cascade Rd Sw", "postal_code": "30311"}, "capProviderId": null, "distance": null, "has_offers": false, "name": "China One", "longitude": -84.500835, "has_menu": false, "awards": null, "user_review_count": 0}, {"business_operation_status": 1, "rating": null, "neighborhood": null, "image": null, "scorecard": null, "featured": false, "sample_categories": "Restaurants", "public_id": "tastees-deli-atlanta", "id": 809120900, "votes": null, "tagline": null, "has_video": false, "website": null, "offers": null, "latitude": 33.655898, "politanName": "Atlanta, GA Metro ", "phone_number": "7709645880", "tags": [{"primary": true, "id": 1722, "name": "Restaurants"}], "fax_number": null, "expansion": {"count": null, "uri": null}, "impression_id": "000b000000f36d200dd4ae4146955d0607f2bc9a46", "profile": "http://www.citysearch.com/profile/809120900/atlanta_ga/tastees_deli.html", "address": {"city": "Atlanta", "state": "GA", "street": "Butner-Tell", "postal_code": "30349"}, "capProviderId": null, "distance": null, "has_offers": false, "name": "Tastees Deli", "longitude": -84.557452, "has_menu": false, "awards": null, "user_review_count": 0}, {"business_operation_status": 1, "rating": null, "neighborhood": null, "image": null, "scorecard": null, "featured": false, "sample_categories": "Restaurants", "public_id": "golden-glory-cafe-mableton", "id": 627145624, "votes": null, "tagline": null, "has_video": false, "website": null, "offers": null, "latitude": 33.818318, "politanName": "Atlanta, GA Metro ", "phone_number": "6783880800", "tags": [{"primary": true, "id": 1722, "name": "Restaurants"}], "fax_number": null, "expansion": {"count": null, "uri": null}, "impression_id": "000b000000babd1eebd7df4ec18daa94bc70469910", "profile": "http://www.citysearch.com/profile/627145624/mableton_ga/golden_glory_cafe.html", "address": {"city": "Mableton", "state": "GA", "street": "679 Veterans Memorial Hwy SW", "postal_code": "30126"}, "capProviderId": null, "distance": null, "has_offers": false, "name": "Golden Glory Cafe", "longitude": -84.57454, "has_menu": false, "awards": null, "user_review_count": 0}, {"business_operation_status": 1, "rating": 9.0, "neighborhood": null, "image": null, "scorecard": null, "featured": false, "sample_categories": "Catering, Restaurants", "public_id": "jones-house-restaurant-catering-lithia-spgs", "id": 2948169, "votes": null, "tagline": null, "has_video": false, "website": null, "offers": null, "latitude": 33.789264, "politanName": "Atlanta, GA Metro ", "phone_number": "7709483287", "tags": [{"primary": false, "id": 1722, "name": "Restaurants"}, {"primary": true, "id": 1705, "name": "Catering"}], "fax_number": null, "expansion": {"count": null, "uri": null}, "impression_id": "000b000000368abfd82dbd401290bfd721fc3b9502", "profile": "http://www.citysearch.com/profile/2948169/lithia_springs_ga/jones_house_restaurant_catering.html", "address": {"city": "Lithia Springs", "state": "GA", "street": "561 Thornton Rd", "postal_code": "30122"}, "capProviderId": null, "distance": null, "has_offers": false, "name": "Jones House Restaurant & Catering", "longitude": -84.62553, "has_menu": false, "awards": null, "user_review_count": 2}, {"business_operation_status": 1, "rating": null, "neighborhood": null, "image": null, "scorecard": null, "featured": false, "sample_categories": "Restaurants, Pizza, Carry Out, MasterCard, Visa", "public_id": "mellow-mushroom-atlanta-3", "id": 605575450, "votes": null, "tagline": null, "has_video": false, "website": "http://www.citysearch.com/profile/external/605575450/atlanta_ga/mellow_mushroom.html", "offers": null, "latitude": 33.74759, "politanName": "Atlanta, GA Metro ", "phone_number": "4045246133", "tags": [{"primary": false, "id": 1722, "name": "Restaurants"}, {"primary": false, "id": 11247, "name": "Carry Out"}, {"primary": false, "id": 11361, "name": "MasterCard"}, {"primary": false, "id": 11382, "name": "Visa"}, {"primary": true, "id": 11299, "name": "Pizza"}], "fax_number": null, "expansion": {"count": null, "uri": null}, "impression_id": "000b000000a0d551fe6d3d4a9dbcd7847c1eb350c7", "profile": "http://www.citysearch.com/profile/605575450/atlanta_ga/mellow_mushroom.html", "address": {"city": "Atlanta", "state": "GA", "street": "150 Great Southwest Pkwy Sw", "postal_code": "30336"}, "capProviderId": null, "distance": null, "has_offers": false, "name": "Mellow Mushroom", "longitude": -84.560883, "has_menu": false, "awards": null, "user_review_count": 0}, {"business_operation_status": 1, "rating": null, "neighborhood": null, "image": null, "scorecard": null, "featured": false, "sample_categories": "Restaurants", "public_id": "caribbean-hot-spot-douglasville", "id": 612073844, "votes": null, "tagline": null, "has_video": false, "website": null, "offers": null, "latitude": 33.69212, "politanName": "Atlanta, GA Metro ", "phone_number": "7709492299", "tags": [{"primary": true, "id": 1722, "name": "Restaurants"}], "fax_number": null, "expansion": {"count": null, "uri": null}, "impression_id": "000b000000d287aa934bcd476293ce52c8f166fad3", "profile": "http://www.citysearch.com/profile/612073844/douglasville_ga/caribbean_hot_spot.html", "address": {"city": "Douglasville", "state": "GA", "street": "4081 Anneewakee Rd", "postal_code": "30135"}, "capProviderId": null, "distance": null, "has_offers": false, "name": "Caribbean Hot Spot", "longitude": -84.699613, "has_menu": true, "awards": null, "user_review_count": 1}, {"business_operation_status": 1, "rating": null, "neighborhood": null, "image": null, "scorecard": null, "featured": false, "sample_categories": "Restaurants, Delis And Delicatessens, Sandwich Shops, Carry Out", "public_id": "subway-atlanta-64", "id": 655847540, "votes": null, "tagline": null, "has_video": false, "website": "http://www.citysearch.com/profile/external/655847540/atlanta_ga/subway.html", "offers": null, "latitude": 33.699525, "politanName": "Atlanta, GA Metro ", "phone_number": "6789732674", "tags": [{"primary": false, "id": 1727, "name": "Delis And Delicatessens"}, {"primary": false, "id": 1736, "name": "Sandwich Shops"}, {"primary": false, "id": 11247, "name": "Carry Out"}, {"primary": true, "id": 1722, "name": "Restaurants"}], "fax_number": null, "expansion": {"count": null, "uri": null}, "impression_id": "000b0000007f0d23fd294b4c2ca7ad8ecefead0459", "profile": "http://www.citysearch.com/profile/655847540/atlanta_ga/subway.html", "address": {"city": "Atlanta", "state": "GA", "street": "5819 Campbellton Rd Sw", "postal_code": "30331"}, "capProviderId": null, "distance": null, "has_offers": false, "name": "Subway", "longitude": -84.576106, "has_menu": false, "awards": null, "user_review_count": 0}, {"business_operation_status": 1, "rating": null, "neighborhood": null, "image": null, "scorecard": null, "featured": false, "sample_categories": "Restaurants", "public_id": "cookin-good-atlanta", "id": 655875080, "votes": null, "tagline": null, "has_video": false, "website": null, "offers": null, "latitude": 33.657546, "politanName": "Atlanta, GA Metro ", "phone_number": "7707749845", "tags": [{"primary": true, "id": 1722, "name": "Restaurants"}], "fax_number": null, "expansion": {"count": null, "uri": null}, "impression_id": "000b0000009052e417b9ed438b88a753a260186a45", "profile": "http://www.citysearch.com/profile/655875080/atlanta_ga/cookin_good.html", "address": {"city": "Atlanta", "state": "GA", "street": "140 Fitzgerald Pl", "postal_code": "30349"}, "capProviderId": null, "distance": null, "has_offers": false, "name": "Cookin Good", "longitude": -84.627877, "has_menu": false, "awards": null, "user_review_count": 0}, {"business_operation_status": 1, "rating": null, "neighborhood": "Southwest, Southwest", "image": null, "scorecard": null, "featured": false, "sample_categories": "Delis And Delicatessens", "public_id": "kroger-deli-atlanta-21", "id": 706584160, "votes": null, "tagline": null, "has_video": false, "website": null, "offers": null, "latitude": 33.723109, "politanName": "Atlanta, GA Metro ", "phone_number": "4045058855", "tags": [{"primary": true, "id": 1727, "name": "Delis And Delicatessens"}], "fax_number": null, "expansion": {"count": null, "uri": null}, "impression_id": "000b0000001675388adae343eabbb3f0b41259c712", "profile": "http://www.citysearch.com/profile/706584160/atlanta_ga/kroger_deli.html", "address": {"city": "Atlanta", "state": "GA", "street": "3425 Cascade Rd Sw # 104", "postal_code": "30311"}, "capProviderId": null, "distance": null, "has_offers": false, "name": "Kroger Deli", "longitude": -84.500835, "has_menu": false, "awards": null, "user_review_count": 0}, {"business_operation_status": 1, "rating": null, "neighborhood": null, "image": null, "scorecard": null, "featured": false, "sample_categories": "Food Delivery", "public_id": "beffalicious-mableton", "id": 809126440, "votes": null, "tagline": null, "has_video": false, "website": null, "offers": null, "latitude": 33.817489, "politanName": "Atlanta, GA Metro ", "phone_number": "7707452381", "tags": [{"primary": true, "id": 11267, "name": "Food Delivery"}], "fax_number": null, "expansion": {"count": null, "uri": null}, "impression_id": "000b00000028fde75b73c54490ae7eb4b90b670f2e", "profile": "http://www.citysearch.com/profile/809126440/mableton_ga/beffalicious.html", "address": {"city": "Mableton", "state": "GA", "street": "5590 Mableton Pkwy SW", "postal_code": "30126"}, "capProviderId": null, "distance": null, "has_offers": false, "name": "Beffalicious", "longitude": -84.575963, "has_menu": false, "awards": null, "user_review_count": 0}, {"business_operation_status": 1, "rating": null, "neighborhood": null, "image": null, "scorecard": null, "featured": false, "sample_categories": "Restaurants", "public_id": "mcdonald-ronda-mableton", "id": 812801220, "votes": null, "tagline": null, "has_video": false, "website": null, "offers": null, "latitude": 33.805594, "politanName": "Atlanta, GA Metro ", "phone_number": "7707398785", "tags": [{"primary": true, "id": 1722, "name": "Restaurants"}], "fax_number": null, "expansion": {"count": null, "uri": null}, "impression_id": "000b000000e40f14eb7b5841bdbe32505ac5e5619a", "profile": "http://www.citysearch.com/profile/812801220/mableton_ga/mcdonald_ronda.html", "address": {"city": "Mableton", "state": "GA", "street": "6066 Heritage Way SE", "postal_code": "30126"}, "capProviderId": null, "distance": null, "has_offers": false, "name": "Mcdonald & Ronda", "longitude": -84.552065, "has_menu": false, "awards": null, "user_review_count": 0}, {"business_operation_status": 1, "rating": null, "neighborhood": null, "image": null, "scorecard": null, "featured": false, "sample_categories": "Restaurants, Delis And Delicatessens, Sandwich Shops, Carry Out", "public_id": "blimpie-subs-salads-atlanta-45", "id": 815072890, "votes": null, "tagline": null, "has_video": false, "website": null, "offers": null, "latitude": 33.762943, "politanName": "Atlanta, GA Metro ", "phone_number": "4046913663", "tags": [{"primary": false, "id": 1727, "name": "Delis And Delicatessens"}, {"primary": false, "id": 1736, "name": "Sandwich Shops"}, {"primary": false, "id": 11247, "name": "Carry Out"}, {"primary": true, "id": 1722, "name": "Restaurants"}], "fax_number": null, "expansion": {"count": null, "uri": null}, "impression_id": "000b000000026c9c0361b44866a1c1f6bd4f723bb4", "profile": "http://www.citysearch.com/profile/815072890/atlanta_ga/blimpie_subs_salads.html", "address": {"city": "Atlanta", "state": "GA", "street": "4485 Fult Ind Blvd SW # J", "postal_code": "30336"}, "capProviderId": null, "distance": null, "has_offers": false, "name": "Blimpie Subs & Salads", "longitude": -84.534733, "has_menu": false, "awards": null, "user_review_count": 0}, {"business_operation_status": 1, "rating": null, "neighborhood": null, "image": null, "scorecard": null, "featured": false, "sample_categories": "Doughnut Shops, Coffeehouses", "public_id": "dunkin-donuts-atlanta-20", "id": 622130430, "votes": null, "tagline": null, "has_video": false, "website": "http://www.citysearch.com/profile/external/622130430/atlanta_ga/dunkin_donuts.html", "offers": null, "latitude": 33.73177, "politanName": "Atlanta, GA Metro ", "phone_number": "4043444157", "tags": [{"primary": false, "id": 1726, "name": "Coffeehouses"}, {"primary": true, "id": 1734, "name": "Doughnut Shops"}], "fax_number": null, "expansion": {"count": null, "uri": null}, "impression_id": "000b0000009cf536b692bd4d6aa928c8b11fb903b3", "profile": "http://www.citysearch.com/profile/622130430/atlanta_ga/dunkin_donuts.html", "address": {"city": "Atlanta", "state": "GA", "street": "5626 Fulton Industrial Blvd Sw", "postal_code": "30336"}, "capProviderId": null, "distance": null, "has_offers": false, "name": "Dunkin' Donuts", "longitude": -84.569265, "has_menu": false, "awards": null, "user_review_count": 0}, {"business_operation_status": 1, "rating": null, "neighborhood": null, "image": null, "scorecard": null, "featured": false, "sample_categories": "Restaurants", "public_id": "come-home-eatery-atlanta", "id": 762744120, "votes": null, "tagline": null, "has_video": false, "website": null, "offers": null, "latitude": 33.730411, "politanName": "Atlanta, GA Metro ", "phone_number": "4047345795", "tags": [{"primary": true, "id": 1722, "name": "Restaurants"}], "fax_number": null, "expansion": {"count": null, "uri": null}, "impression_id": "000b00000073191f3e6f2a49c786f99ecb80f5166d", "profile": "http://www.citysearch.com/profile/762744120/atlanta_ga/come_home_eatery.html", "address": {"city": "Atlanta", "state": "GA", "street": "3580 Cascade Rd SW", "postal_code": "30331"}, "capProviderId": null, "distance": null, "has_offers": false, "name": "Come Home Eatery", "longitude": -84.566581, "has_menu": false, "awards": null, "user_review_count": 0}, {"business_operation_status": 1, "rating": null, "neighborhood": null, "image": null, "scorecard": null, "featured": false, "sample_categories": "Barbecue Restaurants, Restaurants", "public_id": "hamdeezee-bbq-atlanta", "id": 793271790, "votes": null, "tagline": null, "has_video": false, "website": null, "offers": null, "latitude": 33.76963, "politanName": "Atlanta, GA Metro ", "phone_number": "4045499780", "tags": [{"primary": false, "id": 1722, "name": "Restaurants"}, {"primary": true, "id": 1724, "name": "Barbecue Restaurants"}], "fax_number": null, "expansion": {"count": null, "uri": null}, "impression_id": "000b00000080624346bdb74f6e91a2b56cf5ac45fe", "profile": "http://www.citysearch.com/profile/793271790/atlanta_ga/hamdeezee_bbq.html", "address": {"city": "Atlanta", "state": "GA", "street": "2478 Ml King Jr Dr Sw", "postal_code": "30311"}, "capProviderId": null, "distance": null, "has_offers": false, "name": "Hamdeezee BBQ", "longitude": -84.518939, "has_menu": false, "awards": null, "user_review_count": 0}, {"business_operation_status": 1, "rating": null, "neighborhood": null, "image": null, "scorecard": null, "featured": false, "sample_categories": "Restaurants", "public_id": "kathys-restaurant-douglasville", "id": 814804910, "votes": null, "tagline": null, "has_video": false, "website": null, "offers": null, "latitude": 33.76261, "politanName": "Atlanta, GA Metro ", "phone_number": "7709497982", "tags": [{"primary": true, "id": 1722, "name": "Restaurants"}], "fax_number": null, "expansion": {"count": null, "uri": null}, "impression_id": "000b0000001f533a0fa2204f2caed44463aa7c6b95", "profile": "http://www.citysearch.com/profile/814804910/douglasville_ga/kathy_s_restaurant.html", "address": {"city": "Douglasville", "state": "GA", "street": "5848 Bankhead Hwy # 1", "postal_code": "30134"}, "capProviderId": null, "distance": null, "has_offers": false, "name": "Kathy's Restaurant", "longitude": -84.725312, "has_menu": false, "awards": null, "user_review_count": 0}, {"business_operation_status": 1, "rating": null, "neighborhood": null, "image": null, "scorecard": null, "featured": false, "sample_categories": "Restaurants", "public_id": "zackbys-endless-chicken-llc-austell", "id": 837841690, "votes": null, "tagline": null, "has_video": false, "website": null, "offers": null, "latitude": 33.867601, "politanName": "Atlanta, GA Metro ", "phone_number": "7702221550", "tags": [{"primary": true, "id": 1722, "name": "Restaurants"}], "fax_number": null, "expansion": {"count": null, "uri": null}, "impression_id": "000b0000005b1f4dd1c719499d800b15619e7ee852", "profile": "http://www.citysearch.com/profile/837841690/austell_ga/zackby_s_endless_chicken_llc.html", "address": {"city": "Austell", "state": "GA", "street": "2603 E West Connector", "postal_code": "30106"}, "capProviderId": null, "distance": null, "has_offers": false, "name": "Zackby's Endless Chicken LLC", "longitude": -84.631045, "has_menu": false, "awards": null, "user_review_count": 0}, {"business_operation_status": 1, "rating": null, "neighborhood": null, "image": null, "scorecard": null, "featured": false, "sample_categories": "Catering, Restaurants, Pizza, Carry Out, Food Delivery", "public_id": "pizza-hut-mableton-2", "id": 835803370, "votes": null, "tagline": null, "has_video": false, "website": "http://www.citysearch.com/profile/external/835803370/mableton_ga/pizza_hut.html", "offers": null, "latitude": 33.833318, "politanName": "Atlanta, GA Metro ", "phone_number": "7707397739", "tags": [{"primary": false, "id": 1705, "name": "Catering"}, {"primary": false, "id": 1722, "name": "Restaurants"}, {"primary": false, "id": 11247, "name": "Carry Out"}, {"primary": false, "id": 11267, "name": "Food Delivery"}, {"primary": true, "id": 11299, "name": "Pizza"}], "fax_number": null, "expansion": {"count": null, "uri": null}, "impression_id": "000b000000f305c52fa6e747e19cabeaa3620664ec", "profile": "http://www.citysearch.com/profile/835803370/mableton_ga/pizza_hut.html", "address": {"city": "Mableton", "state": "GA", "street": "5005 Floyd Rd SW 910", "postal_code": "30126"}, "capProviderId": null, "distance": null, "has_offers": false, "name": "Pizza Hut", "longitude": -84.575479, "has_menu": true, "awards": null, "user_review_count": 0}, {"business_operation_status": 1, "rating": null, "neighborhood": null, "image": null, "scorecard": null, "featured": false, "sample_categories": "Restaurants, Delis And Delicatessens, Sandwich Shops, Carry Out, Shop Online", "public_id": "quiznos-subs-douglasville", "id": 764906660, "votes": null, "tagline": null, "has_video": false, "website": "http://www.citysearch.com/profile/external/764906660/douglasville_ga/quiznos_subs.html", "offers": null, "latitude": 33.705415, "politanName": "Atlanta, GA Metro ", "phone_number": "7704287850", "tags": [{"primary": false, "id": 1727, "name": "Delis And Delicatessens"}, {"primary": false, "id": 1736, "name": "Sandwich Shops"}, {"primary": false, "id": 11247, "name": "Carry Out"}, {"primary": false, "id": 11375, "name": "Shop Online"}, {"primary": true, "id": 1722, "name": "Restaurants"}], "fax_number": null, "expansion": {"count": null, "uri": null}, "impression_id": "000b0000003f76daa3e70e45f5890140bf8a6a4d6a", "profile": "http://www.citysearch.com/profile/764906660/douglasville_ga/quiznos_subs.html", "address": {"city": "Douglasville", "state": "GA", "street": "3848 Welham Green Ct", "postal_code": "30135"}, "capProviderId": null, "distance": null, "has_offers": false, "name": "Quiznos Subs", "longitude": -84.70646, "has_menu": false, "awards": null, "user_review_count": 0}, {"business_operation_status": 1, "rating": null, "neighborhood": null, "image": null, "scorecard": null, "featured": false, "sample_categories": "Restaurants, Barbecue Restaurants", "public_id": "taco-wings-lithia", "id": 770793090, "votes": null, "tagline": null, "has_video": false, "website": null, "offers": null, "latitude": 33.785807, "politanName": "Atlanta, GA Metro ", "phone_number": "7709481777", "tags": [{"primary": false, "id": 1724, "name": "Barbecue Restaurants"}, {"primary": true, "id": 1722, "name": "Restaurants"}], "fax_number": null, "expansion": {"count": null, "uri": null}, "impression_id": "000b000000e1f84aaae0ae467c9441256438fc214c", "profile": "http://www.citysearch.com/profile/770793090/lithia_springs_ga/taco_wings.html", "address": {"city": "Lithia Springs", "state": "GA", "street": "6945 S Sweetwater Rd", "postal_code": "30122"}, "capProviderId": null, "distance": null, "has_offers": false, "name": "Taco Wings", "longitude": -84.656793, "has_menu": false, "awards": null, "user_review_count": 0}, {"business_operation_status": 1, "rating": null, "neighborhood": null, "image": null, "scorecard": null, "featured": false, "sample_categories": "Ice Cream Parlors, Restaurants, Dessert Shops", "public_id": "tongue-slide-water-ice-mableton", "id": 41608412, "votes": null, "tagline": null, "has_video": false, "website": null, "offers": null, "latitude": 33.813153, "politanName": "Atlanta, GA Metro ", "phone_number": "7707452233", "tags": [{"primary": false, "id": 1722, "name": "Restaurants"}, {"primary": false, "id": 1728, "name": "Dessert Shops"}, {"primary": true, "id": 1730, "name": "Ice Cream Parlors"}], "fax_number": null, "expansion": {"count": null, "uri": null}, "impression_id": "000b000000b6a3533eb1c242f7ad21dc2da0140fd5", "profile": "http://www.citysearch.com/profile/41608412/mableton_ga/tongue_slide_water_ice.html", "address": {"city": "Mableton", "state": "GA", "street": "296 Veterans Memorial Hwy SE", "postal_code": "30126"}, "capProviderId": null, "distance": null, "has_offers": false, "name": "Tongue Slide Water Ice", "longitude": -84.54604, "has_menu": false, "awards": null, "user_review_count": 0}, {"business_operation_status": 1, "rating": null, "neighborhood": null, "image": null, "scorecard": null, "featured": false, "sample_categories": "Restaurants", "public_id": "chilitos-mexican-burritos-lithia", "id": 814877120, "votes": null, "tagline": null, "has_video": false, "website": null, "offers": null, "latitude": 33.7871, "politanName": "Atlanta, GA Metro ", "phone_number": "7708190550", "tags": [{"primary": true, "id": 1722, "name": "Restaurants"}], "fax_number": null, "expansion": {"count": null, "uri": null}, "impression_id": "000b0000000cc43f59d94b439999a51481f1199102", "profile": "http://www.citysearch.com/profile/814877120/lithia_springs_ga/chilitos_mexican_burritos.html", "address": {"city": "Lithia Springs", "state": "GA", "street": "639 Thornton Rd # 101", "postal_code": "30122"}, "capProviderId": null, "distance": null, "has_offers": false, "name": "Chilitos Mexican Burritos", "longitude": -84.619744, "has_menu": true, "awards": null, "user_review_count": 2}, {"business_operation_status": 1, "rating": null, "neighborhood": null, "image": null, "scorecard": null, "featured": false, "sample_categories": "Delis And Delicatessens", "public_id": "tastes-deli-atlanta", "id": 826123620, "votes": null, "tagline": null, "has_video": false, "website": null, "offers": null, "latitude": 33.650923, "politanName": "Atlanta, GA Metro ", "phone_number": "7709645180", "tags": [{"primary": true, "id": 1727, "name": "Delis And Delicatessens"}], "fax_number": null, "expansion": {"count": null, "uri": null}, "impression_id": "000b0000000ff682bb748644d5b9e95b3df0387ef0", "profile": "http://www.citysearch.com/profile/826123620/atlanta_ga/tastes_deli.html", "address": {"city": "Atlanta", "state": "GA", "street": "3840 Stonewall Tell Rd", "postal_code": "30349"}, "capProviderId": null, "distance": null, "has_offers": false, "name": "Tastes Deli", "longitude": -84.59466, "has_menu": false, "awards": null, "user_review_count": 0}, {"business_operation_status": 1, "rating": null, "neighborhood": null, "image": null, "scorecard": null, "featured": false, "sample_categories": "Restaurants", "public_id": "panache-bistro-atlanta", "id": 838576870, "votes": null, "tagline": null, "has_video": false, "website": null, "offers": null, "latitude": 33.666328, "politanName": "Atlanta, GA Metro ", "phone_number": "4049966479", "tags": [{"primary": true, "id": 1722, "name": "Restaurants"}], "fax_number": null, "expansion": {"count": null, "uri": null}, "impression_id": "000b000000e7a9b2462bab410fb1088c700404cf0a", "profile": "http://www.citysearch.com/profile/838576870/atlanta_ga/panache_bistro.html", "address": {"city": "Atlanta", "state": "GA", "street": "3220 Butner Rd SW", "postal_code": "30331"}, "capProviderId": null, "distance": null, "has_offers": false, "name": "Panache Bistro", "longitude": -84.549695, "has_menu": false, "awards": null, "user_review_count": 0}, {"business_operation_status": 1, "rating": null, "neighborhood": null, "image": null, "scorecard": null, "featured": false, "sample_categories": "Restaurants", "public_id": "taco-prado-mableton", "id": 839815990, "votes": null, "tagline": null, "has_video": false, "website": null, "offers": null, "latitude": 33.785092, "politanName": "Atlanta, GA Metro ", "phone_number": "7706933459", "tags": [{"primary": true, "id": 1722, "name": "Restaurants"}], "fax_number": null, "expansion": {"count": null, "uri": null}, "impression_id": "000b000000104389d7cd3d442580ccad4710416c1f", "profile": "http://www.citysearch.com/profile/839815990/mableton_ga/taco_prado.html", "address": {"city": "Mableton", "state": "GA", "street": "6912 Mableton Pkwy SE", "postal_code": "30126"}, "capProviderId": null, "distance": null, "has_offers": false, "name": "Taco Prado", "longitude": -84.543614, "has_menu": false, "awards": null, "user_review_count": 0}, {"business_operation_status": 0, "rating": 8.0, "neighborhood": null, "image": null, "scorecard": null, "featured": false, "sample_categories": "Catering, Restaurants, Food Delivery", "public_id": "old-hickory-barbeque-mableton", "id": 33652110, "votes": null, "tagline": null, "has_video": false, "website": null, "offers": null, "latitude": 33.816965, "politanName": "Atlanta, GA Metro ", "phone_number": "7709489451", "tags": [{"primary": false, "id": 1722, "name": "Restaurants"}, {"primary": false, "id": 11267, "name": "Food Delivery"}, {"primary": true, "id": 1705, "name": "Catering"}], "fax_number": null, "expansion": {"count": null, "uri": null}, "impression_id": "000b0000006c28ec65a73841a9a0a84f52a10a5434", "profile": "http://www.citysearch.com/profile/33652110/mableton_ga/old_hickory_barbeque.html", "address": {"city": "Mableton", "state": "GA", "street": "499 Veterans Memorial Hwy SW", "postal_code": "30126"}, "capProviderId": null, "distance": null, "has_offers": false, "name": "Old Hickory Barbeque", "longitude": -84.568558, "has_menu": false, "awards": null, "user_review_count": 0}, {"business_operation_status": 0, "rating": null, "neighborhood": null, "image": null, "scorecard": null, "featured": false, "sample_categories": "Restaurants, Cafes", "public_id": "m-j-lmmnz-austell", "id": 627697230, "votes": null, "tagline": null, "has_video": false, "website": null, "offers": null, "latitude": 33.842327, "politanName": "Atlanta, GA Metro ", "phone_number": "7702760280", "tags": [{"primary": false, "id": 6190, "name": "Cafes"}, {"primary": true, "id": 1722, "name": "Restaurants"}], "fax_number": null, "expansion": {"count": null, "uri": null}, "impression_id": "000b000000abcd6355575f4539908d649949ce4bb3", "profile": "http://www.citysearch.com/profile/627697230/austell_ga/m_j_lmmnz.html", "address": {"city": "Austell", "state": "GA", "street": "4629 Rodney Pl", "postal_code": "30106"}, "capProviderId": null, "distance": null, "has_offers": false, "name": "M J Lmmnz", "longitude": -84.613105, "has_menu": false, "awards": null, "user_review_count": 0}, {"business_operation_status": 1, "rating": null, "neighborhood": null, "image": null, "scorecard": null, "featured": false, "sample_categories": "Pizza", "public_id": "jar-group-five-inc-atlanta", "id": 628237554, "votes": null, "tagline": null, "has_video": false, "website": "http://www.citysearch.com/profile/external/628237554/atlanta_ga/jar_group_five_inc.html", "offers": null, "latitude": 33.731787, "politanName": "Atlanta, GA Metro ", "phone_number": "6789730854", "tags": [{"primary": true, "id": 11299, "name": "Pizza"}], "fax_number": null, "expansion": {"count": null, "uri": null}, "impression_id": "000b00000025ff955ee3ab4aa5a3b20f1bc4683dec", "profile": "http://www.citysearch.com/profile/628237554/atlanta_ga/jar_group_five_inc.html", "address": {"city": "Atlanta", "state": "GA", "street": "5495 Cascade Rd SW", "postal_code": "30331"}, "capProviderId": null, "distance": null, "has_offers": false, "name": "Jar Group Five Inc", "longitude": -84.567247, "has_menu": false, "awards": null, "user_review_count": 0}, {"business_operation_status": 1, "rating": null, "neighborhood": null, "image": null, "scorecard": null, "featured": false, "sample_categories": "Restaurants", "public_id": "obs-bbq-catfish-ribs-mableton", "id": 672612400, "votes": null, "tagline": null, "has_video": false, "website": null, "offers": null, "latitude": 33.816965, "politanName": "Atlanta, GA Metro ", "phone_number": null, "tags": [{"primary": true, "id": 1722, "name": "Restaurants"}], "fax_number": null, "expansion": {"count": null, "uri": null}, "impression_id": "000b0000002579ea3519fa4866b54c169bbca74d37", "profile": "http://www.citysearch.com/profile/672612400/mableton_ga/o_b_s_bbq_catfish_ribs.html", "address": {"city": "Mableton", "state": "GA", "street": "499 Veterans Memorial Hwy SW", "postal_code": "30126"}, "capProviderId": null, "distance": null, "has_offers": false, "name": "O.B.'s BBQ Catfish & Ribs", "longitude": -84.568558, "has_menu": false, "awards": null, "user_review_count": 0}, {"business_operation_status": 1, "rating": null, "neighborhood": null, "image": null, "scorecard": null, "featured": false, "sample_categories": "Doughnut Shops, Coffeehouses", "public_id": "dunkin-donuts-lithia-2", "id": 617894094, "votes": null, "tagline": null, "has_video": false, "website": "http://www.citysearch.com/profile/external/617894094/lithia_springs_ga/dunkin_donuts.html", "offers": null, "latitude": 33.786694, "politanName": "Atlanta, GA Metro ", "phone_number": "6789457919", "tags": [{"primary": false, "id": 1726, "name": "Coffeehouses"}, {"primary": true, "id": 1734, "name": "Doughnut Shops"}], "fax_number": null, "expansion": {"count": null, "uri": null}, "impression_id": "000b000000476cb3e713cf48f2a10451f4ba29596d", "profile": "http://www.citysearch.com/profile/617894094/lithia_springs_ga/dunkin_donuts.html", "address": {"city": "Lithia Springs", "state": "GA", "street": "1300 W Corporate CT", "postal_code": "30122"}, "capProviderId": null, "distance": null, "has_offers": false, "name": "Dunkin' Donuts", "longitude": -84.618557, "has_menu": false, "awards": null, "user_review_count": 0}, {"business_operation_status": 1, "rating": null, "neighborhood": null, "image": null, "scorecard": null, "featured": false, "sample_categories": "Ice Cream Parlors, Frozen Yogurt Shops", "public_id": "baskinrobbins-mableton", "id": 764906520, "votes": null, "tagline": null, "has_video": false, "website": null, "offers": null, "latitude": 33.83335, "politanName": "Atlanta, GA Metro ", "phone_number": "7707329319", "tags": [{"primary": false, "id": 1729, "name": "Frozen Yogurt Shops"}, {"primary": true, "id": 1730, "name": "Ice Cream Parlors"}], "fax_number": null, "expansion": {"count": null, "uri": null}, "impression_id": "000b0000002af1a8200e11454fbc51f4e41d68978a", "profile": "http://www.citysearch.com/profile/764906520/mableton_ga/baskin_robbins.html", "address": {"city": "Mableton", "state": "GA", "street": "5005 Floyd Rd SW", "postal_code": "30126"}, "capProviderId": null, "distance": null, "has_offers": false, "name": "Baskin-Robbins", "longitude": -84.575544, "has_menu": false, "awards": null, "user_review_count": 0}, {"business_operation_status": 1, "rating": null, "neighborhood": null, "image": null, "scorecard": null, "featured": false, "sample_categories": "Restaurants", "public_id": "j-r-enterprizes-atlanta", "id": 790602480, "votes": null, "tagline": null, "has_video": false, "website": null, "offers": null, "latitude": 33.76963, "politanName": "Atlanta, GA Metro ", "phone_number": "4046960555", "tags": [{"primary": true, "id": 1722, "name": "Restaurants"}], "fax_number": null, "expansion": {"count": null, "uri": null}, "impression_id": "000b0000004387f5523a2348f7ac3d3a5e4ab6a385", "profile": "http://www.citysearch.com/profile/790602480/atlanta_ga/j_r_enterprizes.html", "address": {"city": "Atlanta", "state": "GA", "street": "2636 Ml King Jr Dr Sw", "postal_code": "30311"}, "capProviderId": null, "distance": null, "has_offers": false, "name": "J & R Enterprizes", "longitude": -84.518939, "has_menu": false, "awards": null, "user_review_count": 0}, {"business_operation_status": 1, "rating": null, "neighborhood": null, "image": null, "scorecard": null, "featured": false, "sample_categories": "Restaurants, Pizza, Carry Out", "public_id": "papa-johns-pizza-austell-3", "id": 713391930, "votes": null, "tagline": null, "has_video": false, "website": "http://www.citysearch.com/profile/external/713391930/austell_ga/papa_john_s_pizza.html", "offers": null, "latitude": 33.851685, "politanName": "Atlanta, GA Metro ", "phone_number": "7707458809", "tags": [{"primary": false, "id": 1722, "name": "Restaurants"}, {"primary": false, "id": 11247, "name": "Carry Out"}, {"primary": true, "id": 11299, "name": "Pizza"}], "fax_number": null, "expansion": {"count": null, "uri": null}, "impression_id": "000b00000009889635a3e54961b09120bf5d3b0f59", "profile": "http://www.citysearch.com/profile/713391930/austell_ga/papa_john_s_pizza.html", "address": {"city": "Austell", "state": "GA", "street": "4180 Austell Rd", "postal_code": "30106"}, "capProviderId": null, "distance": null, "has_offers": false, "name": "Papa John's Pizza", "longitude": -84.606222, "has_menu": false, "awards": null, "user_review_count": 0}, {"business_operation_status": 1, "rating": null, "neighborhood": "Southwest, Southwest", "image": null, "scorecard": null, "featured": false, "sample_categories": "Restaurants", "public_id": "lunch-box-atlanta-3", "id": 810066310, "votes": null, "tagline": null, "has_video": false, "website": null, "offers": null, "latitude": 33.698565, "politanName": "Atlanta, GA Metro ", "phone_number": "4046296811", "tags": [{"primary": true, "id": 1722, "name": "Restaurants"}], "fax_number": null, "expansion": {"count": null, "uri": null}, "impression_id": "000b000000b3766a4830c043bdaaa219250a99bf3d", "profile": "http://www.citysearch.com/profile/810066310/atlanta_ga/lunch_box.html", "address": {"city": "Atlanta", "state": "GA", "street": "3030 S Hgan Con Rd SW", "postal_code": "30331"}, "capProviderId": null, "distance": null, "has_offers": false, "name": "Lunch Box", "longitude": -84.543187, "has_menu": false, "awards": null, "user_review_count": 0}, {"business_operation_status": 1, "rating": null, "neighborhood": null, "image": null, "scorecard": null, "featured": false, "sample_categories": "Ice Cream Parlors", "public_id": "orleagian-snow-balls-atlanta", "id": 622070080, "votes": null, "tagline": null, "has_video": false, "website": "http://www.citysearch.com/profile/external/622070080/atlanta_ga/orleagian_snow_balls.html", "offers": null, "latitude": 33.748947, "politanName": "Atlanta, GA Metro ", "phone_number": "4048974646", "tags": [{"primary": true, "id": 1730, "name": "Ice Cream Parlors"}], "fax_number": null, "expansion": {"count": null, "uri": null}, "impression_id": "000b00000093a6c82ee6b34e6a901e74b85475d4c0", "profile": "http://www.citysearch.com/profile/622070080/atlanta_ga/orleagian_snow_balls.html", "address": {"city": "Atlanta", "state": "GA", "street": "Po Box 367190", "postal_code": "30336"}, "capProviderId": null, "distance": null, "has_offers": false, "name": "Orleagian Snow Balls", "longitude": -84.548428, "has_menu": false, "awards": null, "user_review_count": 2}, {"business_operation_status": 1, "rating": null, "neighborhood": null, "image": null, "scorecard": null, "featured": false, "sample_categories": "Restaurants, Chinese, American Express, Discover, MasterCard", "public_id": "panda-garden-lithia-spgs", "id": 622203910, "votes": null, "tagline": null, "has_video": false, "website": "http://www.citysearch.com/profile/external/622203910/lithia_springs_ga/panda_garden.html", "offers": null, "latitude": 33.814068, "politanName": "Atlanta, GA Metro ", "phone_number": "7707454818", "tags": [{"primary": false, "id": 11252, "name": "Chinese"}, {"primary": false, "id": 11333, "name": "American Express"}, {"primary": false, "id": 11349, "name": "Discover"}, {"primary": false, "id": 11361, "name": "MasterCard"}, {"primary": false, "id": 11382, "name": "Visa"}, {"primary": true, "id": 1722, "name": "Restaurants"}], "fax_number": null, "expansion": {"count": null, "uri": null}, "impression_id": "000b000000a1ea364c45404abea1b7e7e622c93dfb", "profile": "http://www.citysearch.com/profile/622203910/lithia_springs_ga/panda_garden.html", "address": {"city": "Lithia Springs", "state": "GA", "street": "3823 Austell Rd Sw", "postal_code": "30106"}, "capProviderId": null, "distance": null, "has_offers": false, "name": "Panda Garden", "longitude": -84.672019, "has_menu": true, "awards": null, "user_review_count": 0}, {"business_operation_status": 1, "rating": null, "neighborhood": null, "image": null, "scorecard": null, "featured": false, "sample_categories": "Restaurants", "public_id": "restaurant-industry-consultant-marietta", "id": 757964760, "votes": null, "tagline": null, "has_video": false, "website": null, "offers": null, "latitude": 33.858788, "politanName": "Atlanta, GA Metro ", "phone_number": "4046450430", "tags": [{"primary": true, "id": 1722, "name": "Restaurants"}], "fax_number": null, "expansion": {"count": null, "uri": null}, "impression_id": "000b000000904221b036e24e29a983035c7838c8bc", "profile": "http://www.citysearch.com/profile/757964760/marietta_ga/restaurant_industry_consultant.html", "address": {"city": "Marietta", "state": "GA", "street": "2040 Indian Springs Dr SW", "postal_code": "30008"}, "capProviderId": null, "distance": null, "has_offers": false, "name": "Restaurant Industry Consultant", "longitude": -84.613932, "has_menu": false, "awards": null, "user_review_count": 0}], "histograms": [], "tag_ids": [1722], "uri": "http://api.citygridmedia.com:8080/search/places/v2/search/where?has_offers=false&type=restaurant&format=json&page=10&where=30168&rpp=50&histograms=false&publisher=10000009598&region_type=circle", "did_you_mean": "", "regions": [{"latitude": 33.78436, "default_radius": 3.57, "type": "postal_code", "name": "30168", "longitude": -84.586443}], "call_id": "000b000000bac16ba1df3c494ea8dc6f412c41b1ab", "first_hit": 451, "total_hits": 592, "geo_ids": [26319], "page": 10, "last_hit": 500}}