{"results": {"rpp": 50, "locations": [{"business_operation_status": 1, "rating": null, "neighborhood": null, "image": null, "scorecard": null, "featured": false, "sample_categories": "Restaurants, Barbecue Restaurants", "public_id": "dickeys-barbecue-pit-atlanta", "id": 728068070, "votes": null, "tagline": null, "has_video": false, "website": "http://www.citysearch.com/profile/external/728068070/atlanta_ga/dickey_s_barbecue_pit.html", "offers": null, "latitude": 33.936313, "politanName": "Atlanta, GA Metro ", "phone_number": "4042550017", "tags": [{"primary": false, "id": 1724, "name": "Barbecue Restaurants"}, {"primary": true, "id": 1722, "name": "Restaurants"}], "fax_number": null, "expansion": {"count": null, "uri": null}, "impression_id": "000b000000efaaf5ab9ab4452785b6321a4bde1153", "profile": "http://www.citysearch.com/profile/728068070/atlanta_ga/dickey_s_barbecue_pit.html", "address": {"city": "Atlanta", "state": "GA", "street": "6631 Roswell Rd Ne", "postal_code": "30328"}, "capProviderId": null, "distance": null, "has_offers": false, "name": "Dickey's Barbecue Pit", "longitude": -84.378811, "has_menu": true, "awards": null, "user_review_count": 0}, {"business_operation_status": 1, "rating": null, "neighborhood": null, "image": null, "scorecard": null, "featured": false, "sample_categories": "Restaurants", "public_id": "parish-bistro-atlanta", "id": 613960654, "votes": null, "tagline": null, "has_video": false, "website": null, "offers": null, "latitude": 33.916972, "politanName": "Atlanta, GA Metro ", "phone_number": "6785276553", "tags": [{"primary": true, "id": 1722, "name": "Restaurants"}], "fax_number": null, "expansion": {"count": null, "uri": null}, "impression_id": "000b000000237497c784ff4b1da0f2962791bdfcff", "profile": "http://www.citysearch.com/profile/613960654/atlanta_ga/parish_bistro.html", "address": {"city": "Atlanta", "state": "GA", "street": "5 Concourse Pkwy", "postal_code": "30328"}, "capProviderId": null, "distance": null, "has_offers": false, "name": "Parish Bistro", "longitude": -84.354599, "has_menu": false, "awards": null, "user_review_count": 0}, {"business_operation_status": 1, "rating": null, "neighborhood": null, "image": null, "scorecard": null, "featured": false, "sample_categories": "Bakeries, Restaurants", "public_id": "flowers-baking-co-marietta-2", "id": 2909781, "votes": null, "tagline": null, "has_video": false, "website": "http://www.citysearch.com/profile/external/2909781/marietta_ga/flowers_baking_co.html", "offers": null, "latitude": 33.948214, "politanName": "Atlanta, GA Metro ", "phone_number": "7709735200", "tags": [{"primary": false, "id": 1722, "name": "Restaurants"}, {"primary": true, "id": 1685, "name": "Bakeries"}], "fax_number": null, "expansion": {"count": null, "uri": null}, "impression_id": "000b000000b4ebc3e3b41a48088b294db381f0ff7f", "profile": "http://www.citysearch.com/profile/2909781/marietta_ga/flowers_baking_co.html", "address": {"city": "Marietta", "state": "GA", "street": "146 Powers Ferry Rd SE", "postal_code": "30067"}, "capProviderId": null, "distance": null, "has_offers": false, "name": "Flowers Baking Co", "longitude": -84.505792, "has_menu": false, "awards": null, "user_review_count": 0}, {"business_operation_status": 1, "rating": null, "neighborhood": null, "image": null, "scorecard": null, "featured": false, "sample_categories": "Restaurants", "public_id": "moksha-indian-cuisine-and-bar-sandy", "id": 620584454, "votes": null, "tagline": null, "has_video": false, "website": "http://www.citysearch.com/profile/external/620584454/sandy_springs_ga/moksha_indian_cuisine_and_bar.html", "offers": null, "latitude": 33.918107, "politanName": "Atlanta, GA Metro ", "phone_number": "4704405431", "tags": [{"primary": true, "id": 1722, "name": "Restaurants"}], "fax_number": null, "expansion": {"count": null, "uri": null}, "impression_id": "000b0000004964d5e20f33470f9ec61fe2afbbb9fe", "profile": "http://www.citysearch.com/profile/620584454/sandy_springs_ga/moksha_indian_cuisine_and_bar.html", "address": {"city": "Sandy Springs", "state": "GA", "street": "5975 Roswell Rd D245", "postal_code": "30328"}, "capProviderId": null, "distance": null, "has_offers": false, "name": "Moksha Indian Cuisine and Bar", "longitude": -84.377114, "has_menu": false, "awards": null, "user_review_count": 0}, {"business_operation_status": 1, "rating": null, "neighborhood": null, "image": null, "scorecard": null, "featured": false, "sample_categories": "Catering, Restaurants, Asian, Carry Out, Chinese", "public_id": "hong-kong-star-mariettaeast-cobb-marietta", "id": 756444040, "votes": null, "tagline": null, "has_video": false, "website": null, "offers": null, "latitude": 33.965965, "politanName": "Atlanta, GA Metro ", "phone_number": "7705092129", "tags": [{"primary": false, "id": 1722, "name": "Restaurants"}, {"primary": false, "id": 11235, "name": "Asian"}, {"primary": false, "id": 11247, "name": "Carry Out"}, {"primary": false, "id": 11252, "name": "Chinese"}, {"primary": false, "id": 11267, "name": "Food Delivery"}, {"primary": true, "id": 1705, "name": "Catering"}], "fax_number": null, "expansion": {"count": null, "uri": null}, "impression_id": "000b000000e877cdff10914b9688ed84f4f5c21410", "profile": "http://www.citysearch.com/profile/756444040/marietta_ga/hong_kong_star_marietta_east_cobb.html", "address": {"city": "Marietta", "state": "GA", "street": "4719 Lower Roswell Rd", "postal_code": "30068"}, "capProviderId": null, "distance": null, "has_offers": false, "name": "Hong Kong Star Marietta-East Cobb", "longitude": -84.415167, "has_menu": false, "awards": null, "user_review_count": 0}, {"business_operation_status": 1, "rating": null, "neighborhood": null, "image": null, "scorecard": null, "featured": false, "sample_categories": "Restaurants, Pizza", "public_id": "marios-ny-pizza-smyrna", "id": 764838040, "votes": null, "tagline": null, "has_video": false, "website": null, "offers": null, "latitude": 33.883027, "politanName": "Atlanta, GA Metro ", "phone_number": "7704379199", "tags": [{"primary": false, "id": 11299, "name": "Pizza"}, {"primary": true, "id": 1722, "name": "Restaurants"}], "fax_number": null, "expansion": {"count": null, "uri": null}, "impression_id": "000b00000051a6c366a1864d0999cc73f0ee6ffe14", "profile": "http://www.citysearch.com/profile/764838040/smyrna_ga/marios_ny_pizza.html", "address": {"city": "Smyrna", "state": "GA", "street": "2930 S Cobb Dr SE", "postal_code": "30080"}, "capProviderId": null, "distance": null, "has_offers": false, "name": "Marios Ny Pizza", "longitude": -84.534643, "has_menu": false, "awards": null, "user_review_count": 0}, {"business_operation_status": 1, "rating": null, "neighborhood": null, "image": null, "scorecard": null, "featured": false, "sample_categories": "Restaurants, Carry Out", "public_id": "hardees-marietta-3", "id": 764872240, "votes": null, "tagline": null, "has_video": false, "website": null, "offers": null, "latitude": 33.932198, "politanName": "Atlanta, GA Metro ", "phone_number": "7709991111", "tags": [{"primary": false, "id": 11247, "name": "Carry Out"}, {"primary": true, "id": 1722, "name": "Restaurants"}], "fax_number": null, "expansion": {"count": null, "uri": null}, "impression_id": "000b000000423294a06ef14cd0b593b284226abedc", "profile": "http://www.citysearch.com/profile/764872240/marietta_ga/hardee_s.html", "address": {"city": "Marietta", "state": "GA", "street": "808 Powers Ferry Rd SE", "postal_code": "30067"}, "capProviderId": null, "distance": null, "has_offers": false, "name": "Hardee's", "longitude": -84.476211, "has_menu": false, "awards": null, "user_review_count": 0}, {"business_operation_status": 1, "rating": null, "neighborhood": "Northside, Northside", "image": null, "scorecard": null, "featured": false, "sample_categories": "Catering, Restaurants, Pizza, Carry Out, Italian", "public_id": "johnnys-new-york-style-pizza-atlanta-2", "id": 632921250, "votes": null, "tagline": null, "has_video": false, "website": "http://www.citysearch.com/profile/external/632921250/atlanta_ga/johnny_s_new_york_style_pizza.html", "offers": null, "latitude": 33.807596, "politanName": "Atlanta, GA Metro ", "phone_number": "4046038043", "tags": [{"primary": false, "id": 1705, "name": "Catering"}, {"primary": false, "id": 1722, "name": "Restaurants"}, {"primary": false, "id": 11247, "name": "Carry Out"}, {"primary": false, "id": 11279, "name": "Italian"}, {"primary": false, "id": 11333, "name": "American Express"}, {"primary": false, "id": 11349, "name": "Discover"}, {"primary": false, "id": 11361, "name": "MasterCard"}, {"primary": false, "id": 11382, "name": "Visa"}, {"primary": true, "id": 11299, "name": "Pizza"}], "fax_number": null, "expansion": {"count": null, "uri": null}, "impression_id": "000b0000000bf21ad04edd47ffb29671679eb4715a", "profile": "http://www.citysearch.com/profile/632921250/atlanta_ga/johnny_s_new_york_style_pizza.html", "address": {"city": "Atlanta", "state": "GA", "street": "1465 Chattahoochee Ave NW 850", "postal_code": "30318"}, "capProviderId": null, "distance": null, "has_offers": false, "name": "Johnny's New York Style Pizza", "longitude": -84.434341, "has_menu": false, "awards": null, "user_review_count": 0}, {"business_operation_status": 1, "rating": null, "neighborhood": null, "image": null, "scorecard": null, "featured": false, "sample_categories": "Restaurants, Traditional American, Carry Out", "public_id": "arbys-atlanta-22", "id": 777689990, "votes": null, "tagline": null, "has_video": false, "website": "http://www.citysearch.com/profile/external/777689990/atlanta_ga/arby_s.html", "offers": null, "latitude": 33.933792, "politanName": "Atlanta, GA Metro ", "phone_number": "4042564462", "tags": [{"primary": false, "id": 11190, "name": "Traditional American"}, {"primary": false, "id": 11247, "name": "Carry Out"}, {"primary": true, "id": 1722, "name": "Restaurants"}], "fax_number": null, "expansion": {"count": null, "uri": null}, "impression_id": "000b00000094ad48fd0a2a4c3c800ba0bb55d5b611", "profile": "http://www.citysearch.com/profile/777689990/atlanta_ga/arby_s.html", "address": {"city": "Atlanta", "state": "GA", "street": "6555 Roswell Rd Ne", "postal_code": "30328"}, "capProviderId": null, "distance": null, "has_offers": false, "name": "Arby's", "longitude": -84.378969, "has_menu": true, "awards": null, "user_review_count": 0}, {"business_operation_status": 1, "rating": null, "neighborhood": null, "image": null, "scorecard": null, "featured": false, "sample_categories": "Restaurants, Delis And Delicatessens, Pizza", "public_id": "harrys-pizza-subs-marietta", "id": 713629810, "votes": null, "tagline": null, "has_video": false, "website": null, "offers": null, "latitude": 33.933494, "politanName": "Atlanta, GA Metro ", "phone_number": "7709550991", "tags": [{"primary": false, "id": 1722, "name": "Restaurants"}, {"primary": false, "id": 1727, "name": "Delis And Delicatessens"}, {"primary": true, "id": 11299, "name": "Pizza"}], "fax_number": null, "expansion": {"count": null, "uri": null}, "impression_id": "000b0000000a6035c0c0ae4120b3cfc5fe52e76917", "profile": "http://www.citysearch.com/profile/713629810/marietta_ga/harry_s_pizza_subs.html", "address": {"city": "Marietta", "state": "GA", "street": "2150 Powers Ferry Dr Se", "postal_code": "30067"}, "capProviderId": null, "distance": null, "has_offers": false, "name": "Harry's Pizza & Subs", "longitude": -84.489988, "has_menu": false, "awards": null, "user_review_count": 0}, {"business_operation_status": 1, "rating": null, "neighborhood": null, "image": null, "scorecard": null, "featured": false, "sample_categories": "Restaurants, Luaus", "public_id": "sapporo-japanese-steak-seafood-marietta", "id": 807245910, "votes": null, "tagline": null, "has_video": false, "website": null, "offers": null, "latitude": 33.984475, "politanName": "Atlanta, GA Metro ", "phone_number": "7705657018", "tags": [{"primary": false, "id": 11285, "name": "Luaus"}, {"primary": true, "id": 1722, "name": "Restaurants"}], "fax_number": null, "expansion": {"count": null, "uri": null}, "impression_id": "000b000000e6472cd4c73a4d5eb24b1ef3bb599a85", "profile": "http://www.citysearch.com/profile/807245910/marietta_ga/sapporo_japanese_steak_seafood.html", "address": {"city": "Marietta", "state": "GA", "street": "1401 Johnson Ferry Rd # 268d", "postal_code": "30062"}, "capProviderId": null, "distance": null, "has_offers": false, "name": "Sapporo Japanese Steak Seafood", "longitude": -84.427681, "has_menu": false, "awards": null, "user_review_count": 0}, {"business_operation_status": 1, "rating": null, "neighborhood": null, "image": null, "scorecard": null, "featured": false, "sample_categories": "Restaurants", "public_id": "mandarin-express-chinese-marietta", "id": 807555420, "votes": null, "tagline": null, "has_video": false, "website": null, "offers": null, "latitude": 33.928543, "politanName": "Atlanta, GA Metro ", "phone_number": "7709842233", "tags": [{"primary": true, "id": 1722, "name": "Restaurants"}], "fax_number": null, "expansion": {"count": null, "uri": null}, "impression_id": "000b000000f1e68087d1174b1fb8ba354951eaebb7", "profile": "http://www.citysearch.com/profile/807555420/marietta_ga/mandarin_express_chinese.html", "address": {"city": "Marietta", "state": "GA", "street": "1033 Franklin Rd SE", "postal_code": "30067"}, "capProviderId": null, "distance": null, "has_offers": false, "name": "Mandarin Express Chinese", "longitude": -84.492609, "has_menu": false, "awards": null, "user_review_count": 0}, {"business_operation_status": 1, "rating": null, "neighborhood": null, "image": null, "scorecard": null, "featured": false, "sample_categories": "Restaurants", "public_id": "long-horn-steakhouse-marietta", "id": 2909609, "votes": null, "tagline": null, "has_video": false, "website": null, "offers": null, "latitude": 33.937797, "politanName": "Atlanta, GA Metro ", "phone_number": "7704244353", "tags": [{"primary": true, "id": 1722, "name": "Restaurants"}], "fax_number": null, "expansion": {"count": null, "uri": null}, "impression_id": "000b000000bff026a67d904d129ec8bb302de721fe", "profile": "http://www.citysearch.com/profile/2909609/marietta_ga/long_horn_steakhouse.html", "address": {"city": "Marietta", "state": "GA", "street": "585 Franklin Rd SE Ste 585", "postal_code": "30067"}, "capProviderId": null, "distance": null, "has_offers": false, "name": "Long Horn Steakhouse", "longitude": -84.506993, "has_menu": true, "awards": null, "user_review_count": 0}, {"business_operation_status": 1, "rating": null, "neighborhood": null, "image": null, "scorecard": null, "featured": false, "sample_categories": "Restaurants, Barbecue Restaurants", "public_id": "georgia-pit-barbque-smyrna", "id": 745584800, "votes": null, "tagline": null, "has_video": false, "website": null, "offers": null, "latitude": 33.844595, "politanName": "Atlanta, GA Metro ", "phone_number": "7704348394", "tags": [{"primary": false, "id": 1724, "name": "Barbecue Restaurants"}, {"primary": true, "id": 1722, "name": "Restaurants"}], "fax_number": null, "expansion": {"count": null, "uri": null}, "impression_id": "000b000000ff91ff3372694a7d9fb0071227090c45", "profile": "http://www.citysearch.com/profile/745584800/smyrna_ga/georgia_pit_bar_b_que.html", "address": {"city": "Smyrna", "state": "GA", "street": "4479 S Cobb Dr SE", "postal_code": "30080"}, "capProviderId": null, "distance": null, "has_offers": false, "name": "Georgia Pit Bar-B-Que", "longitude": -84.501876, "has_menu": false, "awards": null, "user_review_count": 0}, {"business_operation_status": 1, "rating": null, "neighborhood": null, "image": null, "scorecard": null, "featured": false, "sample_categories": "Restaurants", "public_id": "pyramid-restaurant-hookah-marietta", "id": 777743980, "votes": null, "tagline": null, "has_video": false, "website": null, "offers": null, "latitude": 33.942926, "politanName": "Atlanta, GA Metro ", "phone_number": "6782131030", "tags": [{"primary": true, "id": 1722, "name": "Restaurants"}], "fax_number": null, "expansion": {"count": null, "uri": null}, "impression_id": "000b000000fb2f39f8385a475686f256d2cd5b8ccc", "profile": "http://www.citysearch.com/profile/777743980/marietta_ga/pyramid_restaurant_hookah.html", "address": {"city": "Marietta", "state": "GA", "street": "600 S Marietta Pkwy Se", "postal_code": "30060"}, "capProviderId": null, "distance": null, "has_offers": false, "name": "Pyramid Restaurant & Hookah", "longitude": -84.534635, "has_menu": false, "awards": null, "user_review_count": 0}, {"business_operation_status": 1, "rating": null, "neighborhood": null, "image": null, "scorecard": null, "featured": false, "sample_categories": "Restaurants, Italian", "public_id": "mad-italian-restaurant-marietta", "id": 777797900, "votes": null, "tagline": null, "has_video": false, "website": null, "offers": null, "latitude": 33.901234, "politanName": "Atlanta, GA Metro ", "phone_number": "7709521806", "tags": [{"primary": false, "id": 11279, "name": "Italian"}, {"primary": true, "id": 1722, "name": "Restaurants"}], "fax_number": null, "expansion": {"count": null, "uri": null}, "impression_id": "000b00000076e3d3837d984c14aefe9b0d3d471ba9", "profile": "http://www.citysearch.com/profile/777797900/marietta_ga/mad_italian_restaurant.html", "address": {"city": "Marietta", "state": "GA", "street": "2092 Cobb Pkwy S", "postal_code": "30060"}, "capProviderId": null, "distance": null, "has_offers": false, "name": "Mad Italian Restaurant", "longitude": -84.488366, "has_menu": true, "awards": null, "user_review_count": 3}, {"business_operation_status": 1, "rating": null, "neighborhood": null, "image": null, "scorecard": null, "featured": false, "sample_categories": "Restaurants, Indian", "public_id": "haveli-indian-cuisine-smyrna", "id": 787102840, "votes": null, "tagline": null, "has_video": false, "website": null, "offers": null, "latitude": 33.895335, "politanName": "Atlanta, GA Metro ", "phone_number": "7709554525", "tags": [{"primary": false, "id": 11277, "name": "Indian"}, {"primary": true, "id": 1722, "name": "Restaurants"}], "fax_number": null, "expansion": {"count": null, "uri": null}, "impression_id": "000b000000c37f2b34f0e047c08ac9a49d93ee8832", "profile": "http://www.citysearch.com/profile/787102840/smyrna_ga/haveli_indian_cuisine.html", "address": {"city": "Smyrna", "state": "GA", "street": "2706 Cobb Pkwy Se", "postal_code": "30080"}, "capProviderId": null, "distance": null, "has_offers": false, "name": "Haveli Indian Cuisine", "longitude": -84.480413, "has_menu": false, "awards": null, "user_review_count": 0}, {"business_operation_status": 1, "rating": null, "neighborhood": null, "image": null, "scorecard": null, "featured": false, "sample_categories": "Restaurants, Chinese", "public_id": "china-station-marietta", "id": 793243160, "votes": null, "tagline": null, "has_video": false, "website": null, "offers": null, "latitude": 33.904705, "politanName": "Atlanta, GA Metro ", "phone_number": "7708501234", "tags": [{"primary": false, "id": 11252, "name": "Chinese"}, {"primary": true, "id": 1722, "name": "Restaurants"}], "fax_number": null, "expansion": {"count": null, "uri": null}, "impression_id": "000b000000e7b039f022ba4dbea9de6c60340b38f7", "profile": "http://www.citysearch.com/profile/793243160/marietta_ga/china_station.html", "address": {"city": "Marietta", "state": "GA", "street": "2359 Windy Hill Rd Se", "postal_code": "30067"}, "capProviderId": null, "distance": null, "has_offers": false, "name": "China Station", "longitude": -84.484545, "has_menu": false, "awards": null, "user_review_count": 0}, {"business_operation_status": 1, "rating": null, "neighborhood": null, "image": null, "scorecard": null, "featured": false, "sample_categories": "Restaurants", "public_id": "to-go-bones-marietta", "id": 775236760, "votes": null, "tagline": null, "has_video": false, "website": null, "offers": null, "latitude": 33.965353, "politanName": "Atlanta, GA Metro ", "phone_number": "7706727683", "tags": [{"primary": true, "id": 1722, "name": "Restaurants"}], "fax_number": null, "expansion": {"count": null, "uri": null}, "impression_id": "000b0000002e0be9c9c46849a398505fe3b62c34fd", "profile": "http://www.citysearch.com/profile/775236760/marietta_ga/to_go_bones.html", "address": {"city": "Marietta", "state": "GA", "street": "4665 Lower Roswell Rd # 101", "postal_code": "30068"}, "capProviderId": null, "distance": null, "has_offers": false, "name": "To Go Bones", "longitude": -84.415616, "has_menu": false, "awards": null, "user_review_count": 0}, {"business_operation_status": 1, "rating": null, "neighborhood": null, "image": null, "scorecard": null, "featured": false, "sample_categories": "Restaurants", "public_id": "julias-cafe-marietta", "id": 787109210, "votes": null, "tagline": null, "has_video": false, "website": null, "offers": null, "latitude": 33.938568, "politanName": "Atlanta, GA Metro ", "phone_number": "7704284400", "tags": [{"primary": true, "id": 1722, "name": "Restaurants"}], "fax_number": null, "expansion": {"count": null, "uri": null}, "impression_id": "000b000000f91cef2e2f7a4013bc3422589127623d", "profile": "http://www.citysearch.com/profile/787109210/marietta_ga/julia_s_cafe.html", "address": {"city": "Marietta", "state": "GA", "street": "1775 Pkwy Pl NW", "postal_code": "30067"}, "capProviderId": null, "distance": null, "has_offers": false, "name": "Julia's Cafe", "longitude": -84.505213, "has_menu": false, "awards": null, "user_review_count": 0}, {"business_operation_status": 1, "rating": null, "neighborhood": null, "image": null, "scorecard": null, "featured": false, "sample_categories": "Ice Cream Parlors", "public_id": "rafiq-inc-smyrna", "id": 808300710, "votes": null, "tagline": null, "has_video": false, "website": null, "offers": null, "latitude": 33.878681, "politanName": "Atlanta, GA Metro ", "phone_number": "7708050214", "tags": [{"primary": true, "id": 1730, "name": "Ice Cream Parlors"}], "fax_number": null, "expansion": {"count": null, "uri": null}, "impression_id": "000b00000055dc291d48424fbfa8725a082cca8c22", "profile": "http://www.citysearch.com/profile/808300710/smyrna_ga/rafiq_inc.html", "address": {"city": "Smyrna", "state": "GA", "street": "2216 Goodwood Blvd SE", "postal_code": "30080"}, "capProviderId": null, "distance": null, "has_offers": false, "name": "Rafiq Inc", "longitude": -84.493022, "has_menu": false, "awards": null, "user_review_count": 0}, {"business_operation_status": 1, "rating": null, "neighborhood": null, "image": null, "scorecard": null, "featured": false, "sample_categories": "Restaurants", "public_id": "j-mann-cafe-grille-marietta", "id": 815522810, "votes": null, "tagline": null, "has_video": false, "website": null, "offers": null, "latitude": 33.948544, "politanName": "Atlanta, GA Metro ", "phone_number": "7705280262", "tags": [{"primary": true, "id": 1722, "name": "Restaurants"}], "fax_number": null, "expansion": {"count": null, "uri": null}, "impression_id": "000b00000032d516326d7a4719af79b0136f1420c7", "profile": "http://www.citysearch.com/profile/815522810/marietta_ga/j_mann_cafe_grille.html", "address": {"city": "Marietta", "state": "GA", "street": "191 S Marietta Pkwy SW", "postal_code": "30064"}, "capProviderId": null, "distance": null, "has_offers": false, "name": "J Mann Cafe & Grille", "longitude": -84.550204, "has_menu": false, "awards": null, "user_review_count": 0}, {"business_operation_status": 1, "rating": null, "neighborhood": null, "image": null, "scorecard": null, "featured": false, "sample_categories": "Restaurants", "public_id": "rowlands-sandy", "id": 811786860, "votes": null, "tagline": null, "has_video": false, "website": null, "offers": null, "latitude": 33.920558, "politanName": "Atlanta, GA Metro ", "phone_number": "7702524500", "tags": [{"primary": true, "id": 1722, "name": "Restaurants"}], "fax_number": null, "expansion": {"count": null, "uri": null}, "impression_id": "000b000000283a7c985fd74e21ad30c920364ec0e1", "profile": "http://www.citysearch.com/profile/811786860/sandy_springs_ga/rowland_s.html", "address": {"city": "Sandy Springs", "state": "GA", "street": "6066 Sandy Springs Cir", "postal_code": "30328"}, "capProviderId": null, "distance": null, "has_offers": false, "name": "Rowland's", "longitude": -84.384411, "has_menu": false, "awards": null, "user_review_count": 0}, {"business_operation_status": 1, "rating": null, "neighborhood": null, "image": null, "scorecard": null, "featured": false, "sample_categories": "Restaurants", "public_id": "blackstone-restaurant-smyrna-2", "id": 830377620, "votes": null, "tagline": null, "has_video": false, "website": null, "offers": null, "latitude": 33.838806, "politanName": "Atlanta, GA Metro ", "phone_number": "7707946100", "tags": [{"primary": true, "id": 1722, "name": "Restaurants"}], "fax_number": null, "expansion": {"count": null, "uri": null}, "impression_id": "000b0000006bbef4ac1da741abaf749f99cb4f0780", "profile": "http://www.citysearch.com/profile/830377620/smyrna_ga/blackstone_restaurant.html", "address": {"city": "Smyrna", "state": "GA", "street": "4686 S Atlanta Rd SE # C", "postal_code": "30080"}, "capProviderId": null, "distance": null, "has_offers": false, "name": "Blackstone Restaurant", "longitude": -84.483334, "has_menu": false, "awards": null, "user_review_count": 0}, {"business_operation_status": 1, "rating": null, "neighborhood": null, "image": null, "scorecard": null, "featured": false, "sample_categories": "Restaurants", "public_id": "jonesgissendanner-catfish-smyrna", "id": 827366690, "votes": null, "tagline": null, "has_video": false, "website": null, "offers": null, "latitude": 33.869097, "politanName": "Atlanta, GA Metro ", "phone_number": "6785943257", "tags": [{"primary": true, "id": 1722, "name": "Restaurants"}], "fax_number": null, "expansion": {"count": null, "uri": null}, "impression_id": "000b000000321944b3474442d7b27e1d652b7e392d", "profile": "http://www.citysearch.com/profile/827366690/smyrna_ga/jones_gissendanner_catfish.html", "address": {"city": "Smyrna", "state": "GA", "street": "2 Villa CT SE", "postal_code": "30080"}, "capProviderId": null, "distance": null, "has_offers": false, "name": "Jones-Gissendanner Catfish", "longitude": -84.495999, "has_menu": false, "awards": null, "user_review_count": 0}, {"business_operation_status": 1, "rating": null, "neighborhood": null, "image": null, "scorecard": null, "featured": false, "sample_categories": "Restaurants", "public_id": "finca-bonita-mexican-grill-marietta", "id": 838631820, "votes": null, "tagline": null, "has_video": false, "website": null, "offers": null, "latitude": 33.951258, "politanName": "Atlanta, GA Metro ", "phone_number": "7704198290", "tags": [{"primary": true, "id": 1722, "name": "Restaurants"}], "fax_number": null, "expansion": {"count": null, "uri": null}, "impression_id": "000b0000001905a14153074ef78699a34bf6635298", "profile": "http://www.citysearch.com/profile/838631820/marietta_ga/finca_bonita_mexican_grill.html", "address": {"city": "Marietta", "state": "GA", "street": "1157 Roswell Rd", "postal_code": "30062"}, "capProviderId": null, "distance": null, "has_offers": false, "name": "Finca Bonita Mexican Grill", "longitude": -84.517723, "has_menu": false, "awards": null, "user_review_count": 1}, {"business_operation_status": 1, "rating": null, "neighborhood": null, "image": null, "scorecard": null, "featured": false, "sample_categories": "Restaurants, Carry Out", "public_id": "wendys-marietta-19", "id": 819069510, "votes": null, "tagline": null, "has_video": false, "website": null, "offers": null, "latitude": 33.951502, "politanName": "Atlanta, GA Metro ", "phone_number": "7706507335", "tags": [{"primary": false, "id": 11247, "name": "Carry Out"}, {"primary": true, "id": 1722, "name": "Restaurants"}], "fax_number": null, "expansion": {"count": null, "uri": null}, "impression_id": "000b0000002ea6634faa2549dda5d92f705d6c6ad9", "profile": "http://www.citysearch.com/profile/819069510/marietta_ga/wendy_s.html", "address": {"city": "Marietta", "state": "GA", "street": "600 Village Trce NE", "postal_code": "30067"}, "capProviderId": null, "distance": null, "has_offers": false, "name": "Wendy's", "longitude": -84.414411, "has_menu": false, "awards": null, "user_review_count": 0}, {"business_operation_status": 1, "rating": null, "neighborhood": "Northside, Northside", "image": null, "scorecard": null, "featured": false, "sample_categories": "Restaurants, Mexican, Carry Out", "public_id": "chipotle-mexican-grill-atlanta-10", "id": 764910450, "votes": null, "tagline": null, "has_video": false, "website": "http://www.citysearch.com/profile/external/764910450/atlanta_ga/chipotle_mexican_grill.html", "offers": null, "latitude": 33.810195, "politanName": "Atlanta, GA Metro ", "phone_number": "4043519175", "tags": [{"primary": false, "id": 11208, "name": "Mexican"}, {"primary": false, "id": 11247, "name": "Carry Out"}, {"primary": true, "id": 1722, "name": "Restaurants"}], "fax_number": null, "expansion": {"count": null, "uri": null}, "impression_id": "000b000000a133b39cfca5416992879eb3104478cb", "profile": "http://www.citysearch.com/profile/764910450/atlanta_ga/chipotle_mexican_grill.html", "address": {"city": "Atlanta", "state": "GA", "street": "2020 Howell Mill Rd NW", "postal_code": "30318"}, "capProviderId": null, "distance": null, "has_offers": false, "name": "Chipotle Mexican Grill", "longitude": -84.414711, "has_menu": false, "awards": null, "user_review_count": 0}, {"business_operation_status": 1, "rating": null, "neighborhood": null, "image": null, "scorecard": null, "featured": false, "sample_categories": "Restaurants", "public_id": "new-york-deli-smyrna", "id": 838123390, "votes": null, "tagline": null, "has_video": false, "website": null, "offers": null, "latitude": 33.839674, "politanName": "Atlanta, GA Metro ", "phone_number": "7704058696", "tags": [{"primary": true, "id": 1722, "name": "Restaurants"}], "fax_number": null, "expansion": {"count": null, "uri": null}, "impression_id": "000b0000008ccfe25981a84fb7a01211840856f4aa", "profile": "http://www.citysearch.com/profile/838123390/smyrna_ga/new_york_deli.html", "address": {"city": "Smyrna", "state": "GA", "street": "4691 S Atlanta Rd SE # 150", "postal_code": "30080"}, "capProviderId": null, "distance": null, "has_offers": false, "name": "New York Deli", "longitude": -84.483302, "has_menu": false, "awards": null, "user_review_count": 0}, {"business_operation_status": 1, "rating": null, "neighborhood": null, "image": null, "scorecard": null, "featured": false, "sample_categories": "Restaurants", "public_id": "bandido-wings-marietta", "id": 838396080, "votes": null, "tagline": null, "has_video": false, "website": null, "offers": null, "latitude": 33.902517, "politanName": "Atlanta, GA Metro ", "phone_number": "7706528890", "tags": [{"primary": true, "id": 1722, "name": "Restaurants"}], "fax_number": null, "expansion": {"count": null, "uri": null}, "impression_id": "000b00000003b920e21a0d49dfa77aa46d286de17f", "profile": "http://www.citysearch.com/profile/838396080/marietta_ga/bandido_wings.html", "address": {"city": "Marietta", "state": "GA", "street": "371 Pat Mell Rd SE # 137", "postal_code": "30060"}, "capProviderId": null, "distance": null, "has_offers": false, "name": "Bandido Wings", "longitude": -84.543334, "has_menu": false, "awards": null, "user_review_count": 0}, {"business_operation_status": 1, "rating": null, "neighborhood": null, "image": null, "scorecard": null, "featured": false, "sample_categories": "Restaurants, Carry Out", "public_id": "waffle-house-atlanta-31", "id": 840536100, "votes": null, "tagline": null, "has_video": false, "website": "http://www.citysearch.com/profile/external/840536100/atlanta_ga/waffle_house.html", "offers": null, "latitude": 33.930995, "politanName": "Atlanta, GA Metro ", "phone_number": "4042553911", "tags": [{"primary": false, "id": 11247, "name": "Carry Out"}, {"primary": true, "id": 1722, "name": "Restaurants"}], "fax_number": null, "expansion": {"count": null, "uri": null}, "impression_id": "000b0000007faedffe39aa4cb98d537006e2807d0c", "profile": "http://www.citysearch.com/profile/840536100/atlanta_ga/waffle_house.html", "address": {"city": "Atlanta", "state": "GA", "street": "6445 Roswell Rd", "postal_code": "30328"}, "capProviderId": null, "distance": null, "has_offers": false, "name": "Waffle House", "longitude": -84.379191, "has_menu": false, "awards": null, "user_review_count": 0}, {"business_operation_status": 1, "rating": null, "neighborhood": null, "image": null, "scorecard": null, "featured": false, "sample_categories": "Food Stores, Restaurants", "public_id": "atlanta-smokehouse-prodcuts-marietta", "id": 793290190, "votes": null, "tagline": null, "has_video": false, "website": null, "offers": null, "latitude": 33.912568, "politanName": "Atlanta, GA Metro ", "phone_number": "7706934435", "tags": [{"primary": false, "id": 1722, "name": "Restaurants"}, {"primary": true, "id": 1706, "name": "Food Stores"}], "fax_number": null, "expansion": {"count": null, "uri": null}, "impression_id": "000b000000dd8b88eb1d1640e9bc84ebf663afd9f4", "profile": "http://www.citysearch.com/profile/793290190/marietta_ga/atlanta_smokehouse_prodcuts.html", "address": {"city": "Marietta", "state": "GA", "street": "1700 Enterprise Way Se", "postal_code": "30067"}, "capProviderId": null, "distance": null, "has_offers": false, "name": "Atlanta Smokehouse Prodcuts", "longitude": -84.492151, "has_menu": false, "awards": null, "user_review_count": 0}, {"business_operation_status": 1, "rating": 8.0, "neighborhood": null, "image": null, "scorecard": null, "featured": false, "sample_categories": "Restaurants", "public_id": "jocks-jills-sports-grill-atlanta", "id": 3037892, "votes": null, "tagline": null, "has_video": false, "website": null, "offers": null, "latitude": 33.907557, "politanName": "Atlanta, GA Metro ", "phone_number": "4048439444", "tags": [{"primary": true, "id": 1722, "name": "Restaurants"}], "fax_number": null, "expansion": {"count": null, "uri": null}, "impression_id": "000b000000224bacc4332445c5b6ca8f3648cd68a1", "profile": "http://www.citysearch.com/profile/3037892/atlanta_ga/jock_s_jills_sports_grill.html", "address": {"city": "Atlanta", "state": "GA", "street": "5600 Roswell Road NE", "postal_code": "30342"}, "capProviderId": null, "distance": null, "has_offers": false, "name": "Jock's & Jills Sports Grill", "longitude": -84.378776, "has_menu": true, "awards": null, "user_review_count": 0}, {"business_operation_status": 1, "rating": null, "neighborhood": null, "image": null, "scorecard": null, "featured": false, "sample_categories": "Restaurants, Diners, Cafes", "public_id": "campus-cafe-marietta", "id": 33669246, "votes": null, "tagline": null, "has_video": false, "website": null, "offers": null, "latitude": 33.930756, "politanName": "Atlanta, GA Metro ", "phone_number": "7707926042", "tags": [{"primary": false, "id": 1732, "name": "Diners"}, {"primary": false, "id": 6190, "name": "Cafes"}, {"primary": true, "id": 1722, "name": "Restaurants"}], "fax_number": null, "expansion": {"count": null, "uri": null}, "impression_id": "000b00000025b6f890b60545a1bc7c77b4a6b51844", "profile": "http://www.citysearch.com/profile/33669246/marietta_ga/campus_cafe.html", "address": {"city": "Marietta", "state": "GA", "street": "1269 Barclay Cir SE", "postal_code": "30060"}, "capProviderId": null, "distance": null, "has_offers": false, "name": "Campus Cafe", "longitude": -84.514539, "has_menu": false, "awards": null, "user_review_count": 0}, {"business_operation_status": 1, "rating": null, "neighborhood": null, "image": null, "scorecard": null, "featured": false, "sample_categories": "Restaurants, Delis And Delicatessens, Sandwich Shops, Carry Out", "public_id": "subway-sandy-10", "id": 781231300, "votes": null, "tagline": null, "has_video": false, "website": "http://www.citysearch.com/profile/external/781231300/sandy_springs_ga/subway.html", "offers": null, "latitude": 33.916242, "politanName": "Atlanta, GA Metro ", "phone_number": "4042550306", "tags": [{"primary": false, "id": 1727, "name": "Delis And Delicatessens"}, {"primary": false, "id": 1736, "name": "Sandwich Shops"}, {"primary": false, "id": 11247, "name": "Carry Out"}, {"primary": true, "id": 1722, "name": "Restaurants"}], "fax_number": null, "expansion": {"count": null, "uri": null}, "impression_id": "000b000000c11187e3672e45dea2ef7428a62e8d32", "profile": "http://www.citysearch.com/profile/781231300/sandy_springs_ga/subway.html", "address": {"city": "Sandy Springs", "state": "GA", "street": "5590 Roswell Rd", "postal_code": "30342"}, "capProviderId": null, "distance": null, "has_offers": false, "name": "SUBWAY", "longitude": -84.379244, "has_menu": false, "awards": null, "user_review_count": 0}, {"business_operation_status": 1, "rating": null, "neighborhood": null, "image": null, "scorecard": null, "featured": false, "sample_categories": "Restaurants", "public_id": "drive-time-marrietta", "id": 831886880, "votes": null, "tagline": null, "has_video": false, "website": null, "offers": null, "latitude": 33.939976, "politanName": "Atlanta, GA Metro ", "phone_number": "7705773077", "tags": [{"primary": true, "id": 1722, "name": "Restaurants"}], "fax_number": null, "expansion": {"count": null, "uri": null}, "impression_id": "000b000000adebb004d2cf464381b2eca5b2145aec", "profile": "http://www.citysearch.com/profile/831886880/marrietta_ga/drive_time.html", "address": {"city": "Marrietta", "state": "GA", "street": "502 S Cobb Parkway", "postal_code": "30060"}, "capProviderId": null, "distance": null, "has_offers": false, "name": "Drive Time", "longitude": -84.515396, "has_menu": false, "awards": null, "user_review_count": 0}, {"business_operation_status": 1, "rating": null, "neighborhood": null, "image": null, "scorecard": null, "featured": false, "sample_categories": "Ice Cream Parlors", "public_id": "little-blue-ice-cream-truck-marietta", "id": 793367130, "votes": null, "tagline": null, "has_video": false, "website": null, "offers": null, "latitude": 33.966843, "politanName": "Atlanta, GA Metro ", "phone_number": "7702897011", "tags": [{"primary": true, "id": 1730, "name": "Ice Cream Parlors"}], "fax_number": null, "expansion": {"count": null, "uri": null}, "impression_id": "000b000000dfa2a32f21e04640b3189d36f3aca96e", "profile": "http://www.citysearch.com/profile/793367130/marietta_ga/little_blue_ice_cream_truck.html", "address": {"city": "Marietta", "state": "GA", "street": "737 Johnson Ferry Road", "postal_code": "30068"}, "capProviderId": null, "distance": null, "has_offers": false, "name": "Little Blue Ice Cream Truck", "longitude": -84.412484, "has_menu": false, "awards": null, "user_review_count": 0}, {"business_operation_status": 1, "rating": null, "neighborhood": null, "image": null, "scorecard": null, "featured": false, "sample_categories": "Restaurants", "public_id": "j-christophers-corporate-marietta", "id": 838483640, "votes": null, "tagline": null, "has_video": false, "website": null, "offers": null, "latitude": 33.921701, "politanName": "Atlanta, GA Metro ", "phone_number": "7707381170", "tags": [{"primary": true, "id": 1722, "name": "Restaurants"}], "fax_number": null, "expansion": {"count": null, "uri": null}, "impression_id": "000b000000ad2522f8f53a4e4ba1e2a6fd451d6e48", "profile": "http://www.citysearch.com/profile/838483640/marietta_ga/j_christopher_s_corporate.html", "address": {"city": "Marietta", "state": "GA", "street": "1275 Powers Ferry Rd SE", "postal_code": "30067"}, "capProviderId": null, "distance": null, "has_offers": false, "name": "J Christopher's Corporate", "longitude": -84.466483, "has_menu": false, "awards": null, "user_review_count": 0}, {"business_operation_status": 1, "rating": null, "neighborhood": null, "image": null, "scorecard": null, "featured": false, "sample_categories": "Restaurants", "public_id": "cafe-glenridge-atlanta", "id": 3037855, "votes": null, "tagline": null, "has_video": false, "website": null, "offers": null, "latitude": 33.907094, "politanName": "Atlanta, GA Metro ", "phone_number": "4042501722", "tags": [{"primary": true, "id": 1722, "name": "Restaurants"}], "fax_number": null, "expansion": {"count": null, "uri": null}, "impression_id": "000b0000001883fbf61aa34df885b39b5d62b397e6", "profile": "http://www.citysearch.com/profile/3037855/atlanta_ga/cafe_glenridge.html", "address": {"city": "Atlanta", "state": "GA", "street": "5600 Glenridge Dr NE Ste 180", "postal_code": "30342"}, "capProviderId": null, "distance": null, "has_offers": false, "name": "Cafe Glenridge", "longitude": -84.366645, "has_menu": false, "awards": null, "user_review_count": 0}, {"business_operation_status": 1, "rating": null, "neighborhood": null, "image": null, "scorecard": null, "featured": false, "sample_categories": "Restaurants", "public_id": "haas-restaurant-marietta", "id": 655817570, "votes": null, "tagline": null, "has_video": false, "website": null, "offers": null, "latitude": 33.965353, "politanName": "Atlanta, GA Metro ", "phone_number": "7706357662", "tags": [{"primary": true, "id": 1722, "name": "Restaurants"}], "fax_number": null, "expansion": {"count": null, "uri": null}, "impression_id": "000b00000017d8ddc4b21a4ccda70be4064f75e81e", "profile": "http://www.citysearch.com/profile/655817570/marietta_ga/haas_restaurant.html", "address": {"city": "Marietta", "state": "GA", "street": "4665 Lower Roswell Rd", "postal_code": "30068"}, "capProviderId": null, "distance": null, "has_offers": false, "name": "Haas Restaurant", "longitude": -84.415616, "has_menu": false, "awards": null, "user_review_count": 0}, {"business_operation_status": 1, "rating": null, "neighborhood": null, "image": null, "scorecard": null, "featured": false, "sample_categories": "Coffeehouses", "public_id": "starbucks-smyrna-4", "id": 627612690, "votes": null, "tagline": null, "has_video": false, "website": "http://www.citysearch.com/profile/external/627612690/smyrna_ga/starbucks.html", "offers": null, "latitude": 33.895705, "politanName": "Atlanta, GA Metro ", "phone_number": "7709522241", "tags": [{"primary": true, "id": 1726, "name": "Coffeehouses"}], "fax_number": null, "expansion": {"count": null, "uri": null}, "impression_id": "000b00000032c64c0d7bad463da2710e6ac7e66ac8", "profile": "http://www.citysearch.com/profile/627612690/smyrna_ga/starbucks.html", "address": {"city": "Smyrna", "state": "GA", "street": "2201 Cobb Pkwy Se", "postal_code": "30080"}, "capProviderId": null, "distance": null, "has_offers": false, "name": "Starbucks", "longitude": -84.480749, "has_menu": true, "awards": null, "user_review_count": 0}, {"business_operation_status": 1, "rating": null, "neighborhood": null, "image": null, "scorecard": null, "featured": false, "sample_categories": "Restaurants, Fast Food, Carry Out, Hamburgers, American Express", "public_id": "mc-donalds-mableton", "id": 45993503, "votes": null, "tagline": null, "has_video": false, "website": "http://www.citysearch.com/profile/external/45993503/mableton_ga/mc_donald_s.html", "offers": null, "latitude": 33.806368, "politanName": "Atlanta, GA Metro ", "phone_number": "6783988614", "tags": [{"primary": false, "id": 11199, "name": "Fast Food"}, {"primary": false, "id": 11247, "name": "Carry Out"}, {"primary": false, "id": 11270, "name": "Hamburgers"}, {"primary": false, "id": 11333, "name": "American Express"}, {"primary": false, "id": 11349, "name": "Discover"}, {"primary": false, "id": 11361, "name": "MasterCard"}, {"primary": false, "id": 11382, "name": "Visa"}, {"primary": true, "id": 1722, "name": "Restaurants"}], "fax_number": null, "expansion": {"count": null, "uri": null}, "impression_id": "000b0000004083b4db625c4ce6b673afdadc69b446", "profile": "http://www.citysearch.com/profile/45993503/mableton_ga/mc_donald_s.html", "address": {"city": "Mableton", "state": "GA", "street": "840 Veterans Memorial Hwy SE", "postal_code": "30126"}, "capProviderId": null, "distance": null, "has_offers": false, "name": "Mc Donald's", "longitude": -84.530894, "has_menu": true, "awards": null, "user_review_count": 0}, {"business_operation_status": 0, "rating": null, "neighborhood": null, "image": null, "scorecard": null, "featured": false, "sample_categories": "Child Care, Restaurants, Doctors, Personnel Consultants, Restaurant Management", "public_id": "el-pollo-loco-regional-office-atlanta", "id": 46008848, "votes": null, "tagline": null, "has_video": false, "website": null, "offers": null, "latitude": 33.901114, "politanName": "Atlanta, GA Metro ", "phone_number": "6785787960", "tags": [{"primary": false, "id": 1722, "name": "Restaurants"}, {"primary": false, "id": 1833, "name": "Doctors"}, {"primary": false, "id": 392, "name": "Personnel Consultants"}, {"primary": false, "id": 11122, "name": "Restaurant Management"}, {"primary": false, "id": 11199, "name": "Fast Food"}, {"primary": false, "id": 11208, "name": "Mexican"}, {"primary": true, "id": 581, "name": "Child Care"}], "fax_number": null, "expansion": {"count": null, "uri": null}, "impression_id": "000b000000007516f85af94a9c9c99051c120b65f7", "profile": "http://www.citysearch.com/profile/46008848/atlanta_ga/el_pollo_loco_regional_office.html", "address": {"city": "Atlanta", "state": "GA", "street": "2110 Powers Ferry Rd SE", "postal_code": "30339"}, "capProviderId": null, "distance": null, "has_offers": false, "name": "El Pollo Loco Regional Office", "longitude": -84.45113, "has_menu": false, "awards": null, "user_review_count": 0}, {"business_operation_status": 0, "rating": null, "neighborhood": "Northside, Northside", "image": null, "scorecard": null, "featured": false, "sample_categories": "Barbecue Restaurants, Restaurants", "public_id": "billy-jacks-bar-bq-atlanta", "id": 655939420, "votes": null, "tagline": null, "has_video": false, "website": null, "offers": null, "latitude": 33.809802, "politanName": "Atlanta, GA Metro ", "phone_number": "4043517979", "tags": [{"primary": false, "id": 1722, "name": "Restaurants"}, {"primary": true, "id": 1724, "name": "Barbecue Restaurants"}], "fax_number": null, "expansion": {"count": null, "uri": null}, "impression_id": "000b000000773ef837fcb44484b3309f864a4bc120", "profile": "http://www.citysearch.com/profile/655939420/atlanta_ga/billy_jack_s_bar_bq.html", "address": {"city": "Atlanta", "state": "GA", "street": "857 Collier Rd Nw", "postal_code": "30318"}, "capProviderId": null, "distance": null, "has_offers": false, "name": "Billy Jack's Bar Bq", "longitude": -84.416381, "has_menu": false, "awards": null, "user_review_count": 0}, {"business_operation_status": 1, "rating": null, "neighborhood": null, "image": null, "scorecard": null, "featured": false, "sample_categories": "Restaurants, Carry Out", "public_id": "waffle-house-mableton-2", "id": 609393684, "votes": null, "tagline": null, "has_video": false, "website": "http://www.citysearch.com/profile/external/609393684/mableton_ga/waffle_house.html", "offers": null, "latitude": 33.799338, "politanName": "Atlanta, GA Metro ", "phone_number": "4046997114", "tags": [{"primary": false, "id": 11247, "name": "Carry Out"}, {"primary": true, "id": 1722, "name": "Restaurants"}], "fax_number": null, "expansion": {"count": null, "uri": null}, "impression_id": "000b000000a89bb0bddd8845da9eac3b87756cc90e", "profile": "http://www.citysearch.com/profile/609393684/mableton_ga/waffle_house.html", "address": {"city": "Mableton", "state": "GA", "street": "1450 Veterans Memorial Hwy SE # 300", "postal_code": "30126"}, "capProviderId": null, "distance": null, "has_offers": false, "name": "Waffle House", "longitude": -84.513029, "has_menu": false, "awards": null, "user_review_count": 0}, {"business_operation_status": 1, "rating": null, "neighborhood": null, "image": null, "scorecard": null, "featured": false, "sample_categories": "Restaurants", "public_id": "tokyo-japneese-steak-house-smyrna", "id": 618511154, "votes": null, "tagline": null, "has_video": false, "website": null, "offers": null, "latitude": 33.841776, "politanName": "Atlanta, GA Metro ", "phone_number": "6783051188", "tags": [{"primary": true, "id": 1722, "name": "Restaurants"}], "fax_number": null, "expansion": {"count": null, "uri": null}, "impression_id": "000b0000006780b6f0face4c61b8bc1602be64378e", "profile": "http://www.citysearch.com/profile/618511154/smyrna_ga/tokyo_japneese_steak_house.html", "address": {"city": "Smyrna", "state": "GA", "street": "4624 Camp Highland Rd SE", "postal_code": "30082"}, "capProviderId": null, "distance": null, "has_offers": false, "name": "Tokyo Japneese Steak House", "longitude": -84.505687, "has_menu": false, "awards": null, "user_review_count": 0}, {"business_operation_status": 1, "rating": null, "neighborhood": null, "image": null, "scorecard": null, "featured": false, "sample_categories": "Restaurants, Pizza", "public_id": "marcos-pizza-atlanta-3", "id": 618603224, "votes": null, "tagline": null, "has_video": false, "website": "http://www.citysearch.com/profile/external/618603224/atlanta_ga/marco_s_pizza.html", "offers": null, "latitude": 33.919609, "politanName": "Atlanta, GA Metro ", "phone_number": "4702251839", "tags": [{"primary": false, "id": 1722, "name": "Restaurants"}, {"primary": true, "id": 11299, "name": "Pizza"}], "fax_number": null, "expansion": {"count": null, "uri": null}, "impression_id": "000b000000441e1c95a5ee4d079d6e87e3c8592f1c", "profile": "http://www.citysearch.com/profile/618603224/atlanta_ga/marco_s_pizza.html", "address": {"city": "Atlanta", "state": "GA", "street": "227 Sandy Springs Pl", "postal_code": "30328"}, "capProviderId": null, "distance": null, "has_offers": false, "name": "Marco's Pizza", "longitude": -84.382757, "has_menu": false, "awards": null, "user_review_count": 0}, {"business_operation_status": 1, "rating": null, "neighborhood": null, "image": null, "scorecard": null, "featured": false, "sample_categories": "Restaurants, Delis And Delicatessens, Sandwich Shops, Carry Out", "public_id": "subway-smyrna-8", "id": 621921010, "votes": null, "tagline": null, "has_video": false, "website": "http://www.citysearch.com/profile/external/621921010/smyrna_ga/subway.html", "offers": null, "latitude": 33.883443, "politanName": "Atlanta, GA Metro ", "phone_number": "7708058522", "tags": [{"primary": false, "id": 1727, "name": "Delis And Delicatessens"}, {"primary": false, "id": 1736, "name": "Sandwich Shops"}, {"primary": false, "id": 11247, "name": "Carry Out"}, {"primary": true, "id": 1722, "name": "Restaurants"}], "fax_number": null, "expansion": {"count": null, "uri": null}, "impression_id": "000b0000001997ec08f2fd404b8e6b31435bf82f4a", "profile": "http://www.citysearch.com/profile/621921010/smyrna_ga/subway.html", "address": {"city": "Smyrna", "state": "GA", "street": "2517 Spring Rd Se", "postal_code": "30080"}, "capProviderId": null, "distance": null, "has_offers": false, "name": "Subway", "longitude": -84.480608, "has_menu": true, "awards": null, "user_review_count": 0}, {"business_operation_status": 1, "rating": null, "neighborhood": "Northside, Northside", "image": null, "scorecard": null, "featured": false, "sample_categories": "Bakeries, Restaurants", "public_id": "west-side-pie-atlanta", "id": 748336210, "votes": null, "tagline": null, "has_video": false, "website": null, "offers": null, "latitude": 33.789045, "politanName": "Atlanta, GA Metro ", "phone_number": "4043678410", "tags": [{"primary": false, "id": 1722, "name": "Restaurants"}, {"primary": true, "id": 1685, "name": "Bakeries"}], "fax_number": null, "expansion": {"count": null, "uri": null}, "impression_id": "000b0000008d2b4a98b88c4464bbd0048ed08ccbd5", "profile": "http://www.citysearch.com/profile/748336210/atlanta_ga/west_side_pie.html", "address": {"city": "Atlanta", "state": "GA", "street": "1133 Huff Rd NW", "postal_code": "30318"}, "capProviderId": null, "distance": null, "has_offers": false, "name": "West Side Pie", "longitude": -84.425066, "has_menu": false, "awards": null, "user_review_count": 0}, {"business_operation_status": 1, "rating": null, "neighborhood": null, "image": null, "scorecard": null, "featured": false, "sample_categories": "Restaurants", "public_id": "southern-style-cooking-to-go-atlanta", "id": 3037859, "votes": null, "tagline": null, "has_video": false, "website": null, "offers": null, "latitude": 33.909471, "politanName": "Atlanta, GA Metro ", "phone_number": "4042524819", "tags": [{"primary": true, "id": 1722, "name": "Restaurants"}], "fax_number": null, "expansion": {"count": null, "uri": null}, "impression_id": "000b000000a010029af3aa4227a5e2404a4fa21a5f", "profile": "http://www.citysearch.com/profile/3037859/atlanta_ga/southern_style_cooking_to_go.html", "address": {"city": "Atlanta", "state": "GA", "street": "5674 Roswell Rd NE", "postal_code": "30342"}, "capProviderId": null, "distance": null, "has_offers": false, "name": "Southern Style Cooking To Go", "longitude": -84.378895, "has_menu": false, "awards": null, "user_review_count": 0}], "histograms": [], "tag_ids": [1722], "uri": "http://api.citygridmedia.com:8080/search/places/v2/search/where?has_offers=false&type=restaurant&format=json&page=20&where=30339&rpp=50&histograms=false&publisher=10000009598&region_type=circle", "did_you_mean": "", "regions": [{"latitude": 33.877209, "default_radius": 2.6, "type": "postal_code", "name": "30339", "longitude": -84.463483}], "call_id": "000b0000009d2383b8dd6c4edabc850f7b584aadd3", "first_hit": 951, "total_hits": 1582, "geo_ids": [26497], "page": 20, "last_hit": 1000}}