{"results": {"rpp": 50, "locations": [{"business_operation_status": 1, "rating": null, "neighborhood": null, "image": "http://o1.aolcdn.com/dims-shared/dims3/PATCH/resize/600x450/http://hss-prod.hss.aol.com/hss/storage/patch/bd16f336459823c191e5a0721670a4f9", "scorecard": null, "featured": false, "sample_categories": "Restaurants, Fraternal Organizations", "public_id": "fresh-to-order-atlanta", "id": 682548280, "votes": null, "tagline": null, "has_video": false, "website": "http://www.citysearch.com/profile/external/682548280/atlanta_ga/fresh_to_order.html", "offers": null, "latitude": 33.881746, "politanName": "Atlanta, GA Metro ", "phone_number": "6785641400", "tags": [{"primary": false, "id": 588, "name": "Fraternal Organizations"}, {"primary": true, "id": 1722, "name": "Restaurants"}], "fax_number": null, "expansion": {"count": null, "uri": null}, "impression_id": "000b000000b3848feaf868457d875f79bb38fd5bf9", "profile": "http://www.citysearch.com/profile/682548280/atlanta_ga/fresh_to_order.html", "address": {"city": "Atlanta", "state": "GA", "street": "1000 Cumberland Mall Se", "postal_code": "30339"}, "capProviderId": null, "distance": null, "has_offers": false, "name": "Fresh To Order", "longitude": -84.470079, "has_menu": false, "awards": null, "user_review_count": 0}, {"business_operation_status": 1, "rating": null, "neighborhood": null, "image": "http://images.citysearch.net/assets/imgdb2/reinvent/profile/2012/9/20/12/xjUHSfgb.jpg", "scorecard": null, "featured": false, "sample_categories": "Restaurants", "public_id": "blu-sushi-grill-and-seafood-bar-smyrna", "id": 672332180, "votes": null, "tagline": null, "has_video": false, "website": null, "offers": null, "latitude": 33.887146, "politanName": "Atlanta, GA Metro ", "phone_number": "7704379900", "tags": [{"primary": true, "id": 1722, "name": "Restaurants"}], "fax_number": null, "expansion": {"count": null, "uri": null}, "impression_id": "000b0000006d61cf1d74a44b2c939fe624efd8efc4", "profile": "http://www.citysearch.com/profile/672332180/smyrna_ga/blu_sushi_grill_and_seafood_bar.html", "address": {"city": "Smyrna", "state": "GA", "street": "2700 Cobb Pky SE", "postal_code": "30080"}, "capProviderId": null, "distance": null, "has_offers": false, "name": "Blu Sushi Grill and Seafood Bar", "longitude": -84.47315, "has_menu": false, "awards": null, "user_review_count": 0}, {"business_operation_status": 1, "rating": null, "neighborhood": null, "image": "http://o3.aolcdn.com/dims-shared/dims3/PATCH/resize/600x450/http://hss-prod.hss.aol.com/hss/storage/patch/d7bdb42111249cc76eba8d08a3376657", "scorecard": null, "featured": false, "sample_categories": "Restaurants, Chinese", "public_id": "china-sun-express-atlanta", "id": 3030517, "votes": null, "tagline": null, "has_video": false, "website": null, "offers": null, "latitude": 33.884135, "politanName": "Atlanta, GA Metro ", "phone_number": "7705412228", "tags": [{"primary": false, "id": 11252, "name": "Chinese"}, {"primary": true, "id": 1722, "name": "Restaurants"}], "fax_number": null, "expansion": {"count": null, "uri": null}, "impression_id": "000b0000007aa78722a03a49a29ff5b3b7d437edb5", "profile": "http://www.citysearch.com/profile/3030517/atlanta_ga/china_sun_express.html", "address": {"city": "Atlanta", "state": "GA", "street": "1 Galleria Pkwy SE Ste 1D12", "postal_code": "30339"}, "capProviderId": null, "distance": null, "has_offers": false, "name": "China Sun Express", "longitude": -84.46371, "has_menu": false, "awards": null, "user_review_count": 1}, {"business_operation_status": 1, "rating": 2.0, "neighborhood": null, "image": null, "scorecard": null, "featured": false, "sample_categories": "Juice & Smoothie Shops, Health Food Stores, Restaurants", "public_id": "planet-smoothie-atlanta-9", "id": 33571922, "votes": null, "tagline": null, "has_video": false, "website": "http://www.citysearch.com/profile/external/33571922/atlanta_ga/planet_smoothie.html", "offers": null, "latitude": 33.879854, "politanName": "Atlanta, GA Metro ", "phone_number": "7709558006", "tags": [{"primary": false, "id": 1716, "name": "Health Food Stores"}, {"primary": false, "id": 1722, "name": "Restaurants"}, {"primary": true, "id": 1735, "name": "Juice & Smoothie Shops"}], "fax_number": null, "expansion": {"count": null, "uri": null}, "impression_id": "000b0000009c40ca0dc5f64e3586dcf70133d66cac", "profile": "http://www.citysearch.com/profile/33571922/atlanta_ga/planet_smoothie.html", "address": {"city": "Atlanta", "state": "GA", "street": "2980 Cobb Pkwy Ste 136", "postal_code": "30339"}, "capProviderId": null, "distance": null, "has_offers": false, "name": "Planet Smoothie", "longitude": -84.461999, "has_menu": true, "awards": null, "user_review_count": 1}, {"business_operation_status": 1, "rating": null, "neighborhood": null, "image": null, "scorecard": null, "featured": false, "sample_categories": "Restaurants", "public_id": "rainbow-cafe-atlanta", "id": 43872795, "votes": null, "tagline": null, "has_video": false, "website": "http://www.citysearch.com/profile/external/43872795/atlanta_ga/rainbow_cafe.html", "offers": null, "latitude": 33.865744, "politanName": "Atlanta, GA Metro ", "phone_number": "7704371511", "tags": [{"primary": true, "id": 1722, "name": "Restaurants"}], "fax_number": null, "expansion": {"count": null, "uri": null}, "impression_id": "000b000000300aa6dcc23f4555943d42e1ef5b43cb", "profile": "http://www.citysearch.com/profile/43872795/atlanta_ga/rainbow_cafe.html", "address": {"city": "Atlanta", "state": "GA", "street": "2849 Paces Ferry Rd SE", "postal_code": "30339"}, "capProviderId": null, "distance": null, "has_offers": false, "name": "Rainbow Cafe", "longitude": -84.470966, "has_menu": false, "awards": null, "user_review_count": 0}, {"business_operation_status": 1, "rating": null, "neighborhood": null, "image": null, "scorecard": null, "featured": false, "sample_categories": "Restaurants", "public_id": "parkwood-cafe-atlanta", "id": 601368682, "votes": null, "tagline": null, "has_video": false, "website": null, "offers": null, "latitude": 33.878815, "politanName": "Atlanta, GA Metro ", "phone_number": "7702720601", "tags": [{"primary": true, "id": 1722, "name": "Restaurants"}], "fax_number": null, "expansion": {"count": null, "uri": null}, "impression_id": "000b000000885238e816e141f7afd35caec1cc9826", "profile": "http://www.citysearch.com/profile/601368682/atlanta_ga/parkwood_cafe.html", "address": {"city": "Atlanta", "state": "GA", "street": "1300 Parkwood Cir Se # Ll160", "postal_code": "30339"}, "capProviderId": null, "distance": null, "has_offers": false, "name": "Parkwood Cafe", "longitude": -84.464518, "has_menu": false, "awards": null, "user_review_count": 0}, {"business_operation_status": 1, "rating": null, "neighborhood": null, "image": null, "scorecard": null, "featured": false, "sample_categories": "Restaurants, Fast Food, Carry Out, Chicken", "public_id": "chickfila-atlanta-13", "id": 601369671, "votes": null, "tagline": null, "has_video": false, "website": null, "offers": null, "latitude": 33.860583, "politanName": "Atlanta, GA Metro ", "phone_number": "7708030182", "tags": [{"primary": false, "id": 11199, "name": "Fast Food"}, {"primary": false, "id": 11247, "name": "Carry Out"}, {"primary": false, "id": 12839, "name": "Chicken"}, {"primary": true, "id": 1722, "name": "Restaurants"}], "fax_number": null, "expansion": {"count": null, "uri": null}, "impression_id": "000b000000b7a83e607b6c4e13ab0d3ce24ccdb295", "profile": "http://www.citysearch.com/profile/601369671/atlanta_ga/chick_fil_a.html", "address": {"city": "Atlanta", "state": "GA", "street": "2845 Cumberland Pkwy Se", "postal_code": "30339"}, "capProviderId": null, "distance": null, "has_offers": false, "name": "Chick-Fil-A", "longitude": -84.47869, "has_menu": false, "awards": null, "user_review_count": 0}, {"business_operation_status": 1, "rating": null, "neighborhood": null, "image": null, "scorecard": null, "featured": false, "sample_categories": "Restaurants", "public_id": "grubb-burger-bar-atlanta", "id": 839047600, "votes": null, "tagline": null, "has_video": false, "website": null, "offers": null, "latitude": 33.881224, "politanName": "Atlanta, GA Metro ", "phone_number": "7709379485", "tags": [{"primary": true, "id": 1722, "name": "Restaurants"}], "fax_number": null, "expansion": {"count": null, "uri": null}, "impression_id": "000b000000d5119eb6587040bb91fa11c370320cfc", "profile": "http://www.citysearch.com/profile/839047600/atlanta_ga/grubb_burger_bar.html", "address": {"city": "Atlanta", "state": "GA", "street": "2955 Cobb Pkwy SE", "postal_code": "30339"}, "capProviderId": null, "distance": null, "has_offers": false, "name": "Grubb Burger Bar", "longitude": -84.462152, "has_menu": false, "awards": null, "user_review_count": 0}, {"business_operation_status": 1, "rating": null, "neighborhood": null, "image": null, "scorecard": null, "featured": false, "sample_categories": "Restaurants", "public_id": "rpw-incorporated-atlanta", "id": 45010742, "votes": null, "tagline": null, "has_video": false, "website": null, "offers": null, "latitude": 33.901856, "politanName": "Atlanta, GA Metro ", "phone_number": "7709560018", "tags": [{"primary": true, "id": 1722, "name": "Restaurants"}], "fax_number": null, "expansion": {"count": null, "uri": null}, "impression_id": "000b00000093e4f7663e3447e5830264fef266cb48", "profile": "http://www.citysearch.com/profile/45010742/atlanta_ga/rpw_incorporated.html", "address": {"city": "Atlanta", "state": "GA", "street": "2022 Powers Ferry Rd SE", "postal_code": "30339"}, "capProviderId": null, "distance": null, "has_offers": false, "name": "Rpw Incorporated", "longitude": -84.455034, "has_menu": false, "awards": null, "user_review_count": 0}, {"business_operation_status": 1, "rating": null, "neighborhood": null, "image": null, "scorecard": null, "featured": false, "sample_categories": "Restaurants, Delis And Delicatessens, Sandwich Shops, Carry Out, American Express", "public_id": "blimpie-subs-salads-atlanta-20", "id": 43874998, "votes": null, "tagline": null, "has_video": false, "website": "http://www.citysearch.com/profile/external/43874998/atlanta_ga/blimpie_subs_salads.html", "offers": null, "latitude": 33.877367, "politanName": "Atlanta, GA Metro ", "phone_number": "7709171550", "tags": [{"primary": false, "id": 1727, "name": "Delis And Delicatessens"}, {"primary": false, "id": 1736, "name": "Sandwich Shops"}, {"primary": false, "id": 11247, "name": "Carry Out"}, {"primary": false, "id": 11333, "name": "American Express"}, {"primary": false, "id": 11348, "name": "Diners Club"}, {"primary": false, "id": 11349, "name": "Discover"}, {"primary": false, "id": 11361, "name": "MasterCard"}, {"primary": false, "id": 11382, "name": "Visa"}, {"primary": true, "id": 1722, "name": "Restaurants"}], "fax_number": null, "expansion": {"count": null, "uri": null}, "impression_id": "000b00000096e4da32b33342dbbd4ac71cc5c1d079", "profile": "http://www.citysearch.com/profile/43874998/atlanta_ga/blimpie_subs_salads.html", "address": {"city": "Atlanta", "state": "GA", "street": "3105 Cobb Pkwy", "postal_code": "30339"}, "capProviderId": null, "distance": null, "has_offers": false, "name": "Blimpie Subs & Salads", "longitude": -84.456524, "has_menu": false, "awards": null, "user_review_count": 0}, {"business_operation_status": 1, "rating": null, "neighborhood": null, "image": null, "scorecard": null, "featured": false, "sample_categories": "Delis And Delicatessens", "public_id": "american-deli-atlanta-23", "id": 621038944, "votes": null, "tagline": null, "has_video": false, "website": null, "offers": null, "latitude": 33.870058, "politanName": "Atlanta, GA Metro ", "phone_number": "7704353444", "tags": [{"primary": true, "id": 1727, "name": "Delis And Delicatessens"}], "fax_number": null, "expansion": {"count": null, "uri": null}, "impression_id": "000b0000005a7328d30eda418ea74f9d805b2ec926", "profile": "http://www.citysearch.com/profile/621038944/atlanta_ga/american_deli.html", "address": {"city": "Atlanta", "state": "GA", "street": "2860 Cumberland Club Dr", "postal_code": "30339"}, "capProviderId": null, "distance": null, "has_offers": false, "name": "American Deli", "longitude": -84.472454, "has_menu": false, "awards": null, "user_review_count": 0}, {"business_operation_status": 1, "rating": null, "neighborhood": null, "image": null, "scorecard": null, "featured": false, "sample_categories": "Restaurants", "public_id": "china-moon-atlanta-2", "id": 609747124, "votes": null, "tagline": null, "has_video": false, "website": null, "offers": null, "latitude": 33.864981, "politanName": "Atlanta, GA Metro ", "phone_number": "7708050015", "tags": [{"primary": true, "id": 1722, "name": "Restaurants"}], "fax_number": null, "expansion": {"count": null, "uri": null}, "impression_id": "000b00000079d1d297f3ab438eb5b6eedde8756544", "profile": "http://www.citysearch.com/profile/609747124/atlanta_ga/china_moon.html", "address": {"city": "Atlanta", "state": "GA", "street": "2810 Paces Ferry Rd SE # Ste 220", "postal_code": "30339"}, "capProviderId": null, "distance": null, "has_offers": false, "name": "China Moon", "longitude": -84.470202, "has_menu": false, "awards": null, "user_review_count": 0}, {"business_operation_status": 1, "rating": null, "neighborhood": "Lemons Ridge", "image": null, "scorecard": null, "featured": false, "sample_categories": "Restaurants, Bistros", "public_id": "chopsticks-asian-bistro-atlanta", "id": 622185760, "votes": null, "tagline": null, "has_video": false, "website": null, "offers": null, "latitude": 33.85944, "politanName": "Atlanta, GA Metro ", "phone_number": "7704323838", "tags": [{"primary": false, "id": 13690, "name": "Bistros"}, {"primary": true, "id": 1722, "name": "Restaurants"}], "fax_number": null, "expansion": {"count": null, "uri": null}, "impression_id": "000b000000d50ebbe0b4324faabdeb070d4cb88afa", "profile": "http://www.citysearch.com/profile/622185760/atlanta_ga/chopsticks_asian_bistro.html", "address": {"city": "Atlanta", "state": "GA", "street": "4199 Paces Ferry Rd Se # A", "postal_code": "30339"}, "capProviderId": null, "distance": null, "has_offers": false, "name": "Chopsticks Asian Bistro", "longitude": -84.455929, "has_menu": true, "awards": null, "user_review_count": 4}, {"business_operation_status": 1, "rating": null, "neighborhood": null, "image": null, "scorecard": null, "featured": false, "sample_categories": "Restaurants, Mexican", "public_id": "mexico-tipico-atlanta", "id": 713500290, "votes": null, "tagline": null, "has_video": false, "website": "http://www.citysearch.com/profile/external/713500290/atlanta_ga/mexico_tipico.html", "offers": null, "latitude": 33.869506, "politanName": "Atlanta, GA Metro ", "phone_number": "7709745054", "tags": [{"primary": false, "id": 11208, "name": "Mexican"}, {"primary": true, "id": 1722, "name": "Restaurants"}], "fax_number": null, "expansion": {"count": null, "uri": null}, "impression_id": "000b000000bca7ea8dc1e7430984793b9b80d090c2", "profile": "http://www.citysearch.com/profile/713500290/atlanta_ga/mexico_tipico.html", "address": {"city": "Atlanta", "state": "GA", "street": "3160 Cobb Pkwy Se", "postal_code": "30339"}, "capProviderId": null, "distance": null, "has_offers": false, "name": "Mexico Tipico", "longitude": -84.455525, "has_menu": false, "awards": null, "user_review_count": 0}, {"business_operation_status": 1, "rating": null, "neighborhood": null, "image": null, "scorecard": null, "featured": false, "sample_categories": "Food Stores, Restaurants, Sandwich Shops, Ham, Pork", "public_id": "honey-baked-ham-atlanta-5", "id": 682302160, "votes": null, "tagline": null, "has_video": false, "website": "http://www.citysearch.com/profile/external/682302160/atlanta_ga/honeybaked_ham.html", "offers": null, "latitude": 33.881249, "politanName": "Atlanta, GA Metro ", "phone_number": "7709530010", "tags": [{"primary": false, "id": 1706, "name": "Food Stores"}, {"primary": false, "id": 1722, "name": "Restaurants"}, {"primary": false, "id": 1736, "name": "Sandwich Shops"}, {"primary": false, "id": 11125, "name": "Pork"}, {"primary": true, "id": 11124, "name": "Ham"}], "fax_number": null, "expansion": {"count": null, "uri": null}, "impression_id": "000b000000d53836e6ca744657be452ea6fbd729d3", "profile": "http://www.citysearch.com/profile/682302160/atlanta_ga/honeybaked_ham.html", "address": {"city": "Atlanta", "state": "GA", "street": "2955 Cobb Pkwy SE 250", "postal_code": "30339"}, "capProviderId": null, "distance": null, "has_offers": false, "name": "Honeybaked Ham", "longitude": -84.46212, "has_menu": true, "awards": null, "user_review_count": 0}, {"business_operation_status": 1, "rating": null, "neighborhood": null, "image": null, "scorecard": null, "featured": false, "sample_categories": "Restaurants", "public_id": "sivier-hut-two-atlanta", "id": 713540870, "votes": null, "tagline": null, "has_video": false, "website": null, "offers": null, "latitude": 33.881746, "politanName": "Atlanta, GA Metro ", "phone_number": "7704326625", "tags": [{"primary": true, "id": 1722, "name": "Restaurants"}], "fax_number": null, "expansion": {"count": null, "uri": null}, "impression_id": "000b000000e1851f1be0eb4abe8c1d6ee2a440e8f5", "profile": "http://www.citysearch.com/profile/713540870/atlanta_ga/sivier_hut_two.html", "address": {"city": "Atlanta", "state": "GA", "street": "1000 Cumberland Mall Se", "postal_code": "30339"}, "capProviderId": null, "distance": null, "has_offers": false, "name": "Sivier Hut Two", "longitude": -84.470079, "has_menu": false, "awards": null, "user_review_count": 0}, {"business_operation_status": 1, "rating": null, "neighborhood": null, "image": null, "scorecard": null, "featured": false, "sample_categories": "Restaurants", "public_id": "superiorlifestyle-healthy-atlanta", "id": 732183010, "votes": null, "tagline": null, "has_video": false, "website": null, "offers": null, "latitude": 33.679693, "politanName": "Atlanta, GA Metro ", "phone_number": "7708731503", "tags": [{"primary": true, "id": 1722, "name": "Restaurants"}], "fax_number": null, "expansion": {"count": null, "uri": null}, "impression_id": "000b00000078167279530b4aeb9ef9e9c97360f8ae", "profile": "http://www.citysearch.com/profile/732183010/atlanta_ga/superiorlifestyle_healthy.html", "address": {"city": "Atlanta", "state": "GA", "street": "123 Healthy Ln", "postal_code": "30339"}, "capProviderId": null, "distance": null, "has_offers": false, "name": "Superiorlifestyle Healthy", "longitude": -84.440615, "has_menu": false, "awards": null, "user_review_count": 0}, {"business_operation_status": 1, "rating": null, "neighborhood": null, "image": null, "scorecard": null, "featured": false, "sample_categories": "Restaurants, Bars & Pubs", "public_id": "malones-bar-grill-atlanta", "id": 764882200, "votes": null, "tagline": null, "has_video": false, "website": null, "offers": null, "latitude": 33.880351, "politanName": "Atlanta, GA Metro ", "phone_number": "7709526042", "tags": [{"primary": false, "id": 1686, "name": "Bars & Pubs"}, {"primary": true, "id": 1722, "name": "Restaurants"}], "fax_number": null, "expansion": {"count": null, "uri": null}, "impression_id": "000b000000b9e4d8ee70c049fab4c6b25134ae7a64", "profile": "http://www.citysearch.com/profile/764882200/atlanta_ga/malone_s_bar_grill.html", "address": {"city": "Atlanta", "state": "GA", "street": "2960 Cobb Pkwy NW", "postal_code": "30339"}, "capProviderId": null, "distance": null, "has_offers": false, "name": "Malone's Bar & Grill", "longitude": -84.462963, "has_menu": false, "awards": null, "user_review_count": 0}, {"business_operation_status": 1, "rating": null, "neighborhood": null, "image": null, "scorecard": null, "featured": false, "sample_categories": "Restaurants, Carry Out", "public_id": "corner-bakery-cafe-atlanta-6", "id": 607149504, "votes": null, "tagline": null, "has_video": false, "website": "http://www.citysearch.com/profile/external/607149504/atlanta_ga/corner_bakery_cafe.html", "offers": null, "latitude": 33.884294, "politanName": "Atlanta, GA Metro ", "phone_number": "6784330070", "tags": [{"primary": false, "id": 11247, "name": "Carry Out"}, {"primary": true, "id": 1722, "name": "Restaurants"}], "fax_number": null, "expansion": {"count": null, "uri": null}, "impression_id": "000b000000ea9a79c11871481699cdad1be955606d", "profile": "http://www.citysearch.com/profile/607149504/atlanta_ga/corner_bakery_cafe.html", "address": {"city": "Atlanta", "state": "GA", "street": "2973 Cobb Pkwy SE", "postal_code": "30339"}, "capProviderId": null, "distance": null, "has_offers": false, "name": "Corner Bakery Cafe", "longitude": -84.469653, "has_menu": false, "awards": null, "user_review_count": 0}, {"business_operation_status": 1, "rating": null, "neighborhood": null, "image": null, "scorecard": null, "featured": false, "sample_categories": "Restaurants", "public_id": "micks-cumberland-mall-atlanta", "id": 817195060, "votes": null, "tagline": null, "has_video": false, "website": null, "offers": null, "latitude": 33.879283, "politanName": "Atlanta, GA Metro ", "phone_number": "7704317190", "tags": [{"primary": true, "id": 1722, "name": "Restaurants"}], "fax_number": null, "expansion": {"count": null, "uri": null}, "impression_id": "000b00000099d34874b96048199150f990bd89a3ff", "profile": "http://www.citysearch.com/profile/817195060/atlanta_ga/micks_cumberland_mall.html", "address": {"city": "Atlanta", "state": "GA", "street": "1320 Cumberland Mall SE", "postal_code": "30339"}, "capProviderId": null, "distance": null, "has_offers": false, "name": "Micks Cumberland Mall", "longitude": -84.471266, "has_menu": false, "awards": null, "user_review_count": 0}, {"business_operation_status": 1, "rating": null, "neighborhood": null, "image": null, "scorecard": null, "featured": false, "sample_categories": "Restaurants, Pizza, Carry Out", "public_id": "pizza-hut-atlanta-34", "id": 824168770, "votes": null, "tagline": null, "has_video": false, "website": "http://www.citysearch.com/profile/external/824168770/atlanta_ga/pizza_hut.html", "offers": null, "latitude": 33.884828, "politanName": "Atlanta, GA Metro ", "phone_number": "7709528054", "tags": [{"primary": false, "id": 1722, "name": "Restaurants"}, {"primary": false, "id": 11247, "name": "Carry Out"}, {"primary": true, "id": 11299, "name": "Pizza"}], "fax_number": null, "expansion": {"count": null, "uri": null}, "impression_id": "000b0000000af3b7a95b3d45969c1f35fde8a86921", "profile": "http://www.citysearch.com/profile/824168770/atlanta_ga/pizza_hut.html", "address": {"city": "Atlanta", "state": "GA", "street": "2771 Spring Rd Se", "postal_code": "30339"}, "capProviderId": null, "distance": null, "has_offers": false, "name": "Pizza Hut", "longitude": -84.472366, "has_menu": true, "awards": null, "user_review_count": 0}, {"business_operation_status": 1, "rating": null, "neighborhood": null, "image": null, "scorecard": null, "featured": false, "sample_categories": "Restaurants, Carry Out", "public_id": "firehouse-subs-atlanta-7", "id": 612394034, "votes": null, "tagline": null, "has_video": false, "website": null, "offers": null, "latitude": 33.884294, "politanName": "Atlanta, GA Metro ", "phone_number": "6784248042", "tags": [{"primary": false, "id": 11247, "name": "Carry Out"}, {"primary": true, "id": 1722, "name": "Restaurants"}], "fax_number": null, "expansion": {"count": null, "uri": null}, "impression_id": "000b0000007675a48480e946c0a2f3c7e550e8efe4", "profile": "http://www.citysearch.com/profile/612394034/atlanta_ga/firehouse_subs.html", "address": {"city": "Atlanta", "state": "GA", "street": "2970 Cobb Pkwy SE", "postal_code": "30339"}, "capProviderId": null, "distance": null, "has_offers": false, "name": "Firehouse Subs", "longitude": -84.469653, "has_menu": true, "awards": null, "user_review_count": 0}, {"business_operation_status": 1, "rating": null, "neighborhood": null, "image": null, "scorecard": null, "featured": false, "sample_categories": "Restaurants", "public_id": "hooters-of-kalamazoo-inc-atlanta", "id": 766801450, "votes": null, "tagline": null, "has_video": false, "website": null, "offers": null, "latitude": 33.908131, "politanName": "Atlanta, GA Metro ", "phone_number": "7709512040", "tags": [{"primary": true, "id": 1722, "name": "Restaurants"}], "fax_number": null, "expansion": {"count": null, "uri": null}, "impression_id": "000b0000000d069eaaf28349bc9cbd1e1cf8bc9965", "profile": "http://www.citysearch.com/profile/766801450/atlanta_ga/hooters_of_kalamazoo_inc.html", "address": {"city": "Atlanta", "state": "GA", "street": "1815 the Exchange SE", "postal_code": "30339"}, "capProviderId": null, "distance": null, "has_offers": false, "name": "Hooters of Kalamazoo Inc", "longitude": -84.479005, "has_menu": false, "awards": null, "user_review_count": 0}, {"business_operation_status": 1, "rating": null, "neighborhood": null, "image": null, "scorecard": null, "featured": false, "sample_categories": "Restaurants, Italian", "public_id": "medici-italian-restaurant-atlanta", "id": 787133330, "votes": null, "tagline": null, "has_video": false, "website": null, "offers": null, "latitude": 33.885023, "politanName": "Atlanta, GA Metro ", "phone_number": "7709534500", "tags": [{"primary": false, "id": 11279, "name": "Italian"}, {"primary": true, "id": 1722, "name": "Restaurants"}], "fax_number": null, "expansion": {"count": null, "uri": null}, "impression_id": "000b0000001012188a5fef47bba93df825bf2d2f74", "profile": "http://www.citysearch.com/profile/787133330/atlanta_ga/medici_italian_restaurant.html", "address": {"city": "Atlanta", "state": "GA", "street": "2450 Galleria Pkwy Se", "postal_code": "30339"}, "capProviderId": null, "distance": null, "has_offers": false, "name": "Medici Italian Restaurant", "longitude": -84.464652, "has_menu": false, "awards": null, "user_review_count": 0}, {"business_operation_status": 1, "rating": null, "neighborhood": null, "image": null, "scorecard": null, "featured": false, "sample_categories": "Restaurants, Traditional American", "public_id": "another-broken-egg-cafe-atlanta-3", "id": 772197900, "votes": null, "tagline": null, "has_video": false, "website": null, "offers": null, "latitude": 33.866361, "politanName": "Atlanta, GA Metro ", "phone_number": "7703840012", "tags": [{"primary": false, "id": 11190, "name": "Traditional American"}, {"primary": true, "id": 1722, "name": "Restaurants"}], "fax_number": null, "expansion": {"count": null, "uri": null}, "impression_id": "000b00000060e8e88ee1974a9a98c60ef311bd6731", "profile": "http://www.citysearch.com/profile/772197900/atlanta_ga/another_broken_egg_cafe.html", "address": {"city": "Atlanta", "state": "GA", "street": "4300 Paces Ferry Rd SE", "postal_code": "30339"}, "capProviderId": null, "distance": null, "has_offers": false, "name": "Another Broken Egg Cafe", "longitude": -84.466047, "has_menu": false, "awards": null, "user_review_count": 0}, {"business_operation_status": 1, "rating": null, "neighborhood": null, "image": null, "scorecard": null, "featured": false, "sample_categories": "Restaurants, Delis And Delicatessens", "public_id": "zoes-kitchen-atlanta-5", "id": 766790530, "votes": null, "tagline": null, "has_video": false, "website": null, "offers": null, "latitude": 33.880882, "politanName": "Atlanta, GA Metro ", "phone_number": "7709523643", "tags": [{"primary": false, "id": 1727, "name": "Delis And Delicatessens"}, {"primary": true, "id": 1722, "name": "Restaurants"}], "fax_number": null, "expansion": {"count": null, "uri": null}, "impression_id": "000b0000009c251a6c8e294e52a46cd73dd8b55a82", "profile": "http://www.citysearch.com/profile/766790530/atlanta_ga/zoes_kitchen.html", "address": {"city": "Atlanta", "state": "GA", "street": "2935 Cobb Pkwy SE", "postal_code": "30339"}, "capProviderId": null, "distance": null, "has_offers": false, "name": "Zoes Kitchen", "longitude": -84.463111, "has_menu": false, "awards": null, "user_review_count": 0}, {"business_operation_status": 1, "rating": null, "neighborhood": null, "image": null, "scorecard": null, "featured": false, "sample_categories": "Restaurants", "public_id": "thg-holdings-atlanta", "id": 813270480, "votes": null, "tagline": null, "has_video": false, "website": null, "offers": null, "latitude": 33.908822, "politanName": "Atlanta, GA Metro ", "phone_number": "7709538334", "tags": [{"primary": true, "id": 1722, "name": "Restaurants"}], "fax_number": null, "expansion": {"count": null, "uri": null}, "impression_id": "000b000000cf1a32a2839f4ffa8124a635c0b59454", "profile": "http://www.citysearch.com/profile/813270480/atlanta_ga/thg_holdings.html", "address": {"city": "Atlanta", "state": "GA", "street": "1770 The Exchange SE # 220", "postal_code": "30339"}, "capProviderId": null, "distance": null, "has_offers": false, "name": "THG Holdings", "longitude": -84.480468, "has_menu": false, "awards": null, "user_review_count": 0}, {"business_operation_status": 1, "rating": null, "neighborhood": null, "image": null, "scorecard": null, "featured": false, "sample_categories": "Doughnut Shops, Restaurants", "public_id": "daylight-consulting-group-atlanta", "id": 46008847, "votes": null, "tagline": null, "has_video": false, "website": "http://www.citysearch.com/profile/external/46008847/atlanta_ga/daylight_consulting_group.html", "offers": null, "latitude": 33.863183, "politanName": "Atlanta, GA Metro ", "phone_number": "7708615209", "tags": [{"primary": false, "id": 1734, "name": "Doughnut Shops"}, {"primary": true, "id": 1722, "name": "Restaurants"}], "fax_number": null, "expansion": {"count": null, "uri": null}, "impression_id": "000b00000080067c5ac5314d36980e0e342eaf5ec0", "profile": "http://www.citysearch.com/profile/46008847/atlanta_ga/daylight_consulting_group.html", "address": {"city": "Atlanta", "state": "GA", "street": "2451 Cumberland Pkwy SE", "postal_code": "30339"}, "capProviderId": null, "distance": null, "has_offers": false, "name": "Daylight Consulting Group", "longitude": -84.478702, "has_menu": false, "awards": null, "user_review_count": 0}, {"business_operation_status": 1, "rating": null, "neighborhood": null, "image": null, "scorecard": null, "featured": false, "sample_categories": "Restaurants, American Express, Discover, MasterCard, Visa", "public_id": "one-stop-marietta", "id": 43841116, "votes": null, "tagline": null, "has_video": false, "website": null, "offers": null, "latitude": 33.903919, "politanName": "Atlanta, GA Metro ", "phone_number": "7706900083", "tags": [{"primary": false, "id": 11333, "name": "American Express"}, {"primary": false, "id": 11349, "name": "Discover"}, {"primary": false, "id": 11361, "name": "MasterCard"}, {"primary": false, "id": 11382, "name": "Visa"}, {"primary": true, "id": 1722, "name": "Restaurants"}], "fax_number": null, "expansion": {"count": null, "uri": null}, "impression_id": "000b000000b1a055c9fe234cda8e92438cb4854049", "profile": "http://www.citysearch.com/profile/43841116/marietta_ga/one_stop.html", "address": {"city": "Marietta", "state": "GA", "street": "3000 Windy Hill Rd SE Ste A2", "postal_code": "30067"}, "capProviderId": null, "distance": null, "has_offers": false, "name": "One Stop", "longitude": -84.4706, "has_menu": false, "awards": null, "user_review_count": 0}, {"business_operation_status": 1, "rating": null, "neighborhood": null, "image": null, "scorecard": null, "featured": false, "sample_categories": "Restaurants", "public_id": "jocks-jills-sports-grill-atlanta-3", "id": 626460694, "votes": null, "tagline": null, "has_video": false, "website": null, "offers": null, "latitude": 33.878815, "politanName": "Atlanta, GA Metro ", "phone_number": "7709528401", "tags": [{"primary": true, "id": 1722, "name": "Restaurants"}], "fax_number": null, "expansion": {"count": null, "uri": null}, "impression_id": "000b00000086a458c48e634d9abf1936a5a87edbd2", "profile": "http://www.citysearch.com/profile/626460694/atlanta_ga/jocks_jills_sports_grill.html", "address": {"city": "Atlanta", "state": "GA", "street": "1 Galleria Pkwy SE 1D17A", "postal_code": "30339"}, "capProviderId": null, "distance": null, "has_offers": false, "name": "Jocks & Jills Sports Grill", "longitude": -84.464518, "has_menu": false, "awards": null, "user_review_count": 0}, {"business_operation_status": 1, "rating": null, "neighborhood": null, "image": null, "scorecard": null, "featured": false, "sample_categories": "Restaurants, Sandwich Shops, Soups", "public_id": "cafe-400-atlanta-4", "id": 622054250, "votes": null, "tagline": null, "has_video": false, "website": null, "offers": null, "latitude": 33.894187, "politanName": "Atlanta, GA Metro ", "phone_number": "7702260074", "tags": [{"primary": false, "id": 1736, "name": "Sandwich Shops"}, {"primary": false, "id": 11311, "name": "Soups"}, {"primary": true, "id": 1722, "name": "Restaurants"}], "fax_number": null, "expansion": {"count": null, "uri": null}, "impression_id": "000b00000015cb12d06a384591a6e1751b9713c37d", "profile": "http://www.citysearch.com/profile/622054250/atlanta_ga/cafe_400.html", "address": {"city": "Atlanta", "state": "GA", "street": "400 Interstate North Pkwy Se", "postal_code": "30339"}, "capProviderId": null, "distance": null, "has_offers": false, "name": "Cafe 400", "longitude": -84.456313, "has_menu": false, "awards": null, "user_review_count": 0}, {"business_operation_status": 1, "rating": null, "neighborhood": null, "image": null, "scorecard": null, "featured": false, "sample_categories": "Restaurants, Chinese", "public_id": "tasty-china-atlanta", "id": 682728820, "votes": null, "tagline": null, "has_video": false, "website": null, "offers": null, "latitude": 33.903618, "politanName": "Atlanta, GA Metro ", "phone_number": "6787668765", "tags": [{"primary": false, "id": 11252, "name": "Chinese"}, {"primary": true, "id": 1722, "name": "Restaurants"}], "fax_number": null, "expansion": {"count": null, "uri": null}, "impression_id": "000b000000d0c433c66324431d898fad4b68893015", "profile": "http://www.citysearch.com/profile/682728820/atlanta_ga/tasty_china.html", "address": {"city": "Atlanta", "state": "GA", "street": "6450 Powers Ferry Rd NW", "postal_code": "30339"}, "capProviderId": null, "distance": null, "has_offers": false, "name": "Tasty China", "longitude": -84.43524, "has_menu": false, "awards": null, "user_review_count": 0}, {"business_operation_status": 0, "rating": null, "neighborhood": null, "image": null, "scorecard": null, "featured": false, "sample_categories": "Art Galleries, Restaurants, Pizza", "public_id": "art-of-the-pie-atlanta", "id": 43873073, "votes": null, "tagline": null, "has_video": false, "website": null, "offers": null, "latitude": 33.887616, "politanName": "Atlanta, GA Metro ", "phone_number": "7709568282", "tags": [{"primary": false, "id": 6043, "name": "Art Galleries"}, {"primary": false, "id": 11299, "name": "Pizza"}, {"primary": true, "id": 1722, "name": "Restaurants"}], "fax_number": null, "expansion": {"count": null, "uri": null}, "impression_id": "000b000000672d9513e617470899080e27a258b827", "profile": "http://www.citysearch.com/profile/43873073/atlanta_ga/art_of_the_pie.html", "address": {"city": "Atlanta", "state": "GA", "street": "2241 Akers Mill Rd SE", "postal_code": "30339"}, "capProviderId": null, "distance": null, "has_offers": false, "name": "Art of The Pie", "longitude": -84.45545, "has_menu": false, "awards": null, "user_review_count": 0}, {"business_operation_status": 1, "rating": null, "neighborhood": null, "image": null, "scorecard": null, "featured": false, "sample_categories": "Restaurants", "public_id": "sunshine-cafe-atlanta", "id": 40947579, "votes": null, "tagline": null, "has_video": false, "website": "http://www.citysearch.com/profile/external/40947579/atlanta_ga/sunshine_cafe.html", "offers": null, "latitude": 33.9096, "politanName": "Atlanta, GA Metro ", "phone_number": "7702269444", "tags": [{"primary": true, "id": 1722, "name": "Restaurants"}], "fax_number": null, "expansion": {"count": null, "uri": null}, "impression_id": "000b00000051ea2cdd9fb84114bface0bc86468723", "profile": "http://www.citysearch.com/profile/40947579/atlanta_ga/sunshine_cafe.html", "address": {"city": "Atlanta", "state": "GA", "street": "6151 Powers Ferry Rd NW Ste 140", "postal_code": "30339"}, "capProviderId": null, "distance": null, "has_offers": false, "name": "Sunshine Cafe", "longitude": -84.426412, "has_menu": true, "awards": null, "user_review_count": 1}, {"business_operation_status": 1, "rating": null, "neighborhood": null, "image": null, "scorecard": null, "featured": false, "sample_categories": "Restaurants, Steakhouse", "public_id": "steak-escape-atlanta", "id": 43874404, "votes": null, "tagline": null, "has_video": false, "website": "http://www.citysearch.com/profile/external/43874404/atlanta_ga/steak_escape.html", "offers": null, "latitude": 33.879293, "politanName": "Atlanta, GA Metro ", "phone_number": "7704348988", "tags": [{"primary": false, "id": 11316, "name": "Steakhouse"}, {"primary": true, "id": 1722, "name": "Restaurants"}], "fax_number": null, "expansion": {"count": null, "uri": null}, "impression_id": "000b000000372e89a098e74fa6a1e99423d937b618", "profile": "http://www.citysearch.com/profile/43874404/atlanta_ga/steak_escape.html", "address": {"city": "Atlanta", "state": "GA", "street": "1310 Cumberland Mall SE", "postal_code": "30339"}, "capProviderId": null, "distance": null, "has_offers": false, "name": "Steak Escape", "longitude": -84.471307, "has_menu": true, "awards": null, "user_review_count": 0}, {"business_operation_status": 1, "rating": null, "neighborhood": null, "image": null, "scorecard": null, "featured": false, "sample_categories": "Restaurants", "public_id": "hms-host-atlanta-7", "id": 813608660, "votes": null, "tagline": null, "has_video": false, "website": null, "offers": null, "latitude": 33.878815, "politanName": "Atlanta, GA Metro ", "phone_number": "4045303680", "tags": [{"primary": true, "id": 1722, "name": "Restaurants"}], "fax_number": null, "expansion": {"count": null, "uri": null}, "impression_id": "000b000000fe1f4c4aca31409aaaa848fd0f6a33a7", "profile": "http://www.citysearch.com/profile/813608660/atlanta_ga/hms_host.html", "address": {"city": "Atlanta", "state": "GA", "street": "215 I North Pkwy SE", "postal_code": "30339"}, "capProviderId": null, "distance": null, "has_offers": false, "name": "Hms Host", "longitude": -84.464518, "has_menu": false, "awards": null, "user_review_count": 0}, {"business_operation_status": 1, "rating": null, "neighborhood": null, "image": null, "scorecard": null, "featured": false, "sample_categories": "Restaurants", "public_id": "blue-sky-cafe-atlanta", "id": 45568411, "votes": null, "tagline": null, "has_video": false, "website": null, "offers": null, "latitude": 33.885476, "politanName": "Atlanta, GA Metro ", "phone_number": "7709552285", "tags": [{"primary": true, "id": 1722, "name": "Restaurants"}], "fax_number": null, "expansion": {"count": null, "uri": null}, "impression_id": "000b000000ca25709896774d08a3e31472aa4c2cfe", "profile": "http://www.citysearch.com/profile/45568411/atlanta_ga/blue_sky_cafe.html", "address": {"city": "Atlanta", "state": "GA", "street": "600 Galleria Pkwy SE Ste 180", "postal_code": "30339"}, "capProviderId": null, "distance": null, "has_offers": false, "name": "Blue Sky Cafe", "longitude": -84.461662, "has_menu": false, "awards": null, "user_review_count": 0}, {"business_operation_status": 1, "rating": null, "neighborhood": null, "image": null, "scorecard": null, "featured": false, "sample_categories": "Restaurants", "public_id": "great-wraps-atlanta-12", "id": 836734760, "votes": null, "tagline": null, "has_video": false, "website": null, "offers": null, "latitude": 33.881743, "politanName": "Atlanta, GA Metro ", "phone_number": "7704323946", "tags": [{"primary": true, "id": 1722, "name": "Restaurants"}], "fax_number": null, "expansion": {"count": null, "uri": null}, "impression_id": "000b000000da799446c05a4011bbb6f0a58820ccf4", "profile": "http://www.citysearch.com/profile/836734760/atlanta_ga/great_wraps.html", "address": {"city": "Atlanta", "state": "GA", "street": "1000 Cumberland Mall SE", "postal_code": "30339"}, "capProviderId": null, "distance": null, "has_offers": false, "name": "Great Wraps", "longitude": -84.470084, "has_menu": true, "awards": null, "user_review_count": 0}, {"business_operation_status": 1, "rating": null, "neighborhood": null, "image": null, "scorecard": null, "featured": false, "sample_categories": "Restaurants, Luaus", "public_id": "soup-garden-atlanta", "id": 809055650, "votes": null, "tagline": null, "has_video": false, "website": null, "offers": null, "latitude": 33.883196, "politanName": "Atlanta, GA Metro ", "phone_number": "7709555726", "tags": [{"primary": false, "id": 11285, "name": "Luaus"}, {"primary": true, "id": 1722, "name": "Restaurants"}], "fax_number": null, "expansion": {"count": null, "uri": null}, "impression_id": "000b0000006c1d7f2bcd8f421284de0939d56fcd1b", "profile": "http://www.citysearch.com/profile/809055650/atlanta_ga/soup_garden.html", "address": {"city": "Atlanta", "state": "GA", "street": "2955 Cobb Pkwy SE # 240", "postal_code": "30339"}, "capProviderId": null, "distance": null, "has_offers": false, "name": "Soup Garden", "longitude": -84.461616, "has_menu": false, "awards": null, "user_review_count": 0}, {"business_operation_status": 1, "rating": null, "neighborhood": null, "image": null, "scorecard": null, "featured": false, "sample_categories": "Restaurants, Delis And Delicatessens", "public_id": "philly-connection-atlanta-2", "id": 37653250, "votes": null, "tagline": null, "has_video": false, "website": null, "offers": null, "latitude": 33.901998, "politanName": "Atlanta, GA Metro ", "phone_number": "7709523168", "tags": [{"primary": false, "id": 1727, "name": "Delis And Delicatessens"}, {"primary": true, "id": 1722, "name": "Restaurants"}], "fax_number": null, "expansion": {"count": null, "uri": null}, "impression_id": "000b000000921e92f7c52044f9a486a200c2aab35d", "profile": "http://www.citysearch.com/profile/37653250/atlanta_ga/philly_connection.html", "address": {"city": "Atlanta", "state": "GA", "street": "120 Interstate North Pkwy SE", "postal_code": "30339"}, "capProviderId": null, "distance": null, "has_offers": false, "name": "Philly Connection", "longitude": -84.464688, "has_menu": true, "awards": null, "user_review_count": 0}, {"business_operation_status": 1, "rating": null, "neighborhood": null, "image": null, "scorecard": null, "featured": false, "sample_categories": "Restaurants", "public_id": "statewide-development-atlanta", "id": 808723820, "votes": null, "tagline": null, "has_video": false, "website": null, "offers": null, "latitude": 33.9093, "politanName": "Atlanta, GA Metro ", "phone_number": "6785466070", "tags": [{"primary": true, "id": 1722, "name": "Restaurants"}], "fax_number": null, "expansion": {"count": null, "uri": null}, "impression_id": "000b00000076a83666caab42ed840ebb544579e692", "profile": "http://www.citysearch.com/profile/808723820/atlanta_ga/statewide_development.html", "address": {"city": "Atlanta", "state": "GA", "street": "1775 The Exchange SE # 190", "postal_code": "30339"}, "capProviderId": null, "distance": null, "has_offers": false, "name": "Statewide Development", "longitude": -84.480035, "has_menu": false, "awards": null, "user_review_count": 0}, {"business_operation_status": 1, "rating": null, "neighborhood": null, "image": null, "scorecard": null, "featured": false, "sample_categories": "Restaurants, Barbecue Restaurants", "public_id": "wing-zone-franchise-corp-atlanta", "id": 43874042, "votes": null, "tagline": null, "has_video": false, "website": "http://www.citysearch.com/profile/external/43874042/atlanta_ga/wing_zone_franchise_corp.html", "offers": null, "latitude": 33.887557, "politanName": "Atlanta, GA Metro ", "phone_number": "4048755045", "tags": [{"primary": false, "id": 1724, "name": "Barbecue Restaurants"}, {"primary": true, "id": 1722, "name": "Restaurants"}], "fax_number": null, "expansion": {"count": null, "uri": null}, "impression_id": "000b000000ec13a023bb8d4352bd4e8ea7e2559074", "profile": "http://www.citysearch.com/profile/43874042/atlanta_ga/wing_zone_franchise_corp.html", "address": {"city": "Atlanta", "state": "GA", "street": "900 Circle 75 Pkwy SE Ste 930", "postal_code": "30339"}, "capProviderId": null, "distance": null, "has_offers": false, "name": "Wing Zone Franchise Corp", "longitude": -84.467746, "has_menu": true, "awards": null, "user_review_count": 0}, {"business_operation_status": 1, "rating": null, "neighborhood": null, "image": null, "scorecard": null, "featured": false, "sample_categories": "Restaurants", "public_id": "unsukay-inc-atlanta", "id": 793286370, "votes": null, "tagline": null, "has_video": false, "website": null, "offers": null, "latitude": 33.907787, "politanName": "Atlanta, GA Metro ", "phone_number": "6784028471", "tags": [{"primary": true, "id": 1722, "name": "Restaurants"}], "fax_number": null, "expansion": {"count": null, "uri": null}, "impression_id": "000b000000b460e94f302243f99f8306c62dbca21e", "profile": "http://www.citysearch.com/profile/793286370/atlanta_ga/unsukay_inc.html", "address": {"city": "Atlanta", "state": "GA", "street": "1899 Powers Ferry Rd Se", "postal_code": "30339"}, "capProviderId": null, "distance": null, "has_offers": false, "name": "Unsukay INC", "longitude": -84.463769, "has_menu": false, "awards": null, "user_review_count": 0}, {"business_operation_status": 1, "rating": null, "neighborhood": null, "image": null, "scorecard": null, "featured": false, "sample_categories": "Restaurants", "public_id": "wing-enterprises-inc-atlanta", "id": 816766630, "votes": null, "tagline": null, "has_video": false, "website": null, "offers": null, "latitude": 33.887519, "politanName": "Atlanta, GA Metro ", "phone_number": "4048751688", "tags": [{"primary": true, "id": 1722, "name": "Restaurants"}], "fax_number": null, "expansion": {"count": null, "uri": null}, "impression_id": "000b0000002662257a9b5147c4afd14349cf482353", "profile": "http://www.citysearch.com/profile/816766630/atlanta_ga/wing_enterprises_inc.html", "address": {"city": "Atlanta", "state": "GA", "street": "900 Circle 75 Pkwy SE # 930", "postal_code": "30339"}, "capProviderId": null, "distance": null, "has_offers": false, "name": "Wing Enterprises Inc", "longitude": -84.467593, "has_menu": false, "awards": null, "user_review_count": 0}, {"business_operation_status": 1, "rating": null, "neighborhood": null, "image": null, "scorecard": null, "featured": false, "sample_categories": "Restaurants, Bistros, Catering", "public_id": "paris-bistro-atlanta-10", "id": 775215220, "votes": null, "tagline": null, "has_video": false, "website": null, "offers": null, "latitude": 33.901847, "politanName": "Atlanta, GA Metro ", "phone_number": "6787661449", "tags": [{"primary": false, "id": 13690, "name": "Bistros"}, {"primary": false, "id": 1705, "name": "Catering"}, {"primary": true, "id": 1722, "name": "Restaurants"}], "fax_number": null, "expansion": {"count": null, "uri": null}, "impression_id": "000b000000b18eb48af66c446687ae844df5721eb6", "profile": "http://www.citysearch.com/profile/775215220/atlanta_ga/paris_bistro.html", "address": {"city": "Atlanta", "state": "GA", "street": "2018 Powers Ferry Rd SE", "postal_code": "30339"}, "capProviderId": null, "distance": null, "has_offers": false, "name": "Paris Bistro", "longitude": -84.457896, "has_menu": false, "awards": null, "user_review_count": 0}, {"business_operation_status": 1, "rating": null, "neighborhood": null, "image": null, "scorecard": null, "featured": false, "sample_categories": "Restaurants, Bakeries, Carry Out", "public_id": "cheesecake-factory-atlanta", "id": 793249980, "votes": null, "tagline": null, "has_video": false, "website": "http://www.citysearch.com/profile/external/793249980/atlanta_ga/cheesecake_factory.html", "offers": null, "latitude": 33.881743, "politanName": "Atlanta, GA Metro ", "phone_number": "7703195515", "tags": [{"primary": false, "id": 1685, "name": "Bakeries"}, {"primary": false, "id": 11247, "name": "Carry Out"}, {"primary": true, "id": 1722, "name": "Restaurants"}], "fax_number": null, "expansion": {"count": null, "uri": null}, "impression_id": "000b00000076baea0b42fb4c92a0d685c313f49b9c", "profile": "http://www.citysearch.com/profile/793249980/atlanta_ga/cheesecake_factory.html", "address": {"city": "Atlanta", "state": "GA", "street": "1000 Cumberland Mall Se", "postal_code": "30339"}, "capProviderId": null, "distance": null, "has_offers": false, "name": "Cheesecake Factory", "longitude": -84.470084, "has_menu": true, "awards": null, "user_review_count": 0}, {"business_operation_status": 1, "rating": null, "neighborhood": null, "image": null, "scorecard": null, "featured": false, "sample_categories": "Restaurants, Catering, Delis And Delicatessens, Sandwich Shops, Carry Out", "public_id": "quiznos-atlanta", "id": 43875434, "votes": null, "tagline": null, "has_video": false, "website": "http://www.citysearch.com/profile/external/43875434/atlanta_ga/quiznos.html", "offers": null, "latitude": 33.879395, "politanName": "Atlanta, GA Metro ", "phone_number": "6782133101", "tags": [{"primary": false, "id": 1705, "name": "Catering"}, {"primary": false, "id": 1727, "name": "Delis And Delicatessens"}, {"primary": false, "id": 1736, "name": "Sandwich Shops"}, {"primary": false, "id": 11247, "name": "Carry Out"}, {"primary": false, "id": 11333, "name": "American Express"}, {"primary": false, "id": 11349, "name": "Discover"}, {"primary": false, "id": 11361, "name": "MasterCard"}, {"primary": false, "id": 11375, "name": "Shop Online"}, {"primary": false, "id": 11382, "name": "Visa"}, {"primary": true, "id": 1722, "name": "Restaurants"}], "fax_number": null, "expansion": {"count": null, "uri": null}, "impression_id": "000b000000c101d7fed3f24dd1837f9f5d48ba776a", "profile": "http://www.citysearch.com/profile/43875434/atlanta_ga/quiznos.html", "address": {"city": "Atlanta", "state": "GA", "street": "3051 Akers Mill Rd SE 140", "postal_code": "30339"}, "capProviderId": null, "distance": null, "has_offers": false, "name": "Quiznos", "longitude": -84.463912, "has_menu": true, "awards": null, "user_review_count": 0}, {"business_operation_status": 1, "rating": null, "neighborhood": null, "image": null, "scorecard": null, "featured": false, "sample_categories": "Restaurants", "public_id": "park-point-cafe-atlanta", "id": 37653137, "votes": null, "tagline": null, "has_video": false, "website": null, "offers": null, "latitude": 33.902474, "politanName": "Atlanta, GA Metro ", "phone_number": "7705416677", "tags": [{"primary": true, "id": 1722, "name": "Restaurants"}], "fax_number": null, "expansion": {"count": null, "uri": null}, "impression_id": "000b0000008d56a488c9634b5d91b5b09720d744e7", "profile": "http://www.citysearch.com/profile/37653137/atlanta_ga/park_point_cafe.html", "address": {"city": "Atlanta", "state": "GA", "street": "2018 Powers Ferry Rd SE", "postal_code": "30339"}, "capProviderId": null, "distance": null, "has_offers": false, "name": "Park Point Cafe", "longitude": -84.456329, "has_menu": false, "awards": null, "user_review_count": 0}, {"business_operation_status": 1, "rating": null, "neighborhood": null, "image": null, "scorecard": null, "featured": false, "sample_categories": "Restaurants", "public_id": "china-buffet-chinese-rstrnt-smyrna", "id": 826425600, "votes": null, "tagline": null, "has_video": false, "website": null, "offers": null, "latitude": 33.884505, "politanName": "Atlanta, GA Metro ", "phone_number": "7703338328", "tags": [{"primary": true, "id": 1722, "name": "Restaurants"}], "fax_number": null, "expansion": {"count": null, "uri": null}, "impression_id": "000b0000007b56fb58bde74c2d85b861ce65d23584", "profile": "http://www.citysearch.com/profile/826425600/smyrna_ga/china_buffet_chinese_rstrnt.html", "address": {"city": "Smyrna", "state": "GA", "street": "2800 #a Spring Road", "postal_code": "30080"}, "capProviderId": null, "distance": null, "has_offers": false, "name": "China Buffet Chinese Rstrnt", "longitude": -84.4741, "has_menu": false, "awards": null, "user_review_count": 0}, {"business_operation_status": 1, "rating": null, "neighborhood": null, "image": null, "scorecard": null, "featured": false, "sample_categories": "Restaurants", "public_id": "wingstop-atlanta-3", "id": 620718674, "votes": null, "tagline": null, "has_video": false, "website": "http://www.citysearch.com/profile/external/620718674/atlanta_ga/wingstop.html", "offers": null, "latitude": 33.83285, "politanName": "Atlanta, GA Metro ", "phone_number": "4047929464", "tags": [{"primary": true, "id": 1722, "name": "Restaurants"}], "fax_number": null, "expansion": {"count": null, "uri": null}, "impression_id": "000b000000ee58dd83a34449c8939d4271c469b972", "profile": "http://www.citysearch.com/profile/620718674/atlanta_ga/wingstop.html", "address": {"city": "Atlanta", "state": "GA", "street": "4715 S Atlanta Rd SE", "postal_code": "30339"}, "capProviderId": null, "distance": null, "has_offers": false, "name": "Wingstop", "longitude": -84.462675, "has_menu": false, "awards": null, "user_review_count": 0}], "histograms": [], "tag_ids": [1722], "uri": "http://api.citygridmedia.com:8080/search/places/v2/search/where?has_offers=false&type=restaurant&format=json&page=4&where=30339&rpp=50&histograms=false&publisher=10000009598&region_type=circle", "did_you_mean": "", "regions": [{"latitude": 33.877209, "default_radius": 2.6, "type": "postal_code", "name": "30339", "longitude": -84.463483}], "call_id": "000b000000b33960be468546988524a40e6408f686", "first_hit": 151, "total_hits": 1582, "geo_ids": [26497], "page": 4, "last_hit": 200}}