{"results": {"rpp": 50, "locations": [{"business_operation_status": 1, "rating": null, "neighborhood": null, "image": null, "scorecard": null, "featured": false, "sample_categories": "Restaurants", "public_id": "galleria-bar-grille-atlanta", "id": 798855850, "votes": null, "tagline": null, "has_video": false, "website": null, "offers": null, "latitude": 33.88416, "politanName": "Atlanta, GA Metro ", "phone_number": "7705419583", "tags": [{"primary": true, "id": 1722, "name": "Restaurants"}], "fax_number": null, "expansion": {"count": null, "uri": null}, "impression_id": "000b0000008542b981e2244ea0837b3490fc5251d3", "profile": "http://www.citysearch.com/profile/798855850/atlanta_ga/galleria_bar_grille.html", "address": {"city": "Atlanta", "state": "GA", "street": "1 Galleria Pkwy Se", "postal_code": "30339"}, "capProviderId": null, "distance": null, "has_offers": false, "name": "Galleria Bar & Grille", "longitude": -84.463727, "has_menu": false, "awards": null, "user_review_count": 0}, {"business_operation_status": 1, "rating": null, "neighborhood": null, "image": null, "scorecard": null, "featured": false, "sample_categories": "Restaurants", "public_id": "china-key-development-llc-atlanta", "id": 817168600, "votes": null, "tagline": null, "has_video": false, "website": null, "offers": null, "latitude": 33.863183, "politanName": "Atlanta, GA Metro ", "phone_number": "4047687087", "tags": [{"primary": true, "id": 1722, "name": "Restaurants"}], "fax_number": null, "expansion": {"count": null, "uri": null}, "impression_id": "000b00000012c4554194454b0480b1dcd01e5182eb", "profile": "http://www.citysearch.com/profile/817168600/atlanta_ga/china_key_development_llc.html", "address": {"city": "Atlanta", "state": "GA", "street": "2451 Cumberland Pkwy SE # 300", "postal_code": "30339"}, "capProviderId": null, "distance": null, "has_offers": false, "name": "China Key Development LLC", "longitude": -84.478702, "has_menu": false, "awards": null, "user_review_count": 0}, {"business_operation_status": 1, "rating": null, "neighborhood": null, "image": null, "scorecard": null, "featured": false, "sample_categories": "Restaurants, Traditional American, Carry Out", "public_id": "arbys-atlanta-16", "id": 742194410, "votes": null, "tagline": null, "has_video": false, "website": "http://www.citysearch.com/profile/external/742194410/atlanta_ga/arby_s.html", "offers": null, "latitude": 33.908945, "politanName": "Atlanta, GA Metro ", "phone_number": "4047625088", "tags": [{"primary": false, "id": 11190, "name": "Traditional American"}, {"primary": false, "id": 11247, "name": "Carry Out"}, {"primary": true, "id": 1722, "name": "Restaurants"}], "fax_number": null, "expansion": {"count": null, "uri": null}, "impression_id": "000b000000df629f6ec11c4d249b7046b096d3509b", "profile": "http://www.citysearch.com/profile/742194410/atlanta_ga/arby_s.html", "address": {"city": "Atlanta", "state": "GA", "street": "1700 the Exchange SE # 200", "postal_code": "30339"}, "capProviderId": null, "distance": null, "has_offers": false, "name": "Arby's", "longitude": -84.484196, "has_menu": false, "awards": null, "user_review_count": 0}, {"business_operation_status": 1, "rating": null, "neighborhood": null, "image": null, "scorecard": null, "featured": false, "sample_categories": "Restaurants, Carry Out", "public_id": "arbys-atlanta-24", "id": 825208850, "votes": null, "tagline": null, "has_video": false, "website": null, "offers": null, "latitude": 33.879274, "politanName": "Atlanta, GA Metro ", "phone_number": "7704356226", "tags": [{"primary": false, "id": 11247, "name": "Carry Out"}, {"primary": true, "id": 1722, "name": "Restaurants"}], "fax_number": null, "expansion": {"count": null, "uri": null}, "impression_id": "000b000000a64c76c3c6a34c4496699940c18b32f4", "profile": "http://www.citysearch.com/profile/825208850/atlanta_ga/arbys.html", "address": {"city": "Atlanta", "state": "GA", "street": "1306 Cumberland Mall Se", "postal_code": "30339"}, "capProviderId": null, "distance": null, "has_offers": false, "name": "Arbys", "longitude": -84.471273, "has_menu": true, "awards": null, "user_review_count": 0}, {"business_operation_status": 1, "rating": null, "neighborhood": null, "image": null, "scorecard": null, "featured": false, "sample_categories": "Delis And Delicatessens, Restaurants", "public_id": "deli-cafe-one-overton-park-atlanta", "id": 40947580, "votes": null, "tagline": null, "has_video": false, "website": "http://www.citysearch.com/profile/external/40947580/atlanta_ga/deli_cafe_one_overton_park.html", "offers": null, "latitude": 33.884248, "politanName": "Atlanta, GA Metro ", "phone_number": "7708501506", "tags": [{"primary": false, "id": 1727, "name": "Delis And Delicatessens"}, {"primary": true, "id": 1722, "name": "Restaurants"}], "fax_number": null, "expansion": {"count": null, "uri": null}, "impression_id": "000b000000dbdb17f49c744ff9b4bec009a3a3fdbd", "profile": "http://www.citysearch.com/profile/40947580/atlanta_ga/deli_cafe_one_overton_park.html", "address": {"city": "Atlanta", "state": "GA", "street": "3625 Cumberland Blvd SE", "postal_code": "30339"}, "capProviderId": null, "distance": null, "has_offers": false, "name": "Deli & Cafe One Overton Park", "longitude": -84.453498, "has_menu": false, "awards": null, "user_review_count": 1}, {"business_operation_status": 1, "rating": null, "neighborhood": null, "image": null, "scorecard": null, "featured": false, "sample_categories": "Restaurants", "public_id": "grill-atlanta", "id": 787103840, "votes": null, "tagline": null, "has_video": false, "website": null, "offers": null, "latitude": 33.882924, "politanName": "Atlanta, GA Metro ", "phone_number": "7709163170", "tags": [{"primary": true, "id": 1722, "name": "Restaurants"}], "fax_number": null, "expansion": {"count": null, "uri": null}, "impression_id": "000b0000007a1f3c7e2111431ea5f3468415a08c37", "profile": "http://www.citysearch.com/profile/787103840/atlanta_ga/grill.html", "address": {"city": "Atlanta", "state": "GA", "street": "2844 Cobb Pkwy Se", "postal_code": "30339"}, "capProviderId": null, "distance": null, "has_offers": false, "name": "Grill", "longitude": -84.468893, "has_menu": false, "awards": null, "user_review_count": 0}, {"business_operation_status": 1, "rating": null, "neighborhood": null, "image": null, "scorecard": null, "featured": false, "sample_categories": "Restaurants, Delis And Delicatessens, Sandwich Shops, Carry Out, MasterCard", "public_id": "subway-atlanta-78", "id": 45113612, "votes": null, "tagline": null, "has_video": false, "website": "http://www.citysearch.com/profile/external/45113612/atlanta_ga/subway.html", "offers": null, "latitude": 33.884135, "politanName": "Atlanta, GA Metro ", "phone_number": "7709840455", "tags": [{"primary": false, "id": 1727, "name": "Delis And Delicatessens"}, {"primary": false, "id": 1736, "name": "Sandwich Shops"}, {"primary": false, "id": 11247, "name": "Carry Out"}, {"primary": false, "id": 11361, "name": "MasterCard"}, {"primary": false, "id": 11382, "name": "Visa"}, {"primary": true, "id": 1722, "name": "Restaurants"}], "fax_number": null, "expansion": {"count": null, "uri": null}, "impression_id": "000b000000b7c7780e72bf4fd0932256ffdb4765fb", "profile": "http://www.citysearch.com/profile/45113612/atlanta_ga/subway.html", "address": {"city": "Atlanta", "state": "GA", "street": "1 Galleria Pkwy SE 1C", "postal_code": "30339"}, "capProviderId": null, "distance": null, "has_offers": false, "name": "Subway", "longitude": -84.46371, "has_menu": true, "awards": null, "user_review_count": 0}, {"business_operation_status": 1, "rating": null, "neighborhood": null, "image": null, "scorecard": null, "featured": false, "sample_categories": "Restaurants", "public_id": "saigon-cafe-smyrna", "id": 620245484, "votes": null, "tagline": null, "has_video": false, "website": null, "offers": null, "latitude": 33.886268, "politanName": "Atlanta, GA Metro ", "phone_number": "6783059091", "tags": [{"primary": true, "id": 1722, "name": "Restaurants"}], "fax_number": null, "expansion": {"count": null, "uri": null}, "impression_id": "000b0000001aa6c13a22034726a6ede129a037c6a1", "profile": "http://www.citysearch.com/profile/620245484/smyrna_ga/saigon_cafe.html", "address": {"city": "Smyrna", "state": "GA", "street": "2700 Cobb Pkwy SE", "postal_code": "30080"}, "capProviderId": null, "distance": null, "has_offers": false, "name": "Saigon Cafe", "longitude": -84.471205, "has_menu": false, "awards": null, "user_review_count": 0}, {"business_operation_status": 1, "rating": null, "neighborhood": null, "image": null, "scorecard": null, "featured": false, "sample_categories": "Restaurants", "public_id": "global-diversity-summit-atlanta", "id": 3029865, "votes": null, "tagline": null, "has_video": false, "website": null, "offers": null, "latitude": 33.885844, "politanName": "Atlanta, GA Metro ", "phone_number": "6789150320", "tags": [{"primary": true, "id": 1722, "name": "Restaurants"}], "fax_number": null, "expansion": {"count": null, "uri": null}, "impression_id": "000b00000026ec6946988545fca077e5ca6c8270c9", "profile": "http://www.citysearch.com/profile/3029865/atlanta_ga/global_diversity_summit.html", "address": {"city": "Atlanta", "state": "GA", "street": "200 Galleria Pkwy SE Ste 1200", "postal_code": "30339"}, "capProviderId": null, "distance": null, "has_offers": false, "name": "Global Diversity Summit", "longitude": -84.463997, "has_menu": false, "awards": null, "user_review_count": 0}, {"business_operation_status": 0, "rating": null, "neighborhood": null, "image": null, "scorecard": null, "featured": false, "sample_categories": "Restaurants, Bars & Pubs", "public_id": "skylight-bar-grill-atlanta", "id": 713428170, "votes": null, "tagline": null, "has_video": false, "website": null, "offers": null, "latitude": 33.883731, "politanName": "Atlanta, GA Metro ", "phone_number": "7709539067", "tags": [{"primary": false, "id": 1686, "name": "Bars & Pubs"}, {"primary": true, "id": 1722, "name": "Restaurants"}], "fax_number": null, "expansion": {"count": null, "uri": null}, "impression_id": "000b000000ab1c9f94fc33473d92ef007514a5a904", "profile": "http://www.citysearch.com/profile/713428170/atlanta_ga/skylight_bar_grill.html", "address": {"city": "Atlanta", "state": "GA", "street": "2815 Akers Mill Rd Se", "postal_code": "30339"}, "capProviderId": null, "distance": null, "has_offers": false, "name": "Skylight Bar & Grill", "longitude": -84.459836, "has_menu": false, "awards": null, "user_review_count": 0}, {"business_operation_status": 1, "rating": null, "neighborhood": null, "image": null, "scorecard": null, "featured": false, "sample_categories": "Restaurants, Pizza", "public_id": "acg-pizza-partners-purchasing-atlanta", "id": 766766040, "votes": null, "tagline": null, "has_video": false, "website": null, "offers": null, "latitude": 33.760238, "politanName": "Atlanta, GA Metro ", "phone_number": "6787387807", "tags": [{"primary": false, "id": 1722, "name": "Restaurants"}, {"primary": true, "id": 11299, "name": "Pizza"}], "fax_number": null, "expansion": {"count": null, "uri": null}, "impression_id": "000b000000330091cc990b4054a54cdc6be0350d20", "profile": "http://www.citysearch.com/profile/766766040/atlanta_ga/acg_pizza_partners_purchasing.html", "address": {"city": "Atlanta", "state": "GA", "street": "1100 Circle 75 Pkwy SE # 1500", "postal_code": "30339"}, "capProviderId": null, "distance": null, "has_offers": false, "name": "Acg Pizza Partners Purchasing", "longitude": -84.691581, "has_menu": false, "awards": null, "user_review_count": 0}, {"business_operation_status": 1, "rating": null, "neighborhood": null, "image": null, "scorecard": null, "featured": false, "sample_categories": "Restaurants, Bars & Clubs, Carry Out", "public_id": "hooters-of-orlando-airport-inc-atlanta", "id": 766753430, "votes": null, "tagline": null, "has_video": false, "website": null, "offers": null, "latitude": 33.908131, "politanName": "Atlanta, GA Metro ", "phone_number": "7709512040", "tags": [{"primary": false, "id": 164, "name": "Bars & Clubs"}, {"primary": false, "id": 11247, "name": "Carry Out"}, {"primary": true, "id": 1722, "name": "Restaurants"}], "fax_number": null, "expansion": {"count": null, "uri": null}, "impression_id": "000b000000cab731ae0d0f4fe98b187d586a2f7d0c", "profile": "http://www.citysearch.com/profile/766753430/atlanta_ga/hooters_of_orlando_airport_inc.html", "address": {"city": "Atlanta", "state": "GA", "street": "1815 the Exchange SE", "postal_code": "30339"}, "capProviderId": null, "distance": null, "has_offers": false, "name": "Hooters of Orlando Airport Inc", "longitude": -84.479005, "has_menu": false, "awards": null, "user_review_count": 0}, {"business_operation_status": 1, "rating": null, "neighborhood": null, "image": null, "scorecard": null, "featured": false, "sample_categories": "Restaurants", "public_id": "zaban-food-group-atlanta", "id": 772196800, "votes": null, "tagline": null, "has_video": false, "website": null, "offers": null, "latitude": 33.906775, "politanName": "Atlanta, GA Metro ", "phone_number": "7709841787", "tags": [{"primary": true, "id": 1722, "name": "Restaurants"}], "fax_number": null, "expansion": {"count": null, "uri": null}, "impression_id": "000b000000252f569ab9c848fe95c5b6e237e5a92d", "profile": "http://www.citysearch.com/profile/772196800/atlanta_ga/zaban_food_group.html", "address": {"city": "Atlanta", "state": "GA", "street": "1900 the Exchange SE # 360", "postal_code": "30339"}, "capProviderId": null, "distance": null, "has_offers": false, "name": "Zaban Food Group", "longitude": -84.477741, "has_menu": false, "awards": null, "user_review_count": 0}, {"business_operation_status": 1, "rating": null, "neighborhood": null, "image": null, "scorecard": null, "featured": false, "sample_categories": "Restaurants, Carry Out, Hamburgers", "public_id": "wendys-atlanta-30", "id": 713357310, "votes": null, "tagline": null, "has_video": false, "website": "http://www.citysearch.com/profile/external/713357310/atlanta_ga/wendy_s.html", "offers": null, "latitude": 33.905902, "politanName": "Atlanta, GA Metro ", "phone_number": "7709526954", "tags": [{"primary": false, "id": 11247, "name": "Carry Out"}, {"primary": false, "id": 11270, "name": "Hamburgers"}, {"primary": true, "id": 1722, "name": "Restaurants"}], "fax_number": null, "expansion": {"count": null, "uri": null}, "impression_id": "000b000000ff73e304b9824355bbf99dec824d6c30", "profile": "http://www.citysearch.com/profile/713357310/atlanta_ga/wendy_s.html", "address": {"city": "Atlanta", "state": "GA", "street": "6350 Powers Ferry Rd NW", "postal_code": "30339"}, "capProviderId": null, "distance": null, "has_offers": false, "name": "Wendy's", "longitude": -84.429154, "has_menu": true, "awards": null, "user_review_count": 0}, {"business_operation_status": 1, "rating": null, "neighborhood": null, "image": null, "scorecard": null, "featured": false, "sample_categories": "Restaurants", "public_id": "va-t-i-c-atlanta", "id": 610450354, "votes": null, "tagline": null, "has_video": false, "website": null, "offers": null, "latitude": 33.908517, "politanName": "Atlanta, GA Metro ", "phone_number": "7706934742", "tags": [{"primary": true, "id": 1722, "name": "Restaurants"}], "fax_number": null, "expansion": {"count": null, "uri": null}, "impression_id": "000b0000000f74a21ff44a4297a22eca5f040f9d94", "profile": "http://www.citysearch.com/profile/610450354/atlanta_ga/va_t_i_c.html", "address": {"city": "Atlanta", "state": "GA", "street": "1827 Powers Ferry Rd SE Ste 3-200 # 3-200", "postal_code": "30339"}, "capProviderId": null, "distance": null, "has_offers": false, "name": "VA T I C", "longitude": -84.463637, "has_menu": false, "awards": null, "user_review_count": 0}, {"business_operation_status": 1, "rating": null, "neighborhood": null, "image": null, "scorecard": null, "featured": false, "sample_categories": "Restaurants, Delis And Delicatessens, Sandwich Shops, Carry Out", "public_id": "subway-atlanta-129", "id": 627096204, "votes": null, "tagline": null, "has_video": false, "website": "http://www.citysearch.com/profile/external/627096204/atlanta_ga/subway.html", "offers": null, "latitude": 33.880962, "politanName": "Atlanta, GA Metro ", "phone_number": "6789050209", "tags": [{"primary": false, "id": 1727, "name": "Delis And Delicatessens"}, {"primary": false, "id": 1736, "name": "Sandwich Shops"}, {"primary": false, "id": 11247, "name": "Carry Out"}, {"primary": true, "id": 1722, "name": "Restaurants"}], "fax_number": null, "expansion": {"count": null, "uri": null}, "impression_id": "000b00000087bd3c118bb044b88911b96a7c9f8aea", "profile": "http://www.citysearch.com/profile/627096204/atlanta_ga/subway.html", "address": {"city": "Atlanta", "state": "GA", "street": "1330 Cumberland Mall SE 245", "postal_code": "30339"}, "capProviderId": null, "distance": null, "has_offers": false, "name": "Subway", "longitude": -84.470024, "has_menu": false, "awards": null, "user_review_count": 0}, {"business_operation_status": 1, "rating": null, "neighborhood": null, "image": null, "scorecard": null, "featured": false, "sample_categories": "Ice Cream Parlors, Restaurants", "public_id": "haagan-ice-cream-atlanta", "id": 627717420, "votes": null, "tagline": null, "has_video": false, "website": "http://www.citysearch.com/profile/external/627717420/atlanta_ga/haagan_ice_cream.html", "offers": null, "latitude": 33.879202, "politanName": "Atlanta, GA Metro ", "phone_number": "7704348089", "tags": [{"primary": false, "id": 1722, "name": "Restaurants"}, {"primary": true, "id": 1730, "name": "Ice Cream Parlors"}], "fax_number": null, "expansion": {"count": null, "uri": null}, "impression_id": "000b00000013d05a5e7be943febb7a4196de994c7f", "profile": "http://www.citysearch.com/profile/627717420/atlanta_ga/haagan_ice_cream.html", "address": {"city": "Atlanta", "state": "GA", "street": "1154 Cumberland Mall Se", "postal_code": "30339"}, "capProviderId": null, "distance": null, "has_offers": false, "name": "Haagan Ice Cream", "longitude": -84.471382, "has_menu": false, "awards": null, "user_review_count": 0}, {"business_operation_status": 1, "rating": null, "neighborhood": null, "image": null, "scorecard": null, "featured": false, "sample_categories": "Bars & Clubs, Bars & Pubs, Restaurants, Carry Out", "public_id": "hooters-of-america-inc-atlanta", "id": 682344370, "votes": null, "tagline": null, "has_video": false, "website": "http://www.citysearch.com/profile/external/682344370/atlanta_ga/hooters_of_america_inc.html", "offers": null, "latitude": 33.908131, "politanName": "Atlanta, GA Metro ", "phone_number": "7703038124", "tags": [{"primary": false, "id": 164, "name": "Bars & Clubs"}, {"primary": false, "id": 1686, "name": "Bars & Pubs"}, {"primary": false, "id": 11247, "name": "Carry Out"}, {"primary": true, "id": 1722, "name": "Restaurants"}], "fax_number": null, "expansion": {"count": null, "uri": null}, "impression_id": "000b00000068c929e2aedb43759f5bc2b20d36a89f", "profile": "http://www.citysearch.com/profile/682344370/atlanta_ga/hooters_of_america_inc.html", "address": {"city": "Atlanta", "state": "GA", "street": "1815 The Exchange Se", "postal_code": "30339"}, "capProviderId": null, "distance": null, "has_offers": false, "name": "Hooters of America INC", "longitude": -84.479005, "has_menu": true, "awards": null, "user_review_count": 0}, {"business_operation_status": 1, "rating": null, "neighborhood": null, "image": null, "scorecard": null, "featured": false, "sample_categories": "Restaurants", "public_id": "stiffys-llc-padriacs-atlanta", "id": 614692654, "votes": null, "tagline": null, "has_video": false, "website": "http://www.citysearch.com/profile/external/614692654/atlanta_ga/stiffys_llc_padriacs.html", "offers": null, "latitude": 33.86409, "politanName": "Atlanta, GA Metro ", "phone_number": "7704332398", "tags": [{"primary": true, "id": 1722, "name": "Restaurants"}], "fax_number": null, "expansion": {"count": null, "uri": null}, "impression_id": "000b000000dda99c5fc6ba439589961f98d6648a93", "profile": "http://www.citysearch.com/profile/614692654/atlanta_ga/stiffys_llc_padriacs.html", "address": {"city": "Atlanta", "state": "GA", "street": "2460 Cumberland Pkwy SE # Ste 110", "postal_code": "30339"}, "capProviderId": null, "distance": null, "has_offers": false, "name": "Stiffys LLC Padriacs", "longitude": -84.476528, "has_menu": false, "awards": null, "user_review_count": 0}, {"business_operation_status": 1, "rating": null, "neighborhood": null, "image": null, "scorecard": null, "featured": false, "sample_categories": "Restaurants, Chinese", "public_id": "uncle-wongs-chinese-chpstcks-atlanta", "id": 713367670, "votes": null, "tagline": null, "has_video": false, "website": null, "offers": null, "latitude": 33.85944, "politanName": "Atlanta, GA Metro ", "phone_number": "6783093800", "tags": [{"primary": false, "id": 11252, "name": "Chinese"}, {"primary": true, "id": 1722, "name": "Restaurants"}], "fax_number": null, "expansion": {"count": null, "uri": null}, "impression_id": "000b0000000f83318632b640429d818458e0a530f7", "profile": "http://www.citysearch.com/profile/713367670/atlanta_ga/uncle_wong_s_chinese_chpstcks.html", "address": {"city": "Atlanta", "state": "GA", "street": "4199 Paces Ferry Rd Se", "postal_code": "30339"}, "capProviderId": null, "distance": null, "has_offers": false, "name": "Uncle Wong's Chinese Chpstcks", "longitude": -84.455929, "has_menu": false, "awards": null, "user_review_count": 0}, {"business_operation_status": 1, "rating": null, "neighborhood": null, "image": null, "scorecard": null, "featured": false, "sample_categories": "Restaurants", "public_id": "italian-kitchen-atlanta", "id": 839778230, "votes": null, "tagline": null, "has_video": false, "website": null, "offers": null, "latitude": 33.881743, "politanName": "Atlanta, GA Metro ", "phone_number": "7704324357", "tags": [{"primary": true, "id": 1722, "name": "Restaurants"}], "fax_number": null, "expansion": {"count": null, "uri": null}, "impression_id": "000b0000001780882cf1f84f9aadacd7fca0a64fb3", "profile": "http://www.citysearch.com/profile/839778230/atlanta_ga/italian_kitchen.html", "address": {"city": "Atlanta", "state": "GA", "street": "1000 Cumberland Mall SE", "postal_code": "30339"}, "capProviderId": null, "distance": null, "has_offers": false, "name": "Italian Kitchen", "longitude": -84.470084, "has_menu": false, "awards": null, "user_review_count": 0}, {"business_operation_status": 1, "rating": null, "neighborhood": null, "image": null, "scorecard": null, "featured": false, "sample_categories": "Restaurants", "public_id": "overlook-iii-cafe-atlanta", "id": 812600250, "votes": null, "tagline": null, "has_video": false, "website": null, "offers": null, "latitude": 33.867607, "politanName": "Atlanta, GA Metro ", "phone_number": "4042305555", "tags": [{"primary": true, "id": 1722, "name": "Restaurants"}], "fax_number": null, "expansion": {"count": null, "uri": null}, "impression_id": "000b0000001f0824e51e824702acb3567579811e16", "profile": "http://www.citysearch.com/profile/812600250/atlanta_ga/overlook_iii_cafe.html", "address": {"city": "Atlanta", "state": "GA", "street": "2859 Paces Ferry Rd SE", "postal_code": "30339"}, "capProviderId": null, "distance": null, "has_offers": false, "name": "Overlook III Cafe", "longitude": -84.468552, "has_menu": false, "awards": null, "user_review_count": 0}, {"business_operation_status": 1, "rating": null, "neighborhood": null, "image": null, "scorecard": null, "featured": false, "sample_categories": "Restaurants", "public_id": "andrews-arbys-rico-atlanta", "id": 607265084, "votes": null, "tagline": null, "has_video": false, "website": null, "offers": null, "latitude": 33.876131, "politanName": "Atlanta, GA Metro ", "phone_number": "6785038868", "tags": [{"primary": true, "id": 1722, "name": "Restaurants"}], "fax_number": null, "expansion": {"count": null, "uri": null}, "impression_id": "000b0000003eec90e8f59443cb9552c4e5afc4e42f", "profile": "http://www.citysearch.com/profile/607265084/atlanta_ga/andrews_arbys_rico.html", "address": {"city": "Atlanta", "state": "GA", "street": "3151 Stillhouse Creek Dr SE", "postal_code": "30339"}, "capProviderId": null, "distance": null, "has_offers": false, "name": "Andrews Arbys Rico", "longitude": -84.46228, "has_menu": false, "awards": null, "user_review_count": 0}, {"business_operation_status": 1, "rating": null, "neighborhood": null, "image": null, "scorecard": null, "featured": false, "sample_categories": "Restaurants, Fast Food", "public_id": "wendys-atlanta-7", "id": 45010678, "votes": null, "tagline": null, "has_video": false, "website": null, "offers": null, "latitude": 33.884003, "politanName": "Atlanta, GA Metro ", "phone_number": "7709524553", "tags": [{"primary": false, "id": 11199, "name": "Fast Food"}, {"primary": true, "id": 1722, "name": "Restaurants"}], "fax_number": null, "expansion": {"count": null, "uri": null}, "impression_id": "000b0000006f037cc262a846b3bdf73908c9ebd39a", "profile": "http://www.citysearch.com/profile/45010678/atlanta_ga/wendy_s.html", "address": {"city": "Atlanta", "state": "GA", "street": "2818 Spring Rd SE", "postal_code": "30339"}, "capProviderId": null, "distance": null, "has_offers": false, "name": "Wendy's", "longitude": -84.475031, "has_menu": false, "awards": null, "user_review_count": 0}, {"business_operation_status": 1, "rating": null, "neighborhood": null, "image": null, "scorecard": null, "featured": false, "sample_categories": "Restaurants, Mexican, Chicken", "public_id": "pollo-tropical-atlanta", "id": 757946800, "votes": null, "tagline": null, "has_video": false, "website": null, "offers": null, "latitude": 33.88074, "politanName": "Atlanta, GA Metro ", "phone_number": "7709800635", "tags": [{"primary": false, "id": 11208, "name": "Mexican"}, {"primary": false, "id": 12839, "name": "Chicken"}, {"primary": true, "id": 1722, "name": "Restaurants"}], "fax_number": null, "expansion": {"count": null, "uri": null}, "impression_id": "000b000000737f7d76c6534663899bea519d56201d", "profile": "http://www.citysearch.com/profile/757946800/atlanta_ga/pollo_tropical.html", "address": {"city": "Atlanta", "state": "GA", "street": "2955 Cobb Pkwy SE", "postal_code": "30339"}, "capProviderId": null, "distance": null, "has_offers": false, "name": "Pollo Tropical", "longitude": -84.462229, "has_menu": false, "awards": null, "user_review_count": 0}, {"business_operation_status": 1, "rating": null, "neighborhood": null, "image": null, "scorecard": null, "featured": false, "sample_categories": "Doughnut Shops, Coffeehouses", "public_id": "dunkin-donuts-atlanta-13", "id": 622351620, "votes": null, "tagline": null, "has_video": false, "website": "http://www.citysearch.com/profile/external/622351620/atlanta_ga/dunkin_donuts.html", "offers": null, "latitude": 33.901856, "politanName": "Atlanta, GA Metro ", "phone_number": "7708592954", "tags": [{"primary": false, "id": 1726, "name": "Coffeehouses"}, {"primary": true, "id": 1734, "name": "Doughnut Shops"}], "fax_number": null, "expansion": {"count": null, "uri": null}, "impression_id": "000b000000e7186cca450648d38d8edfd71c1bb215", "profile": "http://www.citysearch.com/profile/622351620/atlanta_ga/dunkin_donuts.html", "address": {"city": "Atlanta", "state": "GA", "street": "2022 Powers Ferry Rd Se # 100", "postal_code": "30339"}, "capProviderId": null, "distance": null, "has_offers": false, "name": "Dunkin' Donuts", "longitude": -84.455034, "has_menu": false, "awards": null, "user_review_count": 0}, {"business_operation_status": 1, "rating": null, "neighborhood": null, "image": null, "scorecard": null, "featured": false, "sample_categories": "Bars & Clubs, Bars & Pubs, Restaurants, Seafood, Hamburgers", "public_id": "burger-lounge-atlanta", "id": 632974730, "votes": null, "tagline": null, "has_video": false, "website": null, "offers": null, "latitude": 33.864803, "politanName": "Atlanta, GA Metro ", "phone_number": "4047544143", "tags": [{"primary": false, "id": 1686, "name": "Bars & Pubs"}, {"primary": false, "id": 1722, "name": "Restaurants"}, {"primary": false, "id": 11228, "name": "Seafood"}, {"primary": false, "id": 11270, "name": "Hamburgers"}, {"primary": true, "id": 164, "name": "Bars & Clubs"}], "fax_number": null, "expansion": {"count": null, "uri": null}, "impression_id": "000b0000005d44922c279c4bfb9b2c1a41e5de2c63", "profile": "http://www.citysearch.com/profile/632974730/atlanta_ga/burger_lounge.html", "address": {"city": "Atlanta", "state": "GA", "street": "4300 Paces Ferry Rd Se", "postal_code": "30339"}, "capProviderId": null, "distance": null, "has_offers": false, "name": "Burger Lounge", "longitude": -84.46568, "has_menu": false, "awards": null, "user_review_count": 0}, {"business_operation_status": 1, "rating": null, "neighborhood": null, "image": null, "scorecard": null, "featured": false, "sample_categories": "Restaurants, Pizza", "public_id": "aces-chicago-pizza-atlanta", "id": 647324780, "votes": null, "tagline": null, "has_video": false, "website": null, "offers": null, "latitude": 33.886583, "politanName": "Atlanta, GA Metro ", "phone_number": "7707567223", "tags": [{"primary": false, "id": 1722, "name": "Restaurants"}, {"primary": true, "id": 11299, "name": "Pizza"}], "fax_number": null, "expansion": {"count": null, "uri": null}, "impression_id": "000b000000f7f7ddd8f381494186644a31fa23a949", "profile": "http://www.citysearch.com/profile/647324780/atlanta_ga/aces_chicago_pizza.html", "address": {"city": "Atlanta", "state": "GA", "street": "300 Galleria Pkwy Se # 960", "postal_code": "30339"}, "capProviderId": null, "distance": null, "has_offers": false, "name": "Aces Chicago Pizza", "longitude": -84.462614, "has_menu": false, "awards": null, "user_review_count": 0}, {"business_operation_status": 0, "rating": null, "neighborhood": null, "image": null, "scorecard": null, "featured": false, "sample_categories": "Restaurants, Mexican", "public_id": "maui-tacos-international-inc-atlanta", "id": 3029687, "votes": null, "tagline": null, "has_video": false, "website": null, "offers": null, "latitude": 33.9093, "politanName": "Atlanta, GA Metro ", "phone_number": "4804430200", "tags": [{"primary": false, "id": 11208, "name": "Mexican"}, {"primary": true, "id": 1722, "name": "Restaurants"}], "fax_number": null, "expansion": {"count": null, "uri": null}, "impression_id": "000b000000b0f88d5f83a94f609e0eb93ea2cab97b", "profile": "http://www.citysearch.com/profile/3029687/atlanta_ga/maui_tacos_international_inc.html", "address": {"city": "Atlanta", "state": "GA", "street": "1775 The Exchange SE", "postal_code": "30339"}, "capProviderId": null, "distance": null, "has_offers": false, "name": "Maui Tacos International INC", "longitude": -84.480035, "has_menu": false, "awards": null, "user_review_count": 0}, {"business_operation_status": 1, "rating": null, "neighborhood": null, "image": null, "scorecard": null, "featured": false, "sample_categories": "Restaurants, Traditional American, Carry Out, Shop Online", "public_id": "ruby-tuesday-atlanta-2", "id": 3029966, "votes": null, "tagline": null, "has_video": false, "website": "http://www.citysearch.com/profile/external/3029966/atlanta_ga/ruby_tuesday.html", "offers": null, "latitude": 33.882119, "politanName": "Atlanta, GA Metro ", "phone_number": "7709552285", "tags": [{"primary": false, "id": 11190, "name": "Traditional American"}, {"primary": false, "id": 11247, "name": "Carry Out"}, {"primary": false, "id": 11375, "name": "Shop Online"}, {"primary": true, "id": 1722, "name": "Restaurants"}], "fax_number": null, "expansion": {"count": null, "uri": null}, "impression_id": "000b000000223139b7c0c94068858cddc753d53856", "profile": "http://www.citysearch.com/profile/3029966/atlanta_ga/ruby_tuesday.html", "address": {"city": "Atlanta", "state": "GA", "street": "2460 Galleria Pkwy SE", "postal_code": "30339"}, "capProviderId": null, "distance": null, "has_offers": false, "name": "Ruby Tuesday", "longitude": -84.465955, "has_menu": true, "awards": null, "user_review_count": 0}, {"business_operation_status": 0, "rating": null, "neighborhood": null, "image": null, "scorecard": null, "featured": false, "sample_categories": "Restaurants, Carry Out, Pizza, American Express, Diners Club", "public_id": "sbarro-atlanta-6", "id": 682264040, "votes": null, "tagline": null, "has_video": false, "website": "http://www.citysearch.com/profile/external/682264040/atlanta_ga/sbarro.html", "offers": null, "latitude": 33.879303, "politanName": "Atlanta, GA Metro ", "phone_number": "7704358468", "tags": [{"primary": false, "id": 11247, "name": "Carry Out"}, {"primary": false, "id": 11299, "name": "Pizza"}, {"primary": false, "id": 11333, "name": "American Express"}, {"primary": false, "id": 11348, "name": "Diners Club"}, {"primary": false, "id": 11349, "name": "Discover"}, {"primary": false, "id": 11361, "name": "MasterCard"}, {"primary": false, "id": 11382, "name": "Visa"}, {"primary": true, "id": 1722, "name": "Restaurants"}], "fax_number": null, "expansion": {"count": null, "uri": null}, "impression_id": "000b000000095342848fed4f4e86c3301051793b92", "profile": "http://www.citysearch.com/profile/682264040/atlanta_ga/sbarro.html", "address": {"city": "Atlanta", "state": "GA", "street": "1326 Cumberland Mall Se", "postal_code": "30339"}, "capProviderId": null, "distance": null, "has_offers": false, "name": "Sbarro", "longitude": -84.471299, "has_menu": false, "awards": null, "user_review_count": 0}, {"business_operation_status": 0, "rating": null, "neighborhood": null, "image": null, "scorecard": null, "featured": false, "sample_categories": "Restaurants, Carry Out", "public_id": "marlin-rays-atlanta", "id": 764844970, "votes": null, "tagline": null, "has_video": false, "website": "http://www.citysearch.com/profile/external/764844970/atlanta_ga/marlin_ray_s.html", "offers": null, "latitude": 33.873659, "politanName": "Atlanta, GA Metro ", "phone_number": "6785744550", "tags": [{"primary": false, "id": 11247, "name": "Carry Out"}, {"primary": true, "id": 1722, "name": "Restaurants"}], "fax_number": null, "expansion": {"count": null, "uri": null}, "impression_id": "000b000000e86c20aebdbc47f09864df5678c731b5", "profile": "http://www.citysearch.com/profile/764844970/atlanta_ga/marlin_ray_s.html", "address": {"city": "Atlanta", "state": "GA", "street": "3318 Cobb Pkwy SE", "postal_code": "30339"}, "capProviderId": null, "distance": null, "has_offers": false, "name": "Marlin & Ray's", "longitude": -84.45631, "has_menu": false, "awards": null, "user_review_count": 0}, {"business_operation_status": 1, "rating": null, "neighborhood": null, "image": null, "scorecard": null, "featured": false, "sample_categories": "Restaurants, Traditional American, Carry Out", "public_id": "ihop-restaurant-atlanta-10", "id": 777628400, "votes": null, "tagline": null, "has_video": false, "website": null, "offers": null, "latitude": 33.857668, "politanName": "Atlanta, GA Metro ", "phone_number": "6786390600", "tags": [{"primary": false, "id": 11190, "name": "Traditional American"}, {"primary": false, "id": 11247, "name": "Carry Out"}, {"primary": true, "id": 1722, "name": "Restaurants"}], "fax_number": null, "expansion": {"count": null, "uri": null}, "impression_id": "000b000000dd1422f02e164c008c8f3f714238fe42", "profile": "http://www.citysearch.com/profile/777628400/atlanta_ga/ihop_restaurant.html", "address": {"city": "Atlanta", "state": "GA", "street": "2255 Cumberland Pkwy Se # 15", "postal_code": "30339"}, "capProviderId": null, "distance": null, "has_offers": false, "name": "IHOP Restaurant", "longitude": -84.480627, "has_menu": false, "awards": null, "user_review_count": 0}, {"business_operation_status": 1, "rating": null, "neighborhood": null, "image": null, "scorecard": null, "featured": false, "sample_categories": "Restaurants", "public_id": "doc-sheys-asian-kitchen-atlanta", "id": 807684150, "votes": null, "tagline": null, "has_video": false, "website": null, "offers": null, "latitude": 33.879591, "politanName": "Atlanta, GA Metro ", "phone_number": "7703339657", "tags": [{"primary": true, "id": 1722, "name": "Restaurants"}], "fax_number": null, "expansion": {"count": null, "uri": null}, "impression_id": "000b00000039fabeda126f457d84d7f9f00956a065", "profile": "http://www.citysearch.com/profile/807684150/atlanta_ga/doc_sheys_asian_kitchen.html", "address": {"city": "Atlanta", "state": "GA", "street": "1675 Cumberland Mall SE", "postal_code": "30339"}, "capProviderId": null, "distance": null, "has_offers": false, "name": "Doc Sheys Asian Kitchen", "longitude": -84.471261, "has_menu": false, "awards": null, "user_review_count": 0}, {"business_operation_status": 1, "rating": null, "neighborhood": null, "image": null, "scorecard": null, "featured": false, "sample_categories": "Restaurants", "public_id": "cafe-1600-atlanta", "id": 805525410, "votes": null, "tagline": null, "has_video": false, "website": null, "offers": null, "latitude": 33.900846, "politanName": "Atlanta, GA Metro ", "phone_number": "7709841680", "tags": [{"primary": true, "id": 1722, "name": "Restaurants"}], "fax_number": null, "expansion": {"count": null, "uri": null}, "impression_id": "000b000000ff41c28d889446bab2fa33e0319f97d8", "profile": "http://www.citysearch.com/profile/805525410/atlanta_ga/cafe_1600.html", "address": {"city": "Atlanta", "state": "GA", "street": "1600 Parkwood Cir SE # 140", "postal_code": "30339"}, "capProviderId": null, "distance": null, "has_offers": false, "name": "Cafe 1600", "longitude": -84.458903, "has_menu": false, "awards": null, "user_review_count": 0}, {"business_operation_status": 1, "rating": null, "neighborhood": null, "image": null, "scorecard": null, "featured": false, "sample_categories": "Restaurants, Food Delivery", "public_id": "cafe-vena-atlanta", "id": 764875900, "votes": null, "tagline": null, "has_video": false, "website": "http://www.citysearch.com/profile/external/764875900/atlanta_ga/vena_at_vinings.html", "offers": null, "latitude": 33.872565, "politanName": "Atlanta, GA Metro ", "phone_number": "7709379089", "tags": [{"primary": false, "id": 11267, "name": "Food Delivery"}, {"primary": true, "id": 1722, "name": "Restaurants"}], "fax_number": null, "expansion": {"count": null, "uri": null}, "impression_id": "000b00000009caca559af64fe3a537c0537b28e6ae", "profile": "http://www.citysearch.com/profile/764875900/atlanta_ga/vena_at_vinings.html", "address": {"city": "Atlanta", "state": "GA", "street": "3300 Cobb Pkwy SE 104", "postal_code": "30339"}, "capProviderId": null, "distance": null, "has_offers": false, "name": "Vena at Vinings", "longitude": -84.457681, "has_menu": false, "awards": null, "user_review_count": 0}, {"business_operation_status": 1, "rating": null, "neighborhood": null, "image": null, "scorecard": null, "featured": false, "sample_categories": "Restaurants, Carry Out", "public_id": "chipotle-mexican-grill-smyrna", "id": 764836830, "votes": null, "tagline": null, "has_video": false, "website": null, "offers": null, "latitude": 33.880936, "politanName": "Atlanta, GA Metro ", "phone_number": "7709161292", "tags": [{"primary": false, "id": 11247, "name": "Carry Out"}, {"primary": true, "id": 1722, "name": "Restaurants"}], "fax_number": null, "expansion": {"count": null, "uri": null}, "impression_id": "000b00000066cd4ea0129d4d678d14677486c68557", "profile": "http://www.citysearch.com/profile/764836830/smyrna_ga/chipotle_mexican_grill.html", "address": {"city": "Smyrna", "state": "GA", "street": "2973 Cobb Pkwy", "postal_code": "30080"}, "capProviderId": null, "distance": null, "has_offers": false, "name": "Chipotle Mexican Grill", "longitude": -84.46113, "has_menu": false, "awards": null, "user_review_count": 0}, {"business_operation_status": 1, "rating": null, "neighborhood": null, "image": null, "scorecard": null, "featured": false, "sample_categories": "Delis And Delicatessens, Grocery Stores", "public_id": "kroger-deli-atlanta-19", "id": 705933270, "votes": null, "tagline": null, "has_video": false, "website": "http://www.citysearch.com/profile/external/705933270/atlanta_ga/kroger_deli.html", "offers": null, "latitude": 33.872656, "politanName": "Atlanta, GA Metro ", "phone_number": "7709520778", "tags": [{"primary": false, "id": 1713, "name": "Grocery Stores"}, {"primary": true, "id": 1727, "name": "Delis And Delicatessens"}], "fax_number": null, "expansion": {"count": null, "uri": null}, "impression_id": "000b000000e33b7db774c44b4caad42c2c1f8349e0", "profile": "http://www.citysearch.com/profile/705933270/atlanta_ga/kroger_deli.html", "address": {"city": "Atlanta", "state": "GA", "street": "3300 Cobb Pkwy Se", "postal_code": "30339"}, "capProviderId": null, "distance": null, "has_offers": false, "name": "Kroger Deli", "longitude": -84.457545, "has_menu": false, "awards": null, "user_review_count": 0}, {"business_operation_status": 1, "rating": null, "neighborhood": null, "image": null, "scorecard": null, "featured": false, "sample_categories": "Restaurants, Delis And Delicatessens, Greek, American Express, Discover", "public_id": "gyro-wrap-atlanta-3", "id": 3030506, "votes": null, "tagline": null, "has_video": false, "website": null, "offers": null, "latitude": 33.879304, "politanName": "Atlanta, GA Metro ", "phone_number": "7704323946", "tags": [{"primary": false, "id": 1727, "name": "Delis And Delicatessens"}, {"primary": false, "id": 11268, "name": "Greek"}, {"primary": false, "id": 11333, "name": "American Express"}, {"primary": false, "id": 11349, "name": "Discover"}, {"primary": false, "id": 11361, "name": "MasterCard"}, {"primary": false, "id": 11382, "name": "Visa"}, {"primary": true, "id": 1722, "name": "Restaurants"}], "fax_number": null, "expansion": {"count": null, "uri": null}, "impression_id": "000b00000082f60794068b43d3b72156abf1e6a29a", "profile": "http://www.citysearch.com/profile/3030506/atlanta_ga/gyro_wrap.html", "address": {"city": "Atlanta", "state": "GA", "street": "1328 Cumberland Mall SE", "postal_code": "30339"}, "capProviderId": null, "distance": null, "has_offers": false, "name": "Gyro Wrap", "longitude": -84.471298, "has_menu": true, "awards": null, "user_review_count": 0}, {"business_operation_status": 1, "rating": null, "neighborhood": null, "image": null, "scorecard": null, "featured": false, "sample_categories": "Sandwich Shops, Restaurants, Delis And Delicatessens", "public_id": "deli-planet-atlanta", "id": 3030563, "votes": null, "tagline": null, "has_video": false, "website": null, "offers": null, "latitude": 33.879395, "politanName": "Atlanta, GA Metro ", "phone_number": "7709514994", "tags": [{"primary": false, "id": 1722, "name": "Restaurants"}, {"primary": false, "id": 1727, "name": "Delis And Delicatessens"}, {"primary": true, "id": 1736, "name": "Sandwich Shops"}], "fax_number": null, "expansion": {"count": null, "uri": null}, "impression_id": "000b0000001af76e22c1864b249ac8eceb33703c4f", "profile": "http://www.citysearch.com/profile/3030563/atlanta_ga/deli_planet.html", "address": {"city": "Atlanta", "state": "GA", "street": "3051 Akers Mill Rd SE", "postal_code": "30339"}, "capProviderId": null, "distance": null, "has_offers": false, "name": "Deli Planet", "longitude": -84.463912, "has_menu": false, "awards": null, "user_review_count": 1}, {"business_operation_status": 1, "rating": null, "neighborhood": null, "image": null, "scorecard": null, "featured": false, "sample_categories": "Restaurants", "public_id": "cozy-corners-cafe-atlanta", "id": 45568407, "votes": null, "tagline": null, "has_video": false, "website": null, "offers": null, "latitude": 33.909234, "politanName": "Atlanta, GA Metro ", "phone_number": "7708500530", "tags": [{"primary": true, "id": 1722, "name": "Restaurants"}], "fax_number": null, "expansion": {"count": null, "uri": null}, "impression_id": "000b000000c06d4fcf4a444ea69f4789e501348f9b", "profile": "http://www.citysearch.com/profile/45568407/atlanta_ga/cozy_corners_cafe.html", "address": {"city": "Atlanta", "state": "GA", "street": "6190 Powers Ferry Rd NW", "postal_code": "30339"}, "capProviderId": null, "distance": null, "has_offers": false, "name": "Cozy Corners Cafe", "longitude": -84.426207, "has_menu": false, "awards": null, "user_review_count": 0}, {"business_operation_status": 1, "rating": null, "neighborhood": null, "image": null, "scorecard": null, "featured": false, "sample_categories": "Restaurants", "public_id": "parkside-cafe-atlanta", "id": 3030526, "votes": null, "tagline": null, "has_video": false, "website": null, "offers": null, "latitude": 33.906442, "politanName": "Atlanta, GA Metro ", "phone_number": "7709330089", "tags": [{"primary": true, "id": 1722, "name": "Restaurants"}], "fax_number": null, "expansion": {"count": null, "uri": null}, "impression_id": "000b0000005e8a354bd6d44baf87a5403648151ec3", "profile": "http://www.citysearch.com/profile/3030526/atlanta_ga/parkside_cafe.html", "address": {"city": "Atlanta", "state": "GA", "street": "2500 Windy Ridge Pkwy SE Ste 100", "postal_code": "30339"}, "capProviderId": null, "distance": null, "has_offers": false, "name": "Parkside Cafe", "longitude": -84.46162, "has_menu": true, "awards": null, "user_review_count": 1}, {"business_operation_status": 1, "rating": null, "neighborhood": null, "image": null, "scorecard": null, "featured": false, "sample_categories": "Restaurants", "public_id": "galleria-100-cafe-atlanta", "id": 3030544, "votes": null, "tagline": null, "has_video": false, "website": null, "offers": null, "latitude": 33.885006, "politanName": "Atlanta, GA Metro ", "phone_number": "7709569773", "tags": [{"primary": true, "id": 1722, "name": "Restaurants"}], "fax_number": null, "expansion": {"count": null, "uri": null}, "impression_id": "000b0000001d6ff91564504eefab666eacb8eb8017", "profile": "http://www.citysearch.com/profile/3030544/atlanta_ga/galleria_100_cafe.html", "address": {"city": "Atlanta", "state": "GA", "street": "100 Galleria Pkwy SE Ste 120", "postal_code": "30339"}, "capProviderId": null, "distance": null, "has_offers": false, "name": "Galleria 100 Cafe", "longitude": -84.462612, "has_menu": false, "awards": null, "user_review_count": 0}, {"business_operation_status": 1, "rating": null, "neighborhood": null, "image": null, "scorecard": null, "featured": false, "sample_categories": "Restaurants, Bakeries, Doughnut Shops", "public_id": "powers-ferry-donuts-holdings-atlanta", "id": 622334470, "votes": null, "tagline": null, "has_video": false, "website": null, "offers": null, "latitude": 33.901856, "politanName": "Atlanta, GA Metro ", "phone_number": "7708591677", "tags": [{"primary": false, "id": 1685, "name": "Bakeries"}, {"primary": false, "id": 1734, "name": "Doughnut Shops"}, {"primary": true, "id": 1722, "name": "Restaurants"}], "fax_number": null, "expansion": {"count": null, "uri": null}, "impression_id": "000b000000078bb810be064dbb9a9d350b1ea89600", "profile": "http://www.citysearch.com/profile/622334470/atlanta_ga/powers_ferry_donuts_holdings.html", "address": {"city": "Atlanta", "state": "GA", "street": "2022 Powers Ferry Rd Se", "postal_code": "30339"}, "capProviderId": null, "distance": null, "has_offers": false, "name": "Powers Ferry Donuts Holdings", "longitude": -84.455034, "has_menu": false, "awards": null, "user_review_count": 0}, {"business_operation_status": 1, "rating": null, "neighborhood": null, "image": null, "scorecard": null, "featured": false, "sample_categories": "Restaurants, Grocery Stores, Indian, American Express, Debit Card", "public_id": "amrutha-groceries-norcross", "id": 43841746, "votes": null, "tagline": null, "has_video": false, "website": null, "offers": null, "latitude": 33.878815, "politanName": "Atlanta, GA Metro ", "phone_number": "7709567589", "tags": [{"primary": false, "id": 1713, "name": "Grocery Stores"}, {"primary": false, "id": 11277, "name": "Indian"}, {"primary": false, "id": 11333, "name": "American Express"}, {"primary": false, "id": 11347, "name": "Debit Card"}, {"primary": false, "id": 11349, "name": "Discover"}, {"primary": false, "id": 11361, "name": "MasterCard"}, {"primary": false, "id": 11382, "name": "Visa"}, {"primary": true, "id": 1722, "name": "Restaurants"}], "fax_number": null, "expansion": {"count": null, "uri": null}, "impression_id": "000b000000b49e7b6eb3974e9ea968ae0b4db6ff48", "profile": "http://www.citysearch.com/profile/43841746/norcross_ga/amrutha_groceries.html", "address": {"city": "Norcross", "state": "GA", "street": "2655 Car Pkwy", "postal_code": "30339"}, "capProviderId": null, "distance": null, "has_offers": false, "name": "Amrutha Groceries", "longitude": -84.464518, "has_menu": false, "awards": null, "user_review_count": 0}, {"business_operation_status": 0, "rating": null, "neighborhood": null, "image": null, "scorecard": null, "featured": false, "sample_categories": "Restaurants, Health Food Stores", "public_id": "smoothie-king-atlanta-9", "id": 44776703, "votes": null, "tagline": null, "has_video": false, "website": "http://www.citysearch.com/profile/external/44776703/atlanta_ga/smoothie_king.html", "offers": null, "latitude": 33.864337, "politanName": "Atlanta, GA Metro ", "phone_number": "7704345987", "tags": [{"primary": false, "id": 1716, "name": "Health Food Stores"}, {"primary": true, "id": 1722, "name": "Restaurants"}], "fax_number": null, "expansion": {"count": null, "uri": null}, "impression_id": "000b000000c0f6143d27db4dd79d41d9550fd6d719", "profile": "http://www.citysearch.com/profile/44776703/atlanta_ga/smoothie_king.html", "address": {"city": "Atlanta", "state": "GA", "street": "4338 Paces Ferry Rd SE", "postal_code": "30339"}, "capProviderId": null, "distance": null, "has_offers": false, "name": "Smoothie King", "longitude": -84.464965, "has_menu": false, "awards": null, "user_review_count": 0}, {"business_operation_status": 1, "rating": null, "neighborhood": null, "image": null, "scorecard": null, "featured": false, "sample_categories": "Restaurants, Diners", "public_id": "classic-stainless-steel-diners-atlanta", "id": 739045320, "votes": null, "tagline": null, "has_video": false, "website": null, "offers": null, "latitude": 33.885476, "politanName": "Atlanta, GA Metro ", "phone_number": "4042375170", "tags": [{"primary": false, "id": 1732, "name": "Diners"}, {"primary": true, "id": 1722, "name": "Restaurants"}], "fax_number": null, "expansion": {"count": null, "uri": null}, "impression_id": "000b000000172725ab55bf46cb9243b868eab817e0", "profile": "http://www.citysearch.com/profile/739045320/atlanta_ga/classic_stainless_steel_diners.html", "address": {"city": "Atlanta", "state": "GA", "street": "600 Galleria Pkwy SE # 995", "postal_code": "30339"}, "capProviderId": null, "distance": null, "has_offers": false, "name": "Classic Stainless Steel Diners", "longitude": -84.461662, "has_menu": false, "awards": null, "user_review_count": 0}, {"business_operation_status": 1, "rating": null, "neighborhood": null, "image": null, "scorecard": null, "featured": false, "sample_categories": "Restaurants", "public_id": "were-cookin-inc-atlanta", "id": 801144420, "votes": null, "tagline": null, "has_video": false, "website": null, "offers": null, "latitude": 33.859786, "politanName": "Atlanta, GA Metro ", "phone_number": "7704371134", "tags": [{"primary": true, "id": 1722, "name": "Restaurants"}], "fax_number": null, "expansion": {"count": null, "uri": null}, "impression_id": "000b0000006739337f4f104619b1c97c3c59543e77", "profile": "http://www.citysearch.com/profile/801144420/atlanta_ga/we_re_cookin_inc.html", "address": {"city": "Atlanta", "state": "GA", "street": "4199 Paces Ferry Rd Se # C", "postal_code": "30339"}, "capProviderId": null, "distance": null, "has_offers": false, "name": "We're Cookin INC", "longitude": -84.455353, "has_menu": false, "awards": null, "user_review_count": 0}, {"business_operation_status": 1, "rating": null, "neighborhood": null, "image": null, "scorecard": null, "featured": false, "sample_categories": "Restaurants, Carry Out", "public_id": "ruby-tuesday-atlanta-6", "id": 833545440, "votes": null, "tagline": null, "has_video": false, "website": null, "offers": null, "latitude": 33.907783, "politanName": "Atlanta, GA Metro ", "phone_number": "6785744550", "tags": [{"primary": false, "id": 11247, "name": "Carry Out"}, {"primary": true, "id": 1722, "name": "Restaurants"}], "fax_number": null, "expansion": {"count": null, "uri": null}, "impression_id": "000b000000898bd8f579a94238bb05319a35d2f20a", "profile": "http://www.citysearch.com/profile/833545440/atlanta_ga/ruby_tuesday.html", "address": {"city": "Atlanta", "state": "GA", "street": "3318 Cobb Pkwy SE", "postal_code": "30339"}, "capProviderId": null, "distance": null, "has_offers": false, "name": "Ruby Tuesday", "longitude": -84.492298, "has_menu": true, "awards": null, "user_review_count": 0}, {"business_operation_status": 1, "rating": null, "neighborhood": null, "image": null, "scorecard": null, "featured": false, "sample_categories": "Restaurants", "public_id": "cafe-1100-atlanta-2", "id": 805596080, "votes": null, "tagline": null, "has_video": false, "website": null, "offers": null, "latitude": 33.887519, "politanName": "Atlanta, GA Metro ", "phone_number": "7709334141", "tags": [{"primary": true, "id": 1722, "name": "Restaurants"}], "fax_number": null, "expansion": {"count": null, "uri": null}, "impression_id": "000b000000f14cbe7252134cd7b86ec02a481c9c6f", "profile": "http://www.citysearch.com/profile/805596080/atlanta_ga/cafe_1100.html", "address": {"city": "Atlanta", "state": "GA", "street": "900 Circle 75 Pkwy SE # 25", "postal_code": "30339"}, "capProviderId": null, "distance": null, "has_offers": false, "name": "Cafe 1100", "longitude": -84.467593, "has_menu": false, "awards": null, "user_review_count": 0}], "histograms": [], "tag_ids": [1722], "uri": "http://api.citygridmedia.com:8080/search/places/v2/search/where?has_offers=false&type=restaurant&format=json&page=6&where=30339&rpp=50&histograms=false&publisher=10000009598&region_type=circle", "did_you_mean": "", "regions": [{"latitude": 33.877209, "default_radius": 2.6, "type": "postal_code", "name": "30339", "longitude": -84.463483}], "call_id": "000b000000daf271ff136142ef86b26ca415a80f39", "first_hit": 251, "total_hits": 1582, "geo_ids": [26497], "page": 6, "last_hit": 300}}