{"results": {"rpp": 50, "locations": [{"business_operation_status": 1, "rating": null, "neighborhood": null, "image": null, "scorecard": null, "featured": false, "sample_categories": "Bars & Pubs, Bars & Clubs, Taverns, Restaurants", "public_id": "el-reventon-smyrna", "id": 37647340, "votes": null, "tagline": null, "has_video": false, "website": null, "offers": null, "latitude": 33.872753, "politanName": "Atlanta, GA Metro ", "phone_number": "7704362890", "tags": [{"primary": false, "id": 164, "name": "Bars & Clubs"}, {"primary": false, "id": 1702, "name": "Taverns"}, {"primary": false, "id": 1722, "name": "Restaurants"}, {"primary": true, "id": 1686, "name": "Bars & Pubs"}], "fax_number": null, "expansion": {"count": null, "uri": null}, "impression_id": "000b000000e58fe18b7d9748bb978711630097522b", "profile": "http://www.citysearch.com/profile/37647340/smyrna_ga/el_reventon.html", "address": {"city": "Smyrna", "state": "GA", "street": "3282 S Cobb Dr SE", "postal_code": "30080"}, "capProviderId": null, "distance": null, "has_offers": false, "name": "El Reventon", "longitude": -84.529811, "has_menu": false, "awards": null, "user_review_count": 0}, {"business_operation_status": 0, "rating": null, "neighborhood": null, "image": null, "scorecard": null, "featured": false, "sample_categories": "Restaurants, Pizza", "public_id": "macs-pizza-pasta-marietta", "id": 807737810, "votes": null, "tagline": null, "has_video": false, "website": null, "offers": null, "latitude": 33.929154, "politanName": "Atlanta, GA Metro ", "phone_number": "7704997600", "tags": [{"primary": false, "id": 1722, "name": "Restaurants"}, {"primary": true, "id": 11299, "name": "Pizza"}], "fax_number": null, "expansion": {"count": null, "uri": null}, "impression_id": "000b000000f6a3344ca7d143b9956cb8e32259f893", "profile": "http://www.citysearch.com/profile/807737810/marietta_ga/mac_s_pizza_pasta.html", "address": {"city": "Marietta", "state": "GA", "street": "950 Cobb Pkwy S # 230", "postal_code": "30060"}, "capProviderId": null, "distance": null, "has_offers": false, "name": "Mac's Pizza & Pasta", "longitude": -84.510376, "has_menu": true, "awards": null, "user_review_count": 0}, {"business_operation_status": 1, "rating": null, "neighborhood": null, "image": null, "scorecard": null, "featured": false, "sample_categories": "Restaurants, Juice & Smoothie Shops, Carry Out", "public_id": "jamba-juice-sandy-2", "id": 809846590, "votes": null, "tagline": null, "has_video": false, "website": null, "offers": null, "latitude": 33.917878, "politanName": "Atlanta, GA Metro ", "phone_number": "4042360810", "tags": [{"primary": false, "id": 1735, "name": "Juice & Smoothie Shops"}, {"primary": false, "id": 11247, "name": "Carry Out"}, {"primary": true, "id": 1722, "name": "Restaurants"}], "fax_number": null, "expansion": {"count": null, "uri": null}, "impression_id": "000b0000006a36e051feb647a0951a2c9d1b32f27c", "profile": "http://www.citysearch.com/profile/809846590/sandy_springs_ga/jamba_juice.html", "address": {"city": "Sandy Springs", "state": "GA", "street": "5930 Roswell Rd", "postal_code": "30328"}, "capProviderId": null, "distance": null, "has_offers": false, "name": "Jamba Juice", "longitude": -84.379474, "has_menu": false, "awards": null, "user_review_count": 0}, {"business_operation_status": 1, "rating": null, "neighborhood": null, "image": null, "scorecard": null, "featured": false, "sample_categories": "Restaurants", "public_id": "dirty-als-saloon-sandy", "id": 814863900, "votes": null, "tagline": null, "has_video": false, "website": null, "offers": null, "latitude": 33.934948, "politanName": "Atlanta, GA Metro ", "phone_number": "7708431260", "tags": [{"primary": true, "id": 1722, "name": "Restaurants"}], "fax_number": null, "expansion": {"count": null, "uri": null}, "impression_id": "000b00000018ce01006c1d41f7bfea508346980394", "profile": "http://www.citysearch.com/profile/814863900/sandy_springs_ga/dirty_al_s_saloon.html", "address": {"city": "Sandy Springs", "state": "GA", "street": "6600 Roswell Rd", "postal_code": "30328"}, "capProviderId": null, "distance": null, "has_offers": false, "name": "Dirty Al's Saloon", "longitude": -84.379618, "has_menu": false, "awards": null, "user_review_count": 0}, {"business_operation_status": 1, "rating": null, "neighborhood": null, "image": null, "scorecard": null, "featured": false, "sample_categories": "Restaurants, Carry Out", "public_id": "kfc-smyrna-4", "id": 816887720, "votes": null, "tagline": null, "has_video": false, "website": "http://www.citysearch.com/profile/external/816887720/smyrna_ga/kfc.html", "offers": null, "latitude": 33.844688, "politanName": "Atlanta, GA Metro ", "phone_number": "7704368000", "tags": [{"primary": false, "id": 11247, "name": "Carry Out"}, {"primary": true, "id": 1722, "name": "Restaurants"}], "fax_number": null, "expansion": {"count": null, "uri": null}, "impression_id": "000b0000000aaf880e7d8a423aaa586403dd00ed5b", "profile": "http://www.citysearch.com/profile/816887720/smyrna_ga/kfc.html", "address": {"city": "Smyrna", "state": "GA", "street": "4497 S Cobb Dr SE", "postal_code": "30080"}, "capProviderId": null, "distance": null, "has_offers": false, "name": "KFC", "longitude": -84.500969, "has_menu": true, "awards": null, "user_review_count": 0}, {"business_operation_status": 1, "rating": null, "neighborhood": "Northside, Northside", "image": null, "scorecard": null, "featured": false, "sample_categories": "Lounges, Bars & Clubs, Bars & Pubs, Restaurants", "public_id": "flirt-dessert-bar-lounge-atlanta", "id": 732193520, "votes": null, "tagline": null, "has_video": false, "website": null, "offers": null, "latitude": 33.808016, "politanName": "Atlanta, GA Metro ", "phone_number": "4043432339", "tags": [{"primary": false, "id": 164, "name": "Bars & Clubs"}, {"primary": false, "id": 1686, "name": "Bars & Pubs"}, {"primary": false, "id": 1722, "name": "Restaurants"}, {"primary": true, "id": 1697, "name": "Lounges"}], "fax_number": null, "expansion": {"count": null, "uri": null}, "impression_id": "000b0000007610eb01e50a40d780df55d07aa24021", "profile": "http://www.citysearch.com/profile/732193520/atlanta_ga/flirt_dessert_bar_lounge.html", "address": {"city": "Atlanta", "state": "GA", "street": "1950 Howell Mill Rd NW", "postal_code": "30318"}, "capProviderId": null, "distance": null, "has_offers": false, "name": "Flirt Dessert Bar & Lounge", "longitude": -84.412996, "has_menu": false, "awards": null, "user_review_count": 0}, {"business_operation_status": 1, "rating": null, "neighborhood": null, "image": null, "scorecard": null, "featured": false, "sample_categories": "Restaurants", "public_id": "gourmet-usa-atlanta", "id": 820098750, "votes": null, "tagline": null, "has_video": false, "website": null, "offers": null, "latitude": 33.899475, "politanName": "Atlanta, GA Metro ", "phone_number": "4048432047", "tags": [{"primary": true, "id": 1722, "name": "Restaurants"}], "fax_number": null, "expansion": {"count": null, "uri": null}, "impression_id": "000b000000da31695e33884b00a27d40ec58b81a11", "profile": "http://www.citysearch.com/profile/820098750/atlanta_ga/gourmet_usa.html", "address": {"city": "Atlanta", "state": "GA", "street": "5299 Roswell Rd", "postal_code": "30342"}, "capProviderId": null, "distance": null, "has_offers": false, "name": "Gourmet USA", "longitude": -84.379311, "has_menu": false, "awards": null, "user_review_count": 0}, {"business_operation_status": 1, "rating": null, "neighborhood": null, "image": null, "scorecard": null, "featured": false, "sample_categories": "Restaurants", "public_id": "qdoba-mexican-grill-sandy", "id": 834438540, "votes": null, "tagline": null, "has_video": false, "website": "http://www.citysearch.com/profile/external/834438540/sandy_springs_ga/qdoba_mexican_grill.html", "offers": null, "latitude": 33.92187, "politanName": "Atlanta, GA Metro ", "phone_number": "4044594244", "tags": [{"primary": true, "id": 1722, "name": "Restaurants"}], "fax_number": null, "expansion": {"count": null, "uri": null}, "impression_id": "000b000000adaaeb49777e4b39a2f0e1ae2f41caa3", "profile": "http://www.citysearch.com/profile/834438540/sandy_springs_ga/qdoba_mexican_grill.html", "address": {"city": "Sandy Springs", "state": "GA", "street": "6125 Roswell Rd", "postal_code": "30328"}, "capProviderId": null, "distance": null, "has_offers": false, "name": "Qdoba Mexican Grill", "longitude": -84.379134, "has_menu": true, "awards": null, "user_review_count": 0}, {"business_operation_status": 1, "rating": null, "neighborhood": null, "image": null, "scorecard": null, "featured": false, "sample_categories": "Ice Cream Parlors", "public_id": "baskinrobbins-marietta-8", "id": 833503720, "votes": null, "tagline": null, "has_video": false, "website": null, "offers": null, "latitude": 33.949812, "politanName": "Atlanta, GA Metro ", "phone_number": "7709713251", "tags": [{"primary": true, "id": 1730, "name": "Ice Cream Parlors"}], "fax_number": null, "expansion": {"count": null, "uri": null}, "impression_id": "000b0000004023e926900d4a0eacfc3b45fc2e8d3e", "profile": "http://www.citysearch.com/profile/833503720/marietta_ga/baskin_robbins.html", "address": {"city": "Marietta", "state": "GA", "street": "80 Powers Ferry Rd SE", "postal_code": "30067"}, "capProviderId": null, "distance": null, "has_offers": false, "name": "Baskin-Robbins", "longitude": -84.511129, "has_menu": true, "awards": null, "user_review_count": 0}, {"business_operation_status": 1, "rating": null, "neighborhood": null, "image": null, "scorecard": null, "featured": false, "sample_categories": "Restaurants", "public_id": "101-concepts-atlanta", "id": 40947869, "votes": null, "tagline": null, "has_video": false, "website": null, "offers": null, "latitude": 33.897486, "politanName": "Atlanta, GA Metro ", "phone_number": "4042500947", "tags": [{"primary": true, "id": 1722, "name": "Restaurants"}], "fax_number": null, "expansion": {"count": null, "uri": null}, "impression_id": "000b0000006e5401a27b424182bb9ba9d5d35742b4", "profile": "http://www.citysearch.com/profile/40947869/atlanta_ga/101_concepts.html", "address": {"city": "Atlanta", "state": "GA", "street": "5229 Roswell Rd NE", "postal_code": "30342"}, "capProviderId": null, "distance": null, "has_offers": false, "name": "101 Concepts", "longitude": -84.381046, "has_menu": false, "awards": null, "user_review_count": 0}, {"business_operation_status": 1, "rating": null, "neighborhood": null, "image": null, "scorecard": null, "featured": false, "sample_categories": "Restaurants", "public_id": "chef-chen-smyrna", "id": 627616980, "votes": null, "tagline": null, "has_video": false, "website": "http://www.citysearch.com/profile/external/627616980/smyrna_ga/chef_chen.html", "offers": null, "latitude": 33.831642, "politanName": "Atlanta, GA Metro ", "phone_number": "7708058688", "tags": [{"primary": true, "id": 1722, "name": "Restaurants"}], "fax_number": null, "expansion": {"count": null, "uri": null}, "impression_id": "000b000000b7becce924d04ed995cb7374ee92a455", "profile": "http://www.citysearch.com/profile/627616980/smyrna_ga/chef_chen.html", "address": {"city": "Smyrna", "state": "GA", "street": "4924 S Cobb Dr Se # Cde", "postal_code": "30080"}, "capProviderId": null, "distance": null, "has_offers": false, "name": "Chef Chen", "longitude": -84.493491, "has_menu": false, "awards": null, "user_review_count": 0}, {"business_operation_status": 1, "rating": null, "neighborhood": null, "image": null, "scorecard": null, "featured": false, "sample_categories": "Coffeehouses", "public_id": "starbucks-atlanta-41", "id": 627827490, "votes": null, "tagline": null, "has_video": false, "website": "http://www.citysearch.com/profile/external/627827490/atlanta_ga/starbucks.html", "offers": null, "latitude": 33.888836, "politanName": "Atlanta, GA Metro ", "phone_number": "4048433080", "tags": [{"primary": true, "id": 1726, "name": "Coffeehouses"}], "fax_number": null, "expansion": {"count": null, "uri": null}, "impression_id": "000b000000253f697345ee439b9bbcf295349e2255", "profile": "http://www.citysearch.com/profile/627827490/atlanta_ga/starbucks.html", "address": {"city": "Atlanta", "state": "GA", "street": "4920 Roswell Rd", "postal_code": "30342"}, "capProviderId": null, "distance": null, "has_offers": false, "name": "Starbucks", "longitude": -84.382296, "has_menu": true, "awards": null, "user_review_count": 0}, {"business_operation_status": 1, "rating": null, "neighborhood": null, "image": null, "scorecard": null, "featured": false, "sample_categories": "Restaurants", "public_id": "kabanas-bar-grille-marietta", "id": 628071894, "votes": null, "tagline": null, "has_video": false, "website": null, "offers": null, "latitude": 33.915701, "politanName": "Atlanta, GA Metro ", "phone_number": "7706932382", "tags": [{"primary": true, "id": 1722, "name": "Restaurants"}], "fax_number": null, "expansion": {"count": null, "uri": null}, "impression_id": "000b000000fc1853e498ae4d88b864f876be37782a", "profile": "http://www.citysearch.com/profile/628071894/marietta_ga/kabanas_bar_grille.html", "address": {"city": "Marietta", "state": "GA", "street": "1475 Terrell Mill Rd SE", "postal_code": "30067"}, "capProviderId": null, "distance": null, "has_offers": false, "name": "Kabanas Bar & Grille", "longitude": -84.4689, "has_menu": false, "awards": null, "user_review_count": 0}, {"business_operation_status": 1, "rating": null, "neighborhood": null, "image": null, "scorecard": null, "featured": false, "sample_categories": "Grocery Stores, Health Food Stores, Restaurants", "public_id": "bambinos-nutritional-ctr-marietta", "id": 631964510, "votes": null, "tagline": null, "has_video": false, "website": null, "offers": null, "latitude": 33.906963, "politanName": "Atlanta, GA Metro ", "phone_number": "7709512267", "tags": [{"primary": false, "id": 1716, "name": "Health Food Stores"}, {"primary": false, "id": 1722, "name": "Restaurants"}, {"primary": true, "id": 1713, "name": "Grocery Stores"}], "fax_number": null, "expansion": {"count": null, "uri": null}, "impression_id": "000b000000b87835a0be0d49d8be6c0493363b3607", "profile": "http://www.citysearch.com/profile/631964510/marietta_ga/bambinos_nutritional_ctr.html", "address": {"city": "Marietta", "state": "GA", "street": "1869 Cobb Pkwy S 700", "postal_code": "30060"}, "capProviderId": null, "distance": null, "has_offers": false, "name": "Bambinos Nutritional Ctr", "longitude": -84.488987, "has_menu": false, "awards": null, "user_review_count": 0}, {"business_operation_status": 1, "rating": null, "neighborhood": null, "image": null, "scorecard": null, "featured": false, "sample_categories": "Restaurants, Japanese, Asian", "public_id": "sushi-nobo-in-vinings-smyrna", "id": 655895920, "votes": null, "tagline": null, "has_video": false, "website": null, "offers": null, "latitude": 33.842892, "politanName": "Atlanta, GA Metro ", "phone_number": "6784027893", "tags": [{"primary": false, "id": 11202, "name": "Japanese"}, {"primary": false, "id": 11235, "name": "Asian"}, {"primary": true, "id": 1722, "name": "Restaurants"}], "fax_number": null, "expansion": {"count": null, "uri": null}, "impression_id": "000b0000006cb7bfd94046492ab832903b43192c03", "profile": "http://www.citysearch.com/profile/655895920/smyrna_ga/sushi_nobo_in_vinings.html", "address": {"city": "Smyrna", "state": "GA", "street": "4500 West Village Pl Se", "postal_code": "30080"}, "capProviderId": null, "distance": null, "has_offers": false, "name": "Sushi Nobo In Vinings", "longitude": -84.490261, "has_menu": false, "awards": null, "user_review_count": 0}, {"business_operation_status": 1, "rating": null, "neighborhood": null, "image": null, "scorecard": null, "featured": false, "sample_categories": "Restaurants, Barbecue Restaurants", "public_id": "uncle-buds-bbq-atlanta", "id": 790849630, "votes": null, "tagline": null, "has_video": false, "website": null, "offers": null, "latitude": 33.94048, "politanName": "Atlanta, GA Metro ", "phone_number": "4042255283", "tags": [{"primary": false, "id": 1724, "name": "Barbecue Restaurants"}, {"primary": true, "id": 1722, "name": "Restaurants"}], "fax_number": null, "expansion": {"count": null, "uri": null}, "impression_id": "000b0000006b6f5f14fef342d6a0158df2b3737529", "profile": "http://www.citysearch.com/profile/790849630/atlanta_ga/uncle_buds_bbq.html", "address": {"city": "Atlanta", "state": "GA", "street": "4641 Breakwater Trl", "postal_code": "30303"}, "capProviderId": null, "distance": null, "has_offers": false, "name": "Uncle Buds BBQ", "longitude": -84.397897, "has_menu": false, "awards": null, "user_review_count": 0}, {"business_operation_status": 1, "rating": 8.0, "neighborhood": null, "image": null, "scorecard": null, "featured": false, "sample_categories": "Restaurants, Barbecue Restaurants, MasterCard, Visa", "public_id": "wing-factory-smyrna", "id": 39887521, "votes": null, "tagline": null, "has_video": false, "website": null, "offers": null, "latitude": 33.886503, "politanName": "Atlanta, GA Metro ", "phone_number": "7704259533", "tags": [{"primary": false, "id": 1724, "name": "Barbecue Restaurants"}, {"primary": false, "id": 11361, "name": "MasterCard"}, {"primary": false, "id": 11382, "name": "Visa"}, {"primary": true, "id": 1722, "name": "Restaurants"}], "fax_number": null, "expansion": {"count": null, "uri": null}, "impression_id": "000b000000910ec9826402478c86543b3e13283812", "profile": "http://www.citysearch.com/profile/39887521/smyrna_ga/wing_factory.html", "address": {"city": "Smyrna", "state": "GA", "street": "1150 Powder Springs St SE", "postal_code": "30080"}, "capProviderId": null, "distance": null, "has_offers": false, "name": "Wing Factory", "longitude": -84.519854, "has_menu": false, "awards": null, "user_review_count": 0}, {"business_operation_status": 1, "rating": null, "neighborhood": null, "image": null, "scorecard": null, "featured": false, "sample_categories": "Restaurants", "public_id": "petes-sports-bar-grill-atlanta", "id": 43875742, "votes": null, "tagline": null, "has_video": false, "website": null, "offers": null, "latitude": 33.935325, "politanName": "Atlanta, GA Metro ", "phone_number": "4049430463", "tags": [{"primary": true, "id": 1722, "name": "Restaurants"}], "fax_number": null, "expansion": {"count": null, "uri": null}, "impression_id": "000b000000ac5fc23871d943fcb86c41a72e9b4acd", "profile": "http://www.citysearch.com/profile/43875742/atlanta_ga/pete_s_sports_bar_grill.html", "address": {"city": "Atlanta", "state": "GA", "street": "6600 Roswell Rd NE", "postal_code": "30328"}, "capProviderId": null, "distance": null, "has_offers": false, "name": "Pete's Sports Bar & Grill", "longitude": -84.37944, "has_menu": false, "awards": null, "user_review_count": 0}, {"business_operation_status": 1, "rating": 6.0, "neighborhood": null, "image": null, "scorecard": null, "featured": false, "sample_categories": "Restaurants, Family-Friendly Dining", "public_id": "our-place-restaurant-marietta", "id": 43842559, "votes": null, "tagline": null, "has_video": false, "website": null, "offers": null, "latitude": 33.941343, "politanName": "Atlanta, GA Metro ", "phone_number": "7704223796", "tags": [{"primary": false, "id": 1722, "name": "Restaurants"}, {"primary": true, "id": 11263, "name": "Family-Friendly Dining"}], "fax_number": null, "expansion": {"count": null, "uri": null}, "impression_id": "000b000000b8411119452244ce895042a7b7f019ac", "profile": "http://www.citysearch.com/profile/43842559/marietta_ga/our_place_restaurant.html", "address": {"city": "Marietta", "state": "GA", "street": "940 S Marietta Pkwy SE", "postal_code": "30060"}, "capProviderId": null, "distance": null, "has_offers": false, "name": "Our Place Restaurant", "longitude": -84.523114, "has_menu": false, "awards": null, "user_review_count": 2}, {"business_operation_status": 1, "rating": null, "neighborhood": null, "image": null, "scorecard": null, "featured": false, "sample_categories": "Restaurants", "public_id": "cantons-donuts-marietta", "id": 805665440, "votes": null, "tagline": null, "has_video": false, "website": null, "offers": null, "latitude": 33.951218, "politanName": "Atlanta, GA Metro ", "phone_number": "7705792399", "tags": [{"primary": true, "id": 1722, "name": "Restaurants"}], "fax_number": null, "expansion": {"count": null, "uri": null}, "impression_id": "000b000000af7f6eb4f8e545ccb4e96286f6648697", "profile": "http://www.citysearch.com/profile/805665440/marietta_ga/canton_s_donuts.html", "address": {"city": "Marietta", "state": "GA", "street": "1516 Roswell Rd", "postal_code": "30062"}, "capProviderId": null, "distance": null, "has_offers": false, "name": "Canton's Donuts", "longitude": -84.508253, "has_menu": false, "awards": null, "user_review_count": 0}, {"business_operation_status": 1, "rating": null, "neighborhood": null, "image": null, "scorecard": null, "featured": false, "sample_categories": "Restaurants, Carry Out", "public_id": "golden-corral-buffet-grill-marietta-2", "id": 811738440, "votes": null, "tagline": null, "has_video": false, "website": null, "offers": null, "latitude": 33.93149, "politanName": "Atlanta, GA Metro ", "phone_number": "7709551779", "tags": [{"primary": false, "id": 11247, "name": "Carry Out"}, {"primary": true, "id": 1722, "name": "Restaurants"}], "fax_number": null, "expansion": {"count": null, "uri": null}, "impression_id": "000b00000095db0e833c0949d98935339a9442e853", "profile": "http://www.citysearch.com/profile/811738440/marietta_ga/golden_corral_buffet_grill.html", "address": {"city": "Marietta", "state": "GA", "street": "2024 Powers Ferry Trce SE", "postal_code": "30067"}, "capProviderId": null, "distance": null, "has_offers": false, "name": "Golden Corral Buffet & Grill", "longitude": -84.478299, "has_menu": false, "awards": null, "user_review_count": 0}, {"business_operation_status": 1, "rating": 5.0, "neighborhood": null, "image": null, "scorecard": null, "featured": false, "sample_categories": "Restaurants, Carry Out, American Express, MasterCard, Visa", "public_id": "zaxbys-smyrna-3", "id": 43841885, "votes": null, "tagline": null, "has_video": false, "website": "http://www.citysearch.com/profile/external/43841885/smyrna_ga/zaxby_s.html", "offers": null, "latitude": 33.826513, "politanName": "Atlanta, GA Metro ", "phone_number": "4047922288", "tags": [{"primary": false, "id": 11247, "name": "Carry Out"}, {"primary": false, "id": 11333, "name": "American Express"}, {"primary": false, "id": 11361, "name": "MasterCard"}, {"primary": false, "id": 11382, "name": "Visa"}, {"primary": false, "id": 12839, "name": "Chicken"}, {"primary": true, "id": 1722, "name": "Restaurants"}], "fax_number": null, "expansion": {"count": null, "uri": null}, "impression_id": "000b00000057f92113d7e8403585f6edee81ee84ef", "profile": "http://www.citysearch.com/profile/43841885/smyrna_ga/zaxby_s.html", "address": {"city": "Smyrna", "state": "GA", "street": "5201 S Cobb Dr SE", "postal_code": "30080"}, "capProviderId": null, "distance": null, "has_offers": false, "name": "Zaxby's", "longitude": -84.490726, "has_menu": true, "awards": null, "user_review_count": 2}, {"business_operation_status": 1, "rating": null, "neighborhood": null, "image": null, "scorecard": null, "featured": false, "sample_categories": "Restaurants, Chinese", "public_id": "china-shipping-agency-atlanta", "id": 45568408, "votes": null, "tagline": null, "has_video": false, "website": null, "offers": null, "latitude": 33.902606, "politanName": "Atlanta, GA Metro ", "phone_number": "7708578338", "tags": [{"primary": false, "id": 11252, "name": "Chinese"}, {"primary": true, "id": 1722, "name": "Restaurants"}], "fax_number": null, "expansion": {"count": null, "uri": null}, "impression_id": "000b000000383677d81d234c3f880da6b95bc80813", "profile": "http://www.citysearch.com/profile/45568408/atlanta_ga/china_shipping_agency.html", "address": {"city": "Atlanta", "state": "GA", "street": "2000 Powers Ferry Rd SE", "postal_code": "30339"}, "capProviderId": null, "distance": null, "has_offers": false, "name": "China Shipping Agency", "longitude": -84.457878, "has_menu": false, "awards": null, "user_review_count": 0}, {"business_operation_status": 1, "rating": null, "neighborhood": null, "image": null, "scorecard": null, "featured": false, "sample_categories": "Restaurants, Mexican", "public_id": "mex-taco-loco-atlanta", "id": 37310883, "votes": null, "tagline": null, "has_video": false, "website": null, "offers": null, "latitude": 33.911481, "politanName": "Atlanta, GA Metro ", "phone_number": "4042525856", "tags": [{"primary": false, "id": 11208, "name": "Mexican"}, {"primary": true, "id": 1722, "name": "Restaurants"}], "fax_number": null, "expansion": {"count": null, "uri": null}, "impression_id": "000b00000039dbe3445a1b4004b5649e9d4d8f003a", "profile": "http://www.citysearch.com/profile/37310883/atlanta_ga/mex_taco_loco.html", "address": {"city": "Atlanta", "state": "GA", "street": "120 Northwood Dr NE", "postal_code": "30342"}, "capProviderId": null, "distance": null, "has_offers": false, "name": "MEX Taco Loco", "longitude": -84.382763, "has_menu": false, "awards": null, "user_review_count": 0}, {"business_operation_status": 1, "rating": null, "neighborhood": null, "image": null, "scorecard": null, "featured": false, "sample_categories": "Restaurants", "public_id": "jen-pal-smyrna", "id": 611103124, "votes": null, "tagline": null, "has_video": false, "website": null, "offers": null, "latitude": 33.884162, "politanName": "Atlanta, GA Metro ", "phone_number": "7704319620", "tags": [{"primary": true, "id": 1722, "name": "Restaurants"}], "fax_number": null, "expansion": {"count": null, "uri": null}, "impression_id": "000b00000069dea1ec2e2f4e67ba683ec4d1f525ac", "profile": "http://www.citysearch.com/profile/611103124/smyrna_ga/jen_pal.html", "address": {"city": "Smyrna", "state": "GA", "street": "1260 W Spring St SE # D", "postal_code": "30080"}, "capProviderId": null, "distance": null, "has_offers": false, "name": "Jen Pal", "longitude": -84.515885, "has_menu": false, "awards": null, "user_review_count": 0}, {"business_operation_status": 1, "rating": null, "neighborhood": null, "image": null, "scorecard": null, "featured": false, "sample_categories": "Restaurants", "public_id": "fujiyama-japanese-steakhouse-atlanta", "id": 619575504, "votes": null, "tagline": null, "has_video": false, "website": null, "offers": null, "latitude": 33.905831, "politanName": "Atlanta, GA Metro ", "phone_number": "4042545866", "tags": [{"primary": true, "id": 1722, "name": "Restaurants"}], "fax_number": null, "expansion": {"count": null, "uri": null}, "impression_id": "000b000000bf3b4fe9056349d982829d25f1e77d17", "profile": "http://www.citysearch.com/profile/619575504/atlanta_ga/fujiyama_japanese_steakhouse.html", "address": {"city": "Atlanta", "state": "GA", "street": "5600 Roswell Rd Ste M011", "postal_code": "30342"}, "capProviderId": null, "distance": null, "has_offers": false, "name": "Fujiyama Japanese Steakhouse", "longitude": -84.379221, "has_menu": false, "awards": null, "user_review_count": 0}, {"business_operation_status": 1, "rating": null, "neighborhood": null, "image": null, "scorecard": null, "featured": false, "sample_categories": "Restaurants, Delis And Delicatessens", "public_id": "sub-station-ii-smyrna", "id": 2922311, "votes": null, "tagline": null, "has_video": false, "website": "http://www.citysearch.com/profile/external/2922311/smyrna_ga/sub_station_ii.html", "offers": null, "latitude": 33.890368, "politanName": "Atlanta, GA Metro ", "phone_number": "4044356027", "tags": [{"primary": false, "id": 1727, "name": "Delis And Delicatessens"}, {"primary": true, "id": 1722, "name": "Restaurants"}], "fax_number": null, "expansion": {"count": null, "uri": null}, "impression_id": "000b000000c5218e95b09d4a40889e3ad3d8ca588b", "profile": "http://www.citysearch.com/profile/2922311/smyrna_ga/sub_station_ii.html", "address": {"city": "Smyrna", "state": "GA", "street": "2538 Atlanta Rd SE Ste B", "postal_code": "30080"}, "capProviderId": null, "distance": null, "has_offers": false, "name": "Sub Station II", "longitude": -84.51719, "has_menu": true, "awards": null, "user_review_count": 1}, {"business_operation_status": 1, "rating": null, "neighborhood": null, "image": null, "scorecard": null, "featured": false, "sample_categories": "Restaurants", "public_id": "wings-101-smyrna", "id": 621900654, "votes": null, "tagline": null, "has_video": false, "website": null, "offers": null, "latitude": 33.894038, "politanName": "Atlanta, GA Metro ", "phone_number": "7709891520", "tags": [{"primary": true, "id": 1722, "name": "Restaurants"}], "fax_number": null, "expansion": {"count": null, "uri": null}, "impression_id": "000b0000008d0f353842884d38bbb0bd3d2352a9bd", "profile": "http://www.citysearch.com/profile/621900654/smyrna_ga/wings_101.html", "address": {"city": "Smyrna", "state": "GA", "street": "998 Windy Hill Rd SE", "postal_code": "30080"}, "capProviderId": null, "distance": null, "has_offers": false, "name": "Wings 101", "longitude": -84.524382, "has_menu": false, "awards": null, "user_review_count": 0}, {"business_operation_status": 1, "rating": null, "neighborhood": null, "image": null, "scorecard": null, "featured": false, "sample_categories": "Restaurants, Japanese, Asian", "public_id": "blusushi-smyrna", "id": 621946410, "votes": null, "tagline": null, "has_video": false, "website": null, "offers": null, "latitude": 33.887059, "politanName": "Atlanta, GA Metro ", "phone_number": "7704379900", "tags": [{"primary": false, "id": 11202, "name": "Japanese"}, {"primary": false, "id": 11235, "name": "Asian"}, {"primary": true, "id": 1722, "name": "Restaurants"}], "fax_number": null, "expansion": {"count": null, "uri": null}, "impression_id": "000b000000e36d87ba056c4e27898dcb7504f2450c", "profile": "http://www.citysearch.com/profile/621946410/smyrna_ga/blusushi.html", "address": {"city": "Smyrna", "state": "GA", "street": "2700 Cumberland Blvd Se", "postal_code": "30080"}, "capProviderId": null, "distance": null, "has_offers": false, "name": "Blusushi", "longitude": -84.476087, "has_menu": false, "awards": null, "user_review_count": 1}, {"business_operation_status": 1, "rating": 8.0, "neighborhood": null, "image": null, "scorecard": null, "featured": false, "sample_categories": "Translators & Interpreters, Bakeries, Restaurants", "public_id": "progreso-latino-marietta", "id": 44772942, "votes": null, "tagline": null, "has_video": false, "website": null, "offers": null, "latitude": 33.936757, "politanName": "Atlanta, GA Metro ", "phone_number": "7707941110", "tags": [{"primary": false, "id": 3744, "name": "Translators & Interpreters"}, {"primary": false, "id": 1685, "name": "Bakeries"}, {"primary": false, "id": 1722, "name": "Restaurants"}], "fax_number": null, "expansion": {"count": null, "uri": null}, "impression_id": "000b000000c36f56e181404d46a30546c265ee7362", "profile": "http://www.citysearch.com/profile/44772942/marietta_ga/progreso_latino.html", "address": {"city": "Marietta", "state": "GA", "street": "680 Powder Springs St", "postal_code": "30064"}, "capProviderId": null, "distance": null, "has_offers": false, "name": "Progreso Latino", "longitude": -84.557357, "has_menu": false, "awards": null, "user_review_count": 0}, {"business_operation_status": 1, "rating": null, "neighborhood": null, "image": null, "scorecard": null, "featured": false, "sample_categories": "Restaurants", "public_id": "cafe-the-pointe-atlanta", "id": 3020367, "votes": null, "tagline": null, "has_video": false, "website": null, "offers": null, "latitude": 33.908964, "politanName": "Atlanta, GA Metro ", "phone_number": "7709515553", "tags": [{"primary": true, "id": 1722, "name": "Restaurants"}], "fax_number": null, "expansion": {"count": null, "uri": null}, "impression_id": "000b000000b838988003db4146acd8573d39680b32", "profile": "http://www.citysearch.com/profile/3020367/atlanta_ga/cafe_the_pointe.html", "address": {"city": "Atlanta", "state": "GA", "street": "5660 New Northside Dr NW Ste 180", "postal_code": "30328"}, "capProviderId": null, "distance": null, "has_offers": false, "name": "Cafe The Pointe", "longitude": -84.431126, "has_menu": false, "awards": null, "user_review_count": 0}, {"business_operation_status": 1, "rating": null, "neighborhood": null, "image": null, "scorecard": null, "featured": false, "sample_categories": "Restaurants, Barbecue Restaurants", "public_id": "st-louis-barbeque-blues-mableton", "id": 638803040, "votes": null, "tagline": null, "has_video": false, "website": null, "offers": null, "latitude": 33.805377, "politanName": "Atlanta, GA Metro ", "phone_number": "6783985055", "tags": [{"primary": false, "id": 1724, "name": "Barbecue Restaurants"}, {"primary": true, "id": 1722, "name": "Restaurants"}], "fax_number": null, "expansion": {"count": null, "uri": null}, "impression_id": "000b0000002a343378400848ad97bbb51f4e2c2486", "profile": "http://www.citysearch.com/profile/638803040/mableton_ga/st_louis_barbeque_blues.html", "address": {"city": "Mableton", "state": "GA", "street": "1025 Veterans Memorial Hwy Se", "postal_code": "30126"}, "capProviderId": null, "distance": null, "has_offers": false, "name": "St Louis Barbeque & Blues", "longitude": -84.52581, "has_menu": false, "awards": null, "user_review_count": 0}, {"business_operation_status": 1, "rating": null, "neighborhood": null, "image": null, "scorecard": null, "featured": false, "sample_categories": "Doughnut Shops, Restaurants", "public_id": "ioans-donuts-holdings-marietta", "id": 45992648, "votes": null, "tagline": null, "has_video": false, "website": null, "offers": null, "latitude": 33.985611, "politanName": "Atlanta, GA Metro ", "phone_number": "6786241035", "tags": [{"primary": false, "id": 1722, "name": "Restaurants"}, {"primary": true, "id": 1734, "name": "Doughnut Shops"}], "fax_number": null, "expansion": {"count": null, "uri": null}, "impression_id": "000b00000024f77787f24b47a1ac98569dbbaf3e1c", "profile": "http://www.citysearch.com/profile/45992648/marietta_ga/ioans_donuts_holdings.html", "address": {"city": "Marietta", "state": "GA", "street": "1509 Johnson Ferry Rd", "postal_code": "30062"}, "capProviderId": null, "distance": null, "has_offers": false, "name": "Ioans Donuts Holdings", "longitude": -84.427286, "has_menu": false, "awards": null, "user_review_count": 0}, {"business_operation_status": 1, "rating": null, "neighborhood": null, "image": null, "scorecard": null, "featured": false, "sample_categories": "Delis And Delicatessens", "public_id": "kroger-deli-atlanta-7", "id": 695525450, "votes": null, "tagline": null, "has_video": false, "website": "http://www.citysearch.com/profile/external/695525450/atlanta_ga/kroger_deli.html", "offers": null, "latitude": 33.888836, "politanName": "Atlanta, GA Metro ", "phone_number": "4048433080", "tags": [{"primary": true, "id": 1727, "name": "Delis And Delicatessens"}], "fax_number": null, "expansion": {"count": null, "uri": null}, "impression_id": "000b000000ff2de0869890451baac704f022fac366", "profile": "http://www.citysearch.com/profile/695525450/atlanta_ga/kroger_deli.html", "address": {"city": "Atlanta", "state": "GA", "street": "4920 Roswell Rd # 200", "postal_code": "30342"}, "capProviderId": null, "distance": null, "has_offers": false, "name": "Kroger Deli", "longitude": -84.382296, "has_menu": false, "awards": null, "user_review_count": 0}, {"business_operation_status": 1, "rating": null, "neighborhood": "Northside, Northside", "image": null, "scorecard": null, "featured": false, "sample_categories": "Restaurants", "public_id": "sampan-restaurant-atlanta", "id": 811485080, "votes": null, "tagline": null, "has_video": false, "website": null, "offers": null, "latitude": 33.786925, "politanName": "Atlanta, GA Metro ", "phone_number": "4043678333", "tags": [{"primary": true, "id": 1722, "name": "Restaurants"}], "fax_number": null, "expansion": {"count": null, "uri": null}, "impression_id": "000b000000d55a46087de54bdbb5050a9be1e0aa38", "profile": "http://www.citysearch.com/profile/811485080/atlanta_ga/sampan_restaurant.html", "address": {"city": "Atlanta", "state": "GA", "street": "1198 Howell Mill Rd NW", "postal_code": "30318"}, "capProviderId": null, "distance": null, "has_offers": false, "name": "Sampan Restaurant", "longitude": -84.411761, "has_menu": false, "awards": null, "user_review_count": 0}, {"business_operation_status": 1, "rating": null, "neighborhood": null, "image": null, "scorecard": null, "featured": false, "sample_categories": "Restaurants", "public_id": "taco-mac-atlanta-4", "id": 811730780, "votes": null, "tagline": null, "has_video": false, "website": null, "offers": null, "latitude": 33.91414, "politanName": "Atlanta, GA Metro ", "phone_number": "7702570735", "tags": [{"primary": true, "id": 1722, "name": "Restaurants"}], "fax_number": null, "expansion": {"count": null, "uri": null}, "impression_id": "000b0000005d7f2bf1d4e9416da9ae1ab32e5b1384", "profile": "http://www.citysearch.com/profile/811730780/atlanta_ga/taco_mac.html", "address": {"city": "Atlanta", "state": "GA", "street": "5830 Roswell Rd", "postal_code": "30328"}, "capProviderId": null, "distance": null, "has_offers": false, "name": "Taco Mac", "longitude": -84.379934, "has_menu": false, "awards": null, "user_review_count": 0}, {"business_operation_status": 1, "rating": null, "neighborhood": null, "image": null, "scorecard": null, "featured": false, "sample_categories": "Restaurants, Barbecue Restaurants", "public_id": "wing-zone-marietta", "id": 37646631, "votes": null, "tagline": null, "has_video": false, "website": "http://www.citysearch.com/profile/external/37646631/marietta_ga/wing_zone.html", "offers": null, "latitude": 33.920106, "politanName": "Atlanta, GA Metro ", "phone_number": "7709889464", "tags": [{"primary": false, "id": 1724, "name": "Barbecue Restaurants"}, {"primary": true, "id": 1722, "name": "Restaurants"}], "fax_number": null, "expansion": {"count": null, "uri": null}, "impression_id": "000b000000c2d65893019f45539859c7873ad46133", "profile": "http://www.citysearch.com/profile/37646631/marietta_ga/wing_zone.html", "address": {"city": "Marietta", "state": "GA", "street": "1309 Powers Ferry Rd SE", "postal_code": "30067"}, "capProviderId": null, "distance": null, "has_offers": false, "name": "Wing Zone", "longitude": -84.467252, "has_menu": true, "awards": null, "user_review_count": 0}, {"business_operation_status": 1, "rating": null, "neighborhood": null, "image": null, "scorecard": null, "featured": false, "sample_categories": "Restaurants, Ice Cream Parlors", "public_id": "braums-ice-cream-dairy-atlanta", "id": 818112350, "votes": null, "tagline": null, "has_video": false, "website": null, "offers": null, "latitude": 33.934147, "politanName": "Atlanta, GA Metro ", "phone_number": "4049430206", "tags": [{"primary": false, "id": 1730, "name": "Ice Cream Parlors"}, {"primary": true, "id": 1722, "name": "Restaurants"}], "fax_number": null, "expansion": {"count": null, "uri": null}, "impression_id": "000b0000005dc5e053aad54221ad3b4c0e0de61855", "profile": "http://www.citysearch.com/profile/818112350/atlanta_ga/braum_s_ice_cream_dairy.html", "address": {"city": "Atlanta", "state": "GA", "street": "226 Johnson Ferry Rd NW", "postal_code": "30328"}, "capProviderId": null, "distance": null, "has_offers": false, "name": "Braum's Ice Cream & Dairy", "longitude": -84.389408, "has_menu": false, "awards": null, "user_review_count": 0}, {"business_operation_status": 1, "rating": null, "neighborhood": null, "image": null, "scorecard": null, "featured": false, "sample_categories": "Restaurants, Pizza", "public_id": "pizza-zone-inc-marietta", "id": 820298830, "votes": null, "tagline": null, "has_video": false, "website": null, "offers": null, "latitude": 33.904063, "politanName": "Atlanta, GA Metro ", "phone_number": "7704329364", "tags": [{"primary": false, "id": 1722, "name": "Restaurants"}, {"primary": true, "id": 11299, "name": "Pizza"}], "fax_number": null, "expansion": {"count": null, "uri": null}, "impression_id": "000b0000000b36c9b685fb4a57884ae13b83c585bc", "profile": "http://www.citysearch.com/profile/820298830/marietta_ga/pizza_zone_inc.html", "address": {"city": "Marietta", "state": "GA", "street": "2022 S Cobb Dr SE", "postal_code": "30060"}, "capProviderId": null, "distance": null, "has_offers": false, "name": "Pizza Zone Inc", "longitude": -84.542723, "has_menu": false, "awards": null, "user_review_count": 0}, {"business_operation_status": 1, "rating": null, "neighborhood": null, "image": null, "scorecard": null, "featured": false, "sample_categories": "Restaurants", "public_id": "valerius-peterson-atlanta", "id": 826290440, "votes": null, "tagline": null, "has_video": false, "website": null, "offers": null, "latitude": 33.937898, "politanName": "Atlanta, GA Metro ", "phone_number": "7702556006", "tags": [{"primary": true, "id": 1722, "name": "Restaurants"}], "fax_number": null, "expansion": {"count": null, "uri": null}, "impression_id": "000b0000000b2a42374edd4f33aff3d9fa57ab9fc1", "profile": "http://www.citysearch.com/profile/826290440/atlanta_ga/valerius_peterson.html", "address": {"city": "Atlanta", "state": "GA", "street": "6320 Blackwater Trl", "postal_code": "30328"}, "capProviderId": null, "distance": null, "has_offers": false, "name": "Valerius & Peterson", "longitude": -84.399529, "has_menu": false, "awards": null, "user_review_count": 0}, {"business_operation_status": 1, "rating": null, "neighborhood": null, "image": null, "scorecard": null, "featured": false, "sample_categories": "Restaurants", "public_id": "larrys-country-kitchen-marietta", "id": 827346130, "votes": null, "tagline": null, "has_video": false, "website": null, "offers": null, "latitude": 33.943185, "politanName": "Atlanta, GA Metro ", "phone_number": "7704269522", "tags": [{"primary": true, "id": 1722, "name": "Restaurants"}], "fax_number": null, "expansion": {"count": null, "uri": null}, "impression_id": "000b000000c83c62e1223047bdaf3c73f9e5b4a4fd", "profile": "http://www.citysearch.com/profile/827346130/marietta_ga/larry_s_country_kitchen.html", "address": {"city": "Marietta", "state": "GA", "street": "625 S Marietta Pkwy SE", "postal_code": "30060"}, "capProviderId": null, "distance": null, "has_offers": false, "name": "Larry's Country Kitchen", "longitude": -84.533806, "has_menu": false, "awards": null, "user_review_count": 0}, {"business_operation_status": 1, "rating": null, "neighborhood": null, "image": null, "scorecard": null, "featured": false, "sample_categories": "Restaurants", "public_id": "los-potrillos-mexican-restaurant-atlanta", "id": 831474500, "votes": null, "tagline": null, "has_video": false, "website": null, "offers": null, "latitude": 33.91626, "politanName": "Atlanta, GA Metro ", "phone_number": "6783993361", "tags": [{"primary": true, "id": 1722, "name": "Restaurants"}], "fax_number": null, "expansion": {"count": null, "uri": null}, "impression_id": "000b000000f2d373fcf1af48f9be1208a6623fd22d", "profile": "http://www.citysearch.com/profile/831474500/atlanta_ga/los_potrillos_mexican_restaurant.html", "address": {"city": "Atlanta", "state": "GA", "street": "5785 Roswell Rd", "postal_code": "30328"}, "capProviderId": null, "distance": null, "has_offers": false, "name": "Los Potrillos Mexican Restaurant", "longitude": -84.379205, "has_menu": false, "awards": null, "user_review_count": 0}, {"business_operation_status": 1, "rating": null, "neighborhood": null, "image": null, "scorecard": null, "featured": false, "sample_categories": "Restaurants", "public_id": "corner-taqueria-smyrna", "id": 837793660, "votes": null, "tagline": null, "has_video": false, "website": "http://www.citysearch.com/profile/external/837793660/smyrna_ga/corner_taqueria.html", "offers": null, "latitude": 33.883705, "politanName": "Atlanta, GA Metro ", "phone_number": "6788420050", "tags": [{"primary": true, "id": 1722, "name": "Restaurants"}], "fax_number": null, "expansion": {"count": null, "uri": null}, "impression_id": "000b00000022783e0f64cd4598b612c5e2c1c20b9e", "profile": "http://www.citysearch.com/profile/837793660/smyrna_ga/corner_taqueria.html", "address": {"city": "Smyrna", "state": "GA", "street": "2860 Atlanta Rd SE", "postal_code": "30080"}, "capProviderId": null, "distance": null, "has_offers": false, "name": "Corner Taqueria", "longitude": -84.514807, "has_menu": false, "awards": null, "user_review_count": 0}, {"business_operation_status": 0, "rating": null, "neighborhood": null, "image": null, "scorecard": null, "featured": false, "sample_categories": "Restaurants, Delis And Delicatessens, Sandwich Shops, Carry Out", "public_id": "subway-marietta-49", "id": 764879600, "votes": null, "tagline": null, "has_video": false, "website": "http://www.citysearch.com/profile/external/764879600/marietta_ga/subway.html", "offers": null, "latitude": 33.900569, "politanName": "Atlanta, GA Metro ", "phone_number": "7708500296", "tags": [{"primary": false, "id": 1727, "name": "Delis And Delicatessens"}, {"primary": false, "id": 1736, "name": "Sandwich Shops"}, {"primary": false, "id": 11247, "name": "Carry Out"}, {"primary": true, "id": 1722, "name": "Restaurants"}], "fax_number": null, "expansion": {"count": null, "uri": null}, "impression_id": "000b0000005313ab80d2ca4ffc8bc4923e830b341c", "profile": "http://www.citysearch.com/profile/764879600/marietta_ga/subway.html", "address": {"city": "Marietta", "state": "GA", "street": "2145 Powers Ferry Rd SE", "postal_code": "30067"}, "capProviderId": null, "distance": null, "has_offers": false, "name": "SUBWAY", "longitude": -84.448686, "has_menu": true, "awards": null, "user_review_count": 0}, {"business_operation_status": 1, "rating": null, "neighborhood": null, "image": null, "scorecard": null, "featured": false, "sample_categories": "Restaurants, Pizza", "public_id": "stevi-bs-pizza-marietta-5", "id": 766799650, "votes": null, "tagline": null, "has_video": false, "website": "http://www.citysearch.com/profile/external/766799650/marietta_ga/stevi_b_s_pizza.html", "offers": null, "latitude": 33.925343, "politanName": "Atlanta, GA Metro ", "phone_number": "7705411450", "tags": [{"primary": false, "id": 11299, "name": "Pizza"}, {"primary": true, "id": 1722, "name": "Restaurants"}], "fax_number": null, "expansion": {"count": null, "uri": null}, "impression_id": "000b0000006815cec2de8347d289ae76ced90c21ce", "profile": "http://www.citysearch.com/profile/766799650/marietta_ga/stevi_b_s_pizza.html", "address": {"city": "Marietta", "state": "GA", "street": "1165 Northchase Pkwy SE # 220", "postal_code": "30067"}, "capProviderId": null, "distance": null, "has_offers": false, "name": "Stevi B's Pizza", "longitude": -84.480479, "has_menu": true, "awards": null, "user_review_count": 0}, {"business_operation_status": 1, "rating": null, "neighborhood": null, "image": null, "scorecard": null, "featured": false, "sample_categories": "Restaurants, French", "public_id": "crepe-cafe-marietta", "id": 773420440, "votes": null, "tagline": null, "has_video": false, "website": null, "offers": null, "latitude": 33.985873, "politanName": "Atlanta, GA Metro ", "phone_number": "7709710077", "tags": [{"primary": false, "id": 11219, "name": "French"}, {"primary": true, "id": 1722, "name": "Restaurants"}], "fax_number": null, "expansion": {"count": null, "uri": null}, "impression_id": "000b000000497c89b0303442358c3c40095c8584a9", "profile": "http://www.citysearch.com/profile/773420440/marietta_ga/crepe_cafe.html", "address": {"city": "Marietta", "state": "GA", "street": "4375 Roswell Rd", "postal_code": "30062"}, "capProviderId": null, "distance": null, "has_offers": false, "name": "Crepe Cafe", "longitude": -84.423233, "has_menu": false, "awards": null, "user_review_count": 0}, {"business_operation_status": 1, "rating": null, "neighborhood": null, "image": null, "scorecard": null, "featured": false, "sample_categories": "Restaurants", "public_id": "restaurant-concepts-inc-marietta", "id": 775223410, "votes": null, "tagline": null, "has_video": false, "website": null, "offers": null, "latitude": 33.930134, "politanName": "Atlanta, GA Metro ", "phone_number": "7709525943", "tags": [{"primary": true, "id": 1722, "name": "Restaurants"}], "fax_number": null, "expansion": {"count": null, "uri": null}, "impression_id": "000b000000c99c93287d24471ea72b6e52d473ed61", "profile": "http://www.citysearch.com/profile/775223410/marietta_ga/restaurant_concepts_inc.html", "address": {"city": "Marietta", "state": "GA", "street": "2120 Powers Ferry Dr SE", "postal_code": "30067"}, "capProviderId": null, "distance": null, "has_offers": false, "name": "Restaurant Concepts Inc", "longitude": -84.486864, "has_menu": false, "awards": null, "user_review_count": 0}, {"business_operation_status": 1, "rating": null, "neighborhood": null, "image": null, "scorecard": null, "featured": false, "sample_categories": "Restaurants, Bars & Clubs", "public_id": "tio-bar-grill-smyrna", "id": 802510740, "votes": null, "tagline": null, "has_video": false, "website": null, "offers": null, "latitude": 33.886772, "politanName": "Atlanta, GA Metro ", "phone_number": "7709891065", "tags": [{"primary": false, "id": 164, "name": "Bars & Clubs"}, {"primary": true, "id": 1722, "name": "Restaurants"}], "fax_number": null, "expansion": {"count": null, "uri": null}, "impression_id": "000b0000004a29d0df316a4c7fb888d8a2440282b4", "profile": "http://www.citysearch.com/profile/802510740/smyrna_ga/tio_bar_grill.html", "address": {"city": "Smyrna", "state": "GA", "street": "2731 S Cobb Dr Se", "postal_code": "30080"}, "capProviderId": null, "distance": null, "has_offers": false, "name": "Tio Bar & Grill", "longitude": -84.534827, "has_menu": false, "awards": null, "user_review_count": 0}, {"business_operation_status": 1, "rating": null, "neighborhood": "Northside, Northside", "image": null, "scorecard": null, "featured": false, "sample_categories": "Restaurants", "public_id": "melting-pot-restaurant-atlanta-2", "id": 805904900, "votes": null, "tagline": null, "has_video": false, "website": null, "offers": null, "latitude": 33.809801, "politanName": "Atlanta, GA Metro ", "phone_number": "4043511811", "tags": [{"primary": true, "id": 1722, "name": "Restaurants"}], "fax_number": null, "expansion": {"count": null, "uri": null}, "impression_id": "000b0000005d83fcfcc1aa47bebaff99b41ce79314", "profile": "http://www.citysearch.com/profile/805904900/atlanta_ga/melting_pot_restaurant.html", "address": {"city": "Atlanta", "state": "GA", "street": "857 Collier Rd NW # 1", "postal_code": "30318"}, "capProviderId": null, "distance": null, "has_offers": false, "name": "Melting Pot Restaurant", "longitude": -84.416377, "has_menu": true, "awards": null, "user_review_count": 0}, {"business_operation_status": 0, "rating": null, "neighborhood": null, "image": null, "scorecard": null, "featured": false, "sample_categories": "Ice Cream Parlors, Restaurants, Dessert Shops, Traditional American, Fast Food", "public_id": "dairy-queen-smyrna", "id": 43853384, "votes": null, "tagline": null, "has_video": false, "website": "http://www.citysearch.com/profile/external/43853384/smyrna_ga/dairy_queen.html", "offers": null, "latitude": 33.838977, "politanName": "Atlanta, GA Metro ", "phone_number": "4047920120", "tags": [{"primary": false, "id": 1722, "name": "Restaurants"}, {"primary": false, "id": 1728, "name": "Dessert Shops"}, {"primary": false, "id": 11190, "name": "Traditional American"}, {"primary": false, "id": 11199, "name": "Fast Food"}, {"primary": true, "id": 1730, "name": "Ice Cream Parlors"}], "fax_number": null, "expansion": {"count": null, "uri": null}, "impression_id": "000b000000cd3a3298cd5c4cec8bd2cbb5aae67633", "profile": "http://www.citysearch.com/profile/43853384/smyrna_ga/dairy_queen.html", "address": {"city": "Smyrna", "state": "GA", "street": "4715 S Atlanta Rd SE", "postal_code": "30080"}, "capProviderId": null, "distance": null, "has_offers": false, "name": "Dairy Queen", "longitude": -84.481545, "has_menu": true, "awards": null, "user_review_count": 0}], "histograms": [], "tag_ids": [1722], "uri": "http://api.citygridmedia.com:8080/search/places/v2/search/where?has_offers=false&type=restaurant&format=json&page=30&where=30339&rpp=50&histograms=false&publisher=10000009598&region_type=circle", "did_you_mean": "", "regions": [{"latitude": 33.877209, "default_radius": 2.6, "type": "postal_code", "name": "30339", "longitude": -84.463483}], "call_id": "000b000000b823f32891c549a4b6b1cbee06d636a2", "first_hit": 1451, "total_hits": 1582, "geo_ids": [26497], "page": 30, "last_hit": 1500}}