{"results": {"rpp": 50, "locations": [{"business_operation_status": 1, "rating": null, "neighborhood": "Northside, Northside", "image": null, "scorecard": null, "featured": false, "sample_categories": "Restaurants", "public_id": "ruben-goycochea-atlanta", "id": 43873760, "votes": null, "tagline": null, "has_video": false, "website": null, "offers": null, "latitude": 33.819953, "politanName": "Atlanta, GA Metro ", "phone_number": "4046030275", "tags": [{"primary": true, "id": 1722, "name": "Restaurants"}], "fax_number": null, "expansion": {"count": null, "uri": null}, "impression_id": "000b000000262445f600a14594b9460d957786c375", "profile": "http://www.citysearch.com/profile/43873760/atlanta_ga/ruben_goycochea.html", "address": {"city": "Atlanta", "state": "GA", "street": "2611 Bolton Rd NW", "postal_code": "30318"}, "capProviderId": null, "distance": null, "has_offers": false, "name": "Ruben Goycochea", "longitude": -84.449421, "has_menu": false, "awards": null, "user_review_count": 0}, {"business_operation_status": 1, "rating": null, "neighborhood": null, "image": null, "scorecard": null, "featured": false, "sample_categories": "Wine Stores, Restaurants", "public_id": "atlantic-wine-spirits-snob-sandy", "id": 808279540, "votes": null, "tagline": null, "has_video": false, "website": null, "offers": null, "latitude": 33.9202, "politanName": "Atlanta, GA Metro ", "phone_number": "4042528170", "tags": [{"primary": false, "id": 1722, "name": "Restaurants"}, {"primary": true, "id": 1721, "name": "Wine Stores"}], "fax_number": null, "expansion": {"count": null, "uri": null}, "impression_id": "000b000000f470ccb2d9da4e13afbfb5ee236f2655", "profile": "http://www.citysearch.com/profile/808279540/sandy_springs_ga/atlantic_wine_spirits_snob.html", "address": {"city": "Sandy Springs", "state": "GA", "street": "6010 Sandy Springs Cir", "postal_code": "30328"}, "capProviderId": null, "distance": null, "has_offers": false, "name": "Atlantic Wine & Spirits Snob", "longitude": -84.384878, "has_menu": false, "awards": null, "user_review_count": 0}, {"business_operation_status": 1, "rating": null, "neighborhood": null, "image": null, "scorecard": null, "featured": false, "sample_categories": "Restaurants", "public_id": "filimons-restaurant-smyrna", "id": 811872330, "votes": null, "tagline": null, "has_video": false, "website": null, "offers": null, "latitude": 33.887574, "politanName": "Atlanta, GA Metro ", "phone_number": "6782131556", "tags": [{"primary": true, "id": 1722, "name": "Restaurants"}], "fax_number": null, "expansion": {"count": null, "uri": null}, "impression_id": "000b000000553af40127354aa3a61f097b9be047d2", "profile": "http://www.citysearch.com/profile/811872330/smyrna_ga/filimon_s_restaurant.html", "address": {"city": "Smyrna", "state": "GA", "street": "601 Powder Springs St SE", "postal_code": "30080"}, "capProviderId": null, "distance": null, "has_offers": false, "name": "Filimon's Restaurant", "longitude": -84.535901, "has_menu": false, "awards": null, "user_review_count": 0}, {"business_operation_status": 1, "rating": null, "neighborhood": null, "image": null, "scorecard": null, "featured": false, "sample_categories": "Restaurants, Carry Out, Pizza, American Express, Discover", "public_id": "sandy-springs-chicken-atlanta", "id": 682429950, "votes": null, "tagline": null, "has_video": false, "website": "http://www.citysearch.com/profile/external/682429950/atlanta_ga/sandy_springs_chicken.html", "offers": null, "latitude": 33.921456, "politanName": "Atlanta, GA Metro ", "phone_number": "4043037727", "tags": [{"primary": false, "id": 11247, "name": "Carry Out"}, {"primary": false, "id": 11299, "name": "Pizza"}, {"primary": false, "id": 11333, "name": "American Express"}, {"primary": false, "id": 11349, "name": "Discover"}, {"primary": false, "id": 11361, "name": "MasterCard"}, {"primary": false, "id": 11382, "name": "Visa"}, {"primary": false, "id": 12839, "name": "Chicken"}, {"primary": true, "id": 1722, "name": "Restaurants"}], "fax_number": null, "expansion": {"count": null, "uri": null}, "impression_id": "000b000000eb49d398519a454fbed49bb10c8f0220", "profile": "http://www.citysearch.com/profile/682429950/atlanta_ga/sandy_springs_chicken.html", "address": {"city": "Atlanta", "state": "GA", "street": "6087 Roswell Rd Ne", "postal_code": "30328"}, "capProviderId": null, "distance": null, "has_offers": false, "name": "Sandy Springs Chicken", "longitude": -84.378652, "has_menu": false, "awards": null, "user_review_count": 0}, {"business_operation_status": 1, "rating": null, "neighborhood": null, "image": null, "scorecard": null, "featured": false, "sample_categories": "Restaurants, Delis And Delicatessens, Sandwich Shops, Carry Out", "public_id": "subway-smyrna-18", "id": 682667190, "votes": null, "tagline": null, "has_video": false, "website": "http://www.citysearch.com/profile/external/682667190/smyrna_ga/subway.html", "offers": null, "latitude": 33.827294, "politanName": "Atlanta, GA Metro ", "phone_number": "4047924294", "tags": [{"primary": false, "id": 1727, "name": "Delis And Delicatessens"}, {"primary": false, "id": 1736, "name": "Sandwich Shops"}, {"primary": false, "id": 11247, "name": "Carry Out"}, {"primary": true, "id": 1722, "name": "Restaurants"}], "fax_number": null, "expansion": {"count": null, "uri": null}, "impression_id": "000b000000716eea86fcc44dab8081b62f687767f7", "profile": "http://www.citysearch.com/profile/682667190/smyrna_ga/subway.html", "address": {"city": "Smyrna", "state": "GA", "street": "5185 S Cobb Dr Se", "postal_code": "30080"}, "capProviderId": null, "distance": null, "has_offers": false, "name": "Subway", "longitude": -84.491362, "has_menu": true, "awards": null, "user_review_count": 0}, {"business_operation_status": 1, "rating": null, "neighborhood": null, "image": null, "scorecard": null, "featured": false, "sample_categories": "Food Stores, Restaurants", "public_id": "halal-meats-marietta", "id": 696523330, "votes": null, "tagline": null, "has_video": false, "website": null, "offers": null, "latitude": 33.937797, "politanName": "Atlanta, GA Metro ", "phone_number": "6782900211", "tags": [{"primary": false, "id": 1722, "name": "Restaurants"}, {"primary": true, "id": 1706, "name": "Food Stores"}], "fax_number": null, "expansion": {"count": null, "uri": null}, "impression_id": "000b000000f618e7fd80b9482bab39642d60df297f", "profile": "http://www.citysearch.com/profile/696523330/marietta_ga/halal_meats.html", "address": {"city": "Marietta", "state": "GA", "street": "585 Franklin Rd Se", "postal_code": "30067"}, "capProviderId": null, "distance": null, "has_offers": false, "name": "Halal Meats", "longitude": -84.506993, "has_menu": false, "awards": null, "user_review_count": 0}, {"business_operation_status": 1, "rating": null, "neighborhood": null, "image": null, "scorecard": null, "featured": false, "sample_categories": "Restaurants", "public_id": "the-fillin-station-smyrna", "id": 672118610, "votes": null, "tagline": null, "has_video": false, "website": null, "offers": null, "latitude": 33.844657, "politanName": "Atlanta, GA Metro ", "phone_number": "6782390399", "tags": [{"primary": true, "id": 1722, "name": "Restaurants"}], "fax_number": null, "expansion": {"count": null, "uri": null}, "impression_id": "000b0000003c0074e15c3c4a1eaeae73996b215348", "profile": "http://www.citysearch.com/profile/672118610/smyrna_ga/the_fillin_station.html", "address": {"city": "Smyrna", "state": "GA", "street": "4425 South Cobb Drive", "postal_code": "30080"}, "capProviderId": null, "distance": null, "has_offers": false, "name": "The Fillin Station", "longitude": -84.501961, "has_menu": false, "awards": null, "user_review_count": 0}, {"business_operation_status": 1, "rating": null, "neighborhood": null, "image": null, "scorecard": null, "featured": false, "sample_categories": "Restaurants, Bars & Clubs, Traditional American", "public_id": "padella-marietta", "id": 748352460, "votes": null, "tagline": null, "has_video": false, "website": null, "offers": null, "latitude": 33.905983, "politanName": "Atlanta, GA Metro ", "phone_number": "7709561234", "tags": [{"primary": false, "id": 164, "name": "Bars & Clubs"}, {"primary": false, "id": 11190, "name": "Traditional American"}, {"primary": true, "id": 1722, "name": "Restaurants"}], "fax_number": null, "expansion": {"count": null, "uri": null}, "impression_id": "000b000000a92b575d254745818ba870026cda863a", "profile": "http://www.citysearch.com/profile/748352460/marietta_ga/padella.html", "address": {"city": "Marietta", "state": "GA", "street": "2999 Windy Hill Rd SE", "postal_code": "30067"}, "capProviderId": null, "distance": null, "has_offers": false, "name": "Padella", "longitude": -84.466315, "has_menu": true, "awards": null, "user_review_count": 0}, {"business_operation_status": 1, "rating": null, "neighborhood": null, "image": null, "scorecard": null, "featured": false, "sample_categories": "Restaurants", "public_id": "canyon-cafe-marietta", "id": 732199900, "votes": null, "tagline": null, "has_video": false, "website": null, "offers": null, "latitude": 33.949881, "politanName": "Atlanta, GA Metro ", "phone_number": "6784693379", "tags": [{"primary": true, "id": 1722, "name": "Restaurants"}], "fax_number": null, "expansion": {"count": null, "uri": null}, "impression_id": "000b0000001d5965289a2d440f8bbf95cb30abd103", "profile": "http://www.citysearch.com/profile/732199900/marietta_ga/canyon_cafe.html", "address": {"city": "Marietta", "state": "GA", "street": "3486 Sheridan Chase SE", "postal_code": "30067"}, "capProviderId": null, "distance": null, "has_offers": false, "name": "Canyon Cafe", "longitude": -84.446848, "has_menu": false, "awards": null, "user_review_count": 0}, {"business_operation_status": 1, "rating": null, "neighborhood": null, "image": null, "scorecard": null, "featured": false, "sample_categories": "Bars & Pubs, Bars & Clubs, Restaurants, Grill Restaurants, Carry Out", "public_id": "philippopolis-tavern-smyrna", "id": 748253380, "votes": null, "tagline": null, "has_video": false, "website": null, "offers": null, "latitude": 33.901006, "politanName": "Atlanta, GA Metro ", "phone_number": "6783836164", "tags": [{"primary": false, "id": 164, "name": "Bars & Clubs"}, {"primary": false, "id": 1722, "name": "Restaurants"}, {"primary": false, "id": 6191, "name": "Grill Restaurants"}, {"primary": false, "id": 11247, "name": "Carry Out"}, {"primary": false, "id": 11289, "name": "Mediterranean"}, {"primary": true, "id": 1686, "name": "Bars & Pubs"}], "fax_number": null, "expansion": {"count": null, "uri": null}, "impression_id": "000b000000da93399a1d204a548181bf4b30b0c988", "profile": "http://www.citysearch.com/profile/748253380/smyrna_ga/philippopolis_tavern.html", "address": {"city": "Smyrna", "state": "GA", "street": "1995 Windy Hill Rd SE", "postal_code": "30080"}, "capProviderId": null, "distance": null, "has_offers": false, "name": "Philippopolis Tavern", "longitude": -84.491036, "has_menu": false, "awards": null, "user_review_count": 0}, {"business_operation_status": 1, "rating": null, "neighborhood": null, "image": null, "scorecard": null, "featured": false, "sample_categories": "Restaurants", "public_id": "w-k-r-d-the-blaze-power-house-marietta", "id": 779694540, "votes": null, "tagline": null, "has_video": false, "website": null, "offers": null, "latitude": 33.938913, "politanName": "Atlanta, GA Metro ", "phone_number": "6784018567", "tags": [{"primary": true, "id": 1722, "name": "Restaurants"}], "fax_number": null, "expansion": {"count": null, "uri": null}, "impression_id": "000b0000006371844d8280428caf3b21974621b18c", "profile": "http://www.citysearch.com/profile/779694540/marietta_ga/w_k_r_d_the_blaze_power_house.html", "address": {"city": "Marietta", "state": "GA", "street": "550 Franklin Rd Se", "postal_code": "30067"}, "capProviderId": null, "distance": null, "has_offers": false, "name": "W K R D The Blaze Power House", "longitude": -84.507658, "has_menu": false, "awards": null, "user_review_count": 0}, {"business_operation_status": 1, "rating": null, "neighborhood": null, "image": null, "scorecard": null, "featured": false, "sample_categories": "Restaurants", "public_id": "bawarchi-biryani-point-atlanta", "id": 612010264, "votes": null, "tagline": null, "has_video": false, "website": "http://www.citysearch.com/profile/external/612010264/atlanta_ga/bawarchi_biryani_point.html", "offers": null, "latitude": 33.935812, "politanName": "Atlanta, GA Metro ", "phone_number": "4042555052", "tags": [{"primary": true, "id": 1722, "name": "Restaurants"}], "fax_number": null, "expansion": {"count": null, "uri": null}, "impression_id": "000b000000c6e662d40a924f0598234e201a813e2e", "profile": "http://www.citysearch.com/profile/612010264/atlanta_ga/bawarchi_biryani_point.html", "address": {"city": "Atlanta", "state": "GA", "street": "6627 Roswell Rd # A", "postal_code": "30328"}, "capProviderId": null, "distance": null, "has_offers": false, "name": "Bawarchi Biryani Point", "longitude": -84.376854, "has_menu": false, "awards": null, "user_review_count": 0}, {"business_operation_status": 1, "rating": null, "neighborhood": null, "image": null, "scorecard": null, "featured": false, "sample_categories": "Restaurants, Coffee & Tea Shops, Cafes", "public_id": "parkway-cafe-marietta", "id": 621991080, "votes": null, "tagline": null, "has_video": false, "website": null, "offers": null, "latitude": 33.938367, "politanName": "Atlanta, GA Metro ", "phone_number": "7705908922", "tags": [{"primary": false, "id": 1711, "name": "Coffee & Tea Shops"}, {"primary": false, "id": 6190, "name": "Cafes"}, {"primary": true, "id": 1722, "name": "Restaurants"}], "fax_number": null, "expansion": {"count": null, "uri": null}, "impression_id": "000b0000005ca08faaca794bdbb4942e31b3f6858f", "profile": "http://www.citysearch.com/profile/621991080/marietta_ga/parkway_cafe.html", "address": {"city": "Marietta", "state": "GA", "street": "1850 Parkway Pl Se # 120", "postal_code": "30067"}, "capProviderId": null, "distance": null, "has_offers": false, "name": "Parkway Cafe", "longitude": -84.501954, "has_menu": false, "awards": null, "user_review_count": 0}, {"business_operation_status": 1, "rating": null, "neighborhood": null, "image": null, "scorecard": null, "featured": false, "sample_categories": "Restaurants, Bars & Clubs, Ethnic Goods, Oriental Food Products, Asian", "public_id": "haiku-asian-restaurant-atlanta", "id": 622328850, "votes": null, "tagline": null, "has_video": false, "website": null, "offers": null, "latitude": 33.95065, "politanName": "Atlanta, GA Metro ", "phone_number": "7703911170", "tags": [{"primary": false, "id": 1722, "name": "Restaurants"}, {"primary": false, "id": 164, "name": "Bars & Clubs"}, {"primary": false, "id": 6041, "name": "Ethnic Goods"}, {"primary": false, "id": 11235, "name": "Asian"}, {"primary": false, "id": 11267, "name": "Food Delivery"}, {"primary": false, "id": 11333, "name": "American Express"}, {"primary": false, "id": 11347, "name": "Debit Card"}, {"primary": false, "id": 11349, "name": "Discover"}, {"primary": false, "id": 11361, "name": "MasterCard"}, {"primary": false, "id": 11382, "name": "Visa"}, {"primary": true, "id": 11157, "name": "Oriental Food Products"}], "fax_number": null, "expansion": {"count": null, "uri": null}, "impression_id": "000b0000002e2a9d74a4124195884c47f9f31e53f1", "profile": "http://www.citysearch.com/profile/622328850/atlanta_ga/haiku_asian_restaurant.html", "address": {"city": "Atlanta", "state": "GA", "street": "7277 Roswell Rd Ne", "postal_code": "30328"}, "capProviderId": null, "distance": null, "has_offers": false, "name": "Haiku Asian Restaurant", "longitude": -84.368499, "has_menu": false, "awards": null, "user_review_count": 0}, {"business_operation_status": 1, "rating": null, "neighborhood": null, "image": null, "scorecard": null, "featured": false, "sample_categories": "Restaurants, Bistros", "public_id": "bs-bistro-sandy", "id": 790693850, "votes": null, "tagline": null, "has_video": false, "website": null, "offers": null, "latitude": 33.9202, "politanName": "Atlanta, GA Metro ", "phone_number": "4043899258", "tags": [{"primary": false, "id": 13690, "name": "Bistros"}, {"primary": true, "id": 1722, "name": "Restaurants"}], "fax_number": null, "expansion": {"count": null, "uri": null}, "impression_id": "000b000000c14dfab7139f43428e1ccb747e9f62a2", "profile": "http://www.citysearch.com/profile/790693850/sandy_springs_ga/b_s_bistro.html", "address": {"city": "Sandy Springs", "state": "GA", "street": "6010 Sandy Springs Cir # B1", "postal_code": "30328"}, "capProviderId": null, "distance": null, "has_offers": false, "name": "B's Bistro", "longitude": -84.384878, "has_menu": true, "awards": null, "user_review_count": 0}, {"business_operation_status": 1, "rating": null, "neighborhood": null, "image": null, "scorecard": null, "featured": false, "sample_categories": "Restaurants, Pizza, Carry Out", "public_id": "johnnys-pizza-marietta", "id": 790893290, "votes": null, "tagline": null, "has_video": false, "website": null, "offers": null, "latitude": 33.968758, "politanName": "Atlanta, GA Metro ", "phone_number": "7705658665", "tags": [{"primary": false, "id": 1722, "name": "Restaurants"}, {"primary": false, "id": 11247, "name": "Carry Out"}, {"primary": true, "id": 11299, "name": "Pizza"}], "fax_number": null, "expansion": {"count": null, "uri": null}, "impression_id": "000b000000d82531080d13444eac294fdd73f58293", "profile": "http://www.citysearch.com/profile/790893290/marietta_ga/johnnys_pizza.html", "address": {"city": "Marietta", "state": "GA", "street": "2100 Roswell Rd # 1100", "postal_code": "30062"}, "capProviderId": null, "distance": null, "has_offers": false, "name": "Johnnys Pizza", "longitude": -84.488447, "has_menu": false, "awards": null, "user_review_count": 0}, {"business_operation_status": 1, "rating": null, "neighborhood": null, "image": null, "scorecard": null, "featured": false, "sample_categories": "Restaurants, Delis And Delicatessens, Sandwich Shops, Carry Out", "public_id": "firehouse-subs-smyrna-4", "id": 777803930, "votes": null, "tagline": null, "has_video": false, "website": "http://www.citysearch.com/profile/external/777803930/smyrna_ga/firehouse_subs.html", "offers": null, "latitude": 33.841827, "politanName": "Atlanta, GA Metro ", "phone_number": "7703331399", "tags": [{"primary": false, "id": 1727, "name": "Delis And Delicatessens"}, {"primary": false, "id": 1736, "name": "Sandwich Shops"}, {"primary": false, "id": 11247, "name": "Carry Out"}, {"primary": true, "id": 1722, "name": "Restaurants"}], "fax_number": null, "expansion": {"count": null, "uri": null}, "impression_id": "000b000000f5358ee67f8f4054900f9b70f0b136c0", "profile": "http://www.citysearch.com/profile/777803930/smyrna_ga/firehouse_subs.html", "address": {"city": "Smyrna", "state": "GA", "street": "4624 Camp Highland Se # 1000", "postal_code": "30082"}, "capProviderId": null, "distance": null, "has_offers": false, "name": "Firehouse Subs", "longitude": -84.505595, "has_menu": true, "awards": null, "user_review_count": 0}, {"business_operation_status": 1, "rating": null, "neighborhood": null, "image": null, "scorecard": null, "featured": false, "sample_categories": "Restaurants, Traditional American, Carry Out", "public_id": "waffle-house-marietta-16", "id": 777819230, "votes": null, "tagline": null, "has_video": false, "website": "http://www.citysearch.com/profile/external/777819230/marietta_ga/waffle_house.html", "offers": null, "latitude": 33.923768, "politanName": "Atlanta, GA Metro ", "phone_number": "7709526638", "tags": [{"primary": false, "id": 11190, "name": "Traditional American"}, {"primary": false, "id": 11247, "name": "Carry Out"}, {"primary": true, "id": 1722, "name": "Restaurants"}], "fax_number": null, "expansion": {"count": null, "uri": null}, "impression_id": "000b0000003f68c147f3ae492eb07d61707e646305", "profile": "http://www.citysearch.com/profile/777819230/marietta_ga/waffle_house.html", "address": {"city": "Marietta", "state": "GA", "street": "1185 Franklin Rd Se", "postal_code": "30067"}, "capProviderId": null, "distance": null, "has_offers": false, "name": "Waffle House", "longitude": -84.491678, "has_menu": true, "awards": null, "user_review_count": 0}, {"business_operation_status": 1, "rating": null, "neighborhood": null, "image": null, "scorecard": null, "featured": false, "sample_categories": "Restaurants", "public_id": "provence-french-bistro-marietta", "id": 811548460, "votes": null, "tagline": null, "has_video": false, "website": null, "offers": null, "latitude": 33.965305, "politanName": "Atlanta, GA Metro ", "phone_number": "7703215442", "tags": [{"primary": true, "id": 1722, "name": "Restaurants"}], "fax_number": null, "expansion": {"count": null, "uri": null}, "impression_id": "000b0000001c65b29fa914414a91a151e311b75ef3", "profile": "http://www.citysearch.com/profile/811548460/marietta_ga/provence_french_bistro.html", "address": {"city": "Marietta", "state": "GA", "street": "4665 Lower Roswell Rd", "postal_code": "30068"}, "capProviderId": null, "distance": null, "has_offers": false, "name": "Provence French Bistro", "longitude": -84.415723, "has_menu": false, "awards": null, "user_review_count": 0}, {"business_operation_status": 1, "rating": null, "neighborhood": null, "image": null, "scorecard": null, "featured": false, "sample_categories": "Restaurants", "public_id": "olgas-porch-inc-marietta", "id": 732189800, "votes": null, "tagline": null, "has_video": false, "website": null, "offers": null, "latitude": 33.962903, "politanName": "Atlanta, GA Metro ", "phone_number": "6786374595", "tags": [{"primary": true, "id": 1722, "name": "Restaurants"}], "fax_number": null, "expansion": {"count": null, "uri": null}, "impression_id": "000b000000dca98700c1824247bdd9250b28bf383a", "profile": "http://www.citysearch.com/profile/732189800/marietta_ga/olgas_porch_inc.html", "address": {"city": "Marietta", "state": "GA", "street": "1591 Gresham Rd", "postal_code": "30062"}, "capProviderId": null, "distance": null, "has_offers": false, "name": "Olgas Porch Inc", "longitude": -84.50563, "has_menu": false, "awards": null, "user_review_count": 0}, {"business_operation_status": 1, "rating": null, "neighborhood": null, "image": null, "scorecard": null, "featured": false, "sample_categories": "Restaurants", "public_id": "quick-n-tasty-cafe-smyrna", "id": 732219770, "votes": null, "tagline": null, "has_video": false, "website": null, "offers": null, "latitude": 33.891129, "politanName": "Atlanta, GA Metro ", "phone_number": "7704386170", "tags": [{"primary": true, "id": 1722, "name": "Restaurants"}], "fax_number": null, "expansion": {"count": null, "uri": null}, "impression_id": "000b000000290ff9a61af84666b3518c533a95f3f3", "profile": "http://www.citysearch.com/profile/732219770/smyrna_ga/quick_n_tasty_cafe.html", "address": {"city": "Smyrna", "state": "GA", "street": "1651 Roswell St SE", "postal_code": "30080"}, "capProviderId": null, "distance": null, "has_offers": false, "name": "Quick N Tasty Cafe", "longitude": -84.504659, "has_menu": false, "awards": null, "user_review_count": 0}, {"business_operation_status": 1, "rating": null, "neighborhood": null, "image": null, "scorecard": null, "featured": false, "sample_categories": "Restaurants", "public_id": "mamafus-smyrna", "id": 828608580, "votes": null, "tagline": null, "has_video": false, "website": null, "offers": null, "latitude": 33.884889, "politanName": "Atlanta, GA Metro ", "phone_number": "6782133663", "tags": [{"primary": true, "id": 1722, "name": "Restaurants"}], "fax_number": null, "expansion": {"count": null, "uri": null}, "impression_id": "000b0000004dd8711798b14affb40bbc67b9d3c47f", "profile": "http://www.citysearch.com/profile/828608580/smyrna_ga/mamafu_s.html", "address": {"city": "Smyrna", "state": "GA", "street": "400 Village Green Cir SE", "postal_code": "30080"}, "capProviderId": null, "distance": null, "has_offers": false, "name": "Mamafu's", "longitude": -84.516415, "has_menu": false, "awards": null, "user_review_count": 0}, {"business_operation_status": 1, "rating": null, "neighborhood": null, "image": null, "scorecard": null, "featured": false, "sample_categories": "Restaurants", "public_id": "bennigans-corp-atlanta", "id": 825862700, "votes": null, "tagline": null, "has_video": false, "website": null, "offers": null, "latitude": 33.904439, "politanName": "Atlanta, GA Metro ", "phone_number": "7709523004", "tags": [{"primary": true, "id": 1722, "name": "Restaurants"}], "fax_number": null, "expansion": {"count": null, "uri": null}, "impression_id": "000b00000068bace277a4549fea4f296dc755cb7a8", "profile": "http://www.citysearch.com/profile/825862700/atlanta_ga/bennigan_s_corp.html", "address": {"city": "Atlanta", "state": "GA", "street": "5525 Interstate North Pkwy", "postal_code": "30328"}, "capProviderId": null, "distance": null, "has_offers": false, "name": "Bennigan's Corp", "longitude": -84.437055, "has_menu": false, "awards": null, "user_review_count": 0}, {"business_operation_status": 1, "rating": null, "neighborhood": null, "image": null, "scorecard": null, "featured": false, "sample_categories": "Restaurants, Delis And Delicatessens, Sandwich Shops, Carry Out", "public_id": "quiznos-marietta-7", "id": 832339260, "votes": null, "tagline": null, "has_video": false, "website": null, "offers": null, "latitude": 33.905926, "politanName": "Atlanta, GA Metro ", "phone_number": "7709800268", "tags": [{"primary": false, "id": 1727, "name": "Delis And Delicatessens"}, {"primary": false, "id": 1736, "name": "Sandwich Shops"}, {"primary": false, "id": 11247, "name": "Carry Out"}, {"primary": true, "id": 1722, "name": "Restaurants"}], "fax_number": null, "expansion": {"count": null, "uri": null}, "impression_id": "000b0000005d935f7747844b47b22d6d1d0ec431ae", "profile": "http://www.citysearch.com/profile/832339260/marietta_ga/quiznos.html", "address": {"city": "Marietta", "state": "GA", "street": "2000 Powers Ferry Rd SE # 1-11", "postal_code": "30067"}, "capProviderId": null, "distance": null, "has_offers": false, "name": "Quiznos", "longitude": -84.465323, "has_menu": true, "awards": null, "user_review_count": 0}, {"business_operation_status": 1, "rating": null, "neighborhood": "Northside, Northside", "image": null, "scorecard": null, "featured": false, "sample_categories": "Restaurants, Bars & Clubs, Bars & Pubs", "public_id": "corner-tavern-atlanta", "id": 764878190, "votes": null, "tagline": null, "has_video": false, "website": null, "offers": null, "latitude": 33.789045, "politanName": "Atlanta, GA Metro ", "phone_number": "4042285164", "tags": [{"primary": false, "id": 164, "name": "Bars & Clubs"}, {"primary": false, "id": 1686, "name": "Bars & Pubs"}, {"primary": true, "id": 1722, "name": "Restaurants"}], "fax_number": null, "expansion": {"count": null, "uri": null}, "impression_id": "000b000000984c2c94d8f5474f8cf5a26354f7cf3b", "profile": "http://www.citysearch.com/profile/764878190/atlanta_ga/corner_tavern.html", "address": {"city": "Atlanta", "state": "GA", "street": "1133 Huff Rd NW # A", "postal_code": "30318"}, "capProviderId": null, "distance": null, "has_offers": false, "name": "Corner Tavern", "longitude": -84.425066, "has_menu": false, "awards": null, "user_review_count": 0}, {"business_operation_status": 1, "rating": null, "neighborhood": null, "image": null, "scorecard": null, "featured": false, "sample_categories": "Restaurants, Bars & Clubs, Nightclubs", "public_id": "illusion-lounge-dance-club-marietta", "id": 775216060, "votes": null, "tagline": null, "has_video": false, "website": null, "offers": null, "latitude": 33.905926, "politanName": "Atlanta, GA Metro ", "phone_number": "7709569909", "tags": [{"primary": false, "id": 164, "name": "Bars & Clubs"}, {"primary": false, "id": 169, "name": "Nightclubs"}, {"primary": true, "id": 1722, "name": "Restaurants"}], "fax_number": null, "expansion": {"count": null, "uri": null}, "impression_id": "000b000000da5335216abc4f008644f601eb697b91", "profile": "http://www.citysearch.com/profile/775216060/marietta_ga/illusion_lounge_dance_club.html", "address": {"city": "Marietta", "state": "GA", "street": "2000 Powers Ferry Rd SE", "postal_code": "30067"}, "capProviderId": null, "distance": null, "has_offers": false, "name": "Illusion Lounge & Dance Club", "longitude": -84.465323, "has_menu": false, "awards": null, "user_review_count": 0}, {"business_operation_status": 1, "rating": null, "neighborhood": null, "image": null, "scorecard": null, "featured": false, "sample_categories": "Restaurants, Pizza", "public_id": "slice-of-heaven-smyrna", "id": 775222180, "votes": null, "tagline": null, "has_video": false, "website": null, "offers": null, "latitude": 33.873639, "politanName": "Atlanta, GA Metro ", "phone_number": "7704371440", "tags": [{"primary": false, "id": 11299, "name": "Pizza"}, {"primary": true, "id": 1722, "name": "Restaurants"}], "fax_number": null, "expansion": {"count": null, "uri": null}, "impression_id": "000b000000d6cf60678fc444998235ab2e47c01432", "profile": "http://www.citysearch.com/profile/775222180/smyrna_ga/slice_of_heaven.html", "address": {"city": "Smyrna", "state": "GA", "street": "3256 Atlanta Rd SE", "postal_code": "30080"}, "capProviderId": null, "distance": null, "has_offers": false, "name": "Slice of Heaven", "longitude": -84.501033, "has_menu": false, "awards": null, "user_review_count": 0}, {"business_operation_status": 1, "rating": null, "neighborhood": null, "image": null, "scorecard": null, "featured": false, "sample_categories": "Restaurants, Ice Cream Parlors", "public_id": "italios-gelato-cafe-inc-smyrna", "id": 777752430, "votes": null, "tagline": null, "has_video": false, "website": null, "offers": null, "latitude": 33.884019, "politanName": "Atlanta, GA Metro ", "phone_number": "7704380941", "tags": [{"primary": false, "id": 1730, "name": "Ice Cream Parlors"}, {"primary": true, "id": 1722, "name": "Restaurants"}], "fax_number": null, "expansion": {"count": null, "uri": null}, "impression_id": "000b0000009d87d8b7be304140b0d184888f6c9c93", "profile": "http://www.citysearch.com/profile/777752430/smyrna_ga/italio_s_gelato_cafe_inc.html", "address": {"city": "Smyrna", "state": "GA", "street": "1265 W Spring St Se", "postal_code": "30080"}, "capProviderId": null, "distance": null, "has_offers": false, "name": "Italio's Gelato & Cafe INC", "longitude": -84.515924, "has_menu": false, "awards": null, "user_review_count": 2}, {"business_operation_status": 1, "rating": null, "neighborhood": "Northside, Northside", "image": null, "scorecard": null, "featured": false, "sample_categories": "Restaurants", "public_id": "ambra-restaurant-atlanta", "id": 806632990, "votes": null, "tagline": null, "has_video": false, "website": null, "offers": null, "latitude": 33.793667, "politanName": "Atlanta, GA Metro ", "phone_number": "4043509770", "tags": [{"primary": true, "id": 1722, "name": "Restaurants"}], "fax_number": null, "expansion": {"count": null, "uri": null}, "impression_id": "000b000000cb6e4b3478bb4825abf061d71ef13f50", "profile": "http://www.citysearch.com/profile/806632990/atlanta_ga/ambra_restaurant.html", "address": {"city": "Atlanta", "state": "GA", "street": "1425 Ellsworth Ind Blvd NW # 6", "postal_code": "30318"}, "capProviderId": null, "distance": null, "has_offers": false, "name": "Ambra Restaurant", "longitude": -84.426109, "has_menu": false, "awards": null, "user_review_count": 0}, {"business_operation_status": 1, "rating": null, "neighborhood": null, "image": null, "scorecard": null, "featured": false, "sample_categories": "Catering, Restaurants", "public_id": "carls-cafe-atlanta", "id": 35628553, "votes": null, "tagline": null, "has_video": false, "website": "http://www.citysearch.com/profile/external/35628553/atlanta_ga/carl_s_cafe.html", "offers": null, "latitude": 33.916678, "politanName": "Atlanta, GA Metro ", "phone_number": "4048438440", "tags": [{"primary": false, "id": 1722, "name": "Restaurants"}, {"primary": true, "id": 1705, "name": "Catering"}], "fax_number": null, "expansion": {"count": null, "uri": null}, "impression_id": "000b0000003174c1d1bc7f43dbaf35423e682410e5", "profile": "http://www.citysearch.com/profile/35628553/atlanta_ga/carl_s_cafe.html", "address": {"city": "Atlanta", "state": "GA", "street": "5920 Roswell Rd NE Ste C104", "postal_code": "30328"}, "capProviderId": null, "distance": null, "has_offers": false, "name": "Carl's Cafe", "longitude": -84.381718, "has_menu": true, "awards": null, "user_review_count": 0}, {"business_operation_status": 1, "rating": null, "neighborhood": "Northside, Northside", "image": null, "scorecard": null, "featured": false, "sample_categories": "Restaurants, Grocery Stores", "public_id": "joiners-food-co-inc-atlanta", "id": 808568680, "votes": null, "tagline": null, "has_video": false, "website": null, "offers": null, "latitude": 33.797259, "politanName": "Atlanta, GA Metro ", "phone_number": "4043558732", "tags": [{"primary": false, "id": 1713, "name": "Grocery Stores"}, {"primary": true, "id": 1722, "name": "Restaurants"}], "fax_number": null, "expansion": {"count": null, "uri": null}, "impression_id": "000b000000bed2e31c2774449fa1b11e91773145eb", "profile": "http://www.citysearch.com/profile/808568680/atlanta_ga/joiners_food_co_inc.html", "address": {"city": "Atlanta", "state": "GA", "street": "1531 Howell Mill Rd NW", "postal_code": "30318"}, "capProviderId": null, "distance": null, "has_offers": false, "name": "Joiners Food Co Inc", "longitude": -84.415868, "has_menu": false, "awards": null, "user_review_count": 0}, {"business_operation_status": 1, "rating": null, "neighborhood": null, "image": null, "scorecard": null, "featured": false, "sample_categories": "Restaurants", "public_id": "dinner-afare-marietta-2", "id": 819840300, "votes": null, "tagline": null, "has_video": false, "website": "http://www.citysearch.com/profile/external/819840300/marietta_ga/dinner_a_fare.html", "offers": null, "latitude": 33.98752, "politanName": "Atlanta, GA Metro ", "phone_number": "7705656551", "tags": [{"primary": true, "id": 1722, "name": "Restaurants"}], "fax_number": null, "expansion": {"count": null, "uri": null}, "impression_id": "000b0000007f303efc8f3342de9c31bd481ae0d1e1", "profile": "http://www.citysearch.com/profile/819840300/marietta_ga/dinner_a_fare.html", "address": {"city": "Marietta", "state": "GA", "street": "4475 Roswell Rd # 1420", "postal_code": "30062"}, "capProviderId": null, "distance": null, "has_offers": false, "name": "Dinner A'fare", "longitude": -84.42189, "has_menu": true, "awards": null, "user_review_count": 0}, {"business_operation_status": 1, "rating": null, "neighborhood": null, "image": null, "scorecard": null, "featured": false, "sample_categories": "Restaurants", "public_id": "filimons-smyrna", "id": 825235510, "votes": null, "tagline": null, "has_video": false, "website": null, "offers": null, "latitude": 33.887574, "politanName": "Atlanta, GA Metro ", "phone_number": "6782131556", "tags": [{"primary": true, "id": 1722, "name": "Restaurants"}], "fax_number": null, "expansion": {"count": null, "uri": null}, "impression_id": "000b0000005007765ffb9d4896b2bef8c9764683bd", "profile": "http://www.citysearch.com/profile/825235510/smyrna_ga/filimon_s.html", "address": {"city": "Smyrna", "state": "GA", "street": "601 Powder Springs St SE", "postal_code": "30080"}, "capProviderId": null, "distance": null, "has_offers": false, "name": "Filimon's", "longitude": -84.535901, "has_menu": false, "awards": null, "user_review_count": 0}, {"business_operation_status": 1, "rating": null, "neighborhood": null, "image": null, "scorecard": null, "featured": false, "sample_categories": "Restaurants", "public_id": "blue-olive-marietta", "id": 672107680, "votes": null, "tagline": null, "has_video": false, "website": null, "offers": null, "latitude": 33.965353, "politanName": "Atlanta, GA Metro ", "phone_number": "7705795949", "tags": [{"primary": true, "id": 1722, "name": "Restaurants"}], "fax_number": null, "expansion": {"count": null, "uri": null}, "impression_id": "000b000000d19c962c21c14bfd887d5ed5bfe5db95", "profile": "http://www.citysearch.com/profile/672107680/marietta_ga/blue_olive.html", "address": {"city": "Marietta", "state": "GA", "street": "4665 Lower Roswell Rd", "postal_code": "30068"}, "capProviderId": null, "distance": null, "has_offers": false, "name": "Blue Olive", "longitude": -84.415616, "has_menu": false, "awards": null, "user_review_count": 1}, {"business_operation_status": 1, "rating": null, "neighborhood": null, "image": null, "scorecard": null, "featured": false, "sample_categories": "Restaurants", "public_id": "blue-plate-roadside-cafe-atlanta-2", "id": 672380290, "votes": null, "tagline": null, "has_video": false, "website": null, "offers": null, "latitude": 33.916678, "politanName": "Atlanta, GA Metro ", "phone_number": null, "tags": [{"primary": true, "id": 1722, "name": "Restaurants"}], "fax_number": null, "expansion": {"count": null, "uri": null}, "impression_id": "000b0000007b120d233ab94d9cb3ab8ba5c98317ed", "profile": "http://www.citysearch.com/profile/672380290/atlanta_ga/blue_plate_roadside_cafe.html", "address": {"city": "Atlanta", "state": "GA", "street": "5920 Roswell Rd NE", "postal_code": "30328"}, "capProviderId": null, "distance": null, "has_offers": false, "name": "Blue Plate Roadside Cafe", "longitude": -84.381718, "has_menu": false, "awards": null, "user_review_count": 0}, {"business_operation_status": 1, "rating": null, "neighborhood": null, "image": null, "scorecard": null, "featured": false, "sample_categories": "Restaurants", "public_id": "taqueria-la-placita-smyrna", "id": 672297410, "votes": null, "tagline": null, "has_video": false, "website": null, "offers": null, "latitude": 33.882797, "politanName": "Atlanta, GA Metro ", "phone_number": null, "tags": [{"primary": true, "id": 1722, "name": "Restaurants"}], "fax_number": null, "expansion": {"count": null, "uri": null}, "impression_id": "000b000000d7490b8a2d7a494db7e05f79fabb117d", "profile": "http://www.citysearch.com/profile/672297410/smyrna_ga/taqueria_la_placita.html", "address": {"city": "Smyrna", "state": "GA", "street": "1669 Spring Rd SE", "postal_code": "30080"}, "capProviderId": null, "distance": null, "has_offers": false, "name": "Taqueria La Placita", "longitude": -84.504883, "has_menu": false, "awards": null, "user_review_count": 0}, {"business_operation_status": 0, "rating": null, "neighborhood": "Northside, Northside", "image": null, "scorecard": null, "featured": false, "sample_categories": "Restaurants", "public_id": "westside-garden-market-atlanta", "id": 672863510, "votes": null, "tagline": null, "has_video": false, "website": null, "offers": null, "latitude": 33.807938, "politanName": "Atlanta, GA Metro ", "phone_number": "4046099666", "tags": [{"primary": true, "id": 1722, "name": "Restaurants"}], "fax_number": null, "expansion": {"count": null, "uri": null}, "impression_id": "000b0000004a74349334f7436ca89c6c4b5515893b", "profile": "http://www.citysearch.com/profile/672863510/atlanta_ga/westside_garden_market.html", "address": {"city": "Atlanta", "state": "GA", "street": "1954 Howell Mill Road", "postal_code": "30318"}, "capProviderId": null, "distance": null, "has_offers": false, "name": "Westside Garden Market", "longitude": -84.412689, "has_menu": false, "awards": null, "user_review_count": 1}, {"business_operation_status": 1, "rating": null, "neighborhood": null, "image": null, "scorecard": null, "featured": false, "sample_categories": "Restaurants", "public_id": "la-estrella-smyrna", "id": 696217580, "votes": null, "tagline": null, "has_video": false, "website": null, "offers": null, "latitude": 33.8947, "politanName": "Atlanta, GA Metro ", "phone_number": "6782139023", "tags": [{"primary": true, "id": 1722, "name": "Restaurants"}], "fax_number": null, "expansion": {"count": null, "uri": null}, "impression_id": "000b000000d44ca412ef0e473b95670a967f33d74a", "profile": "http://www.citysearch.com/profile/696217580/smyrna_ga/la_estrella.html", "address": {"city": "Smyrna", "state": "GA", "street": "575 Windy Hill Rd Se", "postal_code": "30080"}, "capProviderId": null, "distance": null, "has_offers": false, "name": "La Estrella", "longitude": -84.536544, "has_menu": false, "awards": null, "user_review_count": 0}, {"business_operation_status": 1, "rating": null, "neighborhood": null, "image": null, "scorecard": null, "featured": false, "sample_categories": "Restaurants", "public_id": "t-me-enterprises-smyrna", "id": 2923026, "votes": null, "tagline": null, "has_video": false, "website": null, "offers": null, "latitude": 33.894569, "politanName": "Atlanta, GA Metro ", "phone_number": "7709849509", "tags": [{"primary": true, "id": 1722, "name": "Restaurants"}], "fax_number": null, "expansion": {"count": null, "uri": null}, "impression_id": "000b000000a1cdfa7c7ed24214ad81eedf0217c67d", "profile": "http://www.citysearch.com/profile/2923026/smyrna_ga/t_me_enterprises.html", "address": {"city": "Smyrna", "state": "GA", "street": "2400 Herodian Way SE", "postal_code": "30080"}, "capProviderId": null, "distance": null, "has_offers": false, "name": "T Me Enterprises", "longitude": -84.472335, "has_menu": false, "awards": null, "user_review_count": 0}, {"business_operation_status": 1, "rating": null, "neighborhood": null, "image": null, "scorecard": null, "featured": false, "sample_categories": "Restaurants, Carry Out", "public_id": "smyrna-food-court-smyrna", "id": 713490100, "votes": null, "tagline": null, "has_video": false, "website": null, "offers": null, "latitude": 33.882426, "politanName": "Atlanta, GA Metro ", "phone_number": "7704344438", "tags": [{"primary": false, "id": 11247, "name": "Carry Out"}, {"primary": true, "id": 1722, "name": "Restaurants"}], "fax_number": null, "expansion": {"count": null, "uri": null}, "impression_id": "000b000000c47382af42cc4bf297b2f6fe54094353", "profile": "http://www.citysearch.com/profile/713490100/smyrna_ga/smyrna_food_court.html", "address": {"city": "Smyrna", "state": "GA", "street": "2350 Spring Rd Se", "postal_code": "30080"}, "capProviderId": null, "distance": null, "has_offers": false, "name": "Smyrna Food Court", "longitude": -84.487375, "has_menu": false, "awards": null, "user_review_count": 0}, {"business_operation_status": 1, "rating": null, "neighborhood": null, "image": null, "scorecard": null, "featured": false, "sample_categories": "Restaurants, Pizza, American Express, MasterCard, Visa", "public_id": "pizzatina-atlanta", "id": 622195900, "votes": null, "tagline": null, "has_video": false, "website": null, "offers": null, "latitude": 33.917883, "politanName": "Atlanta, GA Metro ", "phone_number": "4048450794", "tags": [{"primary": false, "id": 1722, "name": "Restaurants"}, {"primary": false, "id": 11333, "name": "American Express"}, {"primary": false, "id": 11361, "name": "MasterCard"}, {"primary": false, "id": 11382, "name": "Visa"}, {"primary": true, "id": 11299, "name": "Pizza"}], "fax_number": null, "expansion": {"count": null, "uri": null}, "impression_id": "000b000000a07cfa686d88417ab35d87a3c8565ad1", "profile": "http://www.citysearch.com/profile/622195900/atlanta_ga/pizzatina.html", "address": {"city": "Atlanta", "state": "GA", "street": "5975 Roswell Rd Ne # 215", "postal_code": "30328"}, "capProviderId": null, "distance": null, "has_offers": false, "name": "Pizzatina", "longitude": -84.377671, "has_menu": false, "awards": null, "user_review_count": 1}, {"business_operation_status": 1, "rating": null, "neighborhood": "Northside, Northside", "image": null, "scorecard": null, "featured": false, "sample_categories": "Restaurants, Mexican", "public_id": "bell-street-burritos-atlanta-3", "id": 732199780, "votes": null, "tagline": null, "has_video": false, "website": "http://www.citysearch.com/profile/external/732199780/atlanta_ga/bell_street_burritos.html", "offers": null, "latitude": 33.799337, "politanName": "Atlanta, GA Metro ", "phone_number": "4048352018", "tags": [{"primary": false, "id": 11208, "name": "Mexican"}, {"primary": true, "id": 1722, "name": "Restaurants"}], "fax_number": null, "expansion": {"count": null, "uri": null}, "impression_id": "000b00000059fa5e8733c340219ba28847e9d7d907", "profile": "http://www.citysearch.com/profile/732199780/atlanta_ga/bell_street_burritos.html", "address": {"city": "Atlanta", "state": "GA", "street": "1663 Howell Mill Rd NW", "postal_code": "30318"}, "capProviderId": null, "distance": null, "has_offers": false, "name": "Bell Street Burritos", "longitude": -84.415657, "has_menu": false, "awards": null, "user_review_count": 0}, {"business_operation_status": 1, "rating": null, "neighborhood": null, "image": null, "scorecard": null, "featured": false, "sample_categories": "Restaurants", "public_id": "peachtree-grill-atlanta", "id": 3001279, "votes": null, "tagline": null, "has_video": false, "website": null, "offers": null, "latitude": 33.92078, "politanName": "Atlanta, GA Metro ", "phone_number": "4048749448", "tags": [{"primary": true, "id": 1722, "name": "Restaurants"}], "fax_number": null, "expansion": {"count": null, "uri": null}, "impression_id": "000b00000071cf3183c48f42aea4b98ebbcdacdd9b", "profile": "http://www.citysearch.com/profile/3001279/atlanta_ga/peachtree_grill.html", "address": {"city": "Atlanta", "state": "GA", "street": "1080 Riverside Trce NW", "postal_code": "30328"}, "capProviderId": null, "distance": null, "has_offers": false, "name": "Peachtree Grill", "longitude": -84.422827, "has_menu": false, "awards": null, "user_review_count": 0}, {"business_operation_status": 1, "rating": null, "neighborhood": null, "image": null, "scorecard": null, "featured": false, "sample_categories": "Restaurants", "public_id": "philly-connection-atlanta", "id": 3019432, "votes": null, "tagline": null, "has_video": false, "website": null, "offers": null, "latitude": 33.927141, "politanName": "Atlanta, GA Metro ", "phone_number": "7702559005", "tags": [{"primary": true, "id": 1722, "name": "Restaurants"}], "fax_number": null, "expansion": {"count": null, "uri": null}, "impression_id": "000b00000062bed6c2872d44f8984bb08a618305ec", "profile": "http://www.citysearch.com/profile/3019432/atlanta_ga/philly_connection.html", "address": {"city": "Atlanta", "state": "GA", "street": "6309 Roswell Rd NE Ste 1B", "postal_code": "30328"}, "capProviderId": null, "distance": null, "has_offers": false, "name": "Philly Connection", "longitude": -84.378967, "has_menu": true, "awards": null, "user_review_count": 0}, {"business_operation_status": 1, "rating": null, "neighborhood": null, "image": null, "scorecard": null, "featured": false, "sample_categories": "Restaurants, Caribbean", "public_id": "jerk-caribbean-cafe-smyrna", "id": 742240610, "votes": null, "tagline": null, "has_video": false, "website": null, "offers": null, "latitude": 33.883443, "politanName": "Atlanta, GA Metro ", "phone_number": "6782936723", "tags": [{"primary": false, "id": 11195, "name": "Caribbean"}, {"primary": true, "id": 1722, "name": "Restaurants"}], "fax_number": null, "expansion": {"count": null, "uri": null}, "impression_id": "000b000000f805454e25e84e15b87d079ef6b9a0c3", "profile": "http://www.citysearch.com/profile/742240610/smyrna_ga/jerk_caribbean_cafe.html", "address": {"city": "Smyrna", "state": "GA", "street": "2517 Spring Rd SE", "postal_code": "30080"}, "capProviderId": null, "distance": null, "has_offers": false, "name": "Jerk Caribbean Cafe", "longitude": -84.480608, "has_menu": false, "awards": null, "user_review_count": 0}, {"business_operation_status": 1, "rating": null, "neighborhood": null, "image": null, "scorecard": null, "featured": false, "sample_categories": "Restaurants, Carry Out", "public_id": "zaxbys-smyrna-4", "id": 625733364, "votes": null, "tagline": null, "has_video": false, "website": null, "offers": null, "latitude": 33.879925, "politanName": "Atlanta, GA Metro ", "phone_number": "6788704000", "tags": [{"primary": false, "id": 11247, "name": "Carry Out"}, {"primary": true, "id": 1722, "name": "Restaurants"}], "fax_number": null, "expansion": {"count": null, "uri": null}, "impression_id": "000b000000f595fa1f317d4dfc94b074128fb860e7", "profile": "http://www.citysearch.com/profile/625733364/smyrna_ga/zaxby_s.html", "address": {"city": "Smyrna", "state": "GA", "street": "1420 Spring Rd SE", "postal_code": "30080"}, "capProviderId": null, "distance": null, "has_offers": false, "name": "Zaxby's", "longitude": -84.51175, "has_menu": false, "awards": null, "user_review_count": 0}, {"business_operation_status": 1, "rating": null, "neighborhood": null, "image": null, "scorecard": null, "featured": false, "sample_categories": "Restaurants, Pizza", "public_id": "blue-moon-pizza-marietta-3", "id": 745594000, "votes": null, "tagline": null, "has_video": false, "website": null, "offers": null, "latitude": 33.913381, "politanName": "Atlanta, GA Metro ", "phone_number": "7709842444", "tags": [{"primary": false, "id": 1722, "name": "Restaurants"}, {"primary": true, "id": 11299, "name": "Pizza"}], "fax_number": null, "expansion": {"count": null, "uri": null}, "impression_id": "000b000000590eb7ac9dba4a4299ba6e3d0f5a10dc", "profile": "http://www.citysearch.com/profile/745594000/marietta_ga/blue_moon_pizza.html", "address": {"city": "Marietta", "state": "GA", "street": "1307 Wynnes Ridge Cir SE", "postal_code": "30067"}, "capProviderId": null, "distance": null, "has_offers": false, "name": "Blue Moon Pizza", "longitude": -84.468451, "has_menu": false, "awards": null, "user_review_count": 0}, {"business_operation_status": 1, "rating": null, "neighborhood": null, "image": null, "scorecard": null, "featured": false, "sample_categories": "Restaurants", "public_id": "r-cs-southern-cooking-marietta", "id": 754855600, "votes": null, "tagline": null, "has_video": false, "website": null, "offers": null, "latitude": 33.951248, "politanName": "Atlanta, GA Metro ", "phone_number": "7704854668", "tags": [{"primary": true, "id": 1722, "name": "Restaurants"}], "fax_number": null, "expansion": {"count": null, "uri": null}, "impression_id": "000b000000469ffac877814ae794a0940c36b1f2ed", "profile": "http://www.citysearch.com/profile/754855600/marietta_ga/r_c_s_southern_cooking.html", "address": {"city": "Marietta", "state": "GA", "street": "1516 Roswell Rd", "postal_code": "30062"}, "capProviderId": null, "distance": null, "has_offers": false, "name": "R C's Southern Cooking", "longitude": -84.508172, "has_menu": false, "awards": null, "user_review_count": 0}, {"business_operation_status": 1, "rating": null, "neighborhood": null, "image": null, "scorecard": null, "featured": false, "sample_categories": "Restaurants", "public_id": "ariana-afghan-cuisine-atlanta", "id": 747436750, "votes": null, "tagline": null, "has_video": false, "website": null, "offers": null, "latitude": 33.913346, "politanName": "Atlanta, GA Metro ", "phone_number": "6787320468", "tags": [{"primary": true, "id": 1722, "name": "Restaurants"}], "fax_number": null, "expansion": {"count": null, "uri": null}, "impression_id": "000b00000006092683f62442228c84bb4b05735652", "profile": "http://www.citysearch.com/profile/747436750/atlanta_ga/ariana_afghan_cuisine.html", "address": {"city": "Atlanta", "state": "GA", "street": "5785 Roswell Rd NE", "postal_code": "30328"}, "capProviderId": null, "distance": null, "has_offers": false, "name": "Ariana Afghan Cuisine", "longitude": -84.379219, "has_menu": false, "awards": null, "user_review_count": 0}, {"business_operation_status": 1, "rating": null, "neighborhood": "Northside, Northside", "image": null, "scorecard": null, "featured": false, "sample_categories": "Restaurants, Barbecue Restaurants", "public_id": "shanes-rib-shack-llc-atlanta", "id": 762759830, "votes": null, "tagline": null, "has_video": false, "website": null, "offers": null, "latitude": 33.794633, "politanName": "Atlanta, GA Metro ", "phone_number": "4048564320", "tags": [{"primary": false, "id": 1724, "name": "Barbecue Restaurants"}, {"primary": true, "id": 1722, "name": "Restaurants"}], "fax_number": null, "expansion": {"count": null, "uri": null}, "impression_id": "000b0000000b49bc04bdb44f2d9eb5d0dd5561a240", "profile": "http://www.citysearch.com/profile/762759830/atlanta_ga/shanes_rib_shack_llc.html", "address": {"city": "Atlanta", "state": "GA", "street": "1425 Elwrth Ind Blvd NW", "postal_code": "30318"}, "capProviderId": null, "distance": null, "has_offers": false, "name": "Shanes Rib Shack LLC", "longitude": -84.448772, "has_menu": false, "awards": null, "user_review_count": 0}], "histograms": [], "tag_ids": [1722], "uri": "http://api.citygridmedia.com:8080/search/places/v2/search/where?has_offers=false&type=restaurant&format=json&page=31&where=30339&rpp=50&histograms=false&publisher=10000009598&region_type=circle", "did_you_mean": "", "regions": [{"latitude": 33.877209, "default_radius": 2.6, "type": "postal_code", "name": "30339", "longitude": -84.463483}], "call_id": "000b0000007cd137b8bfd540359000db8304d754ce", "first_hit": 1501, "total_hits": 1582, "geo_ids": [26497], "page": 31, "last_hit": 1550}}