{"results": {"rpp": 50, "locations": [{"business_operation_status": 1, "rating": null, "neighborhood": null, "image": null, "scorecard": null, "featured": false, "sample_categories": "Restaurants", "public_id": "moch-delights-atlanta", "id": 43872739, "votes": null, "tagline": null, "has_video": false, "website": null, "offers": null, "latitude": 33.909943, "politanName": "Atlanta, GA Metro ", "phone_number": "7706128999", "tags": [{"primary": true, "id": 1722, "name": "Restaurants"}], "fax_number": null, "expansion": {"count": null, "uri": null}, "impression_id": "000b00000030df799d74c24a2ebb0615109842474a", "profile": "http://www.citysearch.com/profile/43872739/atlanta_ga/moch_delights.html", "address": {"city": "Atlanta", "state": "GA", "street": "1765 The Exchange SE", "postal_code": "30339"}, "capProviderId": null, "distance": null, "has_offers": false, "name": "Moch Delights", "longitude": -84.482145, "has_menu": false, "awards": null, "user_review_count": 0}, {"business_operation_status": 1, "rating": null, "neighborhood": "Cochise", "image": null, "scorecard": null, "featured": false, "sample_categories": "Restaurants", "public_id": "teafuse-tea-house-atlanta", "id": 672129460, "votes": null, "tagline": null, "has_video": false, "website": "http://www.citysearch.com/profile/external/672129460/atlanta_ga/teafuse_tea_house.html", "offers": null, "latitude": 33.864803, "politanName": "Atlanta, GA Metro ", "phone_number": "7708011013", "tags": [{"primary": true, "id": 1722, "name": "Restaurants"}], "fax_number": null, "expansion": {"count": null, "uri": null}, "impression_id": "000b000000561c746dca954d579e5394b9d5f1589a", "profile": "http://www.citysearch.com/profile/672129460/atlanta_ga/teafuse_tea_house.html", "address": {"city": "Atlanta", "state": "GA", "street": "4300 Paces Ferry Road", "postal_code": "30339"}, "capProviderId": null, "distance": null, "has_offers": false, "name": "TeaFuse Tea House", "longitude": -84.46568, "has_menu": false, "awards": null, "user_review_count": 0}, {"business_operation_status": 1, "rating": null, "neighborhood": null, "image": null, "scorecard": null, "featured": false, "sample_categories": "Restaurants", "public_id": "overlook-cafe-atlanta", "id": 713406040, "votes": null, "tagline": null, "has_video": false, "website": null, "offers": null, "latitude": 33.867677, "politanName": "Atlanta, GA Metro ", "phone_number": "6788429008", "tags": [{"primary": true, "id": 1722, "name": "Restaurants"}], "fax_number": null, "expansion": {"count": null, "uri": null}, "impression_id": "000b000000585a45fa5f364b788b772c9810e9a96c", "profile": "http://www.citysearch.com/profile/713406040/atlanta_ga/overlook_cafe.html", "address": {"city": "Atlanta", "state": "GA", "street": "2859 Paces Ferry Rd Se", "postal_code": "30339"}, "capProviderId": null, "distance": null, "has_offers": false, "name": "Overlook Cafe", "longitude": -84.468631, "has_menu": false, "awards": null, "user_review_count": 0}, {"business_operation_status": 1, "rating": null, "neighborhood": null, "image": null, "scorecard": null, "featured": false, "sample_categories": "Restaurants, Bars & Clubs, Bars & Pubs", "public_id": "grants-bar-grill-atlanta", "id": 739062670, "votes": null, "tagline": null, "has_video": false, "website": null, "offers": null, "latitude": 33.878323, "politanName": "Atlanta, GA Metro ", "phone_number": "7706726451", "tags": [{"primary": false, "id": 164, "name": "Bars & Clubs"}, {"primary": false, "id": 1686, "name": "Bars & Pubs"}, {"primary": true, "id": 1722, "name": "Restaurants"}], "fax_number": null, "expansion": {"count": null, "uri": null}, "impression_id": "000b00000079168c5f3d1b475092f1ad5fe6df2121", "profile": "http://www.citysearch.com/profile/739062670/atlanta_ga/grants_bar_grill.html", "address": {"city": "Atlanta", "state": "GA", "street": "2997 Cumberland Blvd SE # 100", "postal_code": "30339"}, "capProviderId": null, "distance": null, "has_offers": false, "name": "Grants Bar & Grill", "longitude": -84.468394, "has_menu": false, "awards": null, "user_review_count": 0}, {"business_operation_status": 0, "rating": null, "neighborhood": null, "image": null, "scorecard": null, "featured": false, "sample_categories": "Investments, Restaurants, Post Offices, American Express, Discover", "public_id": "us-post-office-atlanta-60", "id": 3029512, "votes": null, "tagline": null, "has_video": false, "website": null, "offers": null, "latitude": 33.901998, "politanName": "Atlanta, GA Metro ", "phone_number": null, "tags": [{"primary": false, "id": 1636, "name": "Investments"}, {"primary": false, "id": 1722, "name": "Restaurants"}, {"primary": false, "id": 11333, "name": "American Express"}, {"primary": false, "id": 11349, "name": "Discover"}, {"primary": false, "id": 11361, "name": "MasterCard"}, {"primary": false, "id": 11382, "name": "Visa"}, {"primary": true, "id": 1779, "name": "Post Offices"}], "fax_number": null, "expansion": {"count": null, "uri": null}, "impression_id": "000b000000218509100c594a0a967764522d192467", "profile": "http://www.citysearch.com/profile/3029512/atlanta_ga/us_post_office.html", "address": {"city": "Atlanta", "state": "GA", "street": "120 Interstate North Pkwy SE", "postal_code": "30339"}, "capProviderId": null, "distance": null, "has_offers": false, "name": "Us Post Office", "longitude": -84.464688, "has_menu": false, "awards": null, "user_review_count": 0}, {"business_operation_status": 1, "rating": null, "neighborhood": null, "image": null, "scorecard": null, "featured": false, "sample_categories": "Restaurants", "public_id": "powers-east-cafe-atlanta", "id": 3030529, "votes": null, "tagline": null, "has_video": false, "website": null, "offers": null, "latitude": 33.9096, "politanName": "Atlanta, GA Metro ", "phone_number": "7709512555", "tags": [{"primary": true, "id": 1722, "name": "Restaurants"}], "fax_number": null, "expansion": {"count": null, "uri": null}, "impression_id": "000b000000c683f73ff8f040f78b932fc831124e2f", "profile": "http://www.citysearch.com/profile/3030529/atlanta_ga/powers_east_cafe.html", "address": {"city": "Atlanta", "state": "GA", "street": "6151 Powers Ferry Rd NW", "postal_code": "30339"}, "capProviderId": null, "distance": null, "has_offers": false, "name": "Powers East Cafe", "longitude": -84.426412, "has_menu": false, "awards": null, "user_review_count": 0}, {"business_operation_status": 1, "rating": null, "neighborhood": null, "image": null, "scorecard": null, "featured": false, "sample_categories": "Restaurants", "public_id": "twenty-five-hundred-cafe-atlanta", "id": 627779900, "votes": null, "tagline": null, "has_video": false, "website": null, "offers": null, "latitude": 33.86762, "politanName": "Atlanta, GA Metro ", "phone_number": "7704325669", "tags": [{"primary": true, "id": 1722, "name": "Restaurants"}], "fax_number": null, "expansion": {"count": null, "uri": null}, "impression_id": "000b000000f3cf461ee2b0494f9ea4d45e67bfc24f", "profile": "http://www.citysearch.com/profile/627779900/atlanta_ga/twenty_five_hundred_cafe.html", "address": {"city": "Atlanta", "state": "GA", "street": "2500 Cumberland Pkwy Se", "postal_code": "30339"}, "capProviderId": null, "distance": null, "has_offers": false, "name": "Twenty Five Hundred Cafe", "longitude": -84.476243, "has_menu": false, "awards": null, "user_review_count": 0}, {"business_operation_status": 1, "rating": null, "neighborhood": null, "image": null, "scorecard": null, "featured": false, "sample_categories": "Restaurants, Bars & Clubs, Traditional American, Carry Out, Shop Online", "public_id": "hooters-atlanta-4", "id": 775226180, "votes": null, "tagline": null, "has_video": false, "website": "http://www.citysearch.com/profile/external/775226180/atlanta_ga/hooters.html", "offers": null, "latitude": 33.908131, "politanName": "Atlanta, GA Metro ", "phone_number": "7709512040", "tags": [{"primary": false, "id": 164, "name": "Bars & Clubs"}, {"primary": false, "id": 11190, "name": "Traditional American"}, {"primary": false, "id": 11247, "name": "Carry Out"}, {"primary": false, "id": 11375, "name": "Shop Online"}, {"primary": true, "id": 1722, "name": "Restaurants"}], "fax_number": null, "expansion": {"count": null, "uri": null}, "impression_id": "000b000000c524bea3c5024654843e8ffbcbaa02c5", "profile": "http://www.citysearch.com/profile/775226180/atlanta_ga/hooters.html", "address": {"city": "Atlanta", "state": "GA", "street": "1815 the Exchange SE", "postal_code": "30339"}, "capProviderId": null, "distance": null, "has_offers": false, "name": "Hooters", "longitude": -84.479005, "has_menu": false, "awards": null, "user_review_count": 0}, {"business_operation_status": 1, "rating": null, "neighborhood": null, "image": null, "scorecard": null, "featured": false, "sample_categories": "Restaurants", "public_id": "b-c-studio-atlanta-2", "id": 682624090, "votes": null, "tagline": null, "has_video": false, "website": null, "offers": null, "latitude": 33.907154, "politanName": "Atlanta, GA Metro ", "phone_number": "6789907691", "tags": [{"primary": true, "id": 1722, "name": "Restaurants"}], "fax_number": null, "expansion": {"count": null, "uri": null}, "impression_id": "000b0000007e5f325af412498c9763ea1b404d9388", "profile": "http://www.citysearch.com/profile/682624090/atlanta_ga/b_c_studio.html", "address": {"city": "Atlanta", "state": "GA", "street": "1820 The Exchange Se", "postal_code": "30339"}, "capProviderId": null, "distance": null, "has_offers": false, "name": "B & C Studio", "longitude": -84.479182, "has_menu": false, "awards": null, "user_review_count": 0}, {"business_operation_status": 1, "rating": null, "neighborhood": null, "image": null, "scorecard": null, "featured": false, "sample_categories": "Coffeehouses", "public_id": "mahamosa-llc-atlanta-2", "id": 732217720, "votes": null, "tagline": null, "has_video": false, "website": null, "offers": null, "latitude": 33.881746, "politanName": "Atlanta, GA Metro ", "phone_number": "7704320024", "tags": [{"primary": true, "id": 1726, "name": "Coffeehouses"}], "fax_number": null, "expansion": {"count": null, "uri": null}, "impression_id": "000b0000000d30fe78671d42d8bc0eda0c4b4052eb", "profile": "http://www.citysearch.com/profile/732217720/atlanta_ga/mahamosa_llc.html", "address": {"city": "Atlanta", "state": "GA", "street": "1000 Cumberland Mall SE", "postal_code": "30339"}, "capProviderId": null, "distance": null, "has_offers": false, "name": "Mahamosa LLC", "longitude": -84.470079, "has_menu": false, "awards": null, "user_review_count": 0}, {"business_operation_status": 1, "rating": null, "neighborhood": null, "image": null, "scorecard": null, "featured": false, "sample_categories": "Restaurants, Delis And Delicatessens, Sandwich Shops, Carry Out", "public_id": "subway-atlanta", "id": 655915720, "votes": null, "tagline": null, "has_video": false, "website": "http://www.citysearch.com/profile/external/655915720/atlanta_ga/subway.html", "offers": null, "latitude": 33.904334, "politanName": "Atlanta, GA Metro ", "phone_number": "7706611341", "tags": [{"primary": false, "id": 1727, "name": "Delis And Delicatessens"}, {"primary": false, "id": 1736, "name": "Sandwich Shops"}, {"primary": false, "id": 11247, "name": "Carry Out"}, {"primary": true, "id": 1722, "name": "Restaurants"}], "fax_number": null, "expansion": {"count": null, "uri": null}, "impression_id": "000b00000056b3d2b4e2074ff2b9e7d37220b9c493", "profile": "http://www.citysearch.com/profile/655915720/atlanta_ga/subway.html", "address": {"city": "Atlanta", "state": "GA", "street": "6370 Powers Ferry Rd Nw", "postal_code": "30339"}, "capProviderId": null, "distance": null, "has_offers": false, "name": "Subway", "longitude": -84.431343, "has_menu": false, "awards": null, "user_review_count": 0}, {"business_operation_status": 1, "rating": null, "neighborhood": null, "image": null, "scorecard": null, "featured": false, "sample_categories": "Restaurants", "public_id": "corner-cafe-atlanta-2", "id": 777682940, "votes": null, "tagline": null, "has_video": false, "website": null, "offers": null, "latitude": 33.894955, "politanName": "Atlanta, GA Metro ", "phone_number": "7709532555", "tags": [{"primary": true, "id": 1722, "name": "Restaurants"}], "fax_number": null, "expansion": {"count": null, "uri": null}, "impression_id": "000b00000034f5741018e243a892e1943f3a2bb68e", "profile": "http://www.citysearch.com/profile/777682940/atlanta_ga/corner_cafe.html", "address": {"city": "Atlanta", "state": "GA", "street": "380 Interstate North Se # 145", "postal_code": "30339"}, "capProviderId": null, "distance": null, "has_offers": false, "name": "Corner Cafe", "longitude": -84.460137, "has_menu": true, "awards": null, "user_review_count": 0}, {"business_operation_status": 1, "rating": null, "neighborhood": null, "image": null, "scorecard": null, "featured": false, "sample_categories": "Restaurants, Traditional American", "public_id": "three-dollar-cafe-marietta", "id": 777696440, "votes": null, "tagline": null, "has_video": false, "website": null, "offers": null, "latitude": 33.904328, "politanName": "Atlanta, GA Metro ", "phone_number": "6782146729", "tags": [{"primary": false, "id": 11190, "name": "Traditional American"}, {"primary": true, "id": 1722, "name": "Restaurants"}], "fax_number": null, "expansion": {"count": null, "uri": null}, "impression_id": "000b00000023891629d5b94f3483388194cffc5f65", "profile": "http://www.citysearch.com/profile/777696440/marietta_ga/three_dollar_cafe.html", "address": {"city": "Marietta", "state": "GA", "street": "3000 Windy Hill Rd Se # 132", "postal_code": "30067"}, "capProviderId": null, "distance": null, "has_offers": false, "name": "Three Dollar Cafe", "longitude": -84.466526, "has_menu": false, "awards": null, "user_review_count": 0}, {"business_operation_status": 1, "rating": null, "neighborhood": null, "image": null, "scorecard": null, "featured": false, "sample_categories": "Restaurants", "public_id": "sweet-spot-atlanta", "id": 787108200, "votes": null, "tagline": null, "has_video": false, "website": null, "offers": null, "latitude": 33.883731, "politanName": "Atlanta, GA Metro ", "phone_number": "7709539067", "tags": [{"primary": true, "id": 1722, "name": "Restaurants"}], "fax_number": null, "expansion": {"count": null, "uri": null}, "impression_id": "000b000000533603a668c74102a4d2c7a846e26083", "profile": "http://www.citysearch.com/profile/787108200/atlanta_ga/sweet_spot.html", "address": {"city": "Atlanta", "state": "GA", "street": "2815 Akers Mill Rd Se", "postal_code": "30339"}, "capProviderId": null, "distance": null, "has_offers": false, "name": "Sweet Spot", "longitude": -84.459836, "has_menu": false, "awards": null, "user_review_count": 0}, {"business_operation_status": 1, "rating": null, "neighborhood": null, "image": null, "scorecard": null, "featured": false, "sample_categories": "Restaurants, Traditional American, Carry Out, Shop Online", "public_id": "ruby-tuesday-atlanta-5", "id": 801070950, "votes": null, "tagline": null, "has_video": false, "website": "http://www.citysearch.com/profile/external/801070950/atlanta_ga/ruby_tuesday.html", "offers": null, "latitude": 33.88416, "politanName": "Atlanta, GA Metro ", "phone_number": "7709552285", "tags": [{"primary": false, "id": 11190, "name": "Traditional American"}, {"primary": false, "id": 11247, "name": "Carry Out"}, {"primary": false, "id": 11375, "name": "Shop Online"}, {"primary": true, "id": 1722, "name": "Restaurants"}], "fax_number": null, "expansion": {"count": null, "uri": null}, "impression_id": "000b0000004cf635db0ca8414e841f1a4b2365d220", "profile": "http://www.citysearch.com/profile/801070950/atlanta_ga/ruby_tuesday.html", "address": {"city": "Atlanta", "state": "GA", "street": "1 Galleria Pkwy NW", "postal_code": "30339"}, "capProviderId": null, "distance": null, "has_offers": false, "name": "Ruby Tuesday", "longitude": -84.463727, "has_menu": false, "awards": null, "user_review_count": 0}, {"business_operation_status": 1, "rating": null, "neighborhood": null, "image": null, "scorecard": null, "featured": false, "sample_categories": "Restaurants, Hamburgers", "public_id": "old-fashioned-hamburgers-atlanta", "id": 801095060, "votes": null, "tagline": null, "has_video": false, "website": null, "offers": null, "latitude": 33.885111, "politanName": "Atlanta, GA Metro ", "phone_number": "7709528424", "tags": [{"primary": false, "id": 11270, "name": "Hamburgers"}, {"primary": true, "id": 1722, "name": "Restaurants"}], "fax_number": null, "expansion": {"count": null, "uri": null}, "impression_id": "000b000000c4fe5421b4454d79b57604d50bf43b09", "profile": "http://www.citysearch.com/profile/801095060/atlanta_ga/old_fashioned_hamburgers.html", "address": {"city": "Atlanta", "state": "GA", "street": "2808 Spring Rd Se", "postal_code": "30339"}, "capProviderId": null, "distance": null, "has_offers": false, "name": "Old Fashioned Hamburgers", "longitude": -84.472637, "has_menu": false, "awards": null, "user_review_count": 0}, {"business_operation_status": 1, "rating": null, "neighborhood": null, "image": null, "scorecard": null, "featured": false, "sample_categories": "Coffeehouses, Doughnut Shops", "public_id": "donut-r-us-inc-atlanta", "id": 754805580, "votes": null, "tagline": null, "has_video": false, "website": null, "offers": null, "latitude": 33.865744, "politanName": "Atlanta, GA Metro ", "phone_number": "4047688307", "tags": [{"primary": false, "id": 1734, "name": "Doughnut Shops"}, {"primary": true, "id": 1726, "name": "Coffeehouses"}], "fax_number": null, "expansion": {"count": null, "uri": null}, "impression_id": "000b0000005b48b99690f44469870bd6f95b4ee33b", "profile": "http://www.citysearch.com/profile/754805580/atlanta_ga/donut_r_us_inc.html", "address": {"city": "Atlanta", "state": "GA", "street": "2849 Paces Ferry Rd SE # 750", "postal_code": "30339"}, "capProviderId": null, "distance": null, "has_offers": false, "name": "Donut R US Inc", "longitude": -84.470966, "has_menu": false, "awards": null, "user_review_count": 0}, {"business_operation_status": 1, "rating": 9.0, "neighborhood": null, "image": "http://images.citysearch.net/assets/imgdb/merchant/2010/2/1/0/XGFGRqdH1.jpeg", "scorecard": null, "featured": false, "sample_categories": "Catering, Restaurants, Barbecue Restaurants, $, Cheap Eats", "public_id": "williamson-brothers-barbq-marietta", "id": 11340779, "votes": null, "tagline": "Country barbecue smoked up just right in Marietta.", "has_video": false, "website": "http://www.citysearch.com/profile/external/11340779/marietta_ga/williamson_bros_bar_b_q.html", "offers": null, "latitude": 33.950897, "politanName": "Atlanta, GA Metro ", "phone_number": "7709713201", "tags": [{"primary": false, "id": 1722, "name": "Restaurants"}, {"primary": false, "id": 1724, "name": "Barbecue Restaurants"}, {"primary": false, "id": 11231, "name": "$"}, {"primary": false, "id": 11249, "name": "Cheap Eats"}, {"primary": false, "id": 11263, "name": "Family-Friendly Dining"}, {"primary": false, "id": 11269, "name": "Group Dining"}, {"primary": false, "id": 11286, "name": "Lunch Spot"}, {"primary": false, "id": 11333, "name": "American Express"}, {"primary": false, "id": 11349, "name": "Discover"}, {"primary": false, "id": 11361, "name": "MasterCard"}, {"primary": false, "id": 11382, "name": "Visa"}, {"primary": true, "id": 1705, "name": "Catering"}], "fax_number": null, "expansion": {"count": null, "uri": null}, "impression_id": "000b000000471520a1d145433cab4d607006cfc248", "profile": "http://www.citysearch.com/profile/11340779/marietta_ga/williamson_bros_bar_b_q.html", "address": {"city": "Marietta", "state": "GA", "street": "1425 Roswell Rd", "postal_code": "30062"}, "capProviderId": null, "distance": null, "has_offers": false, "name": "Williamson Bros. Bar-B-Q", "longitude": -84.510219, "has_menu": true, "awards": null, "user_review_count": 65}, {"business_operation_status": 1, "rating": 6.0, "neighborhood": null, "image": "http://i1.ypcdn.com/newdisplay_distr/sbc/ccb8f681e523456cb9aa752030306a85.gif", "scorecard": null, "featured": true, "sample_categories": "Restaurants, Bars & Clubs, Catering, Mexican, Carry Out", "public_id": "border-mexican-restaurant-smyrna", "id": 2923018, "votes": null, "tagline": "Authentic Mexican food! Full bar! Patio!", "has_video": false, "website": "http://www.citysearch.com/profile/external/2923018/smyrna_ga/on_border_mexican_restaurant.html", "offers": null, "latitude": 33.890145, "politanName": "Atlanta, GA Metro ", "phone_number": "6788238746", "tags": [{"primary": false, "id": 164, "name": "Bars & Clubs"}, {"primary": false, "id": 1705, "name": "Catering"}, {"primary": false, "id": 11208, "name": "Mexican"}, {"primary": false, "id": 11247, "name": "Carry Out"}, {"primary": false, "id": 11333, "name": "American Express"}, {"primary": false, "id": 11349, "name": "Discover"}, {"primary": false, "id": 11361, "name": "MasterCard"}, {"primary": false, "id": 11382, "name": "Visa"}, {"primary": true, "id": 1722, "name": "Restaurants"}], "fax_number": null, "expansion": {"count": null, "uri": null}, "impression_id": "000b000000221491b1bc624867bd52edf1c4add2fc", "profile": "http://www.citysearch.com/profile/2923018/smyrna_ga/on_border_mexican_restaurant.html", "address": {"city": "Smyrna", "state": "GA", "street": "2569 Cobb Pkwy SE", "postal_code": "30080"}, "capProviderId": 11, "distance": null, "has_offers": false, "name": "On-Border Mexican Restaurant", "longitude": -84.474942, "has_menu": true, "awards": null, "user_review_count": 71}, {"business_operation_status": 0, "rating": 9.0, "neighborhood": "Northside, Northside, Paces", "image": null, "scorecard": null, "featured": false, "sample_categories": "Bars & Clubs, Bars & Pubs, Taverns, Restaurants, New American", "public_id": "river-room-restaurant-tavern-atlanta", "id": 3018568, "votes": null, "tagline": "Elegant, upscale restaurant serving familiar bites with an innovative twist.", "has_video": false, "website": "http://www.citysearch.com/profile/external/3018568/atlanta_ga/river_room_restaurant_tavern.html", "offers": null, "latitude": 33.870371, "politanName": "Atlanta, GA Metro ", "phone_number": "4042335455", "tags": [{"primary": false, "id": 1686, "name": "Bars & Pubs"}, {"primary": false, "id": 1702, "name": "Taverns"}, {"primary": false, "id": 1722, "name": "Restaurants"}, {"primary": false, "id": 11189, "name": "New American"}, {"primary": false, "id": 11190, "name": "Traditional American"}, {"primary": false, "id": 11228, "name": "Seafood"}, {"primary": false, "id": 11233, "name": "$$$"}, {"primary": false, "id": 11238, "name": "Bar Scene"}, {"primary": false, "id": 11240, "name": "Brunch"}, {"primary": false, "id": 11244, "name": "Business Dining"}, {"primary": false, "id": 11256, "name": "Date Spot"}, {"primary": false, "id": 11258, "name": "Dine At The Bar"}, {"primary": false, "id": 11265, "name": "Fine Dining"}, {"primary": false, "id": 11269, "name": "Group Dining"}, {"primary": false, "id": 11283, "name": "Live Music"}, {"primary": false, "id": 11294, "name": "Notable Wine List"}, {"primary": false, "id": 11296, "name": "Outdoor Dining"}, {"primary": false, "id": 11304, "name": "Private Rooms"}, {"primary": false, "id": 11307, "name": "Romantic Dining"}, {"primary": false, "id": 11333, "name": "American Express"}, {"primary": false, "id": 11348, "name": "Diners Club"}, {"primary": false, "id": 11349, "name": "Discover"}, {"primary": false, "id": 11361, "name": "MasterCard"}, {"primary": false, "id": 11382, "name": "Visa"}, {"primary": true, "id": 164, "name": "Bars & Clubs"}], "fax_number": null, "expansion": {"count": null, "uri": null}, "impression_id": "000b0000003b9402147924432993d18addc4dd197a", "profile": "http://www.citysearch.com/profile/3018568/atlanta_ga/river_room_restaurant_tavern.html", "address": {"city": "Atlanta", "state": "GA", "street": "4403 Northside Pkwy NW", "postal_code": "30327"}, "capProviderId": null, "distance": null, "has_offers": false, "name": "River Room Restaurant & Tavern", "longitude": -84.447211, "has_menu": true, "awards": null, "user_review_count": 37}, {"business_operation_status": 1, "rating": 9.0, "neighborhood": null, "image": "http://images.citysearch.net/assets/imgdb2/reinvent/profile/2012/9/4/14/hxsDTKwo.jpg", "scorecard": null, "featured": false, "sample_categories": "Restaurants, Wine Bars, Organic Foods, Asian, Thai", "public_id": "lthai-west-organic-cuisine-wine-bar-smyrna", "id": 603158332, "votes": null, "tagline": "Same great menu, brand new location in Smyrna", "has_video": false, "website": "http://www.citysearch.com/profile/external/603158332/smyrna_ga/l_thai_west_organic_cuisine_wine_bar.html", "offers": null, "latitude": 33.842892, "politanName": "Atlanta, GA Metro ", "phone_number": "7704344344", "tags": [{"primary": false, "id": 1704, "name": "Wine Bars"}, {"primary": false, "id": 11173, "name": "Organic Foods"}, {"primary": false, "id": 11235, "name": "Asian"}, {"primary": false, "id": 11319, "name": "Thai"}, {"primary": false, "id": 11333, "name": "American Express"}, {"primary": false, "id": 11339, "name": "Cash"}, {"primary": false, "id": 11361, "name": "MasterCard"}, {"primary": false, "id": 11382, "name": "Visa"}, {"primary": false, "id": 14910, "name": "Organic"}, {"primary": true, "id": 1722, "name": "Restaurants"}], "fax_number": null, "expansion": {"count": null, "uri": null}, "impression_id": "000b0000005f40b0738ffd41e6bfed98d3f2e91a02", "profile": "http://www.citysearch.com/profile/603158332/smyrna_ga/l_thai_west_organic_cuisine_wine_bar.html", "address": {"city": "Smyrna", "state": "GA", "street": "4500 W Village Pl SE Ste 1017", "postal_code": "30080"}, "capProviderId": null, "distance": null, "has_offers": false, "name": "L'Thai West Organic Cuisine & Wine Bar", "longitude": -84.490261, "has_menu": false, "awards": null, "user_review_count": 19}, {"business_operation_status": 1, "rating": 9.0, "neighborhood": null, "image": "http://images.citysearch.net/assets/imgdb/15/f3/76/8d/29/1a/4c/0a/b6/70/1b/be/fd/12/c9/b7.png", "scorecard": null, "featured": false, "sample_categories": "Restaurants, Brazilian, Steakhouse", "public_id": "picanha-steakhouse-buffet-marietta", "id": 602810462, "votes": null, "tagline": "Traditional Churrascos and Hot Latin Dishes in Marietta - Picanha ", "has_video": false, "website": null, "offers": null, "latitude": 33.918666, "politanName": "Atlanta, GA Metro ", "phone_number": "7702260434", "tags": [{"primary": false, "id": 11204, "name": "Brazilian"}, {"primary": false, "id": 11316, "name": "Steakhouse"}, {"primary": true, "id": 1722, "name": "Restaurants"}], "fax_number": null, "expansion": {"count": null, "uri": null}, "impression_id": "000b000000e374817606eb497c8927c14fd7b50a40", "profile": "http://www.citysearch.com/profile/602810462/marietta_ga/picanha_steakhouse_buffet.html", "address": {"city": "Marietta", "state": "GA", "street": "1360 Powers Ferry Road", "postal_code": "30067"}, "capProviderId": null, "distance": null, "has_offers": false, "name": "Picanha Steakhouse & Buffet", "longitude": -84.469414, "has_menu": false, "awards": null, "user_review_count": 2}, {"business_operation_status": 1, "rating": null, "neighborhood": null, "image": "http://images.citysearch.net/assets/imgdb/merchant/2015/3/18/0/zKAXTjbf208.jpeg", "scorecard": null, "featured": true, "sample_categories": "Restaurants, New American, Traditional American, Seafood, $$", "public_id": "longhorn-steakhouse-marietta", "id": 2912192, "votes": null, "tagline": "Come in today & enjoy what we call a \"cut-above\" experience", "has_video": false, "website": "http://www.citysearch.com/profile/external/2912192/marietta_ga/longhorn_steakhouse.html", "offers": null, "latitude": 33.966176, "politanName": "Atlanta, GA Metro ", "phone_number": "4702391421", "tags": [{"primary": false, "id": 11189, "name": "New American"}, {"primary": false, "id": 11190, "name": "Traditional American"}, {"primary": false, "id": 11228, "name": "Seafood"}, {"primary": false, "id": 11232, "name": "$$"}, {"primary": false, "id": 11247, "name": "Carry Out"}, {"primary": false, "id": 11258, "name": "Dine At The Bar"}, {"primary": false, "id": 11263, "name": "Family-Friendly Dining"}, {"primary": false, "id": 11267, "name": "Food Delivery"}, {"primary": false, "id": 11269, "name": "Group Dining"}, {"primary": false, "id": 11316, "name": "Steakhouse"}, {"primary": false, "id": 11333, "name": "American Express"}, {"primary": false, "id": 11339, "name": "Cash"}, {"primary": false, "id": 11347, "name": "Debit Card"}, {"primary": false, "id": 11348, "name": "Diners Club"}, {"primary": false, "id": 11349, "name": "Discover"}, {"primary": false, "id": 11361, "name": "MasterCard"}, {"primary": false, "id": 11382, "name": "Visa"}, {"primary": true, "id": 1722, "name": "Restaurants"}], "fax_number": null, "expansion": {"count": null, "uri": null}, "impression_id": "000b000000bbe8373899e34e32a3bb5a7c50e2ad1d", "profile": "http://www.citysearch.com/profile/2912192/marietta_ga/longhorn_steakhouse.html", "address": {"city": "Marietta", "state": "GA", "street": "4721 Lower Roswell Rd", "postal_code": "30068"}, "capProviderId": 1, "distance": null, "has_offers": false, "name": "LongHorn Steakhouse", "longitude": -84.414117, "has_menu": true, "awards": null, "user_review_count": 0}, {"business_operation_status": 1, "rating": 5.0, "neighborhood": null, "image": "http://images.citysearch.net/assets/imgdb/merchant/2015/3/3/0/XbDaJnPm123.jpeg", "scorecard": null, "featured": true, "sample_categories": "Restaurants, New American, $, Carry Out, Family Style Dining", "public_id": "olive-garden-smyrna", "id": 2922268, "votes": null, "tagline": "Buy One Take One is Back! Starting at $12.99", "has_video": false, "website": "http://www.citysearch.com/profile/external/2922268/smyrna_ga/olive_garden.html", "offers": null, "latitude": 33.891868, "politanName": "Atlanta, GA Metro ", "phone_number": "7709338971", "tags": [{"primary": false, "id": 11189, "name": "New American"}, {"primary": false, "id": 11231, "name": "$"}, {"primary": false, "id": 11247, "name": "Carry Out"}, {"primary": false, "id": 11262, "name": "Family Style Dining"}, {"primary": false, "id": 11263, "name": "Family-Friendly Dining"}, {"primary": false, "id": 11269, "name": "Group Dining"}, {"primary": false, "id": 11279, "name": "Italian"}, {"primary": false, "id": 11286, "name": "Lunch Spot"}, {"primary": false, "id": 11333, "name": "American Express"}, {"primary": false, "id": 11347, "name": "Debit Card"}, {"primary": false, "id": 11348, "name": "Diners Club"}, {"primary": false, "id": 11349, "name": "Discover"}, {"primary": false, "id": 11361, "name": "MasterCard"}, {"primary": false, "id": 11382, "name": "Visa"}, {"primary": true, "id": 1722, "name": "Restaurants"}], "fax_number": null, "expansion": {"count": null, "uri": null}, "impression_id": "000b000000d34276f001274cd49e1897759cbe17d7", "profile": "http://www.citysearch.com/profile/2922268/smyrna_ga/olive_garden.html", "address": {"city": "Smyrna", "state": "GA", "street": "2467 Cobb Parkway Se", "postal_code": "30080"}, "capProviderId": 1, "distance": null, "has_offers": false, "name": "Olive Garden", "longitude": -84.4772, "has_menu": true, "awards": null, "user_review_count": 2}, {"business_operation_status": 1, "rating": 10.0, "neighborhood": null, "image": "http://images.citysearch.net/assets/imgdb/merchant/2012/3/21/0/zUfdpINR279.jpeg", "scorecard": null, "featured": false, "sample_categories": "Grill Restaurants, Bars & Pubs, Sports Bars, Restaurants, Pizza", "public_id": "blue-moon-pizza-marietta-2", "id": 37244513, "votes": null, "tagline": null, "has_video": false, "website": "http://www.citysearch.com/profile/external/37244513/marietta_ga/blue_moon_pizza.html", "offers": null, "latitude": 33.90373, "politanName": "Atlanta, GA Metro ", "phone_number": "7709842444", "tags": [{"primary": false, "id": 1686, "name": "Bars & Pubs"}, {"primary": false, "id": 1701, "name": "Sports Bars"}, {"primary": false, "id": 1722, "name": "Restaurants"}, {"primary": false, "id": 11299, "name": "Pizza"}, {"primary": false, "id": 11333, "name": "American Express"}, {"primary": false, "id": 11349, "name": "Discover"}, {"primary": false, "id": 11361, "name": "MasterCard"}, {"primary": false, "id": 11382, "name": "Visa"}, {"primary": true, "id": 6191, "name": "Grill Restaurants"}], "fax_number": null, "expansion": {"count": null, "uri": null}, "impression_id": "000b0000009ac90f151ef2409da8f903dd21e96ee2", "profile": "http://www.citysearch.com/profile/37244513/marietta_ga/blue_moon_pizza.html", "address": {"city": "Marietta", "state": "GA", "street": "2359 Windy Hill Rd Se Ste 100", "postal_code": "30067"}, "capProviderId": null, "distance": null, "has_offers": false, "name": "Blue Moon Pizza", "longitude": -84.484545, "has_menu": true, "awards": null, "user_review_count": 78}, {"business_operation_status": 1, "rating": 9.0, "neighborhood": null, "image": "http://images.citysearch.net/assets/imgdb2/reinvent/profile/2013/5/13/9/iYzFDawD.jpg", "scorecard": null, "featured": false, "sample_categories": "Restaurants, $, Cheap Eats, Pizza, American Express", "public_id": "st-angelos-smyrna", "id": 37090324, "votes": null, "tagline": null, "has_video": false, "website": "http://www.citysearch.com/profile/external/37090324/smyrna_ga/st_angelos.html", "offers": null, "latitude": 33.838977, "politanName": "Atlanta, GA Metro ", "phone_number": "4047949254", "tags": [{"primary": false, "id": 11231, "name": "$"}, {"primary": false, "id": 11249, "name": "Cheap Eats"}, {"primary": false, "id": 11299, "name": "Pizza"}, {"primary": false, "id": 11333, "name": "American Express"}, {"primary": false, "id": 11339, "name": "Cash"}, {"primary": false, "id": 11349, "name": "Discover"}, {"primary": false, "id": 11361, "name": "MasterCard"}, {"primary": false, "id": 11382, "name": "Visa"}, {"primary": true, "id": 1722, "name": "Restaurants"}], "fax_number": null, "expansion": {"count": null, "uri": null}, "impression_id": "000b000000a5ddfae75f284adebf8f6b49c5cb29a4", "profile": "http://www.citysearch.com/profile/37090324/smyrna_ga/st_angelos.html", "address": {"city": "Smyrna", "state": "GA", "street": "4715 S. Atlanta Rd.", "postal_code": "30080"}, "capProviderId": null, "distance": null, "has_offers": false, "name": "St. Angelos", "longitude": -84.481545, "has_menu": true, "awards": null, "user_review_count": 76}, {"business_operation_status": 1, "rating": 8.0, "neighborhood": "Northside, Northside", "image": "http://images.citysearch.net/assets/imgdb2/csmobile/profile/2012/10/10/7/lruumwSf.jpg", "scorecard": null, "featured": false, "sample_categories": "Restaurants, Traditional American, Outdoor Dining, View Dining, American Express", "public_id": "jct-kitchen-bar-atlanta", "id": 44685653, "votes": null, "tagline": null, "has_video": false, "website": "http://www.citysearch.com/profile/external/44685653/atlanta_ga/jct_kitchen_bar.html", "offers": null, "latitude": 33.786756, "politanName": "Atlanta, GA Metro ", "phone_number": "4043552252", "tags": [{"primary": false, "id": 11190, "name": "Traditional American"}, {"primary": false, "id": 11296, "name": "Outdoor Dining"}, {"primary": false, "id": 11326, "name": "View Dining"}, {"primary": false, "id": 11333, "name": "American Express"}, {"primary": false, "id": 11349, "name": "Discover"}, {"primary": false, "id": 11361, "name": "MasterCard"}, {"primary": false, "id": 11382, "name": "Visa"}, {"primary": true, "id": 1722, "name": "Restaurants"}], "fax_number": null, "expansion": {"count": null, "uri": null}, "impression_id": "000b000000ff86e74be81b44de83350e27d055c545", "profile": "http://www.citysearch.com/profile/44685653/atlanta_ga/jct_kitchen_bar.html", "address": {"city": "Atlanta", "state": "GA", "street": "1198 Howell Mill Rd NW 18", "postal_code": "30318"}, "capProviderId": null, "distance": null, "has_offers": false, "name": "Jct Kitchen & Bar", "longitude": -84.411927, "has_menu": true, "awards": null, "user_review_count": 38}, {"business_operation_status": 0, "rating": 6.0, "neighborhood": "Northside, Northside", "image": null, "scorecard": null, "featured": false, "sample_categories": "Restaurants, New American, Traditional American, $$$, Business Dining", "public_id": "food-studio-atlanta", "id": 3011750, "votes": null, "tagline": null, "has_video": false, "website": null, "offers": null, "latitude": 33.794633, "politanName": "Atlanta, GA Metro ", "phone_number": "4048156677", "tags": [{"primary": false, "id": 11189, "name": "New American"}, {"primary": false, "id": 11190, "name": "Traditional American"}, {"primary": false, "id": 11233, "name": "$$$"}, {"primary": false, "id": 11244, "name": "Business Dining"}, {"primary": false, "id": 11266, "name": "Fireplace"}, {"primary": false, "id": 11269, "name": "Group Dining"}, {"primary": false, "id": 11294, "name": "Notable Wine List"}, {"primary": false, "id": 11295, "name": "Online Reservations"}, {"primary": false, "id": 11307, "name": "Romantic Dining"}, {"primary": false, "id": 11315, "name": "Special Occasion Dining"}, {"primary": false, "id": 11333, "name": "American Express"}, {"primary": false, "id": 11349, "name": "Discover"}, {"primary": false, "id": 11361, "name": "MasterCard"}, {"primary": false, "id": 11382, "name": "Visa"}, {"primary": true, "id": 1722, "name": "Restaurants"}], "fax_number": null, "expansion": {"count": null, "uri": null}, "impression_id": "000b000000c40ce167f1f14bacac747a0fe2bffb09", "profile": "http://www.citysearch.com/profile/3011750/atlanta_ga/food_studio.html", "address": {"city": "Atlanta", "state": "GA", "street": "887 W Marietta St Ste K102", "postal_code": "30318"}, "capProviderId": null, "distance": null, "has_offers": false, "name": "Food Studio", "longitude": -84.448772, "has_menu": true, "awards": null, "user_review_count": 33}, {"business_operation_status": 1, "rating": 9.0, "neighborhood": "Northside, Northside", "image": "http://images.citysearch.net/assets/imgdb2/reinvent/profile/2012/9/20/13/dbXNGLsM.jpg", "scorecard": null, "featured": false, "sample_categories": "Restaurants, Catering, Mexican, $, Cheap Eats", "public_id": "nuevo-laredo-cantina-atlanta", "id": 3011721, "votes": null, "tagline": null, "has_video": false, "website": "http://www.citysearch.com/profile/external/3011721/atlanta_ga/nuevo_laredo_cantina.html", "offers": null, "latitude": 33.81018, "politanName": "Atlanta, GA Metro ", "phone_number": "4043529009", "tags": [{"primary": false, "id": 1705, "name": "Catering"}, {"primary": false, "id": 11208, "name": "Mexican"}, {"primary": false, "id": 11231, "name": "$"}, {"primary": false, "id": 11249, "name": "Cheap Eats"}, {"primary": false, "id": 11286, "name": "Lunch Spot"}, {"primary": false, "id": 11333, "name": "American Express"}, {"primary": false, "id": 11348, "name": "Diners Club"}, {"primary": false, "id": 11349, "name": "Discover"}, {"primary": false, "id": 11361, "name": "MasterCard"}, {"primary": false, "id": 11382, "name": "Visa"}, {"primary": true, "id": 1722, "name": "Restaurants"}], "fax_number": null, "expansion": {"count": null, "uri": null}, "impression_id": "000b0000003cbe3e73ca2343ae8cce33ac42928aac", "profile": "http://www.citysearch.com/profile/3011721/atlanta_ga/nuevo_laredo_cantina.html", "address": {"city": "Atlanta", "state": "GA", "street": "1495 Chattahoochee Ave NW", "postal_code": "30318"}, "capProviderId": null, "distance": null, "has_offers": false, "name": "Nuevo Laredo Cantina", "longitude": -84.436583, "has_menu": true, "awards": null, "user_review_count": 85}, {"business_operation_status": 0, "rating": 10.0, "neighborhood": null, "image": null, "scorecard": null, "featured": false, "sample_categories": "Bars & Clubs, Bars & Pubs, Lounges, Neighborhood Bars, Sports Bars", "public_id": "charlie-mopps-public-house-atlanta", "id": 45591853, "votes": null, "tagline": null, "has_video": false, "website": null, "offers": null, "latitude": 33.91414, "politanName": "Atlanta, GA Metro ", "phone_number": "4048450713", "tags": [{"primary": false, "id": 1686, "name": "Bars & Pubs"}, {"primary": false, "id": 1697, "name": "Lounges"}, {"primary": false, "id": 1698, "name": "Neighborhood Bars"}, {"primary": false, "id": 1701, "name": "Sports Bars"}, {"primary": false, "id": 10014, "name": "After Hours"}, {"primary": false, "id": 11095, "name": "Jukebox"}, {"primary": false, "id": 11102, "name": "Notable Beer List"}, {"primary": false, "id": 11190, "name": "Traditional American"}, {"primary": false, "id": 11244, "name": "Business Dining"}, {"primary": false, "id": 11249, "name": "Cheap Eats"}, {"primary": false, "id": 11256, "name": "Date Spot"}, {"primary": false, "id": 11269, "name": "Group Dining"}, {"primary": false, "id": 11282, "name": "Late Night Dining"}, {"primary": false, "id": 11286, "name": "Lunch Spot"}, {"primary": false, "id": 11296, "name": "Outdoor Dining"}, {"primary": true, "id": 164, "name": "Bars & Clubs"}], "fax_number": null, "expansion": {"count": null, "uri": null}, "impression_id": "000b0000001852501ecc9e4d64b3ef8c2a379659d9", "profile": "http://www.citysearch.com/profile/45591853/atlanta_ga/charlie_mopps_public_house.html", "address": {"city": "Atlanta", "state": "GA", "street": "5830 Roswell Rd NE", "postal_code": "30328"}, "capProviderId": null, "distance": null, "has_offers": false, "name": "Charlie Mopps Public House", "longitude": -84.379934, "has_menu": false, "awards": null, "user_review_count": 22}, {"business_operation_status": 1, "rating": 10.0, "neighborhood": null, "image": "http://www.gayot.com/images/reviews/ATRES091001.jpg", "scorecard": null, "featured": false, "sample_categories": "Restaurants, Delis And Delicatessens, Gourmet Foods, Traditional American, $$", "public_id": "muss-turners-inc-smyrna", "id": 41731547, "votes": null, "tagline": null, "has_video": false, "website": "http://www.citysearch.com/profile/external/41731547/smyrna_ga/muss_turner_s_inc.html", "offers": null, "latitude": 33.849301, "politanName": "Atlanta, GA Metro ", "phone_number": "7704341114", "tags": [{"primary": false, "id": 1727, "name": "Delis And Delicatessens"}, {"primary": false, "id": 11169, "name": "Gourmet Foods"}, {"primary": false, "id": 11190, "name": "Traditional American"}, {"primary": false, "id": 11232, "name": "$$"}, {"primary": false, "id": 11263, "name": "Family-Friendly Dining"}, {"primary": false, "id": 11272, "name": "Hidden Find"}, {"primary": false, "id": 11284, "name": "Local Favorite"}, {"primary": false, "id": 11286, "name": "Lunch Spot"}, {"primary": false, "id": 11333, "name": "American Express"}, {"primary": false, "id": 11349, "name": "Discover"}, {"primary": false, "id": 11361, "name": "MasterCard"}, {"primary": false, "id": 11382, "name": "Visa"}, {"primary": true, "id": 1722, "name": "Restaurants"}], "fax_number": null, "expansion": {"count": null, "uri": null}, "impression_id": "000b000000947cc08535e1405d93a9dadc04735126", "profile": "http://www.citysearch.com/profile/41731547/smyrna_ga/muss_turner_s_inc.html", "address": {"city": "Smyrna", "state": "GA", "street": "1675 Cumberland Pkwy., Ste. 309", "postal_code": "30080"}, "capProviderId": null, "distance": null, "has_offers": false, "name": "Muss & Turner's Inc", "longitude": -84.492846, "has_menu": true, "awards": null, "user_review_count": 20}, {"business_operation_status": 1, "rating": 8.0, "neighborhood": "Northside, Northside", "image": "http://images.citysearch.net/assets/imgdb/4a/d0/c8/fc/aa/de/48/d3/a8/73/d9/51/24/c0/92/4f.JPG", "scorecard": null, "featured": false, "sample_categories": "Bars & Pubs, Wine Bars, Restaurants, Dessert Shops, After Work", "public_id": "joel-antunes-llc-atlanta", "id": 11586206, "votes": null, "tagline": null, "has_video": false, "website": null, "offers": null, "latitude": 33.845304, "politanName": "Atlanta, GA Metro ", "phone_number": "4042333500", "tags": [{"primary": false, "id": 1686, "name": "Bars & Pubs"}, {"primary": false, "id": 1704, "name": "Wine Bars"}, {"primary": false, "id": 1728, "name": "Dessert Shops"}, {"primary": false, "id": 10015, "name": "After Work"}, {"primary": false, "id": 11099, "name": "Martinis"}, {"primary": false, "id": 11219, "name": "French"}, {"primary": false, "id": 11232, "name": "$$"}, {"primary": false, "id": 11237, "name": "Bar Menu"}, {"primary": false, "id": 11244, "name": "Business Dining"}, {"primary": false, "id": 11247, "name": "Carry Out"}, {"primary": false, "id": 11265, "name": "Fine Dining"}, {"primary": false, "id": 11269, "name": "Group Dining"}, {"primary": false, "id": 11286, "name": "Lunch Spot"}, {"primary": false, "id": 11293, "name": "Notable Chef"}, {"primary": false, "id": 11294, "name": "Notable Wine List"}, {"primary": false, "id": 11296, "name": "Outdoor Dining"}, {"primary": false, "id": 11304, "name": "Private Rooms"}, {"primary": false, "id": 11305, "name": "Prix Fixe Menu"}, {"primary": false, "id": 11307, "name": "Romantic Dining"}, {"primary": false, "id": 11315, "name": "Special Occasion Dining"}, {"primary": false, "id": 11333, "name": "American Express"}, {"primary": false, "id": 11349, "name": "Discover"}, {"primary": false, "id": 11361, "name": "MasterCard"}, {"primary": false, "id": 11382, "name": "Visa"}, {"primary": false, "id": 12821, "name": "Casual Date Spot"}, {"primary": true, "id": 1722, "name": "Restaurants"}], "fax_number": null, "expansion": {"count": null, "uri": null}, "impression_id": "000b000000ca9db55ce34b4c8a8fe3e96f9f4402ec", "profile": "http://www.citysearch.com/profile/11586206/atlanta_ga/joel_antunes_llc.html", "address": {"city": "Atlanta", "state": "GA", "street": "3290 Northside Pkwy NW", "postal_code": "30327"}, "capProviderId": null, "distance": null, "has_offers": false, "name": "Joel Antunes LLC", "longitude": -84.426791, "has_menu": true, "awards": null, "user_review_count": 31}, {"business_operation_status": 1, "rating": 10.0, "neighborhood": null, "image": "http://images.citysearch.net/assets/imgdb/75/b9/c4/e5/74/24/4d/40/aa/84/1e/1a/27/4b/40/f0.jpg", "scorecard": null, "featured": false, "sample_categories": "Restaurants, Traditional American, $$, Brunch, Business Dining", "public_id": "food-101-atlanta", "id": 3037887, "votes": null, "tagline": "Great Food, Great Atmosphere, Great Restaurant - Food 101 ", "has_video": false, "website": "http://www.citysearch.com/profile/external/3037887/atlanta_ga/food_101.html", "offers": null, "latitude": 33.889887, "politanName": "Atlanta, GA Metro ", "phone_number": "4044979700", "tags": [{"primary": false, "id": 1722, "name": "Restaurants"}, {"primary": false, "id": 11232, "name": "$$"}, {"primary": false, "id": 11240, "name": "Brunch"}, {"primary": false, "id": 11244, "name": "Business Dining"}, {"primary": false, "id": 11269, "name": "Group Dining"}, {"primary": false, "id": 11284, "name": "Local Favorite"}, {"primary": false, "id": 11286, "name": "Lunch Spot"}, {"primary": false, "id": 11293, "name": "Notable Chef"}, {"primary": false, "id": 11294, "name": "Notable Wine List"}, {"primary": false, "id": 11295, "name": "Online Reservations"}, {"primary": false, "id": 11296, "name": "Outdoor Dining"}, {"primary": false, "id": 11303, "name": "Private Parties"}, {"primary": false, "id": 11304, "name": "Private Rooms"}, {"primary": false, "id": 11307, "name": "Romantic Dining"}, {"primary": false, "id": 11312, "name": "Southern"}, {"primary": false, "id": 11315, "name": "Special Occasion Dining"}, {"primary": false, "id": 11324, "name": "Upscale Casual Dining"}, {"primary": false, "id": 11333, "name": "American Express"}, {"primary": false, "id": 11339, "name": "Cash"}, {"primary": false, "id": 11349, "name": "Discover"}, {"primary": false, "id": 11361, "name": "MasterCard"}, {"primary": false, "id": 11382, "name": "Visa"}, {"primary": false, "id": 12821, "name": "Casual Date Spot"}, {"primary": true, "id": 11190, "name": "Traditional American"}], "fax_number": null, "expansion": {"count": null, "uri": null}, "impression_id": "000b000000d300d66969274f72b732bfc03ed91603", "profile": "http://www.citysearch.com/profile/3037887/atlanta_ga/food_101.html", "address": {"city": "Atlanta", "state": "GA", "street": "4969 Roswell Rd NE", "postal_code": "30342"}, "capProviderId": null, "distance": null, "has_offers": false, "name": "Food 101", "longitude": -84.38109, "has_menu": true, "awards": null, "user_review_count": 39}, {"business_operation_status": 1, "rating": 10.0, "neighborhood": null, "image": "http://images.citysearch.net/assets/imgdb/merchant/2012/9/6/0/EEiTwyNc89.jpeg", "scorecard": null, "featured": false, "sample_categories": "Bistros, Bakeries, Catering, Restaurants, Dessert Shops", "public_id": "joli-kobe-bakery-cafe-atlanta", "id": 3037793, "votes": null, "tagline": "\"Come see and Taste the Difference\"", "has_video": false, "website": "http://www.citysearch.com/profile/external/3037793/atlanta_ga/joli_kobe_bakery_bistro.html", "offers": null, "latitude": 33.907557, "politanName": "Atlanta, GA Metro ", "phone_number": "4048433257", "tags": [{"primary": false, "id": 13690, "name": "Bistros"}, {"primary": false, "id": 1705, "name": "Catering"}, {"primary": false, "id": 1722, "name": "Restaurants"}, {"primary": false, "id": 1728, "name": "Dessert Shops"}, {"primary": false, "id": 11219, "name": "French"}, {"primary": false, "id": 11057, "name": "Wedding Cakes"}, {"primary": false, "id": 11202, "name": "Japanese"}, {"primary": false, "id": 11231, "name": "$"}, {"primary": false, "id": 11284, "name": "Local Favorite"}, {"primary": false, "id": 11333, "name": "American Express"}, {"primary": false, "id": 11361, "name": "MasterCard"}, {"primary": false, "id": 11367, "name": "Open 7 Days"}, {"primary": false, "id": 11382, "name": "Visa"}, {"primary": true, "id": 1685, "name": "Bakeries"}], "fax_number": null, "expansion": {"count": null, "uri": null}, "impression_id": "000b000000b93cf6ac032d4d3b95b470a1105b164a", "profile": "http://www.citysearch.com/profile/3037793/atlanta_ga/joli_kobe_bakery_bistro.html", "address": {"city": "Atlanta", "state": "GA", "street": "5600 Roswell Rd Ne", "postal_code": "30342"}, "capProviderId": null, "distance": null, "has_offers": false, "name": "Joli Kobe Bakery & Bistro", "longitude": -84.378776, "has_menu": true, "awards": null, "user_review_count": 23}, {"business_operation_status": 1, "rating": 6.0, "neighborhood": null, "image": "http://images.citysearch.net/assets/imgdb2/reinvent/profile/2012/7/26/5/FTGexikl.jpg", "scorecard": null, "featured": false, "sample_categories": "Restaurants, Bars & Pubs, Brew Pubs, Brew Pubs, Notable Beer List", "public_id": "5-seasons-brewing-atlanta", "id": 11467355, "votes": null, "tagline": null, "has_video": false, "website": null, "offers": null, "latitude": 33.907557, "politanName": "Atlanta, GA Metro ", "phone_number": "4042555911", "tags": [{"primary": false, "id": 1686, "name": "Bars & Pubs"}, {"primary": false, "id": 1693, "name": "Brew Pubs"}, {"primary": false, "id": 1725, "name": "Brew Pubs"}, {"primary": false, "id": 11102, "name": "Notable Beer List"}, {"primary": false, "id": 11190, "name": "Traditional American"}, {"primary": false, "id": 11232, "name": "$$"}, {"primary": false, "id": 11238, "name": "Bar Scene"}, {"primary": false, "id": 11240, "name": "Brunch"}, {"primary": false, "id": 11333, "name": "American Express"}, {"primary": false, "id": 11347, "name": "Debit Card"}, {"primary": false, "id": 11348, "name": "Diners Club"}, {"primary": false, "id": 11349, "name": "Discover"}, {"primary": false, "id": 11361, "name": "MasterCard"}, {"primary": false, "id": 11382, "name": "Visa"}, {"primary": true, "id": 1722, "name": "Restaurants"}], "fax_number": null, "expansion": {"count": null, "uri": null}, "impression_id": "000b0000004917835fa3cf42d28d4902332bd07d79", "profile": "http://www.citysearch.com/profile/11467355/atlanta_ga/5_seasons_brewing.html", "address": {"city": "Atlanta", "state": "GA", "street": "5600 Roswell Rd NE", "postal_code": "30342"}, "capProviderId": null, "distance": null, "has_offers": false, "name": "5 Seasons Brewing", "longitude": -84.378776, "has_menu": true, "awards": null, "user_review_count": 31}, {"business_operation_status": 1, "rating": 9.0, "neighborhood": null, "image": "http://images.citysearch.net/assets/imgdb/merchant/2010/9/28/0/FfMeBvtO23.jpeg", "scorecard": null, "featured": false, "sample_categories": "Restaurants, Sushi, Japanese, Seafood, Asian", "public_id": "genki-noodles-sushi-atlanta", "id": 638790120, "votes": null, "tagline": "\"A Happy and Warm Feeling\"", "has_video": false, "website": "http://www.citysearch.com/profile/external/638790120/atlanta_ga/genki_noodles_sushi.html", "offers": "$5 off Coupon", "latitude": 33.90741, "politanName": "Atlanta, GA Metro ", "phone_number": "4048438319", "tags": [{"primary": false, "id": 11201, "name": "Sushi"}, {"primary": false, "id": 11202, "name": "Japanese"}, {"primary": false, "id": 11228, "name": "Seafood"}, {"primary": false, "id": 11235, "name": "Asian"}, {"primary": false, "id": 11282, "name": "Late Night Dining"}, {"primary": true, "id": 1722, "name": "Restaurants"}], "fax_number": null, "expansion": {"count": null, "uri": null}, "impression_id": "000b000000a3fd84f94af94f44a3c358a533d61438", "profile": "http://www.citysearch.com/profile/638790120/atlanta_ga/genki_noodles_sushi.html", "address": {"city": "Atlanta", "state": "GA", "street": "5590 Roswell Rd 100", "postal_code": "30342"}, "capProviderId": null, "distance": null, "has_offers": true, "name": "Genki Noodles & Sushi", "longitude": -84.380347, "has_menu": true, "awards": null, "user_review_count": 12}, {"business_operation_status": 1, "rating": 9.0, "neighborhood": null, "image": null, "scorecard": null, "featured": false, "sample_categories": "Restaurants, Thai, Sushi, $, Cheap Eats", "public_id": "bangkok-thyme-atlanta", "id": 41920005, "votes": null, "tagline": "Thai dishes like satay chicken, pad thai plus sushi hits the spot at this campy, wood-heavy restaurant .", "has_video": false, "website": "http://www.citysearch.com/profile/external/41920005/atlanta_ga/bangkok_thyme.html", "offers": null, "latitude": 33.890154, "politanName": "Atlanta, GA Metro ", "phone_number": "4043890909", "tags": [{"primary": false, "id": 1722, "name": "Restaurants"}, {"primary": false, "id": 11201, "name": "Sushi"}, {"primary": false, "id": 11231, "name": "$"}, {"primary": false, "id": 11249, "name": "Cheap Eats"}, {"primary": false, "id": 11256, "name": "Date Spot"}, {"primary": false, "id": 11272, "name": "Hidden Find"}, {"primary": false, "id": 11286, "name": "Lunch Spot"}, {"primary": false, "id": 11333, "name": "American Express"}, {"primary": false, "id": 11349, "name": "Discover"}, {"primary": false, "id": 11361, "name": "MasterCard"}, {"primary": false, "id": 11382, "name": "Visa"}, {"primary": true, "id": 11319, "name": "Thai"}], "fax_number": null, "expansion": {"count": null, "uri": null}, "impression_id": "000b0000005cd6485eaa2243fca91dababe409da56", "profile": "http://www.citysearch.com/profile/41920005/atlanta_ga/bangkok_thyme.html", "address": {"city": "Atlanta", "state": "GA", "street": "4969 Roswell Rd # 235 # 235", "postal_code": "30342"}, "capProviderId": null, "distance": null, "has_offers": false, "name": "Bangkok Thyme", "longitude": -84.380768, "has_menu": true, "awards": null, "user_review_count": 39}, {"business_operation_status": 1, "rating": null, "neighborhood": null, "image": "http://o2.aolcdn.com/dims-shared/dims3/PATCH/resize/600x450/http://hss-prod.hss.aol.com/hss/storage/patch/7451ecf975827d6344c448e9d7ac1bdd", "scorecard": null, "featured": false, "sample_categories": "Barbecue Restaurants, Corporate Catering, Food & Dining, Catering, Restaurants", "public_id": "pignchik-sandy-spgs", "id": 604161782, "votes": null, "tagline": "Best BBQ in Atlanta - Pulled Pork, BBQ Catering, Homemade Sides, Southern Dining.", "has_video": false, "website": "http://www.citysearch.com/profile/external/604161782/sandy_springs_ga/pig_n_chik.html", "offers": null, "latitude": 33.888836, "politanName": "Atlanta, GA Metro ", "phone_number": "4042556368", "tags": [{"primary": false, "id": 13670, "name": "Corporate Catering"}, {"primary": false, "id": 1684, "name": "Food & Dining"}, {"primary": false, "id": 1705, "name": "Catering"}, {"primary": false, "id": 1722, "name": "Restaurants"}, {"primary": false, "id": 6191, "name": "Grill Restaurants"}, {"primary": false, "id": 11123, "name": "Wedding Banquets"}, {"primary": false, "id": 11190, "name": "Traditional American"}, {"primary": false, "id": 11231, "name": "$"}, {"primary": false, "id": 11247, "name": "Carry Out"}, {"primary": false, "id": 11262, "name": "Family Style Dining"}, {"primary": false, "id": 11263, "name": "Family-Friendly Dining"}, {"primary": false, "id": 11286, "name": "Lunch Spot"}, {"primary": false, "id": 11303, "name": "Private Parties"}, {"primary": false, "id": 11333, "name": "American Express"}, {"primary": false, "id": 11339, "name": "Cash"}, {"primary": false, "id": 11347, "name": "Debit Card"}, {"primary": false, "id": 11361, "name": "MasterCard"}, {"primary": false, "id": 11369, "name": "Parking Lot"}, {"primary": false, "id": 11382, "name": "Visa"}, {"primary": true, "id": 1724, "name": "Barbecue Restaurants"}], "fax_number": null, "expansion": {"count": null, "uri": null}, "impression_id": "000b000000e3b1ef96a74c43faa0fa86933cfdd891", "profile": "http://www.citysearch.com/profile/604161782/sandy_springs_ga/pig_n_chik.html", "address": {"city": "Sandy Springs", "state": "GA", "street": "4920 Roswell Rd", "postal_code": "30342"}, "capProviderId": null, "distance": null, "has_offers": false, "name": "Pig-N-Chik", "longitude": -84.382296, "has_menu": true, "awards": null, "user_review_count": 20}, {"business_operation_status": 1, "rating": 9.0, "neighborhood": null, "image": "http://images.citysearch.net/assets/imgdb/merchant/2010/10/27/0/QGqjkrwD60.jpeg", "scorecard": null, "featured": false, "sample_categories": "Restaurants, Catering, Family Style Dining, Italian, American Express", "public_id": "ippolitos-italian-restaurant-sandy-spgs", "id": 3020329, "votes": null, "tagline": "Family Style Italian Dining", "has_video": false, "website": "http://www.citysearch.com/profile/external/3020329/sandy_springs_ga/ippolito_s_italian_restaurant.html", "offers": null, "latitude": 33.936163, "politanName": "Atlanta, GA Metro ", "phone_number": "4042563546", "tags": [{"primary": false, "id": 1705, "name": "Catering"}, {"primary": false, "id": 11262, "name": "Family Style Dining"}, {"primary": false, "id": 11279, "name": "Italian"}, {"primary": false, "id": 11333, "name": "American Express"}, {"primary": false, "id": 11349, "name": "Discover"}, {"primary": false, "id": 11361, "name": "MasterCard"}, {"primary": false, "id": 11382, "name": "Visa"}, {"primary": true, "id": 1722, "name": "Restaurants"}], "fax_number": null, "expansion": {"count": null, "uri": null}, "impression_id": "000b000000f0b238d3b55a4678a0efd87217656048", "profile": "http://www.citysearch.com/profile/3020329/sandy_springs_ga/ippolito_s_italian_restaurant.html", "address": {"city": "Sandy Springs", "state": "GA", "street": "6623 Roswell Rd Ne", "postal_code": "30328"}, "capProviderId": null, "distance": null, "has_offers": false, "name": "Ippolito's Italian Restaurant", "longitude": -84.378916, "has_menu": true, "awards": null, "user_review_count": 16}, {"business_operation_status": 1, "rating": 10.0, "neighborhood": "Northside, Northside", "image": "http://images.citysearch.net/assets/imgdb/02/8e/40/5c/ec/bd/49/c6/a4/1c/33/6a/e9/4d/24/88.jpg", "scorecard": null, "featured": false, "sample_categories": "Cafes, Restaurants, Mexican, Cheap Eats, Food Delivery", "public_id": "hankook-taqueria-atlanta", "id": 603288942, "votes": null, "tagline": "Hankook Taqueria- A Korean Taco Joint in Atlanta", "has_video": false, "website": "http://www.citysearch.com/profile/external/603288942/atlanta_ga/hankook_taqueria.html", "offers": null, "latitude": 33.811491, "politanName": "Atlanta, GA Metro ", "phone_number": "4043528881", "tags": [{"primary": false, "id": 1722, "name": "Restaurants"}, {"primary": false, "id": 11208, "name": "Mexican"}, {"primary": false, "id": 11249, "name": "Cheap Eats"}, {"primary": false, "id": 11267, "name": "Food Delivery"}, {"primary": false, "id": 11280, "name": "Korean"}, {"primary": false, "id": 11286, "name": "Lunch Spot"}, {"primary": false, "id": 11299, "name": "Pizza"}, {"primary": true, "id": 6190, "name": "Cafes"}], "fax_number": null, "expansion": {"count": null, "uri": null}, "impression_id": "000b000000f7249f161b3f4f3bb2f8a21d9b2daacc", "profile": "http://www.citysearch.com/profile/603288942/atlanta_ga/hankook_taqueria.html", "address": {"city": "Atlanta", "state": "GA", "street": "1341 Collier Rd NW", "postal_code": "30318"}, "capProviderId": null, "distance": null, "has_offers": false, "name": "Hankook Taqueria", "longitude": -84.431673, "has_menu": true, "awards": null, "user_review_count": 3}, {"business_operation_status": 1, "rating": 10.0, "neighborhood": null, "image": "http://images.citysearch.net/assets/imgdb/merchant/2010/12/22/0/LDilTlHf43.jpeg", "scorecard": null, "featured": false, "sample_categories": "Restaurants, Food & Dining, Catering, Carry Out, Family-Friendly Dining", "public_id": "lucky-13-pizzeria-smyrna", "id": 604269872, "votes": null, "tagline": "New York Style Pizza By The Slice", "has_video": false, "website": null, "offers": null, "latitude": 33.88355, "politanName": "Atlanta, GA Metro ", "phone_number": "7704058813", "tags": [{"primary": false, "id": 1684, "name": "Food & Dining"}, {"primary": false, "id": 1705, "name": "Catering"}, {"primary": false, "id": 11247, "name": "Carry Out"}, {"primary": false, "id": 11263, "name": "Family-Friendly Dining"}, {"primary": false, "id": 11267, "name": "Food Delivery"}, {"primary": false, "id": 11272, "name": "Hidden Find"}, {"primary": false, "id": 11279, "name": "Italian"}, {"primary": false, "id": 11286, "name": "Lunch Spot"}, {"primary": false, "id": 11299, "name": "Pizza"}, {"primary": false, "id": 11339, "name": "Cash"}, {"primary": false, "id": 11349, "name": "Discover"}, {"primary": false, "id": 11361, "name": "MasterCard"}, {"primary": false, "id": 11382, "name": "Visa"}, {"primary": false, "id": 12821, "name": "Casual Date Spot"}, {"primary": true, "id": 1722, "name": "Restaurants"}], "fax_number": null, "expansion": {"count": null, "uri": null}, "impression_id": "000b000000a6f5703c4c764aad9e66b838e3bbeee9", "profile": "http://www.citysearch.com/profile/604269872/smyrna_ga/lucky_13_pizzeria.html", "address": {"city": "Smyrna", "state": "GA", "street": "2517 Spring Rd SE 100", "postal_code": "30080"}, "capProviderId": null, "distance": null, "has_offers": false, "name": "Lucky 13 Pizzeria", "longitude": -84.480515, "has_menu": true, "awards": null, "user_review_count": 12}, {"business_operation_status": 1, "rating": 9.0, "neighborhood": null, "image": "http://images.citysearch.net/assets/imgdb/ef/a3/36/3f/72/e0/46/d2/a5/32/ec/67/52/38/3e/3f.png", "scorecard": null, "featured": false, "sample_categories": "Restaurants, Greek, Pizza, MasterCard, Visa", "public_id": "christos-pizza-marietta", "id": 2910558, "votes": null, "tagline": "Serving Atlanta's best pizza & greek cuisine since 1981", "has_video": false, "website": "http://www.citysearch.com/profile/external/2910558/marietta_ga/christos_pizza.html", "offers": null, "latitude": 33.92306, "politanName": "Atlanta, GA Metro ", "phone_number": "7709521965", "tags": [{"primary": false, "id": 1722, "name": "Restaurants"}, {"primary": false, "id": 11299, "name": "Pizza"}, {"primary": false, "id": 11361, "name": "MasterCard"}, {"primary": false, "id": 11382, "name": "Visa"}, {"primary": true, "id": 11268, "name": "Greek"}], "fax_number": null, "expansion": {"count": null, "uri": null}, "impression_id": "000b0000008cfb7c92d7c84f5baac63ee8346feb55", "profile": "http://www.citysearch.com/profile/2910558/marietta_ga/christos_pizza.html", "address": {"city": "Marietta", "state": "GA", "street": "2900 Delk Rd SE Ste 1700", "postal_code": "30067"}, "capProviderId": null, "distance": null, "has_offers": false, "name": "Christos' Pizza", "longitude": -84.467405, "has_menu": true, "awards": null, "user_review_count": 21}, {"business_operation_status": 1, "rating": 9.0, "neighborhood": null, "image": "http://images.citysearch.net/assets/imgdb/d5/ce/af/fb/8f/19/4a/25/a6/90/84/bd/ae/62/a3/06.jpg", "scorecard": null, "featured": false, "sample_categories": "Restaurants, Bars & Pubs, Neighborhood Bars, Singles Bars, After Work", "public_id": "meehans-public-house-sandy-springs-sandy-spgs", "id": 43871764, "votes": null, "tagline": "Irish Customs. Neighborhood Charm.", "has_video": false, "website": "http://www.citysearch.com/profile/external/43871764/sandy_springs_ga/meehan_s_public_house_sandy_springs.html", "offers": "Sundays 1/2 Price Wine!", "latitude": 33.921134, "politanName": "Atlanta, GA Metro ", "phone_number": "4048438058", "tags": [{"primary": false, "id": 1686, "name": "Bars & Pubs"}, {"primary": false, "id": 1698, "name": "Neighborhood Bars"}, {"primary": false, "id": 1700, "name": "Singles Bars"}, {"primary": false, "id": 10015, "name": "After Work"}, {"primary": false, "id": 10035, "name": "Live Music"}, {"primary": false, "id": 10037, "name": "Outdoor Seating"}, {"primary": false, "id": 11065, "name": "Bar Food"}, {"primary": false, "id": 11090, "name": "Happy Hour"}, {"primary": false, "id": 11221, "name": "Irish"}, {"primary": false, "id": 11240, "name": "Brunch"}, {"primary": false, "id": 11333, "name": "American Express"}, {"primary": false, "id": 11349, "name": "Discover"}, {"primary": false, "id": 11361, "name": "MasterCard"}, {"primary": false, "id": 11382, "name": "Visa"}, {"primary": false, "id": 12821, "name": "Casual Date Spot"}, {"primary": false, "id": 12829, "name": "Date Spot"}, {"primary": true, "id": 1722, "name": "Restaurants"}], "fax_number": null, "expansion": {"count": null, "uri": null}, "impression_id": "000b0000006c9e2e3cd5f743e5bb42156114b4e5ab", "profile": "http://www.citysearch.com/profile/43871764/sandy_springs_ga/meehan_s_public_house_sandy_springs.html", "address": {"city": "Sandy Springs", "state": "GA", "street": "227 Sandy Springs Pl NE Ste 416", "postal_code": "30328"}, "capProviderId": null, "distance": null, "has_offers": true, "name": "Meehan's Public House - Sandy Springs", "longitude": -84.382587, "has_menu": true, "awards": null, "user_review_count": 15}, {"business_operation_status": 1, "rating": 10.0, "neighborhood": null, "image": "http://images.citysearch.net/assets/imgdb/merchant/2010/11/9/0/CrLmmmpZ212.jpeg", "scorecard": null, "featured": false, "sample_categories": "Restaurants, Corporate Catering, Catering, Delis And Delicatessens, Sandwich Shops", "public_id": "baldinos-giant-jersey-subs-marietta-2", "id": 2909705, "votes": null, "tagline": "Atlanta's Best Kept Sandwich and Sub Secret - Also Serving Marietta Area!", "has_video": false, "website": "http://www.citysearch.com/profile/external/2909705/marietta_ga/baldinos_giant_jersey_subs.html", "offers": "Home of the Daily Special - $3.49!", "latitude": 33.949818, "politanName": "Atlanta, GA Metro ", "phone_number": "7703211177", "tags": [{"primary": false, "id": 13670, "name": "Corporate Catering"}, {"primary": false, "id": 1705, "name": "Catering"}, {"primary": false, "id": 1727, "name": "Delis And Delicatessens"}, {"primary": false, "id": 1736, "name": "Sandwich Shops"}, {"primary": false, "id": 11189, "name": "New American"}, {"primary": false, "id": 11199, "name": "Fast Food"}, {"primary": false, "id": 11231, "name": "$"}, {"primary": false, "id": 11247, "name": "Carry Out"}, {"primary": false, "id": 11249, "name": "Cheap Eats"}, {"primary": false, "id": 11262, "name": "Family Style Dining"}, {"primary": false, "id": 11263, "name": "Family-Friendly Dining"}, {"primary": false, "id": 11279, "name": "Italian"}, {"primary": false, "id": 11286, "name": "Lunch Spot"}, {"primary": false, "id": 11333, "name": "American Express"}, {"primary": false, "id": 11339, "name": "Cash"}, {"primary": false, "id": 11349, "name": "Discover"}, {"primary": false, "id": 11361, "name": "MasterCard"}, {"primary": false, "id": 11369, "name": "Parking Lot"}, {"primary": false, "id": 11382, "name": "Visa"}, {"primary": true, "id": 1722, "name": "Restaurants"}], "fax_number": null, "expansion": {"count": null, "uri": null}, "impression_id": "000b000000275582a98d264f3bbdf52cac10349196", "profile": "http://www.citysearch.com/profile/2909705/marietta_ga/baldinos_giant_jersey_subs.html", "address": {"city": "Marietta", "state": "GA", "street": "80 Powers Ferry Rd Se", "postal_code": "30067"}, "capProviderId": null, "distance": null, "has_offers": true, "name": "Baldinos Giant Jersey Subs", "longitude": -84.511122, "has_menu": true, "awards": null, "user_review_count": 4}, {"business_operation_status": 1, "rating": 10.0, "neighborhood": null, "image": "http://images.citysearch.net/assets/imgdb/merchant/2013/5/29/0/lfXQHkcp191.jpeg", "scorecard": null, "featured": false, "sample_categories": "Restaurants, Catering, Food Delivery, American Express, Check", "public_id": "post-exchange-catering-atlanta-2", "id": 45656016, "votes": null, "tagline": "Catering service focuses on corporate and commercial events with online ordering available.", "has_video": false, "website": "http://www.citysearch.com/profile/external/45656016/sandy_springs_ga/post_exchange_catering.html", "offers": null, "latitude": 33.916648, "politanName": "Atlanta, GA Metro ", "phone_number": "7703940200", "tags": [{"primary": false, "id": 1705, "name": "Catering"}, {"primary": false, "id": 11267, "name": "Food Delivery"}, {"primary": false, "id": 11333, "name": "American Express"}, {"primary": false, "id": 11341, "name": "Check"}, {"primary": false, "id": 11347, "name": "Debit Card"}, {"primary": false, "id": 11349, "name": "Discover"}, {"primary": false, "id": 11361, "name": "MasterCard"}, {"primary": false, "id": 11365, "name": "Money Order"}, {"primary": false, "id": 11375, "name": "Shop Online"}, {"primary": false, "id": 11382, "name": "Visa"}, {"primary": true, "id": 1722, "name": "Restaurants"}], "fax_number": null, "expansion": {"count": null, "uri": null}, "impression_id": "000b000000b6151e9c4efe4505bbe3096dbced3b58", "profile": "http://www.citysearch.com/profile/45656016/sandy_springs_ga/post_exchange_catering.html", "address": {"city": "Sandy Springs", "state": "GA", "street": "5920 Roswell Road", "postal_code": "30328"}, "capProviderId": null, "distance": null, "has_offers": false, "name": "Post Exchange Catering", "longitude": -84.381461, "has_menu": true, "awards": null, "user_review_count": 2}, {"business_operation_status": 1, "rating": 9.0, "neighborhood": "Northside, Northside", "image": "http://images.citysearch.net/assets/imgdb/merchant/2011/5/9/0/mUAOjFdO156.jpeg", "scorecard": null, "featured": false, "sample_categories": "Restaurants, Catering, $, Asian, Chinese", "public_id": "malaya-atlanta", "id": 3011739, "votes": null, "tagline": "Authentic Thai, Malaysian and Chinese cuisine since 1995", "has_video": false, "website": "http://www.citysearch.com/profile/external/3011739/atlanta_ga/malaya.html", "offers": null, "latitude": 33.809802, "politanName": "Atlanta, GA Metro ", "phone_number": "4046099991", "tags": [{"primary": false, "id": 1705, "name": "Catering"}, {"primary": false, "id": 11231, "name": "$"}, {"primary": false, "id": 11235, "name": "Asian"}, {"primary": false, "id": 11252, "name": "Chinese"}, {"primary": false, "id": 11267, "name": "Food Delivery"}, {"primary": false, "id": 11286, "name": "Lunch Spot"}, {"primary": false, "id": 11287, "name": "Malaysian"}, {"primary": false, "id": 11333, "name": "American Express"}, {"primary": false, "id": 11349, "name": "Discover"}, {"primary": false, "id": 11361, "name": "MasterCard"}, {"primary": false, "id": 11382, "name": "Visa"}, {"primary": true, "id": 1722, "name": "Restaurants"}], "fax_number": null, "expansion": {"count": null, "uri": null}, "impression_id": "000b000000ae2eb8ec29a64a0da40f3d3daa546ff1", "profile": "http://www.citysearch.com/profile/3011739/atlanta_ga/malaya.html", "address": {"city": "Atlanta", "state": "GA", "street": "857 Collier Rd NW Ste 10", "postal_code": "30318"}, "capProviderId": null, "distance": null, "has_offers": false, "name": "Malaya", "longitude": -84.416381, "has_menu": true, "awards": null, "user_review_count": 15}, {"business_operation_status": 1, "rating": null, "neighborhood": null, "image": "http://images.citysearch.net/assets/imgdb/merchant/2010/1/15/0/fDRGhSPG31.jpeg", "scorecard": null, "featured": false, "sample_categories": "Cafes, Bakeries, Catering, Coffee & Tea Shops, Grocery Stores", "public_id": "la-madeleine-marietta", "id": 2903663, "votes": null, "tagline": "A charming cozy atmosphere with a taste of the French countryside. ", "has_video": false, "website": "http://www.citysearch.com/profile/external/2903663/marietta_ga/la_madeleine.html", "offers": "Join our E-club.", "latitude": 33.97947, "politanName": "Atlanta, GA Metro ", "phone_number": "7705793040", "tags": [{"primary": false, "id": 1685, "name": "Bakeries"}, {"primary": false, "id": 1705, "name": "Catering"}, {"primary": false, "id": 1711, "name": "Coffee & Tea Shops"}, {"primary": false, "id": 1713, "name": "Grocery Stores"}, {"primary": false, "id": 1722, "name": "Restaurants"}, {"primary": false, "id": 11054, "name": "Pastries"}, {"primary": false, "id": 11219, "name": "French"}, {"primary": false, "id": 11239, "name": "Breakfast"}, {"primary": false, "id": 11247, "name": "Carry Out"}, {"primary": false, "id": 11266, "name": "Fireplace"}, {"primary": false, "id": 11286, "name": "Lunch Spot"}, {"primary": false, "id": 11311, "name": "Soups"}, {"primary": false, "id": 11333, "name": "American Express"}, {"primary": false, "id": 11349, "name": "Discover"}, {"primary": false, "id": 11361, "name": "MasterCard"}, {"primary": false, "id": 11367, "name": "Open 7 Days"}, {"primary": false, "id": 11382, "name": "Visa"}, {"primary": true, "id": 6190, "name": "Cafes"}], "fax_number": null, "expansion": {"count": null, "uri": null}, "impression_id": "000b0000001d7d053653aa4c48a7cb9ba88e4df3fc", "profile": "http://www.citysearch.com/profile/2903663/marietta_ga/la_madeleine.html", "address": {"city": "Marietta", "state": "GA", "street": "3099 Roswell Rd", "postal_code": "30062"}, "capProviderId": null, "distance": null, "has_offers": true, "name": "la Madeleine", "longitude": -84.46145, "has_menu": true, "awards": null, "user_review_count": 4}, {"business_operation_status": 1, "rating": 9.0, "neighborhood": null, "image": "http://images.citysearch.net/assets/imgdb/merchant/2010/8/12/0/GWaJmATQ2.jpeg", "scorecard": null, "featured": false, "sample_categories": "Restaurants, French, Date Spot, American Express, Cash", "public_id": "la-petite-maison-llc-sandy-spgs", "id": 46359210, "votes": null, "tagline": "Come enjoy France to its fullest.", "has_video": false, "website": "http://www.citysearch.com/profile/external/46359210/sandy_springs_ga/la_petite_maison_llc.html", "offers": null, "latitude": 33.932362, "politanName": "Atlanta, GA Metro ", "phone_number": "4043036600", "tags": [{"primary": false, "id": 11219, "name": "French"}, {"primary": false, "id": 11256, "name": "Date Spot"}, {"primary": false, "id": 11333, "name": "American Express"}, {"primary": false, "id": 11339, "name": "Cash"}, {"primary": false, "id": 11361, "name": "MasterCard"}, {"primary": false, "id": 11382, "name": "Visa"}, {"primary": true, "id": 1722, "name": "Restaurants"}], "fax_number": null, "expansion": {"count": null, "uri": null}, "impression_id": "000b000000021d4db5dd54467aa6441e04ad22e95d", "profile": "http://www.citysearch.com/profile/46359210/sandy_springs_ga/la_petite_maison_llc.html", "address": {"city": "Sandy Springs", "state": "GA", "street": "6510 Roswell Rd NE", "postal_code": "30328"}, "capProviderId": null, "distance": null, "has_offers": false, "name": "La Petite Maison, LLC", "longitude": -84.380209, "has_menu": true, "awards": null, "user_review_count": 4}, {"business_operation_status": 1, "rating": 10.0, "neighborhood": null, "image": "http://images.citysearch.net/assets/imgdb2/reinvent/profile/2012/7/26/0/bxDByhbm.jpg", "scorecard": null, "featured": false, "sample_categories": "Bakeries, Catering, Restaurants, Delis And Delicatessens, Dessert Shops", "public_id": "la-suprema-bakery-marietta-2", "id": 631965670, "votes": null, "tagline": "Atlanta Wedding Cakes, Marietta Wedding Cakes, Sandy Springs Wedding Cakes, Marietta Bakery, Marietta Sandwich Shops", "has_video": false, "website": "http://www.citysearch.com/profile/external/631965670/marietta_ga/la_suprema_bakery.html", "offers": null, "latitude": 33.951308, "politanName": "Atlanta, GA Metro ", "phone_number": "7707940110", "tags": [{"primary": false, "id": 1705, "name": "Catering"}, {"primary": false, "id": 1722, "name": "Restaurants"}, {"primary": false, "id": 1727, "name": "Delis And Delicatessens"}, {"primary": false, "id": 1728, "name": "Dessert Shops"}, {"primary": false, "id": 1736, "name": "Sandwich Shops"}, {"primary": false, "id": 23220, "name": "Continental"}, {"primary": false, "id": 23260, "name": "Toyo"}, {"primary": false, "id": 23280, "name": "Yokohama"}, {"primary": false, "id": 11048, "name": "Cake"}, {"primary": false, "id": 11057, "name": "Wedding Cakes"}, {"primary": false, "id": 11230, "name": "Vegetarian"}, {"primary": false, "id": 11247, "name": "Carry Out"}, {"primary": false, "id": 11249, "name": "Cheap Eats"}, {"primary": false, "id": 11286, "name": "Lunch Spot"}, {"primary": false, "id": 11290, "name": "Non-Smoking"}, {"primary": false, "id": 11299, "name": "Pizza"}, {"primary": false, "id": 11333, "name": "American Express"}, {"primary": false, "id": 11339, "name": "Cash"}, {"primary": false, "id": 11349, "name": "Discover"}, {"primary": false, "id": 11361, "name": "MasterCard"}, {"primary": false, "id": 11382, "name": "Visa"}, {"primary": false, "id": 12821, "name": "Casual Date Spot"}, {"primary": true, "id": 1685, "name": "Bakeries"}], "fax_number": null, "expansion": {"count": null, "uri": null}, "impression_id": "000b00000066b1743425a84e72893ceab84cd7265c", "profile": "http://www.citysearch.com/profile/631965670/marietta_ga/la_suprema_bakery.html", "address": {"city": "Marietta", "state": "GA", "street": "12 Cobb Pkwy S", "postal_code": "30060"}, "capProviderId": null, "distance": null, "has_offers": false, "name": "La Suprema Bakery", "longitude": -84.520744, "has_menu": false, "awards": null, "user_review_count": 2}, {"business_operation_status": 1, "rating": 9.0, "neighborhood": null, "image": "http://o2.aolcdn.com/dims-shared/dims3/PATCH/resize/600x450/http://hss-prod.hss.aol.com/hss/storage/patch/63797a0a1bc803ed335b116aa3944ecc", "scorecard": null, "featured": false, "sample_categories": "Restaurants, Catering, Dessert Shops, Traditional American, $$", "public_id": "ritters-marietta", "id": 41642010, "votes": null, "tagline": "Experience fine southern comfort food - Locally owned/opereated ", "has_video": false, "website": "http://www.citysearch.com/profile/external/41642010/marietta_ga/ritter_s.html", "offers": null, "latitude": 33.965965, "politanName": "Atlanta, GA Metro ", "phone_number": "7709731230", "tags": [{"primary": false, "id": 1705, "name": "Catering"}, {"primary": false, "id": 1728, "name": "Dessert Shops"}, {"primary": false, "id": 11190, "name": "Traditional American"}, {"primary": false, "id": 11232, "name": "$$"}, {"primary": false, "id": 11256, "name": "Date Spot"}, {"primary": false, "id": 11263, "name": "Family-Friendly Dining"}, {"primary": false, "id": 11304, "name": "Private Rooms"}, {"primary": false, "id": 11333, "name": "American Express"}, {"primary": false, "id": 11348, "name": "Diners Club"}, {"primary": false, "id": 11349, "name": "Discover"}, {"primary": false, "id": 11361, "name": "MasterCard"}, {"primary": false, "id": 11382, "name": "Visa"}, {"primary": true, "id": 1722, "name": "Restaurants"}], "fax_number": null, "expansion": {"count": null, "uri": null}, "impression_id": "000b000000c9c9b1a78f8c46d2b4e73faccb40e0e2", "profile": "http://www.citysearch.com/profile/41642010/marietta_ga/ritter_s.html", "address": {"city": "Marietta", "state": "GA", "street": "4719 Lower Roswell Rd. Ste. 210", "postal_code": "30068"}, "capProviderId": null, "distance": null, "has_offers": false, "name": "Ritter's", "longitude": -84.415167, "has_menu": true, "awards": null, "user_review_count": 13}], "histograms": [], "tag_ids": [1722], "uri": "http://api.citygridmedia.com:8080/search/places/v2/search/where?has_offers=false&type=restaurant&format=json&page=7&where=30339&rpp=50&histograms=false&publisher=10000009598&region_type=circle", "did_you_mean": "", "regions": [{"latitude": 33.877209, "default_radius": 2.6, "type": "postal_code", "name": "30339", "longitude": -84.463483}], "call_id": "000b000000eae9b465c9cf49d890e40864c72a37f9", "first_hit": 301, "total_hits": 1582, "geo_ids": [26497], "page": 7, "last_hit": 350}}