{"results": {"rpp": 50, "locations": [{"business_operation_status": 1, "rating": null, "neighborhood": null, "image": null, "scorecard": null, "featured": false, "sample_categories": "Water Well Drilling, Drilling & Boring Contractors, Food Delivery", "public_id": "j-wings-more-smyrna", "id": 2962298, "votes": null, "tagline": null, "has_video": false, "website": null, "offers": null, "latitude": 33.885247, "politanName": "Atlanta, GA Metro ", "phone_number": "7702269977", "tags": [{"primary": false, "id": 889, "name": "Water Well Drilling"}, {"primary": false, "id": 892, "name": "Drilling & Boring Contractors"}, {"primary": true, "id": 11267, "name": "Food Delivery"}], "fax_number": null, "expansion": {"count": null, "uri": null}, "impression_id": "000b000000eeef8f035b12455a94377e200d7f13b2", "profile": "http://www.citysearch.com/profile/2962298/smyrna_ga/j_wings_more.html", "address": {"city": "Smyrna", "state": "GA", "street": "2778 Cumberland Blvd SE Ste 574", "postal_code": "30080"}, "capProviderId": null, "distance": null, "has_offers": false, "name": "J Wings & More", "longitude": -84.47677, "has_menu": false, "awards": null, "user_review_count": 0}, {"business_operation_status": 1, "rating": null, "neighborhood": null, "image": null, "scorecard": null, "featured": false, "sample_categories": "Restaurants", "public_id": "mexican-taqueria-smyrna", "id": 623985844, "votes": null, "tagline": null, "has_video": false, "website": null, "offers": null, "latitude": 33.889788, "politanName": "Atlanta, GA Metro ", "phone_number": "7709891248", "tags": [{"primary": true, "id": 1722, "name": "Restaurants"}], "fax_number": null, "expansion": {"count": null, "uri": null}, "impression_id": "000b0000000f28f1dd2e8843598843beba74bbb529", "profile": "http://www.citysearch.com/profile/623985844/smyrna_ga/mexican_taqueria.html", "address": {"city": "Smyrna", "state": "GA", "street": "2599 S Cobb Dr SE", "postal_code": "30080"}, "capProviderId": null, "distance": null, "has_offers": false, "name": "Mexican Taqueria", "longitude": -84.536114, "has_menu": false, "awards": null, "user_review_count": 0}, {"business_operation_status": 1, "rating": null, "neighborhood": null, "image": null, "scorecard": null, "featured": false, "sample_categories": "Restaurants, Cajun & Creole", "public_id": "on-the-bayou-smyrna", "id": 764832940, "votes": null, "tagline": null, "has_video": false, "website": null, "offers": null, "latitude": 33.879071, "politanName": "Atlanta, GA Metro ", "phone_number": "7704343329", "tags": [{"primary": false, "id": 11245, "name": "Cajun & Creole"}, {"primary": true, "id": 1722, "name": "Restaurants"}], "fax_number": null, "expansion": {"count": null, "uri": null}, "impression_id": "000b000000b3a40bdff68e466f8cfe05de12f22187", "profile": "http://www.citysearch.com/profile/764832940/smyrna_ga/on_the_bayou.html", "address": {"city": "Smyrna", "state": "GA", "street": "3120 S Cobb Dr SE", "postal_code": "30080"}, "capProviderId": null, "distance": null, "has_offers": false, "name": "On the Bayou", "longitude": -84.532683, "has_menu": false, "awards": null, "user_review_count": 0}, {"business_operation_status": 1, "rating": null, "neighborhood": "Paces, Northside, Northside", "image": null, "scorecard": null, "featured": false, "sample_categories": "Restaurants, Carry Out", "public_id": "popeyes-chicken-biscuits-atlanta-19", "id": 764866420, "votes": null, "tagline": null, "has_video": false, "website": null, "offers": null, "latitude": 33.843337, "politanName": "Atlanta, GA Metro ", "phone_number": "7709874001", "tags": [{"primary": false, "id": 11247, "name": "Carry Out"}, {"primary": true, "id": 1722, "name": "Restaurants"}], "fax_number": null, "expansion": {"count": null, "uri": null}, "impression_id": "000b0000009023175f921e4e9c93f7fcfb610d73bb", "profile": "http://www.citysearch.com/profile/764866420/atlanta_ga/popeye_s_chicken_biscuits.html", "address": {"city": "Atlanta", "state": "GA", "street": "2385 W Wesley Rd NW", "postal_code": "30327"}, "capProviderId": null, "distance": null, "has_offers": false, "name": "Popeye's Chicken & Biscuits", "longitude": -84.456071, "has_menu": false, "awards": null, "user_review_count": 0}, {"business_operation_status": 1, "rating": null, "neighborhood": null, "image": null, "scorecard": null, "featured": false, "sample_categories": "Juice & Smoothie Shops, Restaurants, Carry Out", "public_id": "orange-julius-smyrna", "id": 764893330, "votes": null, "tagline": null, "has_video": false, "website": null, "offers": null, "latitude": 33.882258, "politanName": "Atlanta, GA Metro ", "phone_number": "7704323809", "tags": [{"primary": false, "id": 1722, "name": "Restaurants"}, {"primary": false, "id": 11247, "name": "Carry Out"}, {"primary": true, "id": 1735, "name": "Juice & Smoothie Shops"}], "fax_number": null, "expansion": {"count": null, "uri": null}, "impression_id": "000b00000044b73f61cc3a45c5be7c8edfda449e2f", "profile": "http://www.citysearch.com/profile/764893330/smyrna_ga/orange_julius.html", "address": {"city": "Smyrna", "state": "GA", "street": "1641 Spring Rd SE", "postal_code": "30080"}, "capProviderId": null, "distance": null, "has_offers": false, "name": "Orange Julius", "longitude": -84.505572, "has_menu": false, "awards": null, "user_review_count": 0}, {"business_operation_status": 1, "rating": null, "neighborhood": null, "image": null, "scorecard": null, "featured": false, "sample_categories": "Restaurants, Carry Out, Chicken", "public_id": "popeyes-marietta", "id": 775201320, "votes": null, "tagline": null, "has_video": false, "website": null, "offers": null, "latitude": 33.9485, "politanName": "Atlanta, GA Metro ", "phone_number": "7704208800", "tags": [{"primary": false, "id": 11247, "name": "Carry Out"}, {"primary": false, "id": 12839, "name": "Chicken"}, {"primary": true, "id": 1722, "name": "Restaurants"}], "fax_number": null, "expansion": {"count": null, "uri": null}, "impression_id": "000b0000002a48c3dbcf6d499c87951d255fa4e410", "profile": "http://www.citysearch.com/profile/775201320/marietta_ga/popeyes.html", "address": {"city": "Marietta", "state": "GA", "street": "155 Cobb Pkwy S", "postal_code": "30060"}, "capProviderId": null, "distance": null, "has_offers": false, "name": "Popeyes", "longitude": -84.518323, "has_menu": false, "awards": null, "user_review_count": 0}, {"business_operation_status": 1, "rating": null, "neighborhood": null, "image": null, "scorecard": null, "featured": false, "sample_categories": "Restaurants, Steakhouse", "public_id": "steaks-to-go-marietta", "id": 728138380, "votes": null, "tagline": null, "has_video": false, "website": null, "offers": null, "latitude": 33.917352, "politanName": "Atlanta, GA Metro ", "phone_number": "7706128888", "tags": [{"primary": false, "id": 11316, "name": "Steakhouse"}, {"primary": true, "id": 1722, "name": "Restaurants"}], "fax_number": null, "expansion": {"count": null, "uri": null}, "impression_id": "000b000000ab30c69c53854b248ed2771a331f3b57", "profile": "http://www.citysearch.com/profile/728138380/marietta_ga/steaks_to_go.html", "address": {"city": "Marietta", "state": "GA", "street": "1480 Terrell Mill Rd Se", "postal_code": "30067"}, "capProviderId": null, "distance": null, "has_offers": false, "name": "Steaks To Go", "longitude": -84.468836, "has_menu": false, "awards": null, "user_review_count": 0}, {"business_operation_status": 1, "rating": null, "neighborhood": null, "image": null, "scorecard": null, "featured": false, "sample_categories": "Restaurants, Pizza, Carry Out", "public_id": "little-caesars-pizza-marietta-6", "id": 653553400, "votes": null, "tagline": null, "has_video": false, "website": "http://www.citysearch.com/profile/external/653553400/marietta_ga/little_caesars_pizza.html", "offers": null, "latitude": 33.923677, "politanName": "Atlanta, GA Metro ", "phone_number": "7709849400", "tags": [{"primary": false, "id": 1722, "name": "Restaurants"}, {"primary": false, "id": 11247, "name": "Carry Out"}, {"primary": true, "id": 11299, "name": "Pizza"}], "fax_number": null, "expansion": {"count": null, "uri": null}, "impression_id": "000b000000a6fb5f645d14413c8b58507edd472364", "profile": "http://www.citysearch.com/profile/653553400/marietta_ga/little_caesars_pizza.html", "address": {"city": "Marietta", "state": "GA", "street": "2856 Delk Rd Se", "postal_code": "30067"}, "capProviderId": null, "distance": null, "has_offers": false, "name": "Little Caesars Pizza", "longitude": -84.471351, "has_menu": true, "awards": null, "user_review_count": 0}, {"business_operation_status": 1, "rating": null, "neighborhood": null, "image": null, "scorecard": null, "featured": false, "sample_categories": "Restaurants, Steakhouse", "public_id": "skips-steaks-marietta", "id": 743983550, "votes": null, "tagline": null, "has_video": false, "website": null, "offers": null, "latitude": 33.928458, "politanName": "Atlanta, GA Metro ", "phone_number": "7702269046", "tags": [{"primary": false, "id": 11316, "name": "Steakhouse"}, {"primary": true, "id": 1722, "name": "Restaurants"}], "fax_number": null, "expansion": {"count": null, "uri": null}, "impression_id": "000b0000006b7f7729a6c1471f9f8f6a3c9b15a3e1", "profile": "http://www.citysearch.com/profile/743983550/marietta_ga/skip_s_steaks.html", "address": {"city": "Marietta", "state": "GA", "street": "1033 Franklin Rd Se", "postal_code": "30067"}, "capProviderId": null, "distance": null, "has_offers": false, "name": "Skip's Steaks", "longitude": -84.492995, "has_menu": false, "awards": null, "user_review_count": 0}, {"business_operation_status": 0, "rating": null, "neighborhood": null, "image": null, "scorecard": null, "featured": false, "sample_categories": "Restaurants", "public_id": "sweet-pea-cafe-deli-marietta", "id": 655825170, "votes": null, "tagline": null, "has_video": false, "website": null, "offers": null, "latitude": 33.951248, "politanName": "Atlanta, GA Metro ", "phone_number": "7709777167", "tags": [{"primary": true, "id": 1722, "name": "Restaurants"}], "fax_number": null, "expansion": {"count": null, "uri": null}, "impression_id": "000b000000f313e4ac0cf04128a327517fbe2d9f5b", "profile": "http://www.citysearch.com/profile/655825170/marietta_ga/sweet_pea_cafe_deli.html", "address": {"city": "Marietta", "state": "GA", "street": "1516 Roswell Rd", "postal_code": "30062"}, "capProviderId": null, "distance": null, "has_offers": false, "name": "Sweet Pea Cafe & Deli", "longitude": -84.508172, "has_menu": true, "awards": null, "user_review_count": 0}, {"business_operation_status": 1, "rating": null, "neighborhood": null, "image": null, "scorecard": null, "featured": false, "sample_categories": "Restaurants, Caribbean", "public_id": "tassa-authentic-caribbean-marietta", "id": 655828500, "votes": null, "tagline": null, "has_video": false, "website": null, "offers": null, "latitude": 33.947468, "politanName": "Atlanta, GA Metro ", "phone_number": "7705781480", "tags": [{"primary": false, "id": 11195, "name": "Caribbean"}, {"primary": true, "id": 1722, "name": "Restaurants"}], "fax_number": null, "expansion": {"count": null, "uri": null}, "impression_id": "000b00000006c9196d46c04d649b1ec69d5e9ff026", "profile": "http://www.citysearch.com/profile/655828500/marietta_ga/tassa_authentic_caribbean.html", "address": {"city": "Marietta", "state": "GA", "street": "224 Powers Ferry Rd Se", "postal_code": "30067"}, "capProviderId": null, "distance": null, "has_offers": false, "name": "Tassa Authentic Caribbean", "longitude": -84.500926, "has_menu": false, "awards": null, "user_review_count": 0}, {"business_operation_status": 1, "rating": null, "neighborhood": null, "image": null, "scorecard": null, "featured": false, "sample_categories": "Soda Fountain Shops", "public_id": "soda-stream-marietta", "id": 655833090, "votes": null, "tagline": null, "has_video": false, "website": null, "offers": null, "latitude": 33.916607, "politanName": "Atlanta, GA Metro ", "phone_number": "7709521637", "tags": [{"primary": true, "id": 1731, "name": "Soda Fountain Shops"}], "fax_number": null, "expansion": {"count": null, "uri": null}, "impression_id": "000b000000e6d51df374384887a3e2ce7f39e95247", "profile": "http://www.citysearch.com/profile/655833090/marietta_ga/soda_stream.html", "address": {"city": "Marietta", "state": "GA", "street": "2051 Franklin Way Se", "postal_code": "30067"}, "capProviderId": null, "distance": null, "has_offers": false, "name": "Soda Stream", "longitude": -84.491622, "has_menu": false, "awards": null, "user_review_count": 0}, {"business_operation_status": 1, "rating": null, "neighborhood": null, "image": null, "scorecard": null, "featured": false, "sample_categories": "Restaurants", "public_id": "los-dorados-grill-marietta", "id": 810451910, "votes": null, "tagline": null, "has_video": false, "website": null, "offers": null, "latitude": 33.980787, "politanName": "Atlanta, GA Metro ", "phone_number": "7705788013", "tags": [{"primary": true, "id": 1722, "name": "Restaurants"}], "fax_number": null, "expansion": {"count": null, "uri": null}, "impression_id": "000b000000553271bbc210432d916072f43c199835", "profile": "http://www.citysearch.com/profile/810451910/marietta_ga/los_dorados_grill.html", "address": {"city": "Marietta", "state": "GA", "street": "3101 Roswell Rd", "postal_code": "30062"}, "capProviderId": null, "distance": null, "has_offers": false, "name": "Los Dorados Grill", "longitude": -84.464028, "has_menu": false, "awards": null, "user_review_count": 0}, {"business_operation_status": 1, "rating": null, "neighborhood": null, "image": null, "scorecard": null, "featured": false, "sample_categories": "Restaurants, Bars & Clubs, Bars & Pubs", "public_id": "el-norte-bar-grill-sandy", "id": 764844720, "votes": null, "tagline": null, "has_video": false, "website": null, "offers": null, "latitude": 33.921047, "politanName": "Atlanta, GA Metro ", "phone_number": "4043038781", "tags": [{"primary": false, "id": 164, "name": "Bars & Clubs"}, {"primary": false, "id": 1686, "name": "Bars & Pubs"}, {"primary": true, "id": 1722, "name": "Restaurants"}], "fax_number": null, "expansion": {"count": null, "uri": null}, "impression_id": "000b0000003684cb86200c48c48e9b88090ecb32ad", "profile": "http://www.citysearch.com/profile/764844720/sandy_springs_ga/el_norte_bar_grill.html", "address": {"city": "Sandy Springs", "state": "GA", "street": "6075 Roswell Rd NE", "postal_code": "30328"}, "capProviderId": null, "distance": null, "has_offers": false, "name": "El Norte Bar & Grill", "longitude": -84.378988, "has_menu": false, "awards": null, "user_review_count": 0}, {"business_operation_status": 1, "rating": null, "neighborhood": null, "image": null, "scorecard": null, "featured": false, "sample_categories": "Juice & Smoothie Shops, Restaurants, Shop Online", "public_id": "ardens-garden-atlanta-4", "id": 764868300, "votes": null, "tagline": null, "has_video": false, "website": "http://www.citysearch.com/profile/external/764868300/atlanta_ga/arden_s_garden.html", "offers": null, "latitude": 33.923737, "politanName": "Atlanta, GA Metro ", "phone_number": "4048450404", "tags": [{"primary": false, "id": 1722, "name": "Restaurants"}, {"primary": false, "id": 11375, "name": "Shop Online"}, {"primary": true, "id": 1735, "name": "Juice & Smoothie Shops"}], "fax_number": null, "expansion": {"count": null, "uri": null}, "impression_id": "000b00000048c8a1935385441f9f2cbb1e93ddae91", "profile": "http://www.citysearch.com/profile/764868300/atlanta_ga/arden_s_garden.html", "address": {"city": "Atlanta", "state": "GA", "street": "175 Mount Vernon Hwy NW", "postal_code": "30328"}, "capProviderId": null, "distance": null, "has_offers": false, "name": "Arden's Garden", "longitude": -84.381326, "has_menu": false, "awards": null, "user_review_count": 0}, {"business_operation_status": 1, "rating": null, "neighborhood": null, "image": null, "scorecard": null, "featured": false, "sample_categories": "Restaurants", "public_id": "taqueria-marietta", "id": 812914130, "votes": null, "tagline": null, "has_video": false, "website": null, "offers": null, "latitude": 33.942474, "politanName": "Atlanta, GA Metro ", "phone_number": "7704289797", "tags": [{"primary": true, "id": 1722, "name": "Restaurants"}], "fax_number": null, "expansion": {"count": null, "uri": null}, "impression_id": "000b0000000e345926a0b64324b4c088a026ff8146", "profile": "http://www.citysearch.com/profile/812914130/marietta_ga/taqueria.html", "address": {"city": "Marietta", "state": "GA", "street": "641 S Marietta Pkwy SE", "postal_code": "30060"}, "capProviderId": null, "distance": null, "has_offers": false, "name": "Taqueria", "longitude": -84.518447, "has_menu": false, "awards": null, "user_review_count": 0}, {"business_operation_status": 1, "rating": null, "neighborhood": null, "image": null, "scorecard": null, "featured": false, "sample_categories": "Restaurants", "public_id": "gato-bizco-cafe-inc-smyrna", "id": 813337660, "votes": null, "tagline": null, "has_video": false, "website": null, "offers": null, "latitude": 33.882251, "politanName": "Atlanta, GA Metro ", "phone_number": "7703333300", "tags": [{"primary": true, "id": 1722, "name": "Restaurants"}], "fax_number": null, "expansion": {"count": null, "uri": null}, "impression_id": "000b000000f88c20cf67b94bb1bfd49df061b1da1e", "profile": "http://www.citysearch.com/profile/813337660/smyrna_ga/gato_bizco_cafe_inc.html", "address": {"city": "Smyrna", "state": "GA", "street": "801 Country Park Dr SE", "postal_code": "30080"}, "capProviderId": null, "distance": null, "has_offers": false, "name": "Gato Bizco Cafe Inc", "longitude": -84.489138, "has_menu": false, "awards": null, "user_review_count": 0}, {"business_operation_status": 1, "rating": null, "neighborhood": null, "image": null, "scorecard": null, "featured": false, "sample_categories": "Restaurants", "public_id": "cbass-kitchen-atlanta", "id": 772976910, "votes": null, "tagline": null, "has_video": false, "website": null, "offers": null, "latitude": 33.923066, "politanName": "Atlanta, GA Metro ", "phone_number": "4047058880", "tags": [{"primary": true, "id": 1722, "name": "Restaurants"}], "fax_number": null, "expansion": {"count": null, "uri": null}, "impression_id": "000b000000b8f0c93ef259451db996225a9cea9ef2", "profile": "http://www.citysearch.com/profile/772976910/atlanta_ga/cbass_kitchen.html", "address": {"city": "Atlanta", "state": "GA", "street": "6152 Roswell Road Northeast", "postal_code": "30328"}, "capProviderId": null, "distance": null, "has_offers": false, "name": "CBass Kitchen", "longitude": -84.379456, "has_menu": false, "awards": null, "user_review_count": 0}, {"business_operation_status": 1, "rating": null, "neighborhood": null, "image": null, "scorecard": null, "featured": false, "sample_categories": "Delis And Delicatessens", "public_id": "kroger-deli-marietta-6", "id": 699835210, "votes": null, "tagline": null, "has_video": false, "website": "http://www.citysearch.com/profile/external/699835210/marietta_ga/kroger_deli.html", "offers": null, "latitude": 33.923629, "politanName": "Atlanta, GA Metro ", "phone_number": "7709551692", "tags": [{"primary": true, "id": 1727, "name": "Delis And Delicatessens"}], "fax_number": null, "expansion": {"count": null, "uri": null}, "impression_id": "000b0000000fb53ea6e01449d89d926bad26ac9502", "profile": "http://www.citysearch.com/profile/699835210/marietta_ga/kroger_deli.html", "address": {"city": "Marietta", "state": "GA", "street": "1122 Powers Ferry Rd Se", "postal_code": "30067"}, "capProviderId": null, "distance": null, "has_offers": false, "name": "Kroger Deli", "longitude": -84.468586, "has_menu": false, "awards": null, "user_review_count": 0}, {"business_operation_status": 1, "rating": null, "neighborhood": null, "image": null, "scorecard": null, "featured": false, "sample_categories": "Restaurants", "public_id": "tabooii-sandy", "id": 781224530, "votes": null, "tagline": null, "has_video": false, "website": null, "offers": null, "latitude": 33.920525, "politanName": "Atlanta, GA Metro ", "phone_number": "4042555507", "tags": [{"primary": true, "id": 1722, "name": "Restaurants"}], "fax_number": null, "expansion": {"count": null, "uri": null}, "impression_id": "000b00000031f39bf1d16b4010bbd1e30835b18557", "profile": "http://www.citysearch.com/profile/781224530/sandy_springs_ga/tabooii.html", "address": {"city": "Sandy Springs", "state": "GA", "street": "6075 Roswell Rd", "postal_code": "30328"}, "capProviderId": null, "distance": null, "has_offers": false, "name": "Tabooii", "longitude": -84.379, "has_menu": false, "awards": null, "user_review_count": 0}, {"business_operation_status": 1, "rating": null, "neighborhood": null, "image": null, "scorecard": null, "featured": false, "sample_categories": "Restaurants, Carry Out", "public_id": "johnny-rockets-marietta-2", "id": 828721630, "votes": null, "tagline": null, "has_video": false, "website": "http://www.citysearch.com/profile/external/828721630/marietta_ga/johnny_rockets.html", "offers": null, "latitude": 33.98752, "politanName": "Atlanta, GA Metro ", "phone_number": "7705090377", "tags": [{"primary": false, "id": 11247, "name": "Carry Out"}, {"primary": true, "id": 1722, "name": "Restaurants"}], "fax_number": null, "expansion": {"count": null, "uri": null}, "impression_id": "000b000000f3fc8c10ccf34e47904ad274a277a39a", "profile": "http://www.citysearch.com/profile/828721630/marietta_ga/johnny_rockets.html", "address": {"city": "Marietta", "state": "GA", "street": "4475 Roswell Rd # 1700", "postal_code": "30062"}, "capProviderId": null, "distance": null, "has_offers": false, "name": "Johnny Rockets", "longitude": -84.42189, "has_menu": true, "awards": null, "user_review_count": 1}, {"business_operation_status": 1, "rating": null, "neighborhood": null, "image": null, "scorecard": null, "featured": false, "sample_categories": "Restaurants", "public_id": "sawadee-a-taste-of-thailand-atlanta", "id": 834709310, "votes": null, "tagline": null, "has_video": false, "website": null, "offers": null, "latitude": 33.889688, "politanName": "Atlanta, GA Metro ", "phone_number": "4043031668", "tags": [{"primary": true, "id": 1722, "name": "Restaurants"}], "fax_number": null, "expansion": {"count": null, "uri": null}, "impression_id": "000b000000e0f605df55d34a8b802eca4cbf97b407", "profile": "http://www.citysearch.com/profile/834709310/atlanta_ga/sawadee_a_taste_of_thailand.html", "address": {"city": "Atlanta", "state": "GA", "street": "4920 Roswell Rd # 23A", "postal_code": "30342"}, "capProviderId": null, "distance": null, "has_offers": false, "name": "Sawadee A Taste Of Thailand", "longitude": -84.383189, "has_menu": false, "awards": null, "user_review_count": 1}, {"business_operation_status": 1, "rating": null, "neighborhood": null, "image": null, "scorecard": null, "featured": false, "sample_categories": "Restaurants, Barbecue Restaurants", "public_id": "boyds-bar-be-que-smyrna", "id": 793283860, "votes": null, "tagline": null, "has_video": false, "website": null, "offers": null, "latitude": 33.890044, "politanName": "Atlanta, GA Metro ", "phone_number": "6783099726", "tags": [{"primary": false, "id": 1724, "name": "Barbecue Restaurants"}, {"primary": true, "id": 1722, "name": "Restaurants"}], "fax_number": null, "expansion": {"count": null, "uri": null}, "impression_id": "000b00000063d702e6e2f0432a8cad500c4c746e95", "profile": "http://www.citysearch.com/profile/793283860/smyrna_ga/boyd_s_bar_be_que.html", "address": {"city": "Smyrna", "state": "GA", "street": "2599 S Cobb Dr Se", "postal_code": "30080"}, "capProviderId": null, "distance": null, "has_offers": false, "name": "Boyd's Bar Be Que", "longitude": -84.536832, "has_menu": false, "awards": null, "user_review_count": 0}, {"business_operation_status": 1, "rating": null, "neighborhood": null, "image": null, "scorecard": null, "featured": false, "sample_categories": "Coffeehouses, Coffee & Tea Shops", "public_id": "starbucks-smyrna-5", "id": 713648460, "votes": null, "tagline": null, "has_video": false, "website": "http://www.citysearch.com/profile/external/713648460/smyrna_ga/starbucks.html", "offers": null, "latitude": 33.889232, "politanName": "Atlanta, GA Metro ", "phone_number": "7709550337", "tags": [{"primary": false, "id": 1711, "name": "Coffee & Tea Shops"}, {"primary": true, "id": 1726, "name": "Coffeehouses"}], "fax_number": null, "expansion": {"count": null, "uri": null}, "impression_id": "000b000000823d5bdcb9cf4ac29c131a9913268915", "profile": "http://www.citysearch.com/profile/713648460/smyrna_ga/starbucks.html", "address": {"city": "Smyrna", "state": "GA", "street": "2600 Cobb Pkwy Se", "postal_code": "30080"}, "capProviderId": null, "distance": null, "has_offers": false, "name": "Starbucks", "longitude": -84.474858, "has_menu": false, "awards": null, "user_review_count": 0}, {"business_operation_status": 1, "rating": null, "neighborhood": "Northside, Northside", "image": null, "scorecard": null, "featured": false, "sample_categories": "Restaurants", "public_id": "yoi-yoi-steakhouse-sushi-atlanta", "id": 840122880, "votes": null, "tagline": null, "has_video": false, "website": null, "offers": null, "latitude": 33.809801, "politanName": "Atlanta, GA Metro ", "phone_number": "4043511788", "tags": [{"primary": true, "id": 1722, "name": "Restaurants"}], "fax_number": null, "expansion": {"count": null, "uri": null}, "impression_id": "000b0000000f16908b83eb4714ac0d33e224d0e364", "profile": "http://www.citysearch.com/profile/840122880/atlanta_ga/yoi_yoi_steakhouse_sushi.html", "address": {"city": "Atlanta", "state": "GA", "street": "857 Collier Rd NW", "postal_code": "30318"}, "capProviderId": null, "distance": null, "has_offers": false, "name": "Yoi Yoi Steakhouse & Sushi", "longitude": -84.416377, "has_menu": true, "awards": null, "user_review_count": 0}, {"business_operation_status": 0, "rating": 9.0, "neighborhood": null, "image": null, "scorecard": null, "featured": false, "sample_categories": "Restaurants", "public_id": "great-american-soup-company-smyrna", "id": 2922976, "votes": null, "tagline": null, "has_video": false, "website": null, "offers": null, "latitude": 33.838436, "politanName": "Atlanta, GA Metro ", "phone_number": "4047927687", "tags": [{"primary": true, "id": 1722, "name": "Restaurants"}], "fax_number": null, "expansion": {"count": null, "uri": null}, "impression_id": "000b000000cd288b3983ec4fe2a5095ce1cb2a49bb", "profile": "http://www.citysearch.com/profile/2922976/smyrna_ga/great_american_soup_company.html", "address": {"city": "Smyrna", "state": "GA", "street": "4686 S Atlanta Rd SE", "postal_code": "30080"}, "capProviderId": null, "distance": null, "has_offers": false, "name": "Great American Soup Company", "longitude": -84.482318, "has_menu": false, "awards": null, "user_review_count": 0}, {"business_operation_status": 1, "rating": null, "neighborhood": null, "image": null, "scorecard": null, "featured": false, "sample_categories": "Restaurants", "public_id": "cafe-ventures-inc-marietta", "id": 766783500, "votes": null, "tagline": null, "has_video": false, "website": null, "offers": null, "latitude": 33.939834, "politanName": "Atlanta, GA Metro ", "phone_number": "7704230045", "tags": [{"primary": true, "id": 1722, "name": "Restaurants"}], "fax_number": null, "expansion": {"count": null, "uri": null}, "impression_id": "000b000000d06fe1f9ff834db1b1c09b1f19d29912", "profile": "http://www.citysearch.com/profile/766783500/marietta_ga/cafe_ventures_inc.html", "address": {"city": "Marietta", "state": "GA", "street": "490 Franklin Rd SE", "postal_code": "30067"}, "capProviderId": null, "distance": null, "has_offers": false, "name": "Cafe Ventures Inc", "longitude": -84.50842, "has_menu": false, "awards": null, "user_review_count": 0}, {"business_operation_status": 1, "rating": null, "neighborhood": null, "image": null, "scorecard": null, "featured": false, "sample_categories": "Restaurants, Bars & Clubs, Bars & Pubs", "public_id": "boomers-bar-grill-smyrna", "id": 764862000, "votes": null, "tagline": null, "has_video": false, "website": null, "offers": null, "latitude": 33.899075, "politanName": "Atlanta, GA Metro ", "phone_number": "7709569555", "tags": [{"primary": false, "id": 164, "name": "Bars & Clubs"}, {"primary": false, "id": 1686, "name": "Bars & Pubs"}, {"primary": true, "id": 1722, "name": "Restaurants"}], "fax_number": null, "expansion": {"count": null, "uri": null}, "impression_id": "000b000000c8f639b4b6e94879aa8c10c4430e79b0", "profile": "http://www.citysearch.com/profile/764862000/smyrna_ga/boomer_s_bar_grill.html", "address": {"city": "Smyrna", "state": "GA", "street": "2105 S Cobb Dr SE", "postal_code": "30080"}, "capProviderId": null, "distance": null, "has_offers": false, "name": "Boomer's Bar & Grill", "longitude": -84.54028, "has_menu": false, "awards": null, "user_review_count": 0}, {"business_operation_status": 1, "rating": null, "neighborhood": null, "image": null, "scorecard": null, "featured": false, "sample_categories": "Restaurants, Mexican", "public_id": "taqueria-la-avelita-marietta", "id": 793328060, "votes": null, "tagline": null, "has_video": false, "website": null, "offers": null, "latitude": 33.934292, "politanName": "Atlanta, GA Metro ", "phone_number": "7707944551", "tags": [{"primary": false, "id": 11208, "name": "Mexican"}, {"primary": true, "id": 1722, "name": "Restaurants"}], "fax_number": null, "expansion": {"count": null, "uri": null}, "impression_id": "000b000000cfb33c5e1ce74556adcce2124607f13d", "profile": "http://www.citysearch.com/profile/793328060/marietta_ga/taqueria_la_avelita.html", "address": {"city": "Marietta", "state": "GA", "street": "739 Franklin Rd Se # C", "postal_code": "30067"}, "capProviderId": null, "distance": null, "has_offers": false, "name": "Taqueria La Avelita", "longitude": -84.502546, "has_menu": false, "awards": null, "user_review_count": 0}, {"business_operation_status": 1, "rating": null, "neighborhood": null, "image": null, "scorecard": null, "featured": false, "sample_categories": "Restaurants", "public_id": "purple-restaurant-ent-marietta", "id": 793332920, "votes": null, "tagline": null, "has_video": false, "website": null, "offers": null, "latitude": 33.931495, "politanName": "Atlanta, GA Metro ", "phone_number": "7706727087", "tags": [{"primary": true, "id": 1722, "name": "Restaurants"}], "fax_number": null, "expansion": {"count": null, "uri": null}, "impression_id": "000b00000087aac678ed9f428aa817c7450317f3d9", "profile": "http://www.citysearch.com/profile/793332920/marietta_ga/purple_restaurant_ent.html", "address": {"city": "Marietta", "state": "GA", "street": "2012 Powers Ferry Trce Se", "postal_code": "30067"}, "capProviderId": null, "distance": null, "has_offers": false, "name": "Purple Restaurant Ent", "longitude": -84.478312, "has_menu": false, "awards": null, "user_review_count": 0}, {"business_operation_status": 1, "rating": 6.0, "neighborhood": null, "image": null, "scorecard": null, "featured": false, "sample_categories": "Restaurants, Chinese, American Express, Discover, MasterCard", "public_id": "house-of-ming-marietta", "id": 2904716, "votes": null, "tagline": null, "has_video": false, "website": null, "offers": null, "latitude": 33.980787, "politanName": "Atlanta, GA Metro ", "phone_number": "7709777538", "tags": [{"primary": false, "id": 11252, "name": "Chinese"}, {"primary": false, "id": 11333, "name": "American Express"}, {"primary": false, "id": 11349, "name": "Discover"}, {"primary": false, "id": 11361, "name": "MasterCard"}, {"primary": false, "id": 11382, "name": "Visa"}, {"primary": true, "id": 1722, "name": "Restaurants"}], "fax_number": null, "expansion": {"count": null, "uri": null}, "impression_id": "000b0000001ff77b085155447d81c2993ee435d652", "profile": "http://www.citysearch.com/profile/2904716/marietta_ga/house_of_ming.html", "address": {"city": "Marietta", "state": "GA", "street": "3101 Roswell Rd Ste F2", "postal_code": "30062"}, "capProviderId": null, "distance": null, "has_offers": false, "name": "House Of Ming", "longitude": -84.464028, "has_menu": false, "awards": null, "user_review_count": 1}, {"business_operation_status": 1, "rating": null, "neighborhood": null, "image": null, "scorecard": null, "featured": false, "sample_categories": "Restaurants", "public_id": "mamas-soulfood-kitchen-smyrna", "id": 777797920, "votes": null, "tagline": null, "has_video": false, "website": null, "offers": null, "latitude": 33.891089, "politanName": "Atlanta, GA Metro ", "phone_number": "7704357779", "tags": [{"primary": true, "id": 1722, "name": "Restaurants"}], "fax_number": null, "expansion": {"count": null, "uri": null}, "impression_id": "000b000000f9b24e0274404dec8cb70f26a28dde73", "profile": "http://www.citysearch.com/profile/777797920/smyrna_ga/mama_s_soulfood_kitchen.html", "address": {"city": "Smyrna", "state": "GA", "street": "1651 Roswell St Se", "postal_code": "30080"}, "capProviderId": null, "distance": null, "has_offers": false, "name": "Mama's Soulfood Kitchen", "longitude": -84.504679, "has_menu": false, "awards": null, "user_review_count": 1}, {"business_operation_status": 1, "rating": null, "neighborhood": null, "image": null, "scorecard": null, "featured": false, "sample_categories": "Restaurants, Carry Out", "public_id": "churchs-chicken-marietta-5", "id": 809894000, "votes": null, "tagline": null, "has_video": false, "website": null, "offers": null, "latitude": 33.951817, "politanName": "Atlanta, GA Metro ", "phone_number": "7704228166", "tags": [{"primary": false, "id": 11247, "name": "Carry Out"}, {"primary": true, "id": 1722, "name": "Restaurants"}], "fax_number": null, "expansion": {"count": null, "uri": null}, "impression_id": "000b000000094853e998364f699861e2508809d3a3", "profile": "http://www.citysearch.com/profile/809894000/marietta_ga/church_s_chicken.html", "address": {"city": "Marietta", "state": "GA", "street": "23 S Marietta Pkwy SW", "postal_code": "30064"}, "capProviderId": null, "distance": null, "has_offers": false, "name": "Church's Chicken", "longitude": -84.551523, "has_menu": false, "awards": null, "user_review_count": 0}, {"business_operation_status": 1, "rating": null, "neighborhood": null, "image": null, "scorecard": null, "featured": false, "sample_categories": "Restaurants", "public_id": "cedars-sandy", "id": 812104130, "votes": null, "tagline": null, "has_video": false, "website": null, "offers": null, "latitude": 33.916614, "politanName": "Atlanta, GA Metro ", "phone_number": "4042572220", "tags": [{"primary": true, "id": 1722, "name": "Restaurants"}], "fax_number": null, "expansion": {"count": null, "uri": null}, "impression_id": "000b0000006e1662af0a8f4bc38909a776ae6aead6", "profile": "http://www.citysearch.com/profile/812104130/sandy_springs_ga/cedars.html", "address": {"city": "Sandy Springs", "state": "GA", "street": "5920 Roswell Rd # B108", "postal_code": "30328"}, "capProviderId": null, "distance": null, "has_offers": false, "name": "Cedars", "longitude": -84.381323, "has_menu": false, "awards": null, "user_review_count": 0}, {"business_operation_status": 1, "rating": null, "neighborhood": null, "image": null, "scorecard": null, "featured": false, "sample_categories": "Restaurants", "public_id": "embers-seafood-grille-atlanta", "id": 822383440, "votes": null, "tagline": null, "has_video": false, "website": null, "offers": null, "latitude": 33.923109, "politanName": "Atlanta, GA Metro ", "phone_number": "7702560977", "tags": [{"primary": true, "id": 1722, "name": "Restaurants"}], "fax_number": null, "expansion": {"count": null, "uri": null}, "impression_id": "000b000000479b822441e54e6f9bd64ea38b551367", "profile": "http://www.citysearch.com/profile/822383440/atlanta_ga/embers_seafood_grille.html", "address": {"city": "Atlanta", "state": "GA", "street": "234 Hilderbrand Dr", "postal_code": "30328"}, "capProviderId": null, "distance": null, "has_offers": false, "name": "Embers Seafood Grille", "longitude": -84.379808, "has_menu": false, "awards": null, "user_review_count": 0}, {"business_operation_status": 1, "rating": 8.0, "neighborhood": null, "image": null, "scorecard": null, "featured": false, "sample_categories": "Restaurants, Mexican", "public_id": "el-dorado-restaurant-marietta", "id": 2901664, "votes": null, "tagline": null, "has_video": false, "website": null, "offers": null, "latitude": 33.902097, "politanName": "Atlanta, GA Metro ", "phone_number": "7704347772", "tags": [{"primary": false, "id": 1722, "name": "Restaurants"}, {"primary": true, "id": 11208, "name": "Mexican"}], "fax_number": null, "expansion": {"count": null, "uri": null}, "impression_id": "000b00000070cab6a07b04416a81f45876b20d5aaf", "profile": "http://www.citysearch.com/profile/2901664/marietta_ga/el_dorado_restaurant.html", "address": {"city": "Marietta", "state": "GA", "street": "325 Pat Mell Rd SE", "postal_code": "30060"}, "capProviderId": null, "distance": null, "has_offers": false, "name": "El Dorado Restaurant", "longitude": -84.546463, "has_menu": true, "awards": null, "user_review_count": 0}, {"business_operation_status": 1, "rating": null, "neighborhood": null, "image": null, "scorecard": null, "featured": false, "sample_categories": "Restaurants", "public_id": "tropical-smoothie-cafe-smyrna", "id": 807164030, "votes": null, "tagline": null, "has_video": false, "website": null, "offers": null, "latitude": 33.884019, "politanName": "Atlanta, GA Metro ", "phone_number": "7704369980", "tags": [{"primary": true, "id": 1722, "name": "Restaurants"}], "fax_number": null, "expansion": {"count": null, "uri": null}, "impression_id": "000b0000005e5c0f5d7b59424cbfe3fd2087faa5cd", "profile": "http://www.citysearch.com/profile/807164030/smyrna_ga/tropical_smoothie_cafe.html", "address": {"city": "Smyrna", "state": "GA", "street": "1265 W Spring St SE", "postal_code": "30080"}, "capProviderId": null, "distance": null, "has_offers": false, "name": "Tropical Smoothie Cafe", "longitude": -84.515924, "has_menu": false, "awards": null, "user_review_count": 0}, {"business_operation_status": 1, "rating": null, "neighborhood": null, "image": null, "scorecard": null, "featured": false, "sample_categories": "Restaurants, Bars & Clubs, Delis And Delicatessens", "public_id": "locos-deli-pub-atlanta-3", "id": 813417210, "votes": null, "tagline": null, "has_video": false, "website": null, "offers": null, "latitude": 33.930624, "politanName": "Atlanta, GA Metro ", "phone_number": "7709139333", "tags": [{"primary": false, "id": 164, "name": "Bars & Clubs"}, {"primary": false, "id": 1727, "name": "Delis And Delicatessens"}, {"primary": true, "id": 1722, "name": "Restaurants"}], "fax_number": null, "expansion": {"count": null, "uri": null}, "impression_id": "000b000000a57d3500131b48b99020a66c787d66e4", "profile": "http://www.citysearch.com/profile/813417210/atlanta_ga/locos_deli_pub.html", "address": {"city": "Atlanta", "state": "GA", "street": "6420 Colewood CT", "postal_code": "30328"}, "capProviderId": null, "distance": null, "has_offers": false, "name": "Locos Deli & Pub", "longitude": -84.399907, "has_menu": false, "awards": null, "user_review_count": 0}, {"business_operation_status": 1, "rating": null, "neighborhood": null, "image": null, "scorecard": null, "featured": false, "sample_categories": "Grocery Stores, Restaurants", "public_id": "genji-express-marietta", "id": 836645200, "votes": null, "tagline": null, "has_video": false, "website": null, "offers": null, "latitude": 33.948194, "politanName": "Atlanta, GA Metro ", "phone_number": "7705784400", "tags": [{"primary": false, "id": 1722, "name": "Restaurants"}, {"primary": true, "id": 1713, "name": "Grocery Stores"}], "fax_number": null, "expansion": {"count": null, "uri": null}, "impression_id": "000b000000e9fe5c30784648ec8cf3253c7e2b73ed", "profile": "http://www.citysearch.com/profile/836645200/marietta_ga/genji_express.html", "address": {"city": "Marietta", "state": "GA", "street": "70 Powers Ferry Rd SE", "postal_code": "30067"}, "capProviderId": null, "distance": null, "has_offers": false, "name": "Genji Express", "longitude": -84.513268, "has_menu": true, "awards": null, "user_review_count": 0}, {"business_operation_status": 0, "rating": null, "neighborhood": null, "image": null, "scorecard": null, "featured": false, "sample_categories": "Restaurants", "public_id": "roadhouse-grill-atlanta-2", "id": 3019393, "votes": null, "tagline": null, "has_video": false, "website": null, "offers": null, "latitude": 33.921027, "politanName": "Atlanta, GA Metro ", "phone_number": "4048433850", "tags": [{"primary": true, "id": 1722, "name": "Restaurants"}], "fax_number": null, "expansion": {"count": null, "uri": null}, "impression_id": "000b000000cdd0e85b939645dd9e9786457b3ed3a4", "profile": "http://www.citysearch.com/profile/3019393/atlanta_ga/roadhouse_grill.html", "address": {"city": "Atlanta", "state": "GA", "street": "205 Sandy Springs Place NE", "postal_code": "30328"}, "capProviderId": null, "distance": null, "has_offers": false, "name": "Roadhouse Grill", "longitude": -84.380519, "has_menu": true, "awards": null, "user_review_count": 0}, {"business_operation_status": 1, "rating": null, "neighborhood": null, "image": null, "scorecard": null, "featured": false, "sample_categories": "Restaurants, Carry Out, Pizza", "public_id": "little-caesars-pizza-smyrna-3", "id": 787125170, "votes": null, "tagline": null, "has_video": false, "website": "http://www.citysearch.com/profile/external/787125170/smyrna_ga/little_caesars_pizza.html", "offers": null, "latitude": 33.882426, "politanName": "Atlanta, GA Metro ", "phone_number": "7709891088", "tags": [{"primary": false, "id": 11247, "name": "Carry Out"}, {"primary": false, "id": 11299, "name": "Pizza"}, {"primary": true, "id": 1722, "name": "Restaurants"}], "fax_number": null, "expansion": {"count": null, "uri": null}, "impression_id": "000b0000007a0a89b33dc54d669be83616ec064120", "profile": "http://www.citysearch.com/profile/787125170/smyrna_ga/little_caesars_pizza.html", "address": {"city": "Smyrna", "state": "GA", "street": "2350 Spring Rd Se", "postal_code": "30080"}, "capProviderId": null, "distance": null, "has_offers": false, "name": "Little Caesars Pizza", "longitude": -84.487375, "has_menu": false, "awards": null, "user_review_count": 0}, {"business_operation_status": 1, "rating": null, "neighborhood": null, "image": null, "scorecard": null, "featured": false, "sample_categories": "Restaurants, Chicken", "public_id": "mrs-winners-chicken-biscuit-atlanta", "id": 787141370, "votes": null, "tagline": null, "has_video": false, "website": null, "offers": null, "latitude": 33.920561, "politanName": "Atlanta, GA Metro ", "phone_number": "4044595805", "tags": [{"primary": false, "id": 12839, "name": "Chicken"}, {"primary": true, "id": 1722, "name": "Restaurants"}], "fax_number": null, "expansion": {"count": null, "uri": null}, "impression_id": "000b000000a7f0544ef2874e5284ee536f6538586c", "profile": "http://www.citysearch.com/profile/787141370/atlanta_ga/mrs_winner_s_chicken_biscuit.html", "address": {"city": "Atlanta", "state": "GA", "street": "6055 Barfield Rd", "postal_code": "30328"}, "capProviderId": null, "distance": null, "has_offers": false, "name": "Mrs Winner's Chicken & Biscuit", "longitude": -84.359951, "has_menu": false, "awards": null, "user_review_count": 0}, {"business_operation_status": 1, "rating": null, "neighborhood": null, "image": null, "scorecard": null, "featured": false, "sample_categories": "Restaurants, Barbecue Restaurants", "public_id": "bbq-1-marietta", "id": 801059740, "votes": null, "tagline": null, "has_video": false, "website": null, "offers": null, "latitude": 33.968458, "politanName": "Atlanta, GA Metro ", "phone_number": "7709773005", "tags": [{"primary": false, "id": 1724, "name": "Barbecue Restaurants"}, {"primary": true, "id": 1722, "name": "Restaurants"}], "fax_number": null, "expansion": {"count": null, "uri": null}, "impression_id": "000b000000b334255e14da42e0bb072f75125a1a8b", "profile": "http://www.citysearch.com/profile/801059740/marietta_ga/bbq_1.html", "address": {"city": "Marietta", "state": "GA", "street": "814 Thackston Dr", "postal_code": "30068"}, "capProviderId": null, "distance": null, "has_offers": false, "name": "BBQ 1", "longitude": -84.403873, "has_menu": false, "awards": null, "user_review_count": 0}, {"business_operation_status": 1, "rating": null, "neighborhood": null, "image": null, "scorecard": null, "featured": false, "sample_categories": "Restaurants, Carry Out, Pizza", "public_id": "jet-pizza-marietta", "id": 757958610, "votes": null, "tagline": null, "has_video": false, "website": "http://www.citysearch.com/profile/external/757958610/marietta_ga/jet_pizza.html", "offers": null, "latitude": 33.92306, "politanName": "Atlanta, GA Metro ", "phone_number": "7709521711", "tags": [{"primary": false, "id": 11247, "name": "Carry Out"}, {"primary": false, "id": 11299, "name": "Pizza"}, {"primary": true, "id": 1722, "name": "Restaurants"}], "fax_number": null, "expansion": {"count": null, "uri": null}, "impression_id": "000b0000006472d831507f425e95083677c78c22d7", "profile": "http://www.citysearch.com/profile/757958610/marietta_ga/jet_pizza.html", "address": {"city": "Marietta", "state": "GA", "street": "2900 Delk Rd SE", "postal_code": "30067"}, "capProviderId": null, "distance": null, "has_offers": false, "name": "Jet Pizza", "longitude": -84.467405, "has_menu": false, "awards": null, "user_review_count": 0}, {"business_operation_status": 1, "rating": null, "neighborhood": null, "image": null, "scorecard": null, "featured": false, "sample_categories": "Barbecue Restaurants, Restaurants", "public_id": "als-barbeque-marietta", "id": 764865730, "votes": null, "tagline": null, "has_video": false, "website": null, "offers": null, "latitude": 33.951118, "politanName": "Atlanta, GA Metro ", "phone_number": "7704999774", "tags": [{"primary": false, "id": 1722, "name": "Restaurants"}, {"primary": true, "id": 1724, "name": "Barbecue Restaurants"}], "fax_number": null, "expansion": {"count": null, "uri": null}, "impression_id": "000b0000006a03d6555efd4f74924f4cf9a3c08c96", "profile": "http://www.citysearch.com/profile/764865730/marietta_ga/al_s_barbeque.html", "address": {"city": "Marietta", "state": "GA", "street": "34 Powder Springs St", "postal_code": "30064"}, "capProviderId": null, "distance": null, "has_offers": false, "name": "Al's Barbeque", "longitude": -84.550542, "has_menu": true, "awards": null, "user_review_count": 0}, {"business_operation_status": 1, "rating": null, "neighborhood": null, "image": null, "scorecard": null, "featured": false, "sample_categories": "Restaurants, Barbecue Restaurants", "public_id": "hot-wings-marietta-2", "id": 764883190, "votes": null, "tagline": null, "has_video": false, "website": null, "offers": null, "latitude": 33.922673, "politanName": "Atlanta, GA Metro ", "phone_number": "6784013756", "tags": [{"primary": false, "id": 1724, "name": "Barbecue Restaurants"}, {"primary": true, "id": 1722, "name": "Restaurants"}], "fax_number": null, "expansion": {"count": null, "uri": null}, "impression_id": "000b0000004844ad01c4eb4977b6218954d9e84c1e", "profile": "http://www.citysearch.com/profile/764883190/marietta_ga/hot_wings.html", "address": {"city": "Marietta", "state": "GA", "street": "2555 Delk Rd SE # A8", "postal_code": "30067"}, "capProviderId": null, "distance": null, "has_offers": false, "name": "Hot Wings", "longitude": -84.478383, "has_menu": false, "awards": null, "user_review_count": 0}, {"business_operation_status": 1, "rating": null, "neighborhood": null, "image": null, "scorecard": null, "featured": false, "sample_categories": "Restaurants", "public_id": "pjs-coffee-marietta", "id": 672260010, "votes": null, "tagline": null, "has_video": false, "website": null, "offers": null, "latitude": 33.963578, "politanName": "Atlanta, GA Metro ", "phone_number": null, "tags": [{"primary": true, "id": 1722, "name": "Restaurants"}], "fax_number": null, "expansion": {"count": null, "uri": null}, "impression_id": "000b000000f070d2ecb2934013a817f422c3bbf982", "profile": "http://www.citysearch.com/profile/672260010/marietta_ga/pj_s_coffee.html", "address": {"city": "Marietta", "state": "GA", "street": "611 Johnson Ferry Rd NE", "postal_code": "30068"}, "capProviderId": null, "distance": null, "has_offers": false, "name": "Pj's Coffee", "longitude": -84.412402, "has_menu": false, "awards": null, "user_review_count": 0}, {"business_operation_status": 1, "rating": null, "neighborhood": null, "image": null, "scorecard": null, "featured": false, "sample_categories": "Restaurants", "public_id": "mobile-pit-stop-of-atlanta-smyrna", "id": 754713040, "votes": null, "tagline": null, "has_video": false, "website": null, "offers": null, "latitude": 33.884704, "politanName": "Atlanta, GA Metro ", "phone_number": "7707786349", "tags": [{"primary": true, "id": 1722, "name": "Restaurants"}], "fax_number": null, "expansion": {"count": null, "uri": null}, "impression_id": "000b0000009228a35988184aa789e43fac82270609", "profile": "http://www.citysearch.com/profile/754713040/smyrna_ga/mobile_pit_stop_of_atlanta.html", "address": {"city": "Smyrna", "state": "GA", "street": "2051 Glenroy Dr SE", "postal_code": "30080"}, "capProviderId": null, "distance": null, "has_offers": false, "name": "Mobile Pit Stop of Atlanta", "longitude": -84.4941, "has_menu": false, "awards": null, "user_review_count": 0}, {"business_operation_status": 1, "rating": null, "neighborhood": null, "image": null, "scorecard": null, "featured": false, "sample_categories": "Restaurants, Asian, Chinese", "public_id": "chinese-restaurant-marietta", "id": 682576220, "votes": null, "tagline": null, "has_video": false, "website": "http://www.citysearch.com/profile/external/682576220/marietta_ga/chinese_restaurant.html", "offers": null, "latitude": 33.968527, "politanName": "Atlanta, GA Metro ", "phone_number": "7703218202", "tags": [{"primary": false, "id": 11235, "name": "Asian"}, {"primary": false, "id": 11252, "name": "Chinese"}, {"primary": true, "id": 1722, "name": "Restaurants"}], "fax_number": null, "expansion": {"count": null, "uri": null}, "impression_id": "000b000000ec737417dac04e2488df3cb0d17ffdb1", "profile": "http://www.citysearch.com/profile/682576220/marietta_ga/chinese_restaurant.html", "address": {"city": "Marietta", "state": "GA", "street": "2145 Roswell Rd", "postal_code": "30062"}, "capProviderId": null, "distance": null, "has_offers": false, "name": "Chinese Restaurant", "longitude": -84.491622, "has_menu": false, "awards": null, "user_review_count": 0}, {"business_operation_status": 1, "rating": null, "neighborhood": null, "image": null, "scorecard": null, "featured": false, "sample_categories": "Restaurants", "public_id": "kelley-restaurants-inc-atlanta", "id": 805545520, "votes": null, "tagline": null, "has_video": false, "website": null, "offers": null, "latitude": 33.907557, "politanName": "Atlanta, GA Metro ", "phone_number": "4042571706", "tags": [{"primary": true, "id": 1722, "name": "Restaurants"}], "fax_number": null, "expansion": {"count": null, "uri": null}, "impression_id": "000b0000001014955305724aa1994184ffd8119cb3", "profile": "http://www.citysearch.com/profile/805545520/atlanta_ga/kelley_restaurants_inc.html", "address": {"city": "Atlanta", "state": "GA", "street": "5600 Roswell Rd # 100", "postal_code": "30342"}, "capProviderId": null, "distance": null, "has_offers": false, "name": "Kelley Restaurants Inc", "longitude": -84.378776, "has_menu": false, "awards": null, "user_review_count": 0}], "histograms": [], "tag_ids": [1722], "uri": "http://api.citygridmedia.com:8080/search/places/v2/search/where?has_offers=false&type=restaurant&format=json&page=22&where=30339&rpp=50&histograms=false&publisher=10000009598&region_type=circle", "did_you_mean": "", "regions": [{"latitude": 33.877209, "default_radius": 2.6, "type": "postal_code", "name": "30339", "longitude": -84.463483}], "call_id": "000b000000cd41631cf8254d9697eeed55cd4cc73a", "first_hit": 1051, "total_hits": 1582, "geo_ids": [26497], "page": 22, "last_hit": 1100}}