{"results": {"rpp": 50, "locations": [{"business_operation_status": 1, "rating": null, "neighborhood": null, "image": null, "scorecard": null, "featured": false, "sample_categories": "Restaurants", "public_id": "tappan-street-restaurant-group-atlanta", "id": 745611400, "votes": null, "tagline": null, "has_video": false, "website": null, "offers": null, "latitude": 33.907706, "politanName": "Atlanta, GA Metro ", "phone_number": "4042522399", "tags": [{"primary": true, "id": 1722, "name": "Restaurants"}], "fax_number": null, "expansion": {"count": null, "uri": null}, "impression_id": "000b0000005f1f9ee241414350ab613c3508a077b3", "profile": "http://www.citysearch.com/profile/745611400/atlanta_ga/tappan_street_restaurant_group.html", "address": {"city": "Atlanta", "state": "GA", "street": "5600 Roswell Rd", "postal_code": "30342"}, "capProviderId": null, "distance": null, "has_offers": false, "name": "Tappan Street Restaurant Group", "longitude": -84.378787, "has_menu": false, "awards": null, "user_review_count": 0}, {"business_operation_status": 1, "rating": null, "neighborhood": null, "image": null, "scorecard": null, "featured": false, "sample_categories": "Restaurants, Pizza", "public_id": "blue-moon-pizza-of-sandy-spgs-sandy", "id": 748265400, "votes": null, "tagline": null, "has_video": false, "website": "http://www.citysearch.com/profile/external/748265400/sandy_springs_ga/blue_moon_pizza_of_sandy_spgs.html", "offers": null, "latitude": 33.908579, "politanName": "Atlanta, GA Metro ", "phone_number": "4042367200", "tags": [{"primary": false, "id": 11299, "name": "Pizza"}, {"primary": true, "id": 1722, "name": "Restaurants"}], "fax_number": null, "expansion": {"count": null, "uri": null}, "impression_id": "000b000000b59f1ec089304c7aa24e1c0b4660c17e", "profile": "http://www.citysearch.com/profile/748265400/sandy_springs_ga/blue_moon_pizza_of_sandy_spgs.html", "address": {"city": "Sandy Springs", "state": "GA", "street": "5620 Glenridge Dr NE", "postal_code": "30342"}, "capProviderId": null, "distance": null, "has_offers": false, "name": "Blue Moon Pizza of Sandy Spgs", "longitude": -84.3632, "has_menu": false, "awards": null, "user_review_count": 0}, {"business_operation_status": 1, "rating": null, "neighborhood": null, "image": null, "scorecard": null, "featured": false, "sample_categories": "Restaurants", "public_id": "sage-dining-svc-inc-mableton", "id": 632929260, "votes": null, "tagline": null, "has_video": false, "website": null, "offers": null, "latitude": 33.822283, "politanName": "Atlanta, GA Metro ", "phone_number": "6783051413", "tags": [{"primary": true, "id": 1722, "name": "Restaurants"}], "fax_number": null, "expansion": {"count": null, "uri": null}, "impression_id": "000b000000b5cfa35667f944808e44706f4a23ff31", "profile": "http://www.citysearch.com/profile/632929260/mableton_ga/sage_dining_svc_inc.html", "address": {"city": "Mableton", "state": "GA", "street": "1 Whitefield Dr Se", "postal_code": "30126"}, "capProviderId": null, "distance": null, "has_offers": false, "name": "Sage Dining Svc Inc", "longitude": -84.509583, "has_menu": false, "awards": null, "user_review_count": 0}, {"business_operation_status": 1, "rating": null, "neighborhood": "Northside, Northside", "image": null, "scorecard": null, "featured": false, "sample_categories": "Restaurants, Pizza", "public_id": "lee-tomas-atlanta", "id": 762775250, "votes": null, "tagline": null, "has_video": false, "website": null, "offers": null, "latitude": 33.811491, "politanName": "Atlanta, GA Metro ", "phone_number": "4043528881", "tags": [{"primary": false, "id": 11299, "name": "Pizza"}, {"primary": true, "id": 1722, "name": "Restaurants"}], "fax_number": null, "expansion": {"count": null, "uri": null}, "impression_id": "000b000000b04a0fa4a0974e0a98e05165628abf98", "profile": "http://www.citysearch.com/profile/762775250/atlanta_ga/lee_tomas.html", "address": {"city": "Atlanta", "state": "GA", "street": "1341 Collier Rd NW", "postal_code": "30318"}, "capProviderId": null, "distance": null, "has_offers": false, "name": "Lee Tomas", "longitude": -84.431673, "has_menu": false, "awards": null, "user_review_count": 0}, {"business_operation_status": 1, "rating": null, "neighborhood": null, "image": null, "scorecard": null, "featured": false, "sample_categories": "Restaurants, Bars & Clubs, Bars & Pubs", "public_id": "prime-time-sports-bar-grill-atlanta", "id": 764876470, "votes": null, "tagline": null, "has_video": false, "website": null, "offers": null, "latitude": 33.91426, "politanName": "Atlanta, GA Metro ", "phone_number": "4042552380", "tags": [{"primary": false, "id": 164, "name": "Bars & Clubs"}, {"primary": false, "id": 1686, "name": "Bars & Pubs"}, {"primary": true, "id": 1722, "name": "Restaurants"}], "fax_number": null, "expansion": {"count": null, "uri": null}, "impression_id": "000b000000922613bf1ec44cddb9910e4b9f6a6bdb", "profile": "http://www.citysearch.com/profile/764876470/atlanta_ga/prime_time_sports_bar_grill.html", "address": {"city": "Atlanta", "state": "GA", "street": "5825 Roswell Rd NE", "postal_code": "30328"}, "capProviderId": null, "distance": null, "has_offers": false, "name": "Prime Time Sports Bar & Grill", "longitude": -84.379139, "has_menu": false, "awards": null, "user_review_count": 0}, {"business_operation_status": 1, "rating": null, "neighborhood": null, "image": null, "scorecard": null, "featured": false, "sample_categories": "Restaurants, Traditional American, Carry Out", "public_id": "arbys-atlanta-19", "id": 764928840, "votes": null, "tagline": null, "has_video": false, "website": "http://www.citysearch.com/profile/external/764928840/atlanta_ga/arby_s.html", "offers": null, "latitude": 33.919456, "politanName": "Atlanta, GA Metro ", "phone_number": "4042564900", "tags": [{"primary": false, "id": 11190, "name": "Traditional American"}, {"primary": false, "id": 11247, "name": "Carry Out"}, {"primary": true, "id": 1722, "name": "Restaurants"}], "fax_number": null, "expansion": {"count": null, "uri": null}, "impression_id": "000b0000007557cca7376e4f849b18234474e1562c", "profile": "http://www.citysearch.com/profile/764928840/atlanta_ga/arby_s.html", "address": {"city": "Atlanta", "state": "GA", "street": "5995 Barfield Rd NE", "postal_code": "30328"}, "capProviderId": null, "distance": null, "has_offers": false, "name": "Arby's", "longitude": -84.35912, "has_menu": false, "awards": null, "user_review_count": 0}, {"business_operation_status": 1, "rating": null, "neighborhood": null, "image": null, "scorecard": null, "featured": false, "sample_categories": "Restaurants, Delis And Delicatessens", "public_id": "zoes-kitchen-marietta", "id": 764935770, "votes": null, "tagline": null, "has_video": false, "website": "http://www.citysearch.com/profile/external/764935770/marietta_ga/zoes_kitchen.html", "offers": null, "latitude": 33.985652, "politanName": "Atlanta, GA Metro ", "phone_number": "7705095743", "tags": [{"primary": false, "id": 1727, "name": "Delis And Delicatessens"}, {"primary": true, "id": 1722, "name": "Restaurants"}], "fax_number": null, "expansion": {"count": null, "uri": null}, "impression_id": "000b000000ddddfe2a7bcc4c0a87bbda95d242723b", "profile": "http://www.citysearch.com/profile/764935770/marietta_ga/zoes_kitchen.html", "address": {"city": "Marietta", "state": "GA", "street": "4400 Upper Roswell Rd", "postal_code": "30062"}, "capProviderId": null, "distance": null, "has_offers": false, "name": "Zoes Kitchen", "longitude": -84.423277, "has_menu": false, "awards": null, "user_review_count": 0}, {"business_operation_status": 1, "rating": null, "neighborhood": null, "image": null, "scorecard": null, "featured": false, "sample_categories": "Restaurants, Indian", "public_id": "curry-curry-marietta-2", "id": 775225410, "votes": null, "tagline": null, "has_video": false, "website": null, "offers": null, "latitude": 33.965749, "politanName": "Atlanta, GA Metro ", "phone_number": "6785607809", "tags": [{"primary": false, "id": 11277, "name": "Indian"}, {"primary": true, "id": 1722, "name": "Restaurants"}], "fax_number": null, "expansion": {"count": null, "uri": null}, "impression_id": "000b000000688a43d8d1034ff0b8216f99c77fb3c0", "profile": "http://www.citysearch.com/profile/775225410/marietta_ga/curry_curry.html", "address": {"city": "Marietta", "state": "GA", "street": "4724 Lower Roswell Rd", "postal_code": "30068"}, "capProviderId": null, "distance": null, "has_offers": false, "name": "Curry Curry", "longitude": -84.413931, "has_menu": false, "awards": null, "user_review_count": 0}, {"business_operation_status": 1, "rating": null, "neighborhood": null, "image": null, "scorecard": null, "featured": false, "sample_categories": "Restaurants", "public_id": "cafe-decuir-smyrna", "id": 655946280, "votes": null, "tagline": null, "has_video": false, "website": "http://www.citysearch.com/profile/external/655946280/smyrna_ga/cafe_decuir.html", "offers": null, "latitude": 33.831642, "politanName": "Atlanta, GA Metro ", "phone_number": "7704349990", "tags": [{"primary": true, "id": 1722, "name": "Restaurants"}], "fax_number": null, "expansion": {"count": null, "uri": null}, "impression_id": "000b0000008d00e2af2be4427090cde889ae37d76b", "profile": "http://www.citysearch.com/profile/655946280/smyrna_ga/cafe_decuir.html", "address": {"city": "Smyrna", "state": "GA", "street": "4924 S Cobb Dr Se", "postal_code": "30080"}, "capProviderId": null, "distance": null, "has_offers": false, "name": "Cafe Decuir", "longitude": -84.493491, "has_menu": false, "awards": null, "user_review_count": 0}, {"business_operation_status": 0, "rating": null, "neighborhood": null, "image": null, "scorecard": null, "featured": false, "sample_categories": "Ice Cream Parlors", "public_id": "la-michoacana-helados-marietta", "id": 779703880, "votes": null, "tagline": null, "has_video": false, "website": null, "offers": null, "latitude": 33.904406, "politanName": "Atlanta, GA Metro ", "phone_number": "4049179790", "tags": [{"primary": true, "id": 1730, "name": "Ice Cream Parlors"}], "fax_number": null, "expansion": {"count": null, "uri": null}, "impression_id": "000b00000036ee49619ec84589bc5d819ffa2212d7", "profile": "http://www.citysearch.com/profile/779703880/marietta_ga/la_michoacana_helados.html", "address": {"city": "Marietta", "state": "GA", "street": "334 Dink Ln Se", "postal_code": "30060"}, "capProviderId": null, "distance": null, "has_offers": false, "name": "La Michoacana Helados", "longitude": -84.542831, "has_menu": false, "awards": null, "user_review_count": 0}, {"business_operation_status": 1, "rating": null, "neighborhood": null, "image": null, "scorecard": null, "featured": false, "sample_categories": "Restaurants", "public_id": "mocha-delites-marietta-2", "id": 777723340, "votes": null, "tagline": null, "has_video": false, "website": null, "offers": null, "latitude": 33.929888, "politanName": "Atlanta, GA Metro ", "phone_number": "7709568835", "tags": [{"primary": true, "id": 1722, "name": "Restaurants"}], "fax_number": null, "expansion": {"count": null, "uri": null}, "impression_id": "000b00000030ba21649ed0451bb7854c6f135dfccc", "profile": "http://www.citysearch.com/profile/777723340/marietta_ga/mocha_delites.html", "address": {"city": "Marietta", "state": "GA", "street": "2944 Chipmunk Trl Se", "postal_code": "30067"}, "capProviderId": null, "distance": null, "has_offers": false, "name": "Mocha Delites", "longitude": -84.472516, "has_menu": false, "awards": null, "user_review_count": 0}, {"business_operation_status": 1, "rating": null, "neighborhood": null, "image": null, "scorecard": null, "featured": false, "sample_categories": "Restaurants, Delis And Delicatessens, Sandwich Shops", "public_id": "my-friends-place-deli-marietta", "id": 682445750, "votes": null, "tagline": null, "has_video": false, "website": "http://www.citysearch.com/profile/external/682445750/marietta_ga/my_friend_s_place_deli.html", "offers": null, "latitude": 33.964261, "politanName": "Atlanta, GA Metro ", "phone_number": "7709733300", "tags": [{"primary": false, "id": 1727, "name": "Delis And Delicatessens"}, {"primary": false, "id": 1736, "name": "Sandwich Shops"}, {"primary": true, "id": 1722, "name": "Restaurants"}], "fax_number": null, "expansion": {"count": null, "uri": null}, "impression_id": "000b00000000a3e9e9b56d47008f56efba91cbf374", "profile": "http://www.citysearch.com/profile/682445750/marietta_ga/my_friend_s_place_deli.html", "address": {"city": "Marietta", "state": "GA", "street": "3423 Greenfield Dr", "postal_code": "30068"}, "capProviderId": null, "distance": null, "has_offers": false, "name": "My Friend's Place Deli", "longitude": -84.451189, "has_menu": false, "awards": null, "user_review_count": 0}, {"business_operation_status": 1, "rating": null, "neighborhood": null, "image": null, "scorecard": null, "featured": false, "sample_categories": "Restaurants, Cajun & Creole", "public_id": "cajun-operating-co-atlanta", "id": 790784630, "votes": null, "tagline": null, "has_video": false, "website": "http://www.citysearch.com/profile/external/790784630/atlanta_ga/cajun_operating_co.html", "offers": null, "latitude": 33.920616, "politanName": "Atlanta, GA Metro ", "phone_number": "7703929716", "tags": [{"primary": false, "id": 11245, "name": "Cajun & Creole"}, {"primary": true, "id": 1722, "name": "Restaurants"}], "fax_number": null, "expansion": {"count": null, "uri": null}, "impression_id": "000b000000da9483c845ed4b27969b064a61b97ea8", "profile": "http://www.citysearch.com/profile/790784630/atlanta_ga/cajun_operating_co.html", "address": {"city": "Atlanta", "state": "GA", "street": "980 Hammond Dr # 1100", "postal_code": "30328"}, "capProviderId": null, "distance": null, "has_offers": false, "name": "Cajun Operating Co", "longitude": -84.355812, "has_menu": false, "awards": null, "user_review_count": 0}, {"business_operation_status": 0, "rating": null, "neighborhood": null, "image": null, "scorecard": null, "featured": false, "sample_categories": "Restaurants, Bars & Pubs, Delis And Delicatessens, American Express, Discover", "public_id": "locos-grill-pub-atlanta-4", "id": 698743130, "votes": null, "tagline": null, "has_video": false, "website": null, "offers": null, "latitude": 33.917875, "politanName": "Atlanta, GA Metro ", "phone_number": "7709139333", "tags": [{"primary": false, "id": 1686, "name": "Bars & Pubs"}, {"primary": false, "id": 1727, "name": "Delis And Delicatessens"}, {"primary": false, "id": 11333, "name": "American Express"}, {"primary": false, "id": 11349, "name": "Discover"}, {"primary": false, "id": 11361, "name": "MasterCard"}, {"primary": false, "id": 11382, "name": "Visa"}, {"primary": true, "id": 1722, "name": "Restaurants"}], "fax_number": null, "expansion": {"count": null, "uri": null}, "impression_id": "000b000000a247524ba25749c1a39d1127d9d36ffd", "profile": "http://www.citysearch.com/profile/698743130/atlanta_ga/locos_grill_pub.html", "address": {"city": "Atlanta", "state": "GA", "street": "8550 Roswell Rd", "postal_code": "30328"}, "capProviderId": null, "distance": null, "has_offers": false, "name": "Locos Grill & Pub", "longitude": -84.379124, "has_menu": false, "awards": null, "user_review_count": 2}, {"business_operation_status": 1, "rating": 8.0, "neighborhood": null, "image": null, "scorecard": null, "featured": false, "sample_categories": "Mexican", "public_id": "el-tequilla-marietta", "id": 37460153, "votes": null, "tagline": null, "has_video": false, "website": null, "offers": null, "latitude": 33.906772, "politanName": "Atlanta, GA Metro ", "phone_number": "7709538610", "tags": [{"primary": true, "id": 11208, "name": "Mexican"}], "fax_number": null, "expansion": {"count": null, "uri": null}, "impression_id": "000b0000008e51339f0972445caa5c0350b4f97d96", "profile": "http://www.citysearch.com/profile/37460153/marietta_ga/el_tequilla.html", "address": {"city": "Marietta", "state": "GA", "street": "1869 Cobb Pkwy S", "postal_code": "30060"}, "capProviderId": null, "distance": null, "has_offers": false, "name": "El Tequilla", "longitude": -84.490975, "has_menu": true, "awards": null, "user_review_count": 0}, {"business_operation_status": 1, "rating": null, "neighborhood": null, "image": null, "scorecard": null, "featured": false, "sample_categories": "Restaurants, Carry Out", "public_id": "zaxbys-smyrna-4", "id": 626121764, "votes": null, "tagline": null, "has_video": false, "website": null, "offers": null, "latitude": 33.879925, "politanName": "Atlanta, GA Metro ", "phone_number": "6788704000", "tags": [{"primary": false, "id": 11247, "name": "Carry Out"}, {"primary": true, "id": 1722, "name": "Restaurants"}], "fax_number": null, "expansion": {"count": null, "uri": null}, "impression_id": "000b0000007157d1437a834ad18f4b42cc361b933e", "profile": "http://www.citysearch.com/profile/626121764/smyrna_ga/zaxby_s.html", "address": {"city": "Smyrna", "state": "GA", "street": "1420 Spring Rd SE", "postal_code": "30080"}, "capProviderId": null, "distance": null, "has_offers": false, "name": "Zaxby's", "longitude": -84.51175, "has_menu": false, "awards": null, "user_review_count": 0}, {"business_operation_status": 1, "rating": null, "neighborhood": null, "image": null, "scorecard": null, "featured": false, "sample_categories": "Restaurants, Pizza", "public_id": "mellow-atlanta", "id": 748304140, "votes": null, "tagline": null, "has_video": false, "website": null, "offers": null, "latitude": 33.921743, "politanName": "Atlanta, GA Metro ", "phone_number": "4042571299", "tags": [{"primary": false, "id": 11299, "name": "Pizza"}, {"primary": true, "id": 1722, "name": "Restaurants"}], "fax_number": null, "expansion": {"count": null, "uri": null}, "impression_id": "000b000000e9e54360e4f74d92b9fd58ee6fa70d36", "profile": "http://www.citysearch.com/profile/748304140/atlanta_ga/mellow.html", "address": {"city": "Atlanta", "state": "GA", "street": "6100 Roswell Rd NE", "postal_code": "30328"}, "capProviderId": null, "distance": null, "has_offers": false, "name": "Mellow", "longitude": -84.379738, "has_menu": false, "awards": null, "user_review_count": 0}, {"business_operation_status": 1, "rating": null, "neighborhood": null, "image": null, "scorecard": null, "featured": false, "sample_categories": "Restaurants", "public_id": "muffin-boy-atlanta", "id": 732171540, "votes": null, "tagline": null, "has_video": false, "website": null, "offers": null, "latitude": 33.94795, "politanName": "Atlanta, GA Metro ", "phone_number": "7703910848", "tags": [{"primary": true, "id": 1722, "name": "Restaurants"}], "fax_number": null, "expansion": {"count": null, "uri": null}, "impression_id": "000b0000000bb9e56e6d1b447c9c2c77c5338be071", "profile": "http://www.citysearch.com/profile/732171540/atlanta_ga/muffin_boy.html", "address": {"city": "Atlanta", "state": "GA", "street": "3070 River North Pkwy NW", "postal_code": "30328"}, "capProviderId": null, "distance": null, "has_offers": false, "name": "Muffin Boy", "longitude": -84.399051, "has_menu": false, "awards": null, "user_review_count": 0}, {"business_operation_status": 0, "rating": null, "neighborhood": null, "image": null, "scorecard": null, "featured": false, "sample_categories": "Restaurants, Delis And Delicatessens, American Express, Debit Card, Discover", "public_id": "lennys-sub-shop-marietta", "id": 732210960, "votes": null, "tagline": null, "has_video": false, "website": null, "offers": null, "latitude": 33.946428, "politanName": "Atlanta, GA Metro ", "phone_number": "6785946940", "tags": [{"primary": false, "id": 1727, "name": "Delis And Delicatessens"}, {"primary": false, "id": 11333, "name": "American Express"}, {"primary": false, "id": 11347, "name": "Debit Card"}, {"primary": false, "id": 11349, "name": "Discover"}, {"primary": false, "id": 11361, "name": "MasterCard"}, {"primary": false, "id": 11382, "name": "Visa"}, {"primary": true, "id": 1722, "name": "Restaurants"}], "fax_number": null, "expansion": {"count": null, "uri": null}, "impression_id": "000b000000f64e0aaf62e3408b886611cda280cdc6", "profile": "http://www.citysearch.com/profile/732210960/marietta_ga/lenny_s_sub_shop.html", "address": {"city": "Marietta", "state": "GA", "street": "270 Cobb Pkwy S", "postal_code": "30060"}, "capProviderId": null, "distance": null, "has_offers": false, "name": "Lenny's Sub Shop", "longitude": -84.520358, "has_menu": false, "awards": null, "user_review_count": 0}, {"business_operation_status": 1, "rating": null, "neighborhood": null, "image": null, "scorecard": null, "featured": false, "sample_categories": "Restaurants, Delis And Delicatessens, Sandwich Shops, Carry Out, Shop Online", "public_id": "quiznos-marietta-6", "id": 764858410, "votes": null, "tagline": null, "has_video": false, "website": null, "offers": null, "latitude": 33.98568, "politanName": "Atlanta, GA Metro ", "phone_number": "7709714909", "tags": [{"primary": false, "id": 1727, "name": "Delis And Delicatessens"}, {"primary": false, "id": 1736, "name": "Sandwich Shops"}, {"primary": false, "id": 11247, "name": "Carry Out"}, {"primary": false, "id": 11375, "name": "Shop Online"}, {"primary": true, "id": 1722, "name": "Restaurants"}], "fax_number": null, "expansion": {"count": null, "uri": null}, "impression_id": "000b0000000b5e140a397049aa8b22bd672a6188a2", "profile": "http://www.citysearch.com/profile/764858410/marietta_ga/quiznos.html", "address": {"city": "Marietta", "state": "GA", "street": "4400 Roswell Rd # 140", "postal_code": "30062"}, "capProviderId": null, "distance": null, "has_offers": false, "name": "Quiznos", "longitude": -84.423208, "has_menu": true, "awards": null, "user_review_count": 0}, {"business_operation_status": 1, "rating": null, "neighborhood": null, "image": null, "scorecard": null, "featured": false, "sample_categories": "Restaurants, Carry Out", "public_id": "arbys-marietta-16", "id": 764873620, "votes": null, "tagline": null, "has_video": false, "website": null, "offers": null, "latitude": 33.917209, "politanName": "Atlanta, GA Metro ", "phone_number": "7709338090", "tags": [{"primary": false, "id": 11247, "name": "Carry Out"}, {"primary": true, "id": 1722, "name": "Restaurants"}], "fax_number": null, "expansion": {"count": null, "uri": null}, "impression_id": "000b0000006e55907a105f4752a0bad28544a78373", "profile": "http://www.citysearch.com/profile/764873620/marietta_ga/arby_s.html", "address": {"city": "Marietta", "state": "GA", "street": "1421 Terrell Mill Rd SE", "postal_code": "30067"}, "capProviderId": null, "distance": null, "has_offers": false, "name": "Arby's", "longitude": -84.468004, "has_menu": false, "awards": null, "user_review_count": 0}, {"business_operation_status": 1, "rating": null, "neighborhood": null, "image": null, "scorecard": null, "featured": false, "sample_categories": "Restaurants, Bars & Pubs, Carry Out", "public_id": "chilis-grill-bar-marietta-4", "id": 764886130, "votes": null, "tagline": null, "has_video": false, "website": null, "offers": null, "latitude": 33.939526, "politanName": "Atlanta, GA Metro ", "phone_number": "7704230897", "tags": [{"primary": false, "id": 1686, "name": "Bars & Pubs"}, {"primary": false, "id": 11247, "name": "Carry Out"}, {"primary": true, "id": 1722, "name": "Restaurants"}], "fax_number": null, "expansion": {"count": null, "uri": null}, "impression_id": "000b0000002efd602ae2dd4d13851ba172e59556b1", "profile": "http://www.citysearch.com/profile/764886130/marietta_ga/chili_s_grill_bar.html", "address": {"city": "Marietta", "state": "GA", "street": "555 Commerce Ave SE", "postal_code": "30067"}, "capProviderId": null, "distance": null, "has_offers": false, "name": "Chili's Grill & Bar", "longitude": -84.506501, "has_menu": false, "awards": null, "user_review_count": 0}, {"business_operation_status": 1, "rating": null, "neighborhood": null, "image": null, "scorecard": null, "featured": false, "sample_categories": "Restaurants, Barbecue Restaurants, Carry Out, Shop Online", "public_id": "famous-daves-smyrna-4", "id": 764909170, "votes": null, "tagline": null, "has_video": false, "website": null, "offers": null, "latitude": 33.864202, "politanName": "Atlanta, GA Metro ", "phone_number": "7709338998", "tags": [{"primary": false, "id": 1724, "name": "Barbecue Restaurants"}, {"primary": false, "id": 11247, "name": "Carry Out"}, {"primary": false, "id": 11375, "name": "Shop Online"}, {"primary": true, "id": 1722, "name": "Restaurants"}], "fax_number": null, "expansion": {"count": null, "uri": null}, "impression_id": "000b00000019f1d877ae5c4e4bb2a44c2ba3c4fbe8", "profile": "http://www.citysearch.com/profile/764909170/smyrna_ga/famous_dave_s.html", "address": {"city": "Smyrna", "state": "GA", "street": "1935 Paces Ferry Rd SE", "postal_code": "30080"}, "capProviderId": null, "distance": null, "has_offers": false, "name": "Famous Dave's", "longitude": -84.493295, "has_menu": false, "awards": null, "user_review_count": 0}, {"business_operation_status": 1, "rating": null, "neighborhood": null, "image": null, "scorecard": null, "featured": false, "sample_categories": "Grocery Stores, Restaurants", "public_id": "royal-groceries-rstrnt-llc-marietta", "id": 764910880, "votes": null, "tagline": null, "has_video": false, "website": null, "offers": null, "latitude": 33.95073, "politanName": "Atlanta, GA Metro ", "phone_number": "7709738414", "tags": [{"primary": false, "id": 1722, "name": "Restaurants"}, {"primary": true, "id": 1713, "name": "Grocery Stores"}], "fax_number": null, "expansion": {"count": null, "uri": null}, "impression_id": "000b000000e1735bfecd2e4bb492abcbce41deae5a", "profile": "http://www.citysearch.com/profile/764910880/marietta_ga/royal_groceries_rstrnt_llc.html", "address": {"city": "Marietta", "state": "GA", "street": "1392 Roswell Rd", "postal_code": "30062"}, "capProviderId": null, "distance": null, "has_offers": false, "name": "Royal Groceries & Rstrnt Llc", "longitude": -84.511253, "has_menu": false, "awards": null, "user_review_count": 0}, {"business_operation_status": 1, "rating": null, "neighborhood": "Northside, Northside", "image": null, "scorecard": null, "featured": false, "sample_categories": "Delis And Delicatessens", "public_id": "usa-deli-atlanta", "id": 764933650, "votes": null, "tagline": null, "has_video": false, "website": null, "offers": null, "latitude": 33.794633, "politanName": "Atlanta, GA Metro ", "phone_number": "4048766078", "tags": [{"primary": true, "id": 1727, "name": "Delis And Delicatessens"}], "fax_number": null, "expansion": {"count": null, "uri": null}, "impression_id": "000b0000009c5d036810bc42e18ebf936711241cb4", "profile": "http://www.citysearch.com/profile/764933650/atlanta_ga/usa_deli.html", "address": {"city": "Atlanta", "state": "GA", "street": "902 Hllwell Pkwy NW", "postal_code": "30318"}, "capProviderId": null, "distance": null, "has_offers": false, "name": "USA Deli", "longitude": -84.448772, "has_menu": false, "awards": null, "user_review_count": 0}, {"business_operation_status": 1, "rating": null, "neighborhood": "Northside, Northside", "image": null, "scorecard": null, "featured": false, "sample_categories": "Restaurants, Bars & Clubs, Bars & Pubs", "public_id": "carizma-restaurant-lounge-atlanta", "id": 766755690, "votes": null, "tagline": null, "has_video": false, "website": null, "offers": null, "latitude": 33.807807, "politanName": "Atlanta, GA Metro ", "phone_number": "4043500345", "tags": [{"primary": false, "id": 164, "name": "Bars & Clubs"}, {"primary": false, "id": 1686, "name": "Bars & Pubs"}, {"primary": true, "id": 1722, "name": "Restaurants"}], "fax_number": null, "expansion": {"count": null, "uri": null}, "impression_id": "000b000000c2da1bdd900e4c5db60bf1d47dd2d78b", "profile": "http://www.citysearch.com/profile/766755690/atlanta_ga/carizma_restaurant_lounge.html", "address": {"city": "Atlanta", "state": "GA", "street": "1950 Howell Mill Rd NW", "postal_code": "30318"}, "capProviderId": null, "distance": null, "has_offers": false, "name": "Carizma Restaurant Lounge", "longitude": -84.412683, "has_menu": false, "awards": null, "user_review_count": 0}, {"business_operation_status": 1, "rating": null, "neighborhood": null, "image": null, "scorecard": null, "featured": false, "sample_categories": "Restaurants, Diners", "public_id": "empire-diner-sandy-spgs", "id": 655825260, "votes": null, "tagline": null, "has_video": false, "website": null, "offers": null, "latitude": 33.916242, "politanName": "Atlanta, GA Metro ", "phone_number": "4042527472", "tags": [{"primary": false, "id": 1732, "name": "Diners"}, {"primary": true, "id": 1722, "name": "Restaurants"}], "fax_number": null, "expansion": {"count": null, "uri": null}, "impression_id": "000b0000003d40f718db8a4a3aa8d8affb4ac096b0", "profile": "http://www.citysearch.com/profile/655825260/sandy_springs_ga/empire_diner.html", "address": {"city": "Sandy Springs", "state": "GA", "street": "5920 Roswell Rd", "postal_code": "30328"}, "capProviderId": null, "distance": null, "has_offers": false, "name": "Empire Diner", "longitude": -84.379244, "has_menu": false, "awards": null, "user_review_count": 0}, {"business_operation_status": 1, "rating": null, "neighborhood": null, "image": null, "scorecard": null, "featured": false, "sample_categories": "Restaurants, Mexican", "public_id": "el-taco-azteco-bar-grill-marietta", "id": 779707060, "votes": null, "tagline": null, "has_video": false, "website": null, "offers": null, "latitude": 33.976739, "politanName": "Atlanta, GA Metro ", "phone_number": "6782752349", "tags": [{"primary": false, "id": 11208, "name": "Mexican"}, {"primary": true, "id": 1722, "name": "Restaurants"}], "fax_number": null, "expansion": {"count": null, "uri": null}, "impression_id": "000b00000087bd06f44ae449e49bcf292123d07034", "profile": "http://www.citysearch.com/profile/779707060/marietta_ga/el_taco_azteco_bar_grill.html", "address": {"city": "Marietta", "state": "GA", "street": "1050 E Piedmont Rd", "postal_code": "30062"}, "capProviderId": null, "distance": null, "has_offers": false, "name": "El Taco Azteco Bar & Grill", "longitude": -84.479676, "has_menu": false, "awards": null, "user_review_count": 0}, {"business_operation_status": 0, "rating": null, "neighborhood": null, "image": null, "scorecard": null, "featured": false, "sample_categories": "Restaurants, Delis And Delicatessens, Sandwich Shops, Carry Out", "public_id": "quiznos-atlanta-32", "id": 764855160, "votes": null, "tagline": null, "has_video": false, "website": null, "offers": null, "latitude": 33.917033, "politanName": "Atlanta, GA Metro ", "phone_number": "7709534495", "tags": [{"primary": false, "id": 1727, "name": "Delis And Delicatessens"}, {"primary": false, "id": 1736, "name": "Sandwich Shops"}, {"primary": false, "id": 11247, "name": "Carry Out"}, {"primary": true, "id": 1722, "name": "Restaurants"}], "fax_number": null, "expansion": {"count": null, "uri": null}, "impression_id": "000b0000006029bf4bf2ce46e49ed3cbd74449ffe5", "profile": "http://www.citysearch.com/profile/764855160/atlanta_ga/quiznos.html", "address": {"city": "Atlanta", "state": "GA", "street": "5890 Winterthur Rdg NW", "postal_code": "30328"}, "capProviderId": null, "distance": null, "has_offers": false, "name": "Quiznos", "longitude": -84.434794, "has_menu": true, "awards": null, "user_review_count": 0}, {"business_operation_status": 1, "rating": null, "neighborhood": null, "image": null, "scorecard": null, "featured": false, "sample_categories": "Restaurants, Delis And Delicatessens, Sandwich Shops, Carry Out, Shop Online", "public_id": "quiznos-smyrna-8", "id": 764861640, "votes": null, "tagline": null, "has_video": false, "website": "http://www.citysearch.com/profile/external/764861640/smyrna_ga/quiznos.html", "offers": null, "latitude": 33.893328, "politanName": "Atlanta, GA Metro ", "phone_number": "7709840033", "tags": [{"primary": false, "id": 1727, "name": "Delis And Delicatessens"}, {"primary": false, "id": 1736, "name": "Sandwich Shops"}, {"primary": false, "id": 11247, "name": "Carry Out"}, {"primary": false, "id": 11375, "name": "Shop Online"}, {"primary": true, "id": 1722, "name": "Restaurants"}], "fax_number": null, "expansion": {"count": null, "uri": null}, "impression_id": "000b0000002346f4f893324815a0254b75f80eb0f3", "profile": "http://www.citysearch.com/profile/764861640/smyrna_ga/quiznos.html", "address": {"city": "Smyrna", "state": "GA", "street": "2415 Cobb Pkwy SE", "postal_code": "30080"}, "capProviderId": null, "distance": null, "has_offers": false, "name": "Quiznos", "longitude": -84.478533, "has_menu": true, "awards": null, "user_review_count": 3}, {"business_operation_status": 1, "rating": null, "neighborhood": null, "image": null, "scorecard": null, "featured": false, "sample_categories": "Restaurants, Carry Out, Pizza", "public_id": "papa-johns-pizza-marietta-16", "id": 764880810, "votes": null, "tagline": null, "has_video": false, "website": null, "offers": null, "latitude": 33.922655, "politanName": "Atlanta, GA Metro ", "phone_number": "4049848282", "tags": [{"primary": false, "id": 11247, "name": "Carry Out"}, {"primary": false, "id": 11299, "name": "Pizza"}, {"primary": true, "id": 1722, "name": "Restaurants"}], "fax_number": null, "expansion": {"count": null, "uri": null}, "impression_id": "000b000000ffe28451b1fa4f98898c2c6b58aaf95d", "profile": "http://www.citysearch.com/profile/764880810/marietta_ga/papa_john_s_pizza.html", "address": {"city": "Marietta", "state": "GA", "street": "2556 Delk Rd SE", "postal_code": "30067"}, "capProviderId": null, "distance": null, "has_offers": false, "name": "Papa John's Pizza", "longitude": -84.480194, "has_menu": false, "awards": null, "user_review_count": 0}, {"business_operation_status": 1, "rating": null, "neighborhood": null, "image": null, "scorecard": null, "featured": false, "sample_categories": "Restaurants", "public_id": "lakeside-cafe-atlanta", "id": 682418240, "votes": null, "tagline": null, "has_video": false, "website": null, "offers": null, "latitude": 33.919847, "politanName": "Atlanta, GA Metro ", "phone_number": "7706680469", "tags": [{"primary": true, "id": 1722, "name": "Restaurants"}], "fax_number": null, "expansion": {"count": null, "uri": null}, "impression_id": "000b000000994453947dc74bdab9b1316e50ceaa84", "profile": "http://www.citysearch.com/profile/682418240/atlanta_ga/lakeside_cafe.html", "address": {"city": "Atlanta", "state": "GA", "street": "990 Hammond Dr Ne", "postal_code": "30328"}, "capProviderId": null, "distance": null, "has_offers": false, "name": "Lakeside Cafe", "longitude": -84.356319, "has_menu": false, "awards": null, "user_review_count": 0}, {"business_operation_status": 1, "rating": null, "neighborhood": null, "image": null, "scorecard": null, "featured": false, "sample_categories": "Restaurants, Traditional American, Carry Out, American Express, Discover", "public_id": "arbys-austell", "id": 682522910, "votes": null, "tagline": null, "has_video": false, "website": "http://www.citysearch.com/profile/external/682522910/austell_ga/arby_s.html", "offers": null, "latitude": 33.802759, "politanName": "Atlanta, GA Metro ", "phone_number": "7707390339", "tags": [{"primary": false, "id": 11190, "name": "Traditional American"}, {"primary": false, "id": 11247, "name": "Carry Out"}, {"primary": false, "id": 11333, "name": "American Express"}, {"primary": false, "id": 11349, "name": "Discover"}, {"primary": false, "id": 11361, "name": "MasterCard"}, {"primary": false, "id": 11382, "name": "Visa"}, {"primary": true, "id": 1722, "name": "Restaurants"}], "fax_number": null, "expansion": {"count": null, "uri": null}, "impression_id": "000b000000ec293c9f97bd4952aebe4c0872a174b9", "profile": "http://www.citysearch.com/profile/682522910/austell_ga/arby_s.html", "address": {"city": "Austell", "state": "GA", "street": "3060 Bankhead Hwy", "postal_code": "30168"}, "capProviderId": null, "distance": null, "has_offers": false, "name": "Arby's", "longitude": -84.638393, "has_menu": true, "awards": null, "user_review_count": 0}, {"business_operation_status": 1, "rating": null, "neighborhood": null, "image": null, "scorecard": null, "featured": false, "sample_categories": "Restaurants, Cafes", "public_id": "world-peace-cafe-llc-atlanta", "id": 682723520, "votes": null, "tagline": null, "has_video": false, "website": "http://www.citysearch.com/profile/external/682723520/atlanta_ga/world_peace_cafe_llc.html", "offers": null, "latitude": 33.919009, "politanName": "Atlanta, GA Metro ", "phone_number": "4042562100", "tags": [{"primary": false, "id": 6190, "name": "Cafes"}, {"primary": true, "id": 1722, "name": "Restaurants"}], "fax_number": null, "expansion": {"count": null, "uri": null}, "impression_id": "000b000000348737fab55d4feea91528f0fc1f41e0", "profile": "http://www.citysearch.com/profile/682723520/atlanta_ga/world_peace_cafe_llc.html", "address": {"city": "Atlanta", "state": "GA", "street": "220 Hammond Dr Ne # 302", "postal_code": "30328"}, "capProviderId": null, "distance": null, "has_offers": false, "name": "World Peace Cafe LLC", "longitude": -84.381491, "has_menu": false, "awards": null, "user_review_count": 3}, {"business_operation_status": 1, "rating": null, "neighborhood": null, "image": null, "scorecard": null, "featured": false, "sample_categories": "Coffeehouses, Grocery Stores, Pharmacies", "public_id": "starbucks-atlanta-57", "id": 704290030, "votes": null, "tagline": null, "has_video": false, "website": "http://www.citysearch.com/profile/external/704290030/atlanta_ga/starbucks.html", "offers": null, "latitude": 33.919103, "politanName": "Atlanta, GA Metro ", "phone_number": "4042563434", "tags": [{"primary": false, "id": 1726, "name": "Coffeehouses"}, {"primary": false, "id": 1930, "name": "Pharmacies"}, {"primary": true, "id": 1713, "name": "Grocery Stores"}], "fax_number": null, "expansion": {"count": null, "uri": null}, "impression_id": "000b0000003e2e027066e7449abec6f3cd38b1b970", "profile": "http://www.citysearch.com/profile/704290030/atlanta_ga/starbucks.html", "address": {"city": "Atlanta", "state": "GA", "street": "230 Hammond Dr Ne # K", "postal_code": "30328"}, "capProviderId": null, "distance": null, "has_offers": false, "name": "Starbucks", "longitude": -84.382649, "has_menu": false, "awards": null, "user_review_count": 0}, {"business_operation_status": 1, "rating": null, "neighborhood": null, "image": null, "scorecard": null, "featured": false, "sample_categories": "Restaurants", "public_id": "cafe-centrum-atlanta", "id": 808811840, "votes": null, "tagline": null, "has_video": false, "website": null, "offers": null, "latitude": 33.90703, "politanName": "Atlanta, GA Metro ", "phone_number": "4042569206", "tags": [{"primary": true, "id": 1722, "name": "Restaurants"}], "fax_number": null, "expansion": {"count": null, "uri": null}, "impression_id": "000b000000db492fa6a46040adbb2357b777caa3ba", "profile": "http://www.citysearch.com/profile/808811840/atlanta_ga/cafe_centrum.html", "address": {"city": "Atlanta", "state": "GA", "street": "780 Johnson Ferry Rd", "postal_code": "30342"}, "capProviderId": null, "distance": null, "has_offers": false, "name": "Cafe Centrum", "longitude": -84.361664, "has_menu": false, "awards": null, "user_review_count": 0}, {"business_operation_status": 1, "rating": null, "neighborhood": null, "image": null, "scorecard": null, "featured": false, "sample_categories": "Restaurants, Asian, Chinese", "public_id": "hibachi-buffet-marietta", "id": 713488530, "votes": null, "tagline": null, "has_video": false, "website": "http://www.citysearch.com/profile/external/713488530/marietta_ga/hibachi_buffet.html", "offers": null, "latitude": 33.968527, "politanName": "Atlanta, GA Metro ", "phone_number": "7703218202", "tags": [{"primary": false, "id": 11235, "name": "Asian"}, {"primary": false, "id": 11252, "name": "Chinese"}, {"primary": true, "id": 1722, "name": "Restaurants"}], "fax_number": null, "expansion": {"count": null, "uri": null}, "impression_id": "000b000000be1e56414c1549ca88f10715c195973a", "profile": "http://www.citysearch.com/profile/713488530/marietta_ga/hibachi_buffet.html", "address": {"city": "Marietta", "state": "GA", "street": "2145 Roswell Rd # 260", "postal_code": "30062"}, "capProviderId": null, "distance": null, "has_offers": false, "name": "Hibachi Buffet", "longitude": -84.491622, "has_menu": false, "awards": null, "user_review_count": 0}, {"business_operation_status": 1, "rating": 6.0, "neighborhood": null, "image": null, "scorecard": null, "featured": false, "sample_categories": "Restaurants, Diners", "public_id": "ogas-diners-marietta", "id": 2906488, "votes": null, "tagline": null, "has_video": false, "website": null, "offers": null, "latitude": 33.936031, "politanName": "Atlanta, GA Metro ", "phone_number": "7704230098", "tags": [{"primary": false, "id": 1732, "name": "Diners"}, {"primary": true, "id": 1722, "name": "Restaurants"}], "fax_number": null, "expansion": {"count": null, "uri": null}, "impression_id": "000b00000073ac4c4ccbb84d73b170ab11336cf644", "profile": "http://www.citysearch.com/profile/2906488/marietta_ga/oga_s_diners.html", "address": {"city": "Marietta", "state": "GA", "street": "690 Powder Springs St SW", "postal_code": "30064"}, "capProviderId": null, "distance": null, "has_offers": false, "name": "Oga's Diners", "longitude": -84.556041, "has_menu": false, "awards": null, "user_review_count": 1}, {"business_operation_status": 1, "rating": 6.0, "neighborhood": null, "image": null, "scorecard": null, "featured": false, "sample_categories": "Restaurants, Asian", "public_id": "bamboo-garden-smyrna", "id": 2922985, "votes": null, "tagline": null, "has_video": false, "website": null, "offers": null, "latitude": 33.873647, "politanName": "Atlanta, GA Metro ", "phone_number": "7704325832", "tags": [{"primary": false, "id": 11235, "name": "Asian"}, {"primary": true, "id": 1722, "name": "Restaurants"}], "fax_number": null, "expansion": {"count": null, "uri": null}, "impression_id": "000b0000004fdf69911d974e9290f4556bdc9e6732", "profile": "http://www.citysearch.com/profile/2922985/smyrna_ga/bamboo_garden.html", "address": {"city": "Smyrna", "state": "GA", "street": "3240 S Cobb Dr SE Ste H", "postal_code": "30080"}, "capProviderId": null, "distance": null, "has_offers": false, "name": "Bamboo Garden", "longitude": -84.530458, "has_menu": true, "awards": null, "user_review_count": 1}, {"business_operation_status": 1, "rating": null, "neighborhood": null, "image": null, "scorecard": null, "featured": false, "sample_categories": "Ice Cream Parlors", "public_id": "brusters-real-ice-cream-smyrna", "id": 811610290, "votes": null, "tagline": null, "has_video": false, "website": "http://www.citysearch.com/profile/external/811610290/smyrna_ga/bruster_s_real_ice_cream.html", "offers": null, "latitude": 33.845826, "politanName": "Atlanta, GA Metro ", "phone_number": "6783050245", "tags": [{"primary": true, "id": 1730, "name": "Ice Cream Parlors"}], "fax_number": null, "expansion": {"count": null, "uri": null}, "impression_id": "000b00000076d3196fddd145029d3a610e1e5a69c6", "profile": "http://www.citysearch.com/profile/811610290/smyrna_ga/bruster_s_real_ice_cream.html", "address": {"city": "Smyrna", "state": "GA", "street": "4479 S Cobb Dr SE", "postal_code": "30080"}, "capProviderId": null, "distance": null, "has_offers": false, "name": "Bruster's Real Ice Cream", "longitude": -84.502491, "has_menu": true, "awards": null, "user_review_count": 0}, {"business_operation_status": 1, "rating": null, "neighborhood": null, "image": null, "scorecard": null, "featured": false, "sample_categories": "Restaurants", "public_id": "zapollis-restaurants-inc-atlanta", "id": 732245150, "votes": null, "tagline": null, "has_video": false, "website": null, "offers": null, "latitude": 33.902847, "politanName": "Atlanta, GA Metro ", "phone_number": "4042565462", "tags": [{"primary": true, "id": 1722, "name": "Restaurants"}], "fax_number": null, "expansion": {"count": null, "uri": null}, "impression_id": "000b000000b6b7af2919044ee193a471387831bd8c", "profile": "http://www.citysearch.com/profile/732245150/atlanta_ga/zapollis_restaurants_inc.html", "address": {"city": "Atlanta", "state": "GA", "street": "110 Tamarisk Dr NE", "postal_code": "30342"}, "capProviderId": null, "distance": null, "has_offers": false, "name": "Zapollis Restaurants Inc", "longitude": -84.364512, "has_menu": false, "awards": null, "user_review_count": 0}, {"business_operation_status": 1, "rating": null, "neighborhood": null, "image": null, "scorecard": null, "featured": false, "sample_categories": "Luaus", "public_id": "po-folks-restaurant-smyrna", "id": 817948960, "votes": null, "tagline": null, "has_video": false, "website": null, "offers": null, "latitude": 33.882766, "politanName": "Atlanta, GA Metro ", "phone_number": "7703197166", "tags": [{"primary": true, "id": 11285, "name": "Luaus"}], "fax_number": null, "expansion": {"count": null, "uri": null}, "impression_id": "000b000000824162f7ec4c40938a48bddad15adfda", "profile": "http://www.citysearch.com/profile/817948960/smyrna_ga/po_folks_restaurant.html", "address": {"city": "Smyrna", "state": "GA", "street": "2590 Spring Rd SE", "postal_code": "30080"}, "capProviderId": null, "distance": null, "has_offers": false, "name": "PO Folks Restaurant", "longitude": -84.478149, "has_menu": false, "awards": null, "user_review_count": 0}, {"business_operation_status": 1, "rating": null, "neighborhood": null, "image": null, "scorecard": null, "featured": false, "sample_categories": "Restaurants, Pizza, Carry Out", "public_id": "hungry-howies-pizza-smyrna", "id": 838599720, "votes": null, "tagline": null, "has_video": false, "website": "http://www.citysearch.com/profile/external/838599720/smyrna_ga/hungry_howie_s_pizza.html", "offers": null, "latitude": 33.884889, "politanName": "Atlanta, GA Metro ", "phone_number": "6783091112", "tags": [{"primary": false, "id": 1722, "name": "Restaurants"}, {"primary": false, "id": 11247, "name": "Carry Out"}, {"primary": true, "id": 11299, "name": "Pizza"}], "fax_number": null, "expansion": {"count": null, "uri": null}, "impression_id": "000b0000002fb661864ea6499aa11210aa63946406", "profile": "http://www.citysearch.com/profile/838599720/smyrna_ga/hungry_howie_s_pizza.html", "address": {"city": "Smyrna", "state": "GA", "street": "400 Village Green Cir SE", "postal_code": "30080"}, "capProviderId": null, "distance": null, "has_offers": false, "name": "Hungry Howie's Pizza", "longitude": -84.516415, "has_menu": false, "awards": null, "user_review_count": 0}, {"business_operation_status": 1, "rating": null, "neighborhood": null, "image": null, "scorecard": null, "featured": false, "sample_categories": "Restaurants, Carry Out", "public_id": "zaxbys-smyrna-4", "id": 625332414, "votes": null, "tagline": null, "has_video": false, "website": null, "offers": null, "latitude": 33.879925, "politanName": "Atlanta, GA Metro ", "phone_number": "6788704000", "tags": [{"primary": false, "id": 11247, "name": "Carry Out"}, {"primary": true, "id": 1722, "name": "Restaurants"}], "fax_number": null, "expansion": {"count": null, "uri": null}, "impression_id": "000b0000006035d4d2ab44454d98df64bbfc14eb5c", "profile": "http://www.citysearch.com/profile/625332414/smyrna_ga/zaxby_s.html", "address": {"city": "Smyrna", "state": "GA", "street": "1420 Spring Rd SE", "postal_code": "30080"}, "capProviderId": null, "distance": null, "has_offers": false, "name": "Zaxby's", "longitude": -84.51175, "has_menu": false, "awards": null, "user_review_count": 0}, {"business_operation_status": 1, "rating": null, "neighborhood": null, "image": null, "scorecard": null, "featured": false, "sample_categories": "Restaurants", "public_id": "pit-marietta", "id": 751310700, "votes": null, "tagline": null, "has_video": false, "website": null, "offers": null, "latitude": 33.908297, "politanName": "Atlanta, GA Metro ", "phone_number": "7706272634", "tags": [{"primary": true, "id": 1722, "name": "Restaurants"}], "fax_number": null, "expansion": {"count": null, "uri": null}, "impression_id": "000b000000ad8bbf4abdab49e68ec0d584247ea948", "profile": "http://www.citysearch.com/profile/751310700/marietta_ga/pit.html", "address": {"city": "Marietta", "state": "GA", "street": "1854 Terrell Mill Rd SE # 105", "postal_code": "30067"}, "capProviderId": null, "distance": null, "has_offers": false, "name": "Pit", "longitude": -84.487916, "has_menu": false, "awards": null, "user_review_count": 0}, {"business_operation_status": 1, "rating": null, "neighborhood": null, "image": null, "scorecard": null, "featured": false, "sample_categories": "Coffeehouses", "public_id": "ellianos-coffee-co-marietta", "id": 732158430, "votes": null, "tagline": null, "has_video": false, "website": null, "offers": null, "latitude": 33.920792, "politanName": "Atlanta, GA Metro ", "phone_number": "7709567770", "tags": [{"primary": true, "id": 1726, "name": "Coffeehouses"}], "fax_number": null, "expansion": {"count": null, "uri": null}, "impression_id": "000b000000affffc6de3a2462cb5d6f50087e16c7d", "profile": "http://www.citysearch.com/profile/732158430/marietta_ga/elliano_s_coffee_co.html", "address": {"city": "Marietta", "state": "GA", "street": "1270 Powers Ferry Rd SE", "postal_code": "30067"}, "capProviderId": null, "distance": null, "has_offers": false, "name": "Elliano's Coffee Co", "longitude": -84.467912, "has_menu": false, "awards": null, "user_review_count": 0}, {"business_operation_status": 1, "rating": null, "neighborhood": null, "image": null, "scorecard": null, "featured": false, "sample_categories": "Restaurants, Bakeries", "public_id": "cest-si-bon-pastry-rstrnt-smyrna", "id": 764894530, "votes": null, "tagline": null, "has_video": false, "website": null, "offers": null, "latitude": 33.89429, "politanName": "Atlanta, GA Metro ", "phone_number": "7703198875", "tags": [{"primary": false, "id": 1685, "name": "Bakeries"}, {"primary": true, "id": 1722, "name": "Restaurants"}], "fax_number": null, "expansion": {"count": null, "uri": null}, "impression_id": "000b00000058c924e455f24a239156b3fda785e199", "profile": "http://www.citysearch.com/profile/764894530/smyrna_ga/c_est_si_bon_pastry_rstrnt.html", "address": {"city": "Smyrna", "state": "GA", "street": "560 Windy Hill Rd SE", "postal_code": "30080"}, "capProviderId": null, "distance": null, "has_offers": false, "name": "C'Est Si Bon Pastry & Rstrnt", "longitude": -84.536945, "has_menu": false, "awards": null, "user_review_count": 0}, {"business_operation_status": 1, "rating": null, "neighborhood": null, "image": null, "scorecard": null, "featured": false, "sample_categories": "Restaurants, Barbecue Restaurants", "public_id": "shanes-rib-shack-marietta-2", "id": 777741320, "votes": null, "tagline": null, "has_video": false, "website": null, "offers": null, "latitude": 33.917966, "politanName": "Atlanta, GA Metro ", "phone_number": "7709552246", "tags": [{"primary": false, "id": 1724, "name": "Barbecue Restaurants"}, {"primary": true, "id": 1722, "name": "Restaurants"}], "fax_number": null, "expansion": {"count": null, "uri": null}, "impression_id": "000b00000020b4c001563e433488b1b1b69d79655b", "profile": "http://www.citysearch.com/profile/777741320/marietta_ga/shane_s_rib_shack.html", "address": {"city": "Marietta", "state": "GA", "street": "1410 Terrell Mill Rd Se", "postal_code": "30067"}, "capProviderId": null, "distance": null, "has_offers": false, "name": "Shane's Rib Shack", "longitude": -84.467707, "has_menu": true, "awards": null, "user_review_count": 1}, {"business_operation_status": 0, "rating": null, "neighborhood": null, "image": null, "scorecard": null, "featured": false, "sample_categories": "Restaurants, Carry Out", "public_id": "churchs-chicken-smyrna-3", "id": 764886150, "votes": null, "tagline": null, "has_video": false, "website": "http://www.citysearch.com/profile/external/764886150/smyrna_ga/church_s_chicken.html", "offers": null, "latitude": 33.875348, "politanName": "Atlanta, GA Metro ", "phone_number": "7703840500", "tags": [{"primary": false, "id": 11247, "name": "Carry Out"}, {"primary": true, "id": 1722, "name": "Restaurants"}], "fax_number": null, "expansion": {"count": null, "uri": null}, "impression_id": "000b000000f9dfa67754f243a5b712dc676c2b7739", "profile": "http://www.citysearch.com/profile/764886150/smyrna_ga/church_s_chicken.html", "address": {"city": "Smyrna", "state": "GA", "street": "871 Concord Rd SE", "postal_code": "30080"}, "capProviderId": null, "distance": null, "has_offers": false, "name": "Church's Chicken", "longitude": -84.528612, "has_menu": true, "awards": null, "user_review_count": 0}, {"business_operation_status": 1, "rating": null, "neighborhood": null, "image": null, "scorecard": null, "featured": false, "sample_categories": "Restaurants", "public_id": "metropolis-wing-station-marietta", "id": 682470740, "votes": null, "tagline": null, "has_video": false, "website": null, "offers": null, "latitude": 33.927554, "politanName": "Atlanta, GA Metro ", "phone_number": "6783545450", "tags": [{"primary": true, "id": 1722, "name": "Restaurants"}], "fax_number": null, "expansion": {"count": null, "uri": null}, "impression_id": "000b0000007e8b9df5f2d04996a9488568a0bcd57f", "profile": "http://www.citysearch.com/profile/682470740/marietta_ga/metropolis_wing_station.html", "address": {"city": "Marietta", "state": "GA", "street": "1038 Franklin Rd Se", "postal_code": "30067"}, "capProviderId": null, "distance": null, "has_offers": false, "name": "Metropolis Wing Station", "longitude": -84.493666, "has_menu": false, "awards": null, "user_review_count": 0}], "histograms": [], "tag_ids": [1722], "uri": "http://api.citygridmedia.com:8080/search/places/v2/search/where?has_offers=false&type=restaurant&format=json&page=29&where=30339&rpp=50&histograms=false&publisher=10000009598&region_type=circle", "did_you_mean": "", "regions": [{"latitude": 33.877209, "default_radius": 2.6, "type": "postal_code", "name": "30339", "longitude": -84.463483}], "call_id": "000b00000031b04d778bd94f48b22738819faf0754", "first_hit": 1401, "total_hits": 1582, "geo_ids": [26497], "page": 29, "last_hit": 1450}}