{"results": {"rpp": 50, "locations": [{"business_operation_status": 1, "rating": null, "neighborhood": null, "image": null, "scorecard": null, "featured": false, "sample_categories": "Restaurants, Coffeehouses", "public_id": "rev-coffee-house-smyrna", "id": 766767230, "votes": null, "tagline": null, "has_video": false, "website": null, "offers": null, "latitude": 33.882118, "politanName": "Atlanta, GA Metro ", "phone_number": "7705734434", "tags": [{"primary": false, "id": 1726, "name": "Coffeehouses"}, {"primary": true, "id": 1722, "name": "Restaurants"}], "fax_number": null, "expansion": {"count": null, "uri": null}, "impression_id": "000b000000c8fd5fccfddc48319612b9e042a236c3", "profile": "http://www.citysearch.com/profile/766767230/smyrna_ga/rev_coffee_house.html", "address": {"city": "Smyrna", "state": "GA", "street": "1680 Spring Rd SE", "postal_code": "30080"}, "capProviderId": null, "distance": null, "has_offers": false, "name": "Rev Coffee House", "longitude": -84.504533, "has_menu": false, "awards": null, "user_review_count": 0}, {"business_operation_status": 1, "rating": null, "neighborhood": null, "image": null, "scorecard": null, "featured": false, "sample_categories": "Restaurants, Cajun & Creole, Carry Out, Food Delivery, American Express", "public_id": "folks-southern-kitchen-marietta-2", "id": 2901678, "votes": null, "tagline": null, "has_video": false, "website": "http://www.citysearch.com/profile/external/2901678/marietta_ga/folks_southern_kitchen.html", "offers": null, "latitude": 33.903775, "politanName": "Atlanta, GA Metro ", "phone_number": "7709525111", "tags": [{"primary": false, "id": 11245, "name": "Cajun & Creole"}, {"primary": false, "id": 11247, "name": "Carry Out"}, {"primary": false, "id": 11267, "name": "Food Delivery"}, {"primary": false, "id": 11333, "name": "American Express"}, {"primary": false, "id": 11349, "name": "Discover"}, {"primary": false, "id": 11361, "name": "MasterCard"}, {"primary": false, "id": 11382, "name": "Visa"}, {"primary": true, "id": 1722, "name": "Restaurants"}], "fax_number": null, "expansion": {"count": null, "uri": null}, "impression_id": "000b0000006cab3cb508fb491eb87886ff297baa3d", "profile": "http://www.citysearch.com/profile/2901678/marietta_ga/folks_southern_kitchen.html", "address": {"city": "Marietta", "state": "GA", "street": "2031 Cobb Pkwy S", "postal_code": "30060"}, "capProviderId": null, "distance": null, "has_offers": false, "name": "Folks Southern Kitchen", "longitude": -84.487499, "has_menu": true, "awards": null, "user_review_count": 1}, {"business_operation_status": 1, "rating": null, "neighborhood": null, "image": null, "scorecard": null, "featured": false, "sample_categories": "Grocery Stores, Restaurants, Coffeehouses", "public_id": "kroger-atlanta-38", "id": 781188880, "votes": null, "tagline": null, "has_video": false, "website": "http://www.citysearch.com/profile/external/781188880/atlanta_ga/kroger.html", "offers": null, "latitude": 33.919748, "politanName": "Atlanta, GA Metro ", "phone_number": "4042563434", "tags": [{"primary": false, "id": 1722, "name": "Restaurants"}, {"primary": false, "id": 1726, "name": "Coffeehouses"}, {"primary": true, "id": 1713, "name": "Grocery Stores"}], "fax_number": null, "expansion": {"count": null, "uri": null}, "impression_id": "000b0000002a16d8d09c3c4a5eb78b6ea9136980b2", "profile": "http://www.citysearch.com/profile/781188880/atlanta_ga/kroger.html", "address": {"city": "Atlanta", "state": "GA", "street": "227 Sandy Springs Pl # K", "postal_code": "30328"}, "capProviderId": null, "distance": null, "has_offers": false, "name": "Kroger", "longitude": -84.381429, "has_menu": false, "awards": null, "user_review_count": 0}, {"business_operation_status": 1, "rating": null, "neighborhood": null, "image": null, "scorecard": null, "featured": false, "sample_categories": "Restaurants", "public_id": "righteous-que-marietta", "id": 790722150, "votes": null, "tagline": null, "has_video": false, "website": null, "offers": null, "latitude": 33.976739, "politanName": "Atlanta, GA Metro ", "phone_number": "7709718111", "tags": [{"primary": true, "id": 1722, "name": "Restaurants"}], "fax_number": null, "expansion": {"count": null, "uri": null}, "impression_id": "000b00000045e48819709c4caa9cae408250cb7504", "profile": "http://www.citysearch.com/profile/790722150/marietta_ga/righteous_que.html", "address": {"city": "Marietta", "state": "GA", "street": "1050 E Piedmont Rd", "postal_code": "30062"}, "capProviderId": null, "distance": null, "has_offers": false, "name": "Righteous Que", "longitude": -84.479676, "has_menu": false, "awards": null, "user_review_count": 0}, {"business_operation_status": 1, "rating": null, "neighborhood": null, "image": null, "scorecard": null, "featured": false, "sample_categories": "Restaurants, Chinese", "public_id": "ming-garden-chinese-restaurant-atlanta", "id": 3037865, "votes": null, "tagline": null, "has_video": false, "website": null, "offers": null, "latitude": 33.891491, "politanName": "Atlanta, GA Metro ", "phone_number": "4042554515", "tags": [{"primary": false, "id": 11252, "name": "Chinese"}, {"primary": true, "id": 1722, "name": "Restaurants"}], "fax_number": null, "expansion": {"count": null, "uri": null}, "impression_id": "000b000000f627c2c99bdc4b9aab66b64cd23a94aa", "profile": "http://www.citysearch.com/profile/3037865/atlanta_ga/ming_garden_chinese_restaurant.html", "address": {"city": "Atlanta", "state": "GA", "street": "5006 Roswell Rd NE", "postal_code": "30342"}, "capProviderId": null, "distance": null, "has_offers": false, "name": "Ming Garden Chinese Restaurant", "longitude": -84.381654, "has_menu": false, "awards": null, "user_review_count": 0}, {"business_operation_status": 1, "rating": null, "neighborhood": null, "image": null, "scorecard": null, "featured": false, "sample_categories": "Restaurants", "public_id": "roswell-wing-depot-sandy", "id": 806514000, "votes": null, "tagline": null, "has_video": false, "website": null, "offers": null, "latitude": 33.925302, "politanName": "Atlanta, GA Metro ", "phone_number": "4047058400", "tags": [{"primary": true, "id": 1722, "name": "Restaurants"}], "fax_number": null, "expansion": {"count": null, "uri": null}, "impression_id": "000b00000016e4724f7c73472caf15c78d87574c69", "profile": "http://www.citysearch.com/profile/806514000/sandy_springs_ga/roswell_wing_depot.html", "address": {"city": "Sandy Springs", "state": "GA", "street": "5920 Roswell Rd", "postal_code": "30328"}, "capProviderId": null, "distance": null, "has_offers": false, "name": "Roswell Wing Depot", "longitude": -84.385744, "has_menu": false, "awards": null, "user_review_count": 0}, {"business_operation_status": 1, "rating": null, "neighborhood": null, "image": null, "scorecard": null, "featured": false, "sample_categories": "Restaurants", "public_id": "cosmos-sandwich-shop-atlanta", "id": 814623340, "votes": null, "tagline": null, "has_video": false, "website": null, "offers": null, "latitude": 33.92427, "politanName": "Atlanta, GA Metro ", "phone_number": "6788476688", "tags": [{"primary": true, "id": 1722, "name": "Restaurants"}], "fax_number": null, "expansion": {"count": null, "uri": null}, "impression_id": "000b0000002358b9ed01104decb3e8c3862f63f5b5", "profile": "http://www.citysearch.com/profile/814623340/atlanta_ga/cosmos_sandwich_shop.html", "address": {"city": "Atlanta", "state": "GA", "street": "6195 Barfield Rd", "postal_code": "30328"}, "capProviderId": null, "distance": null, "has_offers": false, "name": "Cosmos Sandwich Shop", "longitude": -84.3591, "has_menu": false, "awards": null, "user_review_count": 0}, {"business_operation_status": 1, "rating": null, "neighborhood": "Northside, Mt. Paran/ Northside, Northside", "image": null, "scorecard": null, "featured": false, "sample_categories": "Restaurants", "public_id": "mitchell-food-svc-inc-atlanta", "id": 816925610, "votes": null, "tagline": null, "has_video": false, "website": null, "offers": null, "latitude": 33.877648, "politanName": "Atlanta, GA Metro ", "phone_number": "4042335045", "tags": [{"primary": true, "id": 1722, "name": "Restaurants"}], "fax_number": null, "expansion": {"count": null, "uri": null}, "impression_id": "000b000000336d95a7f0684dca92f02001175ca395", "profile": "http://www.citysearch.com/profile/816925610/atlanta_ga/mitchell_food_svc_inc.html", "address": {"city": "Atlanta", "state": "GA", "street": "845 Somerset Dr NW", "postal_code": "30327"}, "capProviderId": null, "distance": null, "has_offers": false, "name": "Mitchell Food Svc Inc", "longitude": -84.414685, "has_menu": false, "awards": null, "user_review_count": 0}, {"business_operation_status": 1, "rating": null, "neighborhood": null, "image": null, "scorecard": null, "featured": false, "sample_categories": "Restaurants", "public_id": "imani-african-arabian-rstrnt-smyrna", "id": 713541910, "votes": null, "tagline": null, "has_video": false, "website": null, "offers": null, "latitude": 33.891129, "politanName": "Atlanta, GA Metro ", "phone_number": "6782936841", "tags": [{"primary": true, "id": 1722, "name": "Restaurants"}], "fax_number": null, "expansion": {"count": null, "uri": null}, "impression_id": "000b0000007f30b6b96a634a83a9afc8ba54735210", "profile": "http://www.citysearch.com/profile/713541910/smyrna_ga/imani_african_arabian_rstrnt.html", "address": {"city": "Smyrna", "state": "GA", "street": "1651 Roswell St Se", "postal_code": "30080"}, "capProviderId": null, "distance": null, "has_offers": false, "name": "Imani African & Arabian Rstrnt", "longitude": -84.504659, "has_menu": false, "awards": null, "user_review_count": 0}, {"business_operation_status": 1, "rating": null, "neighborhood": null, "image": null, "scorecard": null, "featured": false, "sample_categories": "Restaurants", "public_id": "wings-101-smyrna", "id": 621748804, "votes": null, "tagline": null, "has_video": false, "website": null, "offers": null, "latitude": 33.894038, "politanName": "Atlanta, GA Metro ", "phone_number": "7709891520", "tags": [{"primary": true, "id": 1722, "name": "Restaurants"}], "fax_number": null, "expansion": {"count": null, "uri": null}, "impression_id": "000b000000df2fafe0d94f480c80601c3bcaa08e67", "profile": "http://www.citysearch.com/profile/621748804/smyrna_ga/wings_101.html", "address": {"city": "Smyrna", "state": "GA", "street": "998 Windy Hill Rd SE", "postal_code": "30080"}, "capProviderId": null, "distance": null, "has_offers": false, "name": "Wings 101", "longitude": -84.524382, "has_menu": false, "awards": null, "user_review_count": 0}, {"business_operation_status": 1, "rating": null, "neighborhood": null, "image": null, "scorecard": null, "featured": false, "sample_categories": "Restaurants, Barbecue Restaurants", "public_id": "j-buffalo-wings-atlanta-3", "id": 745574930, "votes": null, "tagline": null, "has_video": false, "website": "http://www.citysearch.com/profile/external/745574930/atlanta_ga/j_buffalo_wings.html", "offers": null, "latitude": 33.935486, "politanName": "Atlanta, GA Metro ", "phone_number": "4045544588", "tags": [{"primary": false, "id": 1724, "name": "Barbecue Restaurants"}, {"primary": true, "id": 1722, "name": "Restaurants"}], "fax_number": null, "expansion": {"count": null, "uri": null}, "impression_id": "000b0000007bb959fcac564093b48f1cf12c5a5bb7", "profile": "http://www.citysearch.com/profile/745574930/atlanta_ga/j_buffalo_wings.html", "address": {"city": "Atlanta", "state": "GA", "street": "6595 Roswell Rd NE # H", "postal_code": "30328"}, "capProviderId": null, "distance": null, "has_offers": false, "name": "J Buffalo Wings", "longitude": -84.377458, "has_menu": false, "awards": null, "user_review_count": 0}, {"business_operation_status": 1, "rating": null, "neighborhood": null, "image": null, "scorecard": null, "featured": false, "sample_categories": "Restaurants", "public_id": "village-cafe-smyrna", "id": 745629910, "votes": null, "tagline": null, "has_video": false, "website": null, "offers": null, "latitude": 33.883751, "politanName": "Atlanta, GA Metro ", "phone_number": "6782935977", "tags": [{"primary": true, "id": 1722, "name": "Restaurants"}], "fax_number": null, "expansion": {"count": null, "uri": null}, "impression_id": "000b000000cdb86dcb437d4d0589c554745ad7a8f4", "profile": "http://www.citysearch.com/profile/745629910/smyrna_ga/village_cafe.html", "address": {"city": "Smyrna", "state": "GA", "street": "865 Pinehill Dr SE", "postal_code": "30080"}, "capProviderId": null, "distance": null, "has_offers": false, "name": "Village Cafe", "longitude": -84.528342, "has_menu": false, "awards": null, "user_review_count": 0}, {"business_operation_status": 1, "rating": null, "neighborhood": null, "image": null, "scorecard": null, "featured": false, "sample_categories": "Seafood Markets, Restaurants, Seafood", "public_id": "pieer-213-seafood-marietta", "id": 772962240, "votes": null, "tagline": null, "has_video": false, "website": null, "offers": null, "latitude": 33.951025, "politanName": "Atlanta, GA Metro ", "phone_number": "6782908170", "tags": [{"primary": false, "id": 1722, "name": "Restaurants"}, {"primary": false, "id": 11228, "name": "Seafood"}, {"primary": true, "id": 1719, "name": "Seafood Markets"}], "fax_number": null, "expansion": {"count": null, "uri": null}, "impression_id": "000b000000085c996c8a8d4e02badf33f0b1562bee", "profile": "http://www.citysearch.com/profile/772962240/marietta_ga/pieer_213_seafood.html", "address": {"city": "Marietta", "state": "GA", "street": "35 S Marietta Pkwy Sw", "postal_code": "30064"}, "capProviderId": null, "distance": null, "has_offers": false, "name": "Pieer 213 Seafood", "longitude": -84.551785, "has_menu": false, "awards": null, "user_review_count": 0}, {"business_operation_status": 1, "rating": null, "neighborhood": null, "image": null, "scorecard": null, "featured": false, "sample_categories": "Restaurants, Chinese", "public_id": "great-wall-chinese-marietta", "id": 787108450, "votes": null, "tagline": null, "has_video": false, "website": null, "offers": null, "latitude": 33.904328, "politanName": "Atlanta, GA Metro ", "phone_number": "7709536392", "tags": [{"primary": false, "id": 11252, "name": "Chinese"}, {"primary": true, "id": 1722, "name": "Restaurants"}], "fax_number": null, "expansion": {"count": null, "uri": null}, "impression_id": "000b00000011ca12057a264f19947976757bbe44fa", "profile": "http://www.citysearch.com/profile/787108450/marietta_ga/great_wall_chinese.html", "address": {"city": "Marietta", "state": "GA", "street": "3000 Windy Hill Rd Se", "postal_code": "30067"}, "capProviderId": null, "distance": null, "has_offers": false, "name": "Great Wall Chinese", "longitude": -84.466526, "has_menu": true, "awards": null, "user_review_count": 0}, {"business_operation_status": 1, "rating": null, "neighborhood": null, "image": null, "scorecard": null, "featured": false, "sample_categories": "Restaurants, Utility Contractors", "public_id": "optelian-marietta", "id": 2910548, "votes": null, "tagline": null, "has_video": false, "website": "http://www.citysearch.com/profile/external/2910548/marietta_ga/optelian.html", "offers": null, "latitude": 33.919788, "politanName": "Atlanta, GA Metro ", "phone_number": "7706909575", "tags": [{"primary": false, "id": 1722, "name": "Restaurants"}, {"primary": true, "id": 788, "name": "Utility Contractors"}], "fax_number": null, "expansion": {"count": null, "uri": null}, "impression_id": "000b0000009ee78e1f8ba14b138ef41ad394a5242f", "profile": "http://www.citysearch.com/profile/2910548/marietta_ga/optelian.html", "address": {"city": "Marietta", "state": "GA", "street": "2121 New Market Pkwy SE", "postal_code": "30067"}, "capProviderId": null, "distance": null, "has_offers": false, "name": "Optelian", "longitude": -84.49377, "has_menu": false, "awards": null, "user_review_count": 0}, {"business_operation_status": 1, "rating": null, "neighborhood": null, "image": null, "scorecard": null, "featured": false, "sample_categories": "Restaurants, Hamburgers", "public_id": "ils-wayportmc-donalds-marietta", "id": 793313560, "votes": null, "tagline": null, "has_video": false, "website": null, "offers": null, "latitude": 33.924211, "politanName": "Atlanta, GA Metro ", "phone_number": "7708509549", "tags": [{"primary": false, "id": 11270, "name": "Hamburgers"}, {"primary": true, "id": 1722, "name": "Restaurants"}], "fax_number": null, "expansion": {"count": null, "uri": null}, "impression_id": "000b000000aec98ccb35304d4192744b79ec73f707", "profile": "http://www.citysearch.com/profile/793313560/marietta_ga/ils_wayport_mc_donald_s.html", "address": {"city": "Marietta", "state": "GA", "street": "2375 Delk Rd Se", "postal_code": "30067"}, "capProviderId": null, "distance": null, "has_offers": false, "name": "Ils Wayport-Mc Donald's", "longitude": -84.483793, "has_menu": false, "awards": null, "user_review_count": 0}, {"business_operation_status": 1, "rating": null, "neighborhood": null, "image": null, "scorecard": null, "featured": false, "sample_categories": "Restaurants", "public_id": "restaurant-to-be-named-sandy", "id": 713540460, "votes": null, "tagline": null, "has_video": false, "website": null, "offers": null, "latitude": 33.9202, "politanName": "Atlanta, GA Metro ", "phone_number": "4043899260", "tags": [{"primary": true, "id": 1722, "name": "Restaurants"}], "fax_number": null, "expansion": {"count": null, "uri": null}, "impression_id": "000b000000f3b0ffd83adf4118bc89ea83d483bed1", "profile": "http://www.citysearch.com/profile/713540460/sandy_springs_ga/restaurant_to_be_named.html", "address": {"city": "Sandy Springs", "state": "GA", "street": "6010 Sandy Springs Cir Ne", "postal_code": "30328"}, "capProviderId": null, "distance": null, "has_offers": false, "name": "Restaurant To Be Named", "longitude": -84.384878, "has_menu": false, "awards": null, "user_review_count": 0}, {"business_operation_status": 1, "rating": null, "neighborhood": null, "image": null, "scorecard": null, "featured": false, "sample_categories": "Restaurants", "public_id": "winggos-restaurant-marietta", "id": 814303450, "votes": null, "tagline": null, "has_video": false, "website": null, "offers": null, "latitude": 33.980787, "politanName": "Atlanta, GA Metro ", "phone_number": "7709778688", "tags": [{"primary": true, "id": 1722, "name": "Restaurants"}], "fax_number": null, "expansion": {"count": null, "uri": null}, "impression_id": "000b0000005833ed97a7dd4757b24ec66cf8a0f238", "profile": "http://www.citysearch.com/profile/814303450/marietta_ga/winggos_restaurant.html", "address": {"city": "Marietta", "state": "GA", "street": "3101 Roswell Rd # M", "postal_code": "30062"}, "capProviderId": null, "distance": null, "has_offers": false, "name": "Winggos Restaurant", "longitude": -84.464028, "has_menu": false, "awards": null, "user_review_count": 0}, {"business_operation_status": 1, "rating": null, "neighborhood": null, "image": null, "scorecard": null, "featured": false, "sample_categories": "Doughnut Shops, Coffeehouses", "public_id": "krispy-kreme-doughnuts-smyrna-2", "id": 816048270, "votes": null, "tagline": null, "has_video": false, "website": "http://www.citysearch.com/profile/external/816048270/smyrna_ga/krispy_kreme_doughnuts.html", "offers": null, "latitude": 33.842457, "politanName": "Atlanta, GA Metro ", "phone_number": "7704322320", "tags": [{"primary": false, "id": 1726, "name": "Coffeehouses"}, {"primary": true, "id": 1734, "name": "Doughnut Shops"}], "fax_number": null, "expansion": {"count": null, "uri": null}, "impression_id": "000b0000008954175aae5d4857a0bb62696d2f3a81", "profile": "http://www.citysearch.com/profile/816048270/smyrna_ga/krispy_kreme_doughnuts.html", "address": {"city": "Smyrna", "state": "GA", "street": "4560 S Cobb Dr SE", "postal_code": "30080"}, "capProviderId": null, "distance": null, "has_offers": false, "name": "Krispy Kreme Doughnuts", "longitude": -84.501331, "has_menu": false, "awards": null, "user_review_count": 0}, {"business_operation_status": 1, "rating": null, "neighborhood": null, "image": null, "scorecard": null, "featured": false, "sample_categories": "Restaurants", "public_id": "badayori-restaurant-sandy", "id": 809542900, "votes": null, "tagline": null, "has_video": false, "website": null, "offers": null, "latitude": 33.938009, "politanName": "Atlanta, GA Metro ", "phone_number": "4044590040", "tags": [{"primary": true, "id": 1722, "name": "Restaurants"}], "fax_number": null, "expansion": {"count": null, "uri": null}, "impression_id": "000b000000a90a058ba3fc40cc9a5efce0c4f870c0", "profile": "http://www.citysearch.com/profile/809542900/sandy_springs_ga/badayori_restaurant.html", "address": {"city": "Sandy Springs", "state": "GA", "street": "6690 Roswell Rd", "postal_code": "30328"}, "capProviderId": null, "distance": null, "has_offers": false, "name": "Badayori Restaurant", "longitude": -84.379657, "has_menu": false, "awards": null, "user_review_count": 0}, {"business_operation_status": 1, "rating": null, "neighborhood": null, "image": null, "scorecard": null, "featured": false, "sample_categories": "Restaurants, American Express, Discover, MasterCard, Shop Online", "public_id": "metro-kitchen-marietta", "id": 728110290, "votes": null, "tagline": null, "has_video": false, "website": "http://www.citysearch.com/profile/external/728110290/marietta_ga/metro_kitchen.html", "offers": null, "latitude": 33.926059, "politanName": "Atlanta, GA Metro ", "phone_number": "7709160102", "tags": [{"primary": false, "id": 11333, "name": "American Express"}, {"primary": false, "id": 11349, "name": "Discover"}, {"primary": false, "id": 11361, "name": "MasterCard"}, {"primary": false, "id": 11375, "name": "Shop Online"}, {"primary": false, "id": 11382, "name": "Visa"}, {"primary": true, "id": 1722, "name": "Restaurants"}], "fax_number": null, "expansion": {"count": null, "uri": null}, "impression_id": "000b000000638fb245318f4dad83babb56be01c226", "profile": "http://www.citysearch.com/profile/728110290/marietta_ga/metro_kitchen.html", "address": {"city": "Marietta", "state": "GA", "street": "4041 Kingston Ct Se # A", "postal_code": "30067"}, "capProviderId": null, "distance": null, "has_offers": false, "name": "Metro Kitchen", "longitude": -84.491207, "has_menu": false, "awards": null, "user_review_count": 0}, {"business_operation_status": 1, "rating": null, "neighborhood": null, "image": null, "scorecard": null, "featured": false, "sample_categories": "Restaurants, Bars & Clubs, Carry Out", "public_id": "tgi-fridays-marietta-2", "id": 819157490, "votes": null, "tagline": null, "has_video": false, "website": null, "offers": null, "latitude": 33.931556, "politanName": "Atlanta, GA Metro ", "phone_number": "7709510821", "tags": [{"primary": false, "id": 164, "name": "Bars & Clubs"}, {"primary": false, "id": 11247, "name": "Carry Out"}, {"primary": true, "id": 1722, "name": "Restaurants"}], "fax_number": null, "expansion": {"count": null, "uri": null}, "impression_id": "000b000000ad26c1354ee5433a8d651b64df994f10", "profile": "http://www.citysearch.com/profile/819157490/marietta_ga/tgi_friday_s.html", "address": {"city": "Marietta", "state": "GA", "street": "1945 Powers Ferry Trce SE", "postal_code": "30067"}, "capProviderId": null, "distance": null, "has_offers": false, "name": "TGI Friday's", "longitude": -84.47837, "has_menu": false, "awards": null, "user_review_count": 0}, {"business_operation_status": 1, "rating": null, "neighborhood": null, "image": null, "scorecard": null, "featured": false, "sample_categories": "Restaurants", "public_id": "philly-connectionsandy-spgs-atlanta", "id": 819444770, "votes": null, "tagline": null, "has_video": false, "website": null, "offers": null, "latitude": 33.916628, "politanName": "Atlanta, GA Metro ", "phone_number": "4042559005", "tags": [{"primary": true, "id": 1722, "name": "Restaurants"}], "fax_number": null, "expansion": {"count": null, "uri": null}, "impression_id": "000b0000006480cc3add8340498e78237279c173ab", "profile": "http://www.citysearch.com/profile/819444770/atlanta_ga/philly_connection_sandy_spgs.html", "address": {"city": "Atlanta", "state": "GA", "street": "6309 Roswell Rd # 1b", "postal_code": "30328"}, "capProviderId": null, "distance": null, "has_offers": false, "name": "Philly Connection-Sandy Spgs", "longitude": -84.379177, "has_menu": false, "awards": null, "user_review_count": 0}, {"business_operation_status": 1, "rating": null, "neighborhood": null, "image": null, "scorecard": null, "featured": false, "sample_categories": "Restaurants, Food Stores, Diners, Greek Food Products, American Express", "public_id": "broadway-diner-marietta", "id": 739054880, "votes": null, "tagline": null, "has_video": false, "website": null, "offers": null, "latitude": 33.981385, "politanName": "Atlanta, GA Metro ", "phone_number": "7709773607", "tags": [{"primary": false, "id": 1706, "name": "Food Stores"}, {"primary": false, "id": 1732, "name": "Diners"}, {"primary": false, "id": 11151, "name": "Greek Food Products"}, {"primary": false, "id": 11333, "name": "American Express"}, {"primary": false, "id": 11347, "name": "Debit Card"}, {"primary": false, "id": 11349, "name": "Discover"}, {"primary": false, "id": 11361, "name": "MasterCard"}, {"primary": false, "id": 11382, "name": "Visa"}, {"primary": true, "id": 1722, "name": "Restaurants"}], "fax_number": null, "expansion": {"count": null, "uri": null}, "impression_id": "000b00000037df2cdea1854dc5b5bdb8565fb2f404", "profile": "http://www.citysearch.com/profile/739054880/marietta_ga/broadway_diner.html", "address": {"city": "Marietta", "state": "GA", "street": "1333 Johnson Ferry Rd", "postal_code": "30068"}, "capProviderId": null, "distance": null, "has_offers": false, "name": "Broadway Diner", "longitude": -84.426367, "has_menu": false, "awards": null, "user_review_count": 0}, {"business_operation_status": 1, "rating": null, "neighborhood": null, "image": null, "scorecard": null, "featured": false, "sample_categories": "Restaurants", "public_id": "checkers-marietta-3", "id": 836194250, "votes": null, "tagline": null, "has_video": false, "website": null, "offers": null, "latitude": 33.950121, "politanName": "Atlanta, GA Metro ", "phone_number": "7704298398", "tags": [{"primary": true, "id": 1722, "name": "Restaurants"}], "fax_number": null, "expansion": {"count": null, "uri": null}, "impression_id": "000b00000002ecf99c31ed4381818cbe1e9316efdb", "profile": "http://www.citysearch.com/profile/836194250/marietta_ga/checkers.html", "address": {"city": "Marietta", "state": "GA", "street": "41 Cobb Pkwy S", "postal_code": "30060"}, "capProviderId": null, "distance": null, "has_offers": false, "name": "Checkers", "longitude": -84.519571, "has_menu": false, "awards": null, "user_review_count": 0}, {"business_operation_status": 1, "rating": null, "neighborhood": null, "image": null, "scorecard": null, "featured": false, "sample_categories": "Restaurants, Catering", "public_id": "a-little-bit-of-heaven-marietta", "id": 837084260, "votes": null, "tagline": null, "has_video": false, "website": null, "offers": null, "latitude": 33.965305, "politanName": "Atlanta, GA Metro ", "phone_number": "6782246780", "tags": [{"primary": false, "id": 1705, "name": "Catering"}, {"primary": true, "id": 1722, "name": "Restaurants"}], "fax_number": null, "expansion": {"count": null, "uri": null}, "impression_id": "000b000000e451cb0fd0604d089a4c07d05498be51", "profile": "http://www.citysearch.com/profile/837084260/marietta_ga/a_little_bit_of_heaven.html", "address": {"city": "Marietta", "state": "GA", "street": "4665 Lower Roswell Rd 101", "postal_code": "30068"}, "capProviderId": null, "distance": null, "has_offers": false, "name": "A Little Bit of Heaven", "longitude": -84.415723, "has_menu": false, "awards": null, "user_review_count": 0}, {"business_operation_status": 1, "rating": null, "neighborhood": null, "image": null, "scorecard": null, "featured": false, "sample_categories": "Restaurants, Pizza", "public_id": "johnnys-new-york-style-pizza-smyrna-4", "id": 682425730, "votes": null, "tagline": null, "has_video": false, "website": "http://www.citysearch.com/profile/external/682425730/smyrna_ga/johnny_s_new_york_style_pizza.html", "offers": null, "latitude": 33.887838, "politanName": "Atlanta, GA Metro ", "phone_number": "7704380300", "tags": [{"primary": false, "id": 1722, "name": "Restaurants"}, {"primary": true, "id": 11299, "name": "Pizza"}], "fax_number": null, "expansion": {"count": null, "uri": null}, "impression_id": "000b00000038062243c6fa428587c3027fa55811b4", "profile": "http://www.citysearch.com/profile/682425730/smyrna_ga/johnny_s_new_york_style_pizza.html", "address": {"city": "Smyrna", "state": "GA", "street": "2651 Cumberland Blvd Se", "postal_code": "30080"}, "capProviderId": null, "distance": null, "has_offers": false, "name": "Johnny's New York Style Pizza", "longitude": -84.475608, "has_menu": true, "awards": null, "user_review_count": 0}, {"business_operation_status": 1, "rating": null, "neighborhood": null, "image": null, "scorecard": null, "featured": false, "sample_categories": "Restaurants, Pizza, American Express, Discover, MasterCard", "public_id": "st-angelos-pizza-vinings-vlg-smyrna", "id": 682274700, "votes": null, "tagline": null, "has_video": false, "website": "http://www.citysearch.com/profile/external/682274700/smyrna_ga/st_angelo_s_pizza_vinings_vlg.html", "offers": null, "latitude": 33.838436, "politanName": "Atlanta, GA Metro ", "phone_number": "4047949254", "tags": [{"primary": false, "id": 1722, "name": "Restaurants"}, {"primary": false, "id": 11333, "name": "American Express"}, {"primary": false, "id": 11349, "name": "Discover"}, {"primary": false, "id": 11361, "name": "MasterCard"}, {"primary": false, "id": 11382, "name": "Visa"}, {"primary": true, "id": 11299, "name": "Pizza"}], "fax_number": null, "expansion": {"count": null, "uri": null}, "impression_id": "000b0000003e7097adbd3449baa9b29af8e29e4717", "profile": "http://www.citysearch.com/profile/682274700/smyrna_ga/st_angelo_s_pizza_vinings_vlg.html", "address": {"city": "Smyrna", "state": "GA", "street": "4686 S Atlanta Rd Se", "postal_code": "30080"}, "capProviderId": null, "distance": null, "has_offers": false, "name": "St Angelo's Pizza Vinings Vlg", "longitude": -84.482318, "has_menu": true, "awards": null, "user_review_count": 5}, {"business_operation_status": 0, "rating": null, "neighborhood": null, "image": null, "scorecard": null, "featured": false, "sample_categories": "Restaurants", "public_id": "la-dona-taqueria-atlanta", "id": 682406640, "votes": null, "tagline": null, "has_video": false, "website": null, "offers": null, "latitude": 33.910461, "politanName": "Atlanta, GA Metro ", "phone_number": "4045315957", "tags": [{"primary": true, "id": 1722, "name": "Restaurants"}], "fax_number": null, "expansion": {"count": null, "uri": null}, "impression_id": "000b00000049f5d4f8b08b4e8db29da6eb5c528dc3", "profile": "http://www.citysearch.com/profile/682406640/atlanta_ga/la_dona_taqueria.html", "address": {"city": "Atlanta", "state": "GA", "street": "215 Northwood Dr Ne # 8", "postal_code": "30342"}, "capProviderId": null, "distance": null, "has_offers": false, "name": "La Dona Taqueria", "longitude": -84.379872, "has_menu": false, "awards": null, "user_review_count": 0}, {"business_operation_status": 1, "rating": null, "neighborhood": null, "image": null, "scorecard": null, "featured": false, "sample_categories": "Ice Cream Parlors", "public_id": "tropicanna-billiards-grill-smyrna", "id": 614553874, "votes": null, "tagline": null, "has_video": false, "website": null, "offers": null, "latitude": 33.890202, "politanName": "Atlanta, GA Metro ", "phone_number": "7704320051", "tags": [{"primary": true, "id": 1730, "name": "Ice Cream Parlors"}], "fax_number": null, "expansion": {"count": null, "uri": null}, "impression_id": "000b000000e20871274c6a4fb4b6036ab91077f773", "profile": "http://www.citysearch.com/profile/614553874/smyrna_ga/tropicanna_billiards_grill.html", "address": {"city": "Smyrna", "state": "GA", "street": "2570 Atlanta Rd SE", "postal_code": "30080"}, "capProviderId": null, "distance": null, "has_offers": false, "name": "Tropicanna Billiards & Grill", "longitude": -84.517036, "has_menu": false, "awards": null, "user_review_count": 0}, {"business_operation_status": 1, "rating": null, "neighborhood": null, "image": null, "scorecard": null, "featured": false, "sample_categories": "Restaurants, Carry Out, Hamburgers", "public_id": "mc-donalds-marietta-20", "id": 713574940, "votes": null, "tagline": null, "has_video": false, "website": "http://www.citysearch.com/profile/external/713574940/marietta_ga/mc_donald_s.html", "offers": null, "latitude": 33.924211, "politanName": "Atlanta, GA Metro ", "phone_number": "7708509549", "tags": [{"primary": false, "id": 11247, "name": "Carry Out"}, {"primary": false, "id": 11270, "name": "Hamburgers"}, {"primary": true, "id": 1722, "name": "Restaurants"}], "fax_number": null, "expansion": {"count": null, "uri": null}, "impression_id": "000b000000a35f976d7f194ef39e04fd0fc21b3718", "profile": "http://www.citysearch.com/profile/713574940/marietta_ga/mc_donald_s.html", "address": {"city": "Marietta", "state": "GA", "street": "2375 Delk Rd Se", "postal_code": "30067"}, "capProviderId": null, "distance": null, "has_offers": false, "name": "Mc Donald's", "longitude": -84.483793, "has_menu": false, "awards": null, "user_review_count": 0}, {"business_operation_status": 1, "rating": null, "neighborhood": null, "image": null, "scorecard": null, "featured": false, "sample_categories": "Restaurants, Pizza", "public_id": "manhattan-pizza-marietta", "id": 624064324, "votes": null, "tagline": null, "has_video": false, "website": null, "offers": null, "latitude": 33.944967, "politanName": "Atlanta, GA Metro ", "phone_number": "6789092097", "tags": [{"primary": false, "id": 11299, "name": "Pizza"}, {"primary": true, "id": 1722, "name": "Restaurants"}], "fax_number": null, "expansion": {"count": null, "uri": null}, "impression_id": "000b0000006e307ba284614328a3b9c985a518431d", "profile": "http://www.citysearch.com/profile/624064324/marietta_ga/manhattan_pizza.html", "address": {"city": "Marietta", "state": "GA", "street": "279 Powers Ferry Rd SE", "postal_code": "30067"}, "capProviderId": null, "distance": null, "has_offers": false, "name": "Manhattan Pizza", "longitude": -84.497588, "has_menu": false, "awards": null, "user_review_count": 0}, {"business_operation_status": 1, "rating": null, "neighborhood": null, "image": null, "scorecard": null, "featured": false, "sample_categories": "Restaurants", "public_id": "cafe-d-atlanta", "id": 3020321, "votes": null, "tagline": null, "has_video": false, "website": null, "offers": null, "latitude": 33.91273, "politanName": "Atlanta, GA Metro ", "phone_number": "4042550238", "tags": [{"primary": true, "id": 1722, "name": "Restaurants"}], "fax_number": null, "expansion": {"count": null, "uri": null}, "impression_id": "000b000000af89f56081f34caeb16e72bb1b415808", "profile": "http://www.citysearch.com/profile/3020321/atlanta_ga/cafe_d.html", "address": {"city": "Atlanta", "state": "GA", "street": "5775 Glenridge Dr NE", "postal_code": "30328"}, "capProviderId": null, "distance": null, "has_offers": false, "name": "Cafe D", "longitude": -84.360431, "has_menu": true, "awards": null, "user_review_count": 0}, {"business_operation_status": 1, "rating": null, "neighborhood": null, "image": null, "scorecard": null, "featured": false, "sample_categories": "Juice & Smoothie Shops, Health Food Stores, Restaurants", "public_id": "robeks-marietta", "id": 43845240, "votes": null, "tagline": null, "has_video": false, "website": "http://www.citysearch.com/profile/external/43845240/marietta_ga/robeks_juice.html", "offers": null, "latitude": 33.982884, "politanName": "Atlanta, GA Metro ", "phone_number": "7705651932", "tags": [{"primary": false, "id": 1716, "name": "Health Food Stores"}, {"primary": false, "id": 1722, "name": "Restaurants"}, {"primary": true, "id": 1735, "name": "Juice & Smoothie Shops"}], "fax_number": null, "expansion": {"count": null, "uri": null}, "impression_id": "000b0000003ec618760ed24a148afa7b3aaa5e8da6", "profile": "http://www.citysearch.com/profile/43845240/marietta_ga/robeks_juice.html", "address": {"city": "Marietta", "state": "GA", "street": "4244 Roswell Rd 300", "postal_code": "30062"}, "capProviderId": null, "distance": null, "has_offers": false, "name": "Robeks Juice", "longitude": -84.427528, "has_menu": false, "awards": null, "user_review_count": 0}, {"business_operation_status": 1, "rating": null, "neighborhood": null, "image": null, "scorecard": null, "featured": false, "sample_categories": "Restaurants", "public_id": "cafe-alice-smyrna", "id": 672226100, "votes": null, "tagline": null, "has_video": false, "website": null, "offers": null, "latitude": 33.901234, "politanName": "Atlanta, GA Metro ", "phone_number": "7709550300", "tags": [{"primary": true, "id": 1722, "name": "Restaurants"}], "fax_number": null, "expansion": {"count": null, "uri": null}, "impression_id": "000b000000dbd7bacea4ad4156afa499d77dbc94bc", "profile": "http://www.citysearch.com/profile/672226100/smyrna_ga/cafe_alice.html", "address": {"city": "Smyrna", "state": "GA", "street": "2092 Cobb Pkwy", "postal_code": "30080"}, "capProviderId": null, "distance": null, "has_offers": false, "name": "Cafe Alice", "longitude": -84.488366, "has_menu": false, "awards": null, "user_review_count": 0}, {"business_operation_status": 1, "rating": null, "neighborhood": null, "image": null, "scorecard": null, "featured": false, "sample_categories": "Restaurants, Barbecue Restaurants", "public_id": "wings-express-smyrna", "id": 655890370, "votes": null, "tagline": null, "has_video": false, "website": null, "offers": null, "latitude": 33.887226, "politanName": "Atlanta, GA Metro ", "phone_number": "6783059522", "tags": [{"primary": false, "id": 1724, "name": "Barbecue Restaurants"}, {"primary": true, "id": 1722, "name": "Restaurants"}], "fax_number": null, "expansion": {"count": null, "uri": null}, "impression_id": "000b000000b2a922b6484249fd856c1c4d83ec86fc", "profile": "http://www.citysearch.com/profile/655890370/smyrna_ga/wings_express.html", "address": {"city": "Smyrna", "state": "GA", "street": "2711 S Cobb Dr Se", "postal_code": "30080"}, "capProviderId": null, "distance": null, "has_offers": false, "name": "Wings Express", "longitude": -84.535161, "has_menu": false, "awards": null, "user_review_count": 0}, {"business_operation_status": 0, "rating": null, "neighborhood": null, "image": null, "scorecard": null, "featured": false, "sample_categories": "Restaurants, Carry Out", "public_id": "mc-donalds-smyrna-11", "id": 682428720, "votes": null, "tagline": null, "has_video": false, "website": "http://www.citysearch.com/profile/external/682428720/smyrna_ga/mc_donald_s.html", "offers": null, "latitude": 33.855476, "politanName": "Atlanta, GA Metro ", "phone_number": "7708019353", "tags": [{"primary": false, "id": 11247, "name": "Carry Out"}, {"primary": true, "id": 1722, "name": "Restaurants"}], "fax_number": null, "expansion": {"count": null, "uri": null}, "impression_id": "000b0000009c7b67d8623d4fabae3ec653465c7612", "profile": "http://www.citysearch.com/profile/682428720/smyrna_ga/mc_donald_s.html", "address": {"city": "Smyrna", "state": "GA", "street": "4301 Ridgehurst Dr Se", "postal_code": "30080"}, "capProviderId": null, "distance": null, "has_offers": false, "name": "Mc Donald's", "longitude": -84.505022, "has_menu": false, "awards": null, "user_review_count": 0}, {"business_operation_status": 1, "rating": null, "neighborhood": null, "image": null, "scorecard": null, "featured": false, "sample_categories": "Catering, Restaurants", "public_id": "freckled-and-blue-kitchen-catering-smyrna", "id": 606527734, "votes": null, "tagline": null, "has_video": false, "website": null, "offers": null, "latitude": 33.842593, "politanName": "Atlanta, GA Metro ", "phone_number": "4049895571", "tags": [{"primary": false, "id": 1722, "name": "Restaurants"}, {"primary": true, "id": 1705, "name": "Catering"}], "fax_number": null, "expansion": {"count": null, "uri": null}, "impression_id": "000b0000005844e324462e4eeb815220362fcb742d", "profile": "http://www.citysearch.com/profile/606527734/smyrna_ga/freckled_and_blue_kitchen_catering.html", "address": {"city": "Smyrna", "state": "GA", "street": "4585 S Cobb Dr SE 100", "postal_code": "30080"}, "capProviderId": null, "distance": null, "has_offers": false, "name": "Freckled and Blue Kitchen & Catering", "longitude": -84.498107, "has_menu": false, "awards": null, "user_review_count": 0}, {"business_operation_status": 1, "rating": null, "neighborhood": null, "image": null, "scorecard": null, "featured": false, "sample_categories": "Restaurants, Traditional American, American Express, Discover, MasterCard", "public_id": "j-christophers-atlanta-5", "id": 713497760, "votes": null, "tagline": null, "has_video": false, "website": "http://www.citysearch.com/profile/external/713497760/atlanta_ga/j_christopher_s.html", "offers": null, "latitude": 33.919103, "politanName": "Atlanta, GA Metro ", "phone_number": "4045310242", "tags": [{"primary": false, "id": 11190, "name": "Traditional American"}, {"primary": false, "id": 11333, "name": "American Express"}, {"primary": false, "id": 11349, "name": "Discover"}, {"primary": false, "id": 11361, "name": "MasterCard"}, {"primary": false, "id": 11382, "name": "Visa"}, {"primary": true, "id": 1722, "name": "Restaurants"}], "fax_number": null, "expansion": {"count": null, "uri": null}, "impression_id": "000b0000000438dc43e7b84c189eb90479b5d3c37f", "profile": "http://www.citysearch.com/profile/713497760/atlanta_ga/j_christopher_s.html", "address": {"city": "Atlanta", "state": "GA", "street": "230 Hammond Dr Ne # A", "postal_code": "30328"}, "capProviderId": null, "distance": null, "has_offers": false, "name": "J Christopher's", "longitude": -84.382649, "has_menu": false, "awards": null, "user_review_count": 1}, {"business_operation_status": 1, "rating": null, "neighborhood": null, "image": null, "scorecard": null, "featured": false, "sample_categories": "Restaurants, Carry Out", "public_id": "atlanta-bread-co-smyrna-3", "id": 822894330, "votes": null, "tagline": null, "has_video": false, "website": null, "offers": null, "latitude": 33.844924, "politanName": "Atlanta, GA Metro ", "phone_number": "6785030710", "tags": [{"primary": false, "id": 11247, "name": "Carry Out"}, {"primary": true, "id": 1722, "name": "Restaurants"}], "fax_number": null, "expansion": {"count": null, "uri": null}, "impression_id": "000b000000839b4e739add427488f9821207bff4aa", "profile": "http://www.citysearch.com/profile/822894330/smyrna_ga/atlanta_bread_co.html", "address": {"city": "Smyrna", "state": "GA", "street": "1270 Winchester Pkwy SE # 219", "postal_code": "30080"}, "capProviderId": null, "distance": null, "has_offers": false, "name": "Atlanta Bread Co", "longitude": -84.489021, "has_menu": false, "awards": null, "user_review_count": 0}, {"business_operation_status": 1, "rating": null, "neighborhood": null, "image": null, "scorecard": null, "featured": false, "sample_categories": "Restaurants", "public_id": "savories-bistro-atlanta", "id": 823498670, "votes": null, "tagline": null, "has_video": false, "website": null, "offers": null, "latitude": 33.926376, "politanName": "Atlanta, GA Metro ", "phone_number": "4043890333", "tags": [{"primary": true, "id": 1722, "name": "Restaurants"}], "fax_number": null, "expansion": {"count": null, "uri": null}, "impression_id": "000b000000e1a9b10ee798469b83c7e245dd1ab1a6", "profile": "http://www.citysearch.com/profile/823498670/atlanta_ga/savories_bistro.html", "address": {"city": "Atlanta", "state": "GA", "street": "206 Johnson Ferry Rd NE", "postal_code": "30328"}, "capProviderId": null, "distance": null, "has_offers": false, "name": "Savories Bistro", "longitude": -84.381856, "has_menu": false, "awards": null, "user_review_count": 0}, {"business_operation_status": 1, "rating": null, "neighborhood": null, "image": null, "scorecard": null, "featured": false, "sample_categories": "Restaurants", "public_id": "cafe-803-marietta", "id": 838064280, "votes": null, "tagline": null, "has_video": false, "website": null, "offers": null, "latitude": 33.933132, "politanName": "Atlanta, GA Metro ", "phone_number": "7707925579", "tags": [{"primary": true, "id": 1722, "name": "Restaurants"}], "fax_number": null, "expansion": {"count": null, "uri": null}, "impression_id": "000b0000009fb056aac83241278a6fdac6a6771a71", "profile": "http://www.citysearch.com/profile/838064280/marietta_ga/cafe_803.html", "address": {"city": "Marietta", "state": "GA", "street": "803 Powder Springs St", "postal_code": "30064"}, "capProviderId": null, "distance": null, "has_offers": false, "name": "Cafe 803", "longitude": -84.559871, "has_menu": false, "awards": null, "user_review_count": 0}, {"business_operation_status": 1, "rating": null, "neighborhood": null, "image": null, "scorecard": null, "featured": false, "sample_categories": "Restaurants, Fast Food, Carry Out, American Express, MasterCard", "public_id": "popeyes-chicken-biscuits-marietta-2", "id": 45112943, "votes": null, "tagline": null, "has_video": false, "website": "http://www.citysearch.com/profile/external/45112943/marietta_ga/popeye_s_chicken_biscuits.html", "offers": null, "latitude": 33.9485, "politanName": "Atlanta, GA Metro ", "phone_number": "7704208800", "tags": [{"primary": false, "id": 11199, "name": "Fast Food"}, {"primary": false, "id": 11247, "name": "Carry Out"}, {"primary": false, "id": 11333, "name": "American Express"}, {"primary": false, "id": 11361, "name": "MasterCard"}, {"primary": false, "id": 11382, "name": "Visa"}, {"primary": false, "id": 12839, "name": "Chicken"}, {"primary": true, "id": 1722, "name": "Restaurants"}], "fax_number": null, "expansion": {"count": null, "uri": null}, "impression_id": "000b00000088325147e843401989fdb8282c8721d0", "profile": "http://www.citysearch.com/profile/45112943/marietta_ga/popeye_s_chicken_biscuits.html", "address": {"city": "Marietta", "state": "GA", "street": "155 Cobb Pkwy S", "postal_code": "30060"}, "capProviderId": null, "distance": null, "has_offers": false, "name": "Popeye's Chicken & Biscuits", "longitude": -84.518323, "has_menu": true, "awards": null, "user_review_count": 0}, {"business_operation_status": 1, "rating": null, "neighborhood": null, "image": null, "scorecard": null, "featured": false, "sample_categories": "Restaurants, Carry Out", "public_id": "atlanta-bread-co-smyrna-2", "id": 805222070, "votes": null, "tagline": null, "has_video": false, "website": null, "offers": null, "latitude": 33.923686, "politanName": "Atlanta, GA Metro ", "phone_number": "6785030710", "tags": [{"primary": false, "id": 11247, "name": "Carry Out"}, {"primary": true, "id": 1722, "name": "Restaurants"}], "fax_number": null, "expansion": {"count": null, "uri": null}, "impression_id": "000b00000068a465ace578452783e29f47b167533b", "profile": "http://www.citysearch.com/profile/805222070/smyrna_ga/atlanta_bread_co.html", "address": {"city": "Smyrna", "state": "GA", "street": "2160 Kingston CT SE", "postal_code": "30080"}, "capProviderId": null, "distance": null, "has_offers": false, "name": "Atlanta Bread Co", "longitude": -84.488921, "has_menu": false, "awards": null, "user_review_count": 0}, {"business_operation_status": 1, "rating": null, "neighborhood": null, "image": null, "scorecard": null, "featured": false, "sample_categories": "Restaurants", "public_id": "soba-asian-bistro-marietta-2", "id": 809491560, "votes": null, "tagline": null, "has_video": false, "website": null, "offers": null, "latitude": 33.977233, "politanName": "Atlanta, GA Metro ", "phone_number": "7709711888", "tags": [{"primary": true, "id": 1722, "name": "Restaurants"}], "fax_number": null, "expansion": {"count": null, "uri": null}, "impression_id": "000b0000004a11bdd993484166aa286293d0294e18", "profile": "http://www.citysearch.com/profile/809491560/marietta_ga/soba_asian_bistro.html", "address": {"city": "Marietta", "state": "GA", "street": "1060 E Piedmont Rd", "postal_code": "30062"}, "capProviderId": null, "distance": null, "has_offers": false, "name": "Soba Asian Bistro", "longitude": -84.479764, "has_menu": false, "awards": null, "user_review_count": 0}, {"business_operation_status": 1, "rating": null, "neighborhood": null, "image": null, "scorecard": null, "featured": false, "sample_categories": "Carry Out", "public_id": "mobile-menus-inc-atlanta", "id": 815560960, "votes": null, "tagline": null, "has_video": false, "website": null, "offers": null, "latitude": 33.882001, "politanName": "Atlanta, GA Metro ", "phone_number": "4042571655", "tags": [{"primary": true, "id": 11247, "name": "Carry Out"}], "fax_number": null, "expansion": {"count": null, "uri": null}, "impression_id": "000b0000007056d17fe25145418b874a91ca66d904", "profile": "http://www.citysearch.com/profile/815560960/atlanta_ga/mobile_menus_inc.html", "address": {"city": "Atlanta", "state": "GA", "street": "4651 Roswell Rd # I801", "postal_code": "30342"}, "capProviderId": null, "distance": null, "has_offers": false, "name": "Mobile Menus Inc", "longitude": -84.378453, "has_menu": false, "awards": null, "user_review_count": 0}, {"business_operation_status": 1, "rating": null, "neighborhood": null, "image": null, "scorecard": null, "featured": false, "sample_categories": "Restaurants, Delis And Delicatessens, Sandwich Shops, Carry Out", "public_id": "firehouse-subs-marietta-3", "id": 764915450, "votes": null, "tagline": null, "has_video": false, "website": null, "offers": null, "latitude": 33.92306, "politanName": "Atlanta, GA Metro ", "phone_number": "7706908103", "tags": [{"primary": false, "id": 1727, "name": "Delis And Delicatessens"}, {"primary": false, "id": 1736, "name": "Sandwich Shops"}, {"primary": false, "id": 11247, "name": "Carry Out"}, {"primary": true, "id": 1722, "name": "Restaurants"}], "fax_number": null, "expansion": {"count": null, "uri": null}, "impression_id": "000b00000023592f5342cd40b1b9b22a2e4ef3f4bf", "profile": "http://www.citysearch.com/profile/764915450/marietta_ga/firehouse_subs.html", "address": {"city": "Marietta", "state": "GA", "street": "2900 Delk Rd SE", "postal_code": "30067"}, "capProviderId": null, "distance": null, "has_offers": false, "name": "Firehouse Subs", "longitude": -84.467405, "has_menu": true, "awards": null, "user_review_count": 0}, {"business_operation_status": 1, "rating": null, "neighborhood": null, "image": null, "scorecard": null, "featured": false, "sample_categories": "Restaurants, Barbecue Restaurants", "public_id": "wing-zone-smyrna", "id": 764933090, "votes": null, "tagline": null, "has_video": false, "website": "http://www.citysearch.com/profile/external/764933090/smyrna_ga/wing_zone.html", "offers": null, "latitude": 33.844439, "politanName": "Atlanta, GA Metro ", "phone_number": "6783090002", "tags": [{"primary": false, "id": 1724, "name": "Barbecue Restaurants"}, {"primary": true, "id": 1722, "name": "Restaurants"}], "fax_number": null, "expansion": {"count": null, "uri": null}, "impression_id": "000b0000003fc58044cf434f408831944d82873e74", "profile": "http://www.citysearch.com/profile/764933090/smyrna_ga/wing_zone.html", "address": {"city": "Smyrna", "state": "GA", "street": "4490 S Cobb Dr SE", "postal_code": "30080"}, "capProviderId": null, "distance": null, "has_offers": false, "name": "Wing Zone", "longitude": -84.501907, "has_menu": true, "awards": null, "user_review_count": 0}, {"business_operation_status": 1, "rating": null, "neighborhood": null, "image": null, "scorecard": null, "featured": false, "sample_categories": "Restaurants, Pizza", "public_id": "pizza-k-atlanta-2", "id": 43872017, "votes": null, "tagline": null, "has_video": false, "website": null, "offers": null, "latitude": 33.911481, "politanName": "Atlanta, GA Metro ", "phone_number": "4048479130", "tags": [{"primary": false, "id": 11299, "name": "Pizza"}, {"primary": true, "id": 1722, "name": "Restaurants"}], "fax_number": null, "expansion": {"count": null, "uri": null}, "impression_id": "000b000000f62e453a87714019ade03459e09485e7", "profile": "http://www.citysearch.com/profile/43872017/atlanta_ga/pizza_k.html", "address": {"city": "Atlanta", "state": "GA", "street": "120 Northwood Dr NE", "postal_code": "30342"}, "capProviderId": null, "distance": null, "has_offers": false, "name": "Pizza K", "longitude": -84.382763, "has_menu": true, "awards": null, "user_review_count": 0}, {"business_operation_status": 1, "rating": null, "neighborhood": null, "image": null, "scorecard": null, "featured": false, "sample_categories": "Restaurants", "public_id": "las-tortas-locas-marietta", "id": 43851541, "votes": null, "tagline": null, "has_video": false, "website": null, "offers": null, "latitude": 33.902096, "politanName": "Atlanta, GA Metro ", "phone_number": "7708030303", "tags": [{"primary": true, "id": 1722, "name": "Restaurants"}], "fax_number": null, "expansion": {"count": null, "uri": null}, "impression_id": "000b0000006370e8c0699c4506b583900a9d943491", "profile": "http://www.citysearch.com/profile/43851541/marietta_ga/las_tortas_locas.html", "address": {"city": "Marietta", "state": "GA", "street": "345 Pat Mell Rd SE", "postal_code": "30060"}, "capProviderId": null, "distance": null, "has_offers": false, "name": "Las Tortas Locas", "longitude": -84.546397, "has_menu": false, "awards": null, "user_review_count": 0}], "histograms": [], "tag_ids": [1722], "uri": "http://api.citygridmedia.com:8080/search/places/v2/search/where?has_offers=false&type=restaurant&format=json&page=27&where=30339&rpp=50&histograms=false&publisher=10000009598&region_type=circle", "did_you_mean": "", "regions": [{"latitude": 33.877209, "default_radius": 2.6, "type": "postal_code", "name": "30339", "longitude": -84.463483}], "call_id": "000b000000a3b81be1ac1d446a82b11ac7bb63b65e", "first_hit": 1301, "total_hits": 1582, "geo_ids": [26497], "page": 27, "last_hit": 1350}}