{"results": {"rpp": 50, "locations": [{"business_operation_status": 1, "rating": null, "neighborhood": null, "image": null, "scorecard": null, "featured": false, "sample_categories": "Restaurants", "public_id": "twelve06-atlanta", "id": 764934730, "votes": null, "tagline": null, "has_video": false, "website": null, "offers": null, "latitude": 33.859198, "politanName": "Atlanta, GA Metro ", "phone_number": "7703191206", "tags": [{"primary": true, "id": 1722, "name": "Restaurants"}], "fax_number": null, "expansion": {"count": null, "uri": null}, "impression_id": "000b000000f77f06a9146a4a63b47975eb35b7cd0d", "profile": "http://www.citysearch.com/profile/764934730/atlanta_ga/twelve06.html", "address": {"city": "Atlanta", "state": "GA", "street": "2355 Cumberland Pkwy SE", "postal_code": "30339"}, "capProviderId": null, "distance": null, "has_offers": false, "name": "Twelve06", "longitude": -84.480448, "has_menu": false, "awards": null, "user_review_count": 0}, {"business_operation_status": 0, "rating": null, "neighborhood": null, "image": null, "scorecard": null, "featured": false, "sample_categories": "Restaurants, Delis And Delicatessens, Sandwich Shops, Carry Out", "public_id": "blimpie-subs-salads-atlanta-43", "id": 764834820, "votes": null, "tagline": null, "has_video": false, "website": null, "offers": null, "latitude": 33.878815, "politanName": "Atlanta, GA Metro ", "phone_number": "7709842707", "tags": [{"primary": false, "id": 1727, "name": "Delis And Delicatessens"}, {"primary": false, "id": 1736, "name": "Sandwich Shops"}, {"primary": false, "id": 11247, "name": "Carry Out"}, {"primary": true, "id": 1722, "name": "Restaurants"}], "fax_number": null, "expansion": {"count": null, "uri": null}, "impression_id": "000b000000d620c79dd98242b2972a80a23aa79312", "profile": "http://www.citysearch.com/profile/764834820/atlanta_ga/blimpie_subs_salads.html", "address": {"city": "Atlanta", "state": "GA", "street": "180 Interst N Cir SE # 500", "postal_code": "30339"}, "capProviderId": null, "distance": null, "has_offers": false, "name": "Blimpie Subs & Salads", "longitude": -84.464518, "has_menu": false, "awards": null, "user_review_count": 0}, {"business_operation_status": 1, "rating": null, "neighborhood": null, "image": null, "scorecard": null, "featured": false, "sample_categories": "Restaurants", "public_id": "hooters-of-winston-salem-inc-atlanta", "id": 766753440, "votes": null, "tagline": null, "has_video": false, "website": null, "offers": null, "latitude": 33.908131, "politanName": "Atlanta, GA Metro ", "phone_number": "7709512040", "tags": [{"primary": true, "id": 1722, "name": "Restaurants"}], "fax_number": null, "expansion": {"count": null, "uri": null}, "impression_id": "000b000000a40ba6d7da4b41b28bab044cf90cec60", "profile": "http://www.citysearch.com/profile/766753440/atlanta_ga/hooters_of_winston_salem_inc.html", "address": {"city": "Atlanta", "state": "GA", "street": "1815 the Exchange SE", "postal_code": "30339"}, "capProviderId": null, "distance": null, "has_offers": false, "name": "Hooters of Winston Salem Inc", "longitude": -84.479005, "has_menu": false, "awards": null, "user_review_count": 0}, {"business_operation_status": 1, "rating": null, "neighborhood": null, "image": null, "scorecard": null, "featured": false, "sample_categories": "Restaurants, Pizza", "public_id": "buckhead-pizza-atlanta", "id": 775198370, "votes": null, "tagline": null, "has_video": false, "website": "http://www.citysearch.com/profile/external/775198370/atlanta_ga/buckhead_pizza.html", "offers": null, "latitude": 33.88416, "politanName": "Atlanta, GA Metro ", "phone_number": "7704050722", "tags": [{"primary": false, "id": 11299, "name": "Pizza"}, {"primary": true, "id": 1722, "name": "Restaurants"}], "fax_number": null, "expansion": {"count": null, "uri": null}, "impression_id": "000b00000054183aef918e434aa1a11abca1377f83", "profile": "http://www.citysearch.com/profile/775198370/atlanta_ga/buckhead_pizza.html", "address": {"city": "Atlanta", "state": "GA", "street": "1 Galleria Pkwy SE", "postal_code": "30339"}, "capProviderId": null, "distance": null, "has_offers": false, "name": "Buckhead Pizza", "longitude": -84.463727, "has_menu": true, "awards": null, "user_review_count": 1}, {"business_operation_status": 1, "rating": null, "neighborhood": null, "image": null, "scorecard": null, "featured": false, "sample_categories": "Restaurants, Steakhouse", "public_id": "cliff-atlanta", "id": 787132740, "votes": null, "tagline": null, "has_video": false, "website": null, "offers": null, "latitude": 33.889051, "politanName": "Atlanta, GA Metro ", "phone_number": "7709801900", "tags": [{"primary": false, "id": 11316, "name": "Steakhouse"}, {"primary": true, "id": 1722, "name": "Restaurants"}], "fax_number": null, "expansion": {"count": null, "uri": null}, "impression_id": "000b00000065efc78a3b104f7f98138ec63e7cfcf2", "profile": "http://www.citysearch.com/profile/787132740/atlanta_ga/cliff.html", "address": {"city": "Atlanta", "state": "GA", "street": "2780 Windy Ridge Pkwy Se", "postal_code": "30339"}, "capProviderId": null, "distance": null, "has_offers": false, "name": "Cliff", "longitude": -84.472806, "has_menu": false, "awards": null, "user_review_count": 0}, {"business_operation_status": 1, "rating": null, "neighborhood": null, "image": null, "scorecard": null, "featured": false, "sample_categories": "Restaurants, Carry Out", "public_id": "golden-corral-buffet-grill-atlanta", "id": 823318790, "votes": null, "tagline": null, "has_video": false, "website": null, "offers": null, "latitude": 33.910136, "politanName": "Atlanta, GA Metro ", "phone_number": "7709551779", "tags": [{"primary": false, "id": 11247, "name": "Carry Out"}, {"primary": true, "id": 1722, "name": "Restaurants"}], "fax_number": null, "expansion": {"count": null, "uri": null}, "impression_id": "000b000000f70725d918fb434898414a32853f9e91", "profile": "http://www.citysearch.com/profile/823318790/atlanta_ga/golden_corral_buffet_grill.html", "address": {"city": "Atlanta", "state": "GA", "street": "6120 Powers Ferry Rd", "postal_code": "30339"}, "capProviderId": null, "distance": null, "has_offers": false, "name": "Golden Corral Buffet & Grill", "longitude": -84.424438, "has_menu": false, "awards": null, "user_review_count": 0}, {"business_operation_status": 0, "rating": null, "neighborhood": null, "image": null, "scorecard": null, "featured": false, "sample_categories": "Restaurants, Bars & Clubs, Bars & Pubs, Carry Out", "public_id": "tgi-fridays-atlanta-17", "id": 764862940, "votes": null, "tagline": null, "has_video": false, "website": "http://www.citysearch.com/profile/external/764862940/atlanta_ga/tgi_friday_s.html", "offers": null, "latitude": 33.904204, "politanName": "Atlanta, GA Metro ", "phone_number": "7709510821", "tags": [{"primary": false, "id": 164, "name": "Bars & Clubs"}, {"primary": false, "id": 1686, "name": "Bars & Pubs"}, {"primary": false, "id": 11247, "name": "Carry Out"}, {"primary": true, "id": 1722, "name": "Restaurants"}], "fax_number": null, "expansion": {"count": null, "uri": null}, "impression_id": "000b0000003e3ede41809648269457a07c0d5eb534", "profile": "http://www.citysearch.com/profile/764862940/atlanta_ga/tgi_friday_s.html", "address": {"city": "Atlanta", "state": "GA", "street": "1945 Powers Ferry Rd SE", "postal_code": "30339"}, "capProviderId": null, "distance": null, "has_offers": false, "name": "TGI Friday's", "longitude": -84.45989, "has_menu": false, "awards": null, "user_review_count": 0}, {"business_operation_status": 0, "rating": null, "neighborhood": null, "image": null, "scorecard": null, "featured": false, "sample_categories": "Restaurants, Bars & Pubs, Barbecue Restaurants, Traditional American", "public_id": "tilted-kilt-pub-eatery-atlanta-2", "id": 653570530, "votes": null, "tagline": null, "has_video": false, "website": "http://www.citysearch.com/profile/external/653570530/atlanta_ga/tilted_kilt_pub_eatery.html", "offers": null, "latitude": 33.880351, "politanName": "Atlanta, GA Metro ", "phone_number": "6787415292", "tags": [{"primary": false, "id": 1686, "name": "Bars & Pubs"}, {"primary": false, "id": 1724, "name": "Barbecue Restaurants"}, {"primary": false, "id": 11190, "name": "Traditional American"}, {"primary": true, "id": 1722, "name": "Restaurants"}], "fax_number": null, "expansion": {"count": null, "uri": null}, "impression_id": "000b0000004e1f0febbad849a9b711302b6bb8c384", "profile": "http://www.citysearch.com/profile/653570530/atlanta_ga/tilted_kilt_pub_eatery.html", "address": {"city": "Atlanta", "state": "GA", "street": "2960 Cobb Pkwy", "postal_code": "30339"}, "capProviderId": null, "distance": null, "has_offers": false, "name": "Tilted Kilt Pub & Eatery", "longitude": -84.462963, "has_menu": false, "awards": null, "user_review_count": 0}, {"business_operation_status": 1, "rating": null, "neighborhood": null, "image": null, "scorecard": null, "featured": false, "sample_categories": "Restaurants, Pizza", "public_id": "johnnys-new-york-style-pizza-smyrna-2", "id": 653590150, "votes": null, "tagline": null, "has_video": false, "website": null, "offers": null, "latitude": 33.887146, "politanName": "Atlanta, GA Metro ", "phone_number": "7704380300", "tags": [{"primary": false, "id": 1722, "name": "Restaurants"}, {"primary": true, "id": 11299, "name": "Pizza"}], "fax_number": null, "expansion": {"count": null, "uri": null}, "impression_id": "000b000000d8eecb97a2684667958a5840e64faf96", "profile": "http://www.citysearch.com/profile/653590150/smyrna_ga/johnny_s_new_york_style_pizza.html", "address": {"city": "Smyrna", "state": "GA", "street": "2700 Cobb Pkwy Se", "postal_code": "30080"}, "capProviderId": null, "distance": null, "has_offers": false, "name": "Johnny's New York Style Pizza", "longitude": -84.47315, "has_menu": false, "awards": null, "user_review_count": 0}, {"business_operation_status": 1, "rating": null, "neighborhood": null, "image": null, "scorecard": null, "featured": false, "sample_categories": "Restaurants, Bars & Clubs, Bars & Pubs, Carry Out, Steakhouse", "public_id": "applebees-neighborhood-grill-atlanta-5", "id": 682623920, "votes": null, "tagline": null, "has_video": false, "website": "http://www.citysearch.com/profile/external/682623920/atlanta_ga/applebee_s.html", "offers": null, "latitude": 33.884889, "politanName": "Atlanta, GA Metro ", "phone_number": "7704321974", "tags": [{"primary": false, "id": 164, "name": "Bars & Clubs"}, {"primary": false, "id": 1686, "name": "Bars & Pubs"}, {"primary": false, "id": 11247, "name": "Carry Out"}, {"primary": false, "id": 11316, "name": "Steakhouse"}, {"primary": false, "id": 11333, "name": "American Express"}, {"primary": false, "id": 11349, "name": "Discover"}, {"primary": false, "id": 11361, "name": "MasterCard"}, {"primary": false, "id": 11382, "name": "Visa"}, {"primary": true, "id": 1722, "name": "Restaurants"}], "fax_number": null, "expansion": {"count": null, "uri": null}, "impression_id": "000b000000dc2218547eec44c1a7583467d87f7506", "profile": "http://www.citysearch.com/profile/682623920/atlanta_ga/applebee_s.html", "address": {"city": "Atlanta", "state": "GA", "street": "2728 New Spring Road S.E.", "postal_code": "30339"}, "capProviderId": null, "distance": null, "has_offers": false, "name": "Applebee's", "longitude": -84.473777, "has_menu": false, "awards": null, "user_review_count": 0}, {"business_operation_status": 1, "rating": null, "neighborhood": null, "image": null, "scorecard": null, "featured": false, "sample_categories": "Bakeries, Restaurants, Cafes, Cookies", "public_id": "nestle-toll-house-cafe-by-chip-atlanta", "id": 713629950, "votes": null, "tagline": null, "has_video": false, "website": null, "offers": null, "latitude": 33.881746, "politanName": "Atlanta, GA Metro ", "phone_number": "7704356648", "tags": [{"primary": false, "id": 1722, "name": "Restaurants"}, {"primary": false, "id": 6190, "name": "Cafes"}, {"primary": false, "id": 11050, "name": "Cookies"}, {"primary": true, "id": 1685, "name": "Bakeries"}], "fax_number": null, "expansion": {"count": null, "uri": null}, "impression_id": "000b0000009f608c0b5535487a86340e9636450288", "profile": "http://www.citysearch.com/profile/713629950/atlanta_ga/nestle_toll_house_cafe_by_chip.html", "address": {"city": "Atlanta", "state": "GA", "street": "1000 Cumberland Mall Se", "postal_code": "30339"}, "capProviderId": null, "distance": null, "has_offers": false, "name": "Nestle Toll House Cafe By Chip", "longitude": -84.470079, "has_menu": false, "awards": null, "user_review_count": 0}, {"business_operation_status": 1, "rating": null, "neighborhood": null, "image": null, "scorecard": null, "featured": false, "sample_categories": "Produce Markets, Juice & Smoothie Shops", "public_id": "painted-basket-atlanta", "id": 790822850, "votes": null, "tagline": null, "has_video": false, "website": null, "offers": null, "latitude": 33.852187, "politanName": "Atlanta, GA Metro ", "phone_number": "7704328375", "tags": [{"primary": false, "id": 1735, "name": "Juice & Smoothie Shops"}, {"primary": true, "id": 1717, "name": "Produce Markets"}], "fax_number": null, "expansion": {"count": null, "uri": null}, "impression_id": "000b0000000fe280ca3d6149269d297537049e0ee3", "profile": "http://www.citysearch.com/profile/790822850/atlanta_ga/painted_basket.html", "address": {"city": "Atlanta", "state": "GA", "street": "2924 Orchard Knob Se", "postal_code": "30339"}, "capProviderId": null, "distance": null, "has_offers": false, "name": "Painted Basket", "longitude": -84.469719, "has_menu": false, "awards": null, "user_review_count": 0}, {"business_operation_status": 1, "rating": null, "neighborhood": null, "image": null, "scorecard": null, "featured": false, "sample_categories": "Restaurants, Carry Out", "public_id": "atlanta-bread-company-atlanta-3", "id": 813694480, "votes": null, "tagline": null, "has_video": false, "website": null, "offers": null, "latitude": 33.865485, "politanName": "Atlanta, GA Metro ", "phone_number": "7704366004", "tags": [{"primary": false, "id": 11247, "name": "Carry Out"}, {"primary": true, "id": 1722, "name": "Restaurants"}], "fax_number": null, "expansion": {"count": null, "uri": null}, "impression_id": "000b000000a445a979d9624938a5eef030674d7eee", "profile": "http://www.citysearch.com/profile/813694480/atlanta_ga/atlanta_bread_company.html", "address": {"city": "Atlanta", "state": "GA", "street": "4300 Paces Ferry Rd Se", "postal_code": "30339"}, "capProviderId": null, "distance": null, "has_offers": false, "name": "Atlanta Bread Company", "longitude": -84.466223, "has_menu": true, "awards": null, "user_review_count": 0}, {"business_operation_status": 1, "rating": null, "neighborhood": null, "image": null, "scorecard": null, "featured": false, "sample_categories": "Restaurants, Barbecue Restaurants", "public_id": "wing-factory-atlanta-3", "id": 802521640, "votes": null, "tagline": null, "has_video": false, "website": null, "offers": null, "latitude": 33.882005, "politanName": "Atlanta, GA Metro ", "phone_number": "7704856950", "tags": [{"primary": false, "id": 1724, "name": "Barbecue Restaurants"}, {"primary": true, "id": 1722, "name": "Restaurants"}], "fax_number": null, "expansion": {"count": null, "uri": null}, "impression_id": "000b0000001d8afe5457d04af6a1662cc5d6dbafa1", "profile": "http://www.citysearch.com/profile/802521640/atlanta_ga/wing_factory.html", "address": {"city": "Atlanta", "state": "GA", "street": "2997 Cumberland Blvd Se", "postal_code": "30339"}, "capProviderId": null, "distance": null, "has_offers": false, "name": "Wing Factory", "longitude": -84.474455, "has_menu": true, "awards": null, "user_review_count": 0}, {"business_operation_status": 1, "rating": 8.0, "neighborhood": null, "image": null, "scorecard": null, "featured": false, "sample_categories": "Restaurants, Bars & Clubs, Bars & Pubs, American Express, Discover", "public_id": "jocks-n-jills-sports-bar-atlanta", "id": 3030533, "votes": null, "tagline": null, "has_video": false, "website": "http://www.citysearch.com/profile/external/3030533/atlanta_ga/jocks_n_jills_sports_bar.html", "offers": null, "latitude": 33.884135, "politanName": "Atlanta, GA Metro ", "phone_number": "7709525609", "tags": [{"primary": false, "id": 164, "name": "Bars & Clubs"}, {"primary": false, "id": 1686, "name": "Bars & Pubs"}, {"primary": false, "id": 11333, "name": "American Express"}, {"primary": false, "id": 11349, "name": "Discover"}, {"primary": false, "id": 11361, "name": "MasterCard"}, {"primary": false, "id": 11382, "name": "Visa"}, {"primary": true, "id": 1722, "name": "Restaurants"}], "fax_number": null, "expansion": {"count": null, "uri": null}, "impression_id": "000b0000006ec3a2ab666646d0b9e18d30d237a6f9", "profile": "http://www.citysearch.com/profile/3030533/atlanta_ga/jocks_n_jills_sports_bar.html", "address": {"city": "Atlanta", "state": "GA", "street": "1 Galleria Pkwy SE", "postal_code": "30339"}, "capProviderId": null, "distance": null, "has_offers": false, "name": "Jocks N Jills Sports Bar", "longitude": -84.46371, "has_menu": false, "awards": null, "user_review_count": 4}, {"business_operation_status": 1, "rating": null, "neighborhood": null, "image": null, "scorecard": null, "featured": false, "sample_categories": "Restaurants, Delis And Delicatessens, Sandwich Shops, Carry Out", "public_id": "subway-atlanta-47", "id": 627746860, "votes": null, "tagline": null, "has_video": false, "website": "http://www.citysearch.com/profile/external/627746860/atlanta_ga/subway.html", "offers": null, "latitude": 33.865018, "politanName": "Atlanta, GA Metro ", "phone_number": "7704340151", "tags": [{"primary": false, "id": 1727, "name": "Delis And Delicatessens"}, {"primary": false, "id": 1736, "name": "Sandwich Shops"}, {"primary": false, "id": 11247, "name": "Carry Out"}, {"primary": true, "id": 1722, "name": "Restaurants"}], "fax_number": null, "expansion": {"count": null, "uri": null}, "impression_id": "000b00000019e101e5619d45fdb137785459d8ecf3", "profile": "http://www.citysearch.com/profile/627746860/atlanta_ga/subway.html", "address": {"city": "Atlanta", "state": "GA", "street": "3621 Vinings Slope Se", "postal_code": "30339"}, "capProviderId": null, "distance": null, "has_offers": false, "name": "Subway", "longitude": -84.472683, "has_menu": false, "awards": null, "user_review_count": 0}, {"business_operation_status": 1, "rating": null, "neighborhood": null, "image": null, "scorecard": null, "featured": false, "sample_categories": "Restaurants, Seafood, Carry Out", "public_id": "joes-crab-shack-atlanta", "id": 632992940, "votes": null, "tagline": null, "has_video": false, "website": null, "offers": null, "latitude": 33.862532, "politanName": "Atlanta, GA Metro ", "phone_number": "7704297703", "tags": [{"primary": false, "id": 11228, "name": "Seafood"}, {"primary": false, "id": 11247, "name": "Carry Out"}, {"primary": true, "id": 1722, "name": "Restaurants"}], "fax_number": null, "expansion": {"count": null, "uri": null}, "impression_id": "000b0000002b615752ac4d4d76988a97b0d26d98c6", "profile": "http://www.citysearch.com/profile/632992940/atlanta_ga/joe_s_crab_shack.html", "address": {"city": "Atlanta", "state": "GA", "street": "250 Cove Pl", "postal_code": "30339"}, "capProviderId": null, "distance": null, "has_offers": false, "name": "Joe's Crab Shack", "longitude": -84.470864, "has_menu": false, "awards": null, "user_review_count": 0}, {"business_operation_status": 1, "rating": 8.0, "neighborhood": null, "image": null, "scorecard": null, "featured": false, "sample_categories": "Restaurants, Steakhouse, American Express, Discover, MasterCard", "public_id": "olde-mill-atlanta", "id": 3030532, "votes": null, "tagline": null, "has_video": false, "website": "http://www.citysearch.com/profile/external/3030532/atlanta_ga/olde_mill.html", "offers": null, "latitude": 33.880351, "politanName": "Atlanta, GA Metro ", "phone_number": "7709526042", "tags": [{"primary": false, "id": 1722, "name": "Restaurants"}, {"primary": false, "id": 11333, "name": "American Express"}, {"primary": false, "id": 11349, "name": "Discover"}, {"primary": false, "id": 11361, "name": "MasterCard"}, {"primary": false, "id": 11382, "name": "Visa"}, {"primary": true, "id": 11316, "name": "Steakhouse"}], "fax_number": null, "expansion": {"count": null, "uri": null}, "impression_id": "000b000000ba27f06c50f846d994674c6af5b30630", "profile": "http://www.citysearch.com/profile/3030532/atlanta_ga/olde_mill.html", "address": {"city": "Atlanta", "state": "GA", "street": "2960 Cobb Pkwy", "postal_code": "30339"}, "capProviderId": null, "distance": null, "has_offers": false, "name": "Olde Mill", "longitude": -84.462963, "has_menu": true, "awards": null, "user_review_count": 0}, {"business_operation_status": 1, "rating": null, "neighborhood": null, "image": null, "scorecard": null, "featured": false, "sample_categories": "Restaurants", "public_id": "red-restaurant-ventures-atlanta", "id": 601369081, "votes": null, "tagline": null, "has_video": false, "website": null, "offers": null, "latitude": 33.885844, "politanName": "Atlanta, GA Metro ", "phone_number": "6789150320", "tags": [{"primary": true, "id": 1722, "name": "Restaurants"}], "fax_number": null, "expansion": {"count": null, "uri": null}, "impression_id": "000b00000060c1213d9a1b41128566b835b23eea60", "profile": "http://www.citysearch.com/profile/601369081/atlanta_ga/red_restaurant_ventures.html", "address": {"city": "Atlanta", "state": "GA", "street": "200 Galleria Pkwy Se", "postal_code": "30339"}, "capProviderId": null, "distance": null, "has_offers": false, "name": "Red Restaurant Ventures", "longitude": -84.463997, "has_menu": false, "awards": null, "user_review_count": 0}, {"business_operation_status": 1, "rating": 8.0, "neighborhood": null, "image": null, "scorecard": null, "featured": false, "sample_categories": "Juice & Smoothie Shops, Health Food Stores, Restaurants", "public_id": "planet-smoothie-atlanta-4", "id": 2910405, "votes": null, "tagline": null, "has_video": false, "website": null, "offers": null, "latitude": 33.903239, "politanName": "Atlanta, GA Metro ", "phone_number": "7708590080", "tags": [{"primary": false, "id": 1716, "name": "Health Food Stores"}, {"primary": false, "id": 1722, "name": "Restaurants"}, {"primary": true, "id": 1735, "name": "Juice & Smoothie Shops"}], "fax_number": null, "expansion": {"count": null, "uri": null}, "impression_id": "000b000000cf24301be71f4c389888d470564b90c3", "profile": "http://www.citysearch.com/profile/2910405/atlanta_ga/planet_smoothie.html", "address": {"city": "Atlanta", "state": "GA", "street": "2014 Powers Ferry Rd SE Ste 350", "postal_code": "30339"}, "capProviderId": null, "distance": null, "has_offers": false, "name": "Planet Smoothie", "longitude": -84.460467, "has_menu": true, "awards": null, "user_review_count": 2}, {"business_operation_status": 1, "rating": null, "neighborhood": null, "image": null, "scorecard": null, "featured": false, "sample_categories": "Restaurants, Chicken", "public_id": "mrs-winners-chicken-biscuits-atlanta-10", "id": 3029520, "votes": null, "tagline": null, "has_video": false, "website": null, "offers": null, "latitude": 33.861976, "politanName": "Atlanta, GA Metro ", "phone_number": "7704370991", "tags": [{"primary": false, "id": 12839, "name": "Chicken"}, {"primary": true, "id": 1722, "name": "Restaurants"}], "fax_number": null, "expansion": {"count": null, "uri": null}, "impression_id": "000b000000a5d633ce83424a27b8dd000dd07b7118", "profile": "http://www.citysearch.com/profile/3029520/atlanta_ga/mrs_winners_chicken_biscuits.html", "address": {"city": "Atlanta", "state": "GA", "street": "3905 Cumberland Pkwy SE", "postal_code": "30339"}, "capProviderId": null, "distance": null, "has_offers": false, "name": "Mrs Winners Chicken & Biscuits", "longitude": -84.47645, "has_menu": true, "awards": null, "user_review_count": 0}, {"business_operation_status": 0, "rating": null, "neighborhood": null, "image": null, "scorecard": null, "featured": false, "sample_categories": "Restaurants", "public_id": "le-french-neighbor-atlanta", "id": 672201980, "votes": null, "tagline": null, "has_video": false, "website": null, "offers": null, "latitude": 33.865821, "politanName": "Atlanta, GA Metro ", "phone_number": "7708011321", "tags": [{"primary": true, "id": 1722, "name": "Restaurants"}], "fax_number": null, "expansion": {"count": null, "uri": null}, "impression_id": "000b000000641ac67ac74e4dfea4e13efe6e665d8c", "profile": "http://www.citysearch.com/profile/672201980/atlanta_ga/le_french_neighbor.html", "address": {"city": "Atlanta", "state": "GA", "street": "2850 Paces Ferry Rd SE", "postal_code": "30339"}, "capProviderId": null, "distance": null, "has_offers": false, "name": "Le French Neighbor", "longitude": -84.468556, "has_menu": false, "awards": null, "user_review_count": 0}, {"business_operation_status": 1, "rating": null, "neighborhood": null, "image": null, "scorecard": null, "featured": false, "sample_categories": "Restaurants, Delis And Delicatessens, Juice & Smoothie Shops", "public_id": "planet-smoothie-atlanta-11", "id": 790675480, "votes": null, "tagline": null, "has_video": false, "website": null, "offers": null, "latitude": 33.881743, "politanName": "Atlanta, GA Metro ", "phone_number": "7704356648", "tags": [{"primary": false, "id": 1727, "name": "Delis And Delicatessens"}, {"primary": false, "id": 1735, "name": "Juice & Smoothie Shops"}, {"primary": true, "id": 1722, "name": "Restaurants"}], "fax_number": null, "expansion": {"count": null, "uri": null}, "impression_id": "000b000000c96cff8303c1475da4c9788189077d0b", "profile": "http://www.citysearch.com/profile/790675480/atlanta_ga/planet_smoothie.html", "address": {"city": "Atlanta", "state": "GA", "street": "1000 Cumberland Mall Se", "postal_code": "30339"}, "capProviderId": null, "distance": null, "has_offers": false, "name": "Planet Smoothie", "longitude": -84.470084, "has_menu": true, "awards": null, "user_review_count": 0}, {"business_operation_status": 1, "rating": null, "neighborhood": null, "image": null, "scorecard": null, "featured": false, "sample_categories": "Restaurants", "public_id": "french-table-inc-atlanta", "id": 827584140, "votes": null, "tagline": null, "has_video": false, "website": null, "offers": null, "latitude": 33.865608, "politanName": "Atlanta, GA Metro ", "phone_number": "7708011321", "tags": [{"primary": true, "id": 1722, "name": "Restaurants"}], "fax_number": null, "expansion": {"count": null, "uri": null}, "impression_id": "000b0000002f4b5211e8d0427b89e98fb2b140149e", "profile": "http://www.citysearch.com/profile/827584140/atlanta_ga/french_table_inc.html", "address": {"city": "Atlanta", "state": "GA", "street": "2850 Paces Ferry Rd SE", "postal_code": "30339"}, "capProviderId": null, "distance": null, "has_offers": false, "name": "French Table Inc", "longitude": -84.468568, "has_menu": false, "awards": null, "user_review_count": 1}, {"business_operation_status": 1, "rating": null, "neighborhood": null, "image": null, "scorecard": null, "featured": false, "sample_categories": "Restaurants", "public_id": "caledonian-deli-at-overlook-atlanta", "id": 827404950, "votes": null, "tagline": null, "has_video": false, "website": null, "offers": null, "latitude": 33.865802, "politanName": "Atlanta, GA Metro ", "phone_number": "7704381091", "tags": [{"primary": true, "id": 1722, "name": "Restaurants"}], "fax_number": null, "expansion": {"count": null, "uri": null}, "impression_id": "000b000000dc28639cefcb482bac25f5de5d286b39", "profile": "http://www.citysearch.com/profile/827404950/atlanta_ga/caledonian_deli_at_overlook.html", "address": {"city": "Atlanta", "state": "GA", "street": "2849 Paces Ferry Rd SE", "postal_code": "30339"}, "capProviderId": null, "distance": null, "has_offers": false, "name": "Caledonian Deli At Overlook", "longitude": -84.470462, "has_menu": false, "awards": null, "user_review_count": 0}, {"business_operation_status": 1, "rating": null, "neighborhood": null, "image": null, "scorecard": null, "featured": false, "sample_categories": "Restaurants, Bakeries", "public_id": "brooklyn-water-bagels-atlanta", "id": 790809680, "votes": null, "tagline": null, "has_video": false, "website": null, "offers": null, "latitude": 33.883196, "politanName": "Atlanta, GA Metro ", "phone_number": "7709889991", "tags": [{"primary": false, "id": 1685, "name": "Bakeries"}, {"primary": true, "id": 1722, "name": "Restaurants"}], "fax_number": null, "expansion": {"count": null, "uri": null}, "impression_id": "000b000000a9fed033da3e46c399eef3a8552dc061", "profile": "http://www.citysearch.com/profile/790809680/atlanta_ga/brooklyn_water_bagels.html", "address": {"city": "Atlanta", "state": "GA", "street": "2955 Cobb Pkwy Se # 240", "postal_code": "30339"}, "capProviderId": null, "distance": null, "has_offers": false, "name": "Brooklyn Water Bagels", "longitude": -84.461616, "has_menu": false, "awards": null, "user_review_count": 0}, {"business_operation_status": 1, "rating": 6.0, "neighborhood": null, "image": null, "scorecard": null, "featured": false, "sample_categories": "Delis And Delicatessens", "public_id": "wildwood-cafe-atlanta", "id": 2911217, "votes": null, "tagline": null, "has_video": false, "website": null, "offers": null, "latitude": 33.906254, "politanName": "Atlanta, GA Metro ", "phone_number": "7709160069", "tags": [{"primary": true, "id": 1727, "name": "Delis And Delicatessens"}], "fax_number": null, "expansion": {"count": null, "uri": null}, "impression_id": "000b00000087c5e1d230af48b9af01d67b46ab983a", "profile": "http://www.citysearch.com/profile/2911217/atlanta_ga/wildwood_cafe.html", "address": {"city": "Atlanta", "state": "GA", "street": "2300 Windy Ridge Pkwy SE Ste 3", "postal_code": "30339"}, "capProviderId": null, "distance": null, "has_offers": false, "name": "Wildwood Cafe", "longitude": -84.460402, "has_menu": true, "awards": null, "user_review_count": 1}, {"business_operation_status": 1, "rating": null, "neighborhood": null, "image": null, "scorecard": null, "featured": false, "sample_categories": "Catering, Restaurants", "public_id": "sweet-art-of-cateringparkside-atlanta", "id": 3030557, "votes": null, "tagline": null, "has_video": false, "website": null, "offers": null, "latitude": 33.906442, "politanName": "Atlanta, GA Metro ", "phone_number": "7709330089", "tags": [{"primary": false, "id": 1722, "name": "Restaurants"}, {"primary": true, "id": 1705, "name": "Catering"}], "fax_number": null, "expansion": {"count": null, "uri": null}, "impression_id": "000b000000d50b3aaa8902485982b84a57161e9fb3", "profile": "http://www.citysearch.com/profile/3030557/atlanta_ga/sweet_art_of_catering_parkside.html", "address": {"city": "Atlanta", "state": "GA", "street": "2500 Windy Rdg Pkwy SE Ste 100", "postal_code": "30339"}, "capProviderId": null, "distance": null, "has_offers": false, "name": "Sweet Art Of Catering-Parkside", "longitude": -84.46162, "has_menu": false, "awards": null, "user_review_count": 0}, {"business_operation_status": 1, "rating": null, "neighborhood": null, "image": null, "scorecard": null, "featured": false, "sample_categories": "Restaurants, Mexican", "public_id": "wuvm-atlanta", "id": 622267360, "votes": null, "tagline": null, "has_video": false, "website": null, "offers": null, "latitude": 33.894187, "politanName": "Atlanta, GA Metro ", "phone_number": "7706616188", "tags": [{"primary": false, "id": 11208, "name": "Mexican"}, {"primary": true, "id": 1722, "name": "Restaurants"}], "fax_number": null, "expansion": {"count": null, "uri": null}, "impression_id": "000b00000038c18ece462d4639b62df2909a22ade6", "profile": "http://www.citysearch.com/profile/622267360/atlanta_ga/wuvm.html", "address": {"city": "Atlanta", "state": "GA", "street": "400 Interstate North Pkwy Se", "postal_code": "30339"}, "capProviderId": null, "distance": null, "has_offers": false, "name": "Wuvm", "longitude": -84.456313, "has_menu": false, "awards": null, "user_review_count": 0}, {"business_operation_status": 1, "rating": null, "neighborhood": null, "image": null, "scorecard": null, "featured": false, "sample_categories": "Restaurants", "public_id": "islands-best-cafe-atlanta", "id": 37092685, "votes": null, "tagline": null, "has_video": false, "website": null, "offers": null, "latitude": 33.909234, "politanName": "Atlanta, GA Metro ", "phone_number": "7708580027", "tags": [{"primary": true, "id": 1722, "name": "Restaurants"}], "fax_number": null, "expansion": {"count": null, "uri": null}, "impression_id": "000b00000050c5c4ddd84540058493d1499b504b5e", "profile": "http://www.citysearch.com/profile/37092685/atlanta_ga/island_s_best_cafe.html", "address": {"city": "Atlanta", "state": "GA", "street": "6190 Powers Ferry Rd NW", "postal_code": "30339"}, "capProviderId": null, "distance": null, "has_offers": false, "name": "Island's Best Cafe", "longitude": -84.426207, "has_menu": false, "awards": null, "user_review_count": 0}, {"business_operation_status": 1, "rating": null, "neighborhood": null, "image": null, "scorecard": null, "featured": false, "sample_categories": "Restaurants, Delis And Delicatessens, Sandwich Shops, Carry Out", "public_id": "subway-marietta-56", "id": 609620714, "votes": null, "tagline": null, "has_video": false, "website": "http://www.citysearch.com/profile/external/609620714/marietta_ga/subway.html", "offers": null, "latitude": 33.901237, "politanName": "Atlanta, GA Metro ", "phone_number": "7706937005", "tags": [{"primary": false, "id": 1727, "name": "Delis And Delicatessens"}, {"primary": false, "id": 1736, "name": "Sandwich Shops"}, {"primary": false, "id": 11247, "name": "Carry Out"}, {"primary": true, "id": 1722, "name": "Restaurants"}], "fax_number": null, "expansion": {"count": null, "uri": null}, "impression_id": "000b00000076bfd2bf0b954594b4b4b04760402df6", "profile": "http://www.citysearch.com/profile/609620714/marietta_ga/subway.html", "address": {"city": "Marietta", "state": "GA", "street": "2697 Windy Hill Rd SE", "postal_code": "30067"}, "capProviderId": null, "distance": null, "has_offers": false, "name": "Subway", "longitude": -84.476184, "has_menu": false, "awards": null, "user_review_count": 0}, {"business_operation_status": 1, "rating": null, "neighborhood": null, "image": null, "scorecard": null, "featured": false, "sample_categories": "Coffeehouses", "public_id": "starbucks-atlanta-62", "id": 775185230, "votes": null, "tagline": null, "has_video": false, "website": "http://www.citysearch.com/profile/external/775185230/atlanta_ga/starbucks.html", "offers": null, "latitude": 33.878815, "politanName": "Atlanta, GA Metro ", "phone_number": "4044614129", "tags": [{"primary": true, "id": 1726, "name": "Coffeehouses"}], "fax_number": null, "expansion": {"count": null, "uri": null}, "impression_id": "000b000000c9855e39e6d34e03b01f5c97f5b3ae96", "profile": "http://www.citysearch.com/profile/775185230/atlanta_ga/starbucks.html", "address": {"city": "Atlanta", "state": "GA", "street": "6000 N Atlanta Hartsfield Airp", "postal_code": "30339"}, "capProviderId": null, "distance": null, "has_offers": false, "name": "Starbucks", "longitude": -84.464518, "has_menu": false, "awards": null, "user_review_count": 0}, {"business_operation_status": 1, "rating": null, "neighborhood": null, "image": null, "scorecard": null, "featured": false, "sample_categories": "Restaurants, Catering, Gourmet Foods", "public_id": "jerrys-gourmet-cafe-inc-atlanta", "id": 777786040, "votes": null, "tagline": null, "has_video": false, "website": null, "offers": null, "latitude": 33.715297, "politanName": "Atlanta, GA Metro ", "phone_number": "7709520633", "tags": [{"primary": false, "id": 1705, "name": "Catering"}, {"primary": false, "id": 11169, "name": "Gourmet Foods"}, {"primary": true, "id": 1722, "name": "Restaurants"}], "fax_number": null, "expansion": {"count": null, "uri": null}, "impression_id": "000b000000cc7a3e6078164eaaaf901b240421ee44", "profile": "http://www.citysearch.com/profile/777786040/atlanta_ga/jerry_s_gourmet_cafe_inc.html", "address": {"city": "Atlanta", "state": "GA", "street": "3350 Riverwood Pkwy Se # 30", "postal_code": "30339"}, "capProviderId": null, "distance": null, "has_offers": false, "name": "Jerry's Gourmet Cafe INC", "longitude": -84.835119, "has_menu": false, "awards": null, "user_review_count": 0}, {"business_operation_status": 1, "rating": null, "neighborhood": null, "image": null, "scorecard": null, "featured": false, "sample_categories": "Restaurants", "public_id": "box-lunch-express-atlanta", "id": 33572135, "votes": null, "tagline": null, "has_video": false, "website": null, "offers": null, "latitude": 33.879395, "politanName": "Atlanta, GA Metro ", "phone_number": "7709514994", "tags": [{"primary": true, "id": 1722, "name": "Restaurants"}], "fax_number": null, "expansion": {"count": null, "uri": null}, "impression_id": "000b000000872f99f9ae9c49dca052a1ec58b2b9a2", "profile": "http://www.citysearch.com/profile/33572135/atlanta_ga/box_lunch_express.html", "address": {"city": "Atlanta", "state": "GA", "street": "3051 Akers Mill Rd SE", "postal_code": "30339"}, "capProviderId": null, "distance": null, "has_offers": false, "name": "Box Lunch Express", "longitude": -84.463912, "has_menu": false, "awards": null, "user_review_count": 0}, {"business_operation_status": 1, "rating": null, "neighborhood": null, "image": null, "scorecard": null, "featured": false, "sample_categories": "Restaurants, Bars & Clubs, Traditional American, Carry Out", "public_id": "chilis-grill-bar-atlanta-8", "id": 775225760, "votes": null, "tagline": null, "has_video": false, "website": null, "offers": null, "latitude": 33.878815, "politanName": "Atlanta, GA Metro ", "phone_number": "4044614122", "tags": [{"primary": false, "id": 164, "name": "Bars & Clubs"}, {"primary": false, "id": 11190, "name": "Traditional American"}, {"primary": false, "id": 11247, "name": "Carry Out"}, {"primary": true, "id": 1722, "name": "Restaurants"}], "fax_number": null, "expansion": {"count": null, "uri": null}, "impression_id": "000b000000097ab80b18e9412db8bb869f793e76eb", "profile": "http://www.citysearch.com/profile/775225760/atlanta_ga/chili_s_grill_bar.html", "address": {"city": "Atlanta", "state": "GA", "street": "6000 Atlanta Hartsfield Airpt", "postal_code": "30339"}, "capProviderId": null, "distance": null, "has_offers": false, "name": "Chili's Grill & Bar", "longitude": -84.464518, "has_menu": false, "awards": null, "user_review_count": 0}, {"business_operation_status": 0, "rating": null, "neighborhood": null, "image": null, "scorecard": null, "featured": false, "sample_categories": "Restaurants", "public_id": "big-apple-cafe-atlanta-2", "id": 777818390, "votes": null, "tagline": null, "has_video": false, "website": null, "offers": null, "latitude": 33.901896, "politanName": "Atlanta, GA Metro ", "phone_number": "7708580088", "tags": [{"primary": true, "id": 1722, "name": "Restaurants"}], "fax_number": null, "expansion": {"count": null, "uri": null}, "impression_id": "000b00000016bf6361df134c3bad6a2c285a2dbf05", "profile": "http://www.citysearch.com/profile/777818390/atlanta_ga/big_apple_cafe.html", "address": {"city": "Atlanta", "state": "GA", "street": "1000 Parkwood Cir Se # 175", "postal_code": "30339"}, "capProviderId": null, "distance": null, "has_offers": false, "name": "Big Apple Cafe", "longitude": -84.459791, "has_menu": false, "awards": null, "user_review_count": 0}, {"business_operation_status": 1, "rating": null, "neighborhood": null, "image": null, "scorecard": null, "featured": false, "sample_categories": "Restaurants, Japanese, American Express, Debit Card, MasterCard", "public_id": "hoki-japanese-restaurant-atlanta", "id": 754709640, "votes": null, "tagline": null, "has_video": false, "website": "http://www.citysearch.com/profile/external/754709640/atlanta_ga/hoki_japanese_restaurant.html", "offers": null, "latitude": 33.872583, "politanName": "Atlanta, GA Metro ", "phone_number": "7706900555", "tags": [{"primary": false, "id": 11202, "name": "Japanese"}, {"primary": false, "id": 11333, "name": "American Express"}, {"primary": false, "id": 11347, "name": "Debit Card"}, {"primary": false, "id": 11361, "name": "MasterCard"}, {"primary": false, "id": 11382, "name": "Visa"}, {"primary": true, "id": 1722, "name": "Restaurants"}], "fax_number": null, "expansion": {"count": null, "uri": null}, "impression_id": "000b000000eecb4df373cf45868358e9bcc3d20f4a", "profile": "http://www.citysearch.com/profile/754709640/atlanta_ga/hoki_japanese_restaurant.html", "address": {"city": "Atlanta", "state": "GA", "street": "3300 Cobb Pkwy SE 114", "postal_code": "30339"}, "capProviderId": null, "distance": null, "has_offers": false, "name": "HOKI Japanese Restaurant", "longitude": -84.457738, "has_menu": false, "awards": null, "user_review_count": 0}, {"business_operation_status": 1, "rating": null, "neighborhood": null, "image": null, "scorecard": null, "featured": false, "sample_categories": "Nutritionists, Weight Loss, Health Food", "public_id": "jenny-craig-weight-loss-ctr-atlanta", "id": 601369806, "votes": null, "tagline": null, "has_video": false, "website": "http://www.citysearch.com/profile/external/601369806/atlanta_ga/jenny_craig_weight_loss_ctr.html", "offers": null, "latitude": 33.88068, "politanName": "Atlanta, GA Metro ", "phone_number": "7706904190", "tags": [{"primary": false, "id": 1893, "name": "Nutritionists"}, {"primary": false, "id": 11200, "name": "Health Food"}, {"primary": true, "id": 1931, "name": "Weight Loss"}], "fax_number": null, "expansion": {"count": null, "uri": null}, "impression_id": "000b0000003dd302e0409e4343b7db56a3a3612604", "profile": "http://www.citysearch.com/profile/601369806/atlanta_ga/jenny_craig_weight_loss_ctr.html", "address": {"city": "Atlanta", "state": "GA", "street": "2969 Cobb Pkwy", "postal_code": "30339"}, "capProviderId": null, "distance": null, "has_offers": false, "name": "Jenny Craig Weight Loss Ctr", "longitude": -84.461897, "has_menu": false, "awards": null, "user_review_count": 0}, {"business_operation_status": 1, "rating": null, "neighborhood": null, "image": null, "scorecard": null, "featured": false, "sample_categories": "Restaurants", "public_id": "vinings-club-atlanta", "id": 672416590, "votes": null, "tagline": null, "has_video": false, "website": "http://www.citysearch.com/profile/external/672416590/atlanta_ga/vinings_club.html", "offers": null, "latitude": 33.867677, "politanName": "Atlanta, GA Metro ", "phone_number": "7704331155", "tags": [{"primary": true, "id": 1722, "name": "Restaurants"}], "fax_number": null, "expansion": {"count": null, "uri": null}, "impression_id": "000b000000af6fea32f2f645f1bef00c70e58730b3", "profile": "http://www.citysearch.com/profile/672416590/atlanta_ga/vinings_club.html", "address": {"city": "Atlanta", "state": "GA", "street": "2859 Paces Ferry Rd SE", "postal_code": "30339"}, "capProviderId": null, "distance": null, "has_offers": false, "name": "Vinings Club", "longitude": -84.468631, "has_menu": false, "awards": null, "user_review_count": 1}, {"business_operation_status": 1, "rating": null, "neighborhood": null, "image": null, "scorecard": null, "featured": false, "sample_categories": "Restaurants", "public_id": "paces-vine-atlanta", "id": 618927874, "votes": null, "tagline": null, "has_video": false, "website": null, "offers": null, "latitude": 33.864473, "politanName": "Atlanta, GA Metro ", "phone_number": "4048720904", "tags": [{"primary": true, "id": 1722, "name": "Restaurants"}], "fax_number": null, "expansion": {"count": null, "uri": null}, "impression_id": "000b000000b171b748cda14ba2854839d87e12cb29", "profile": "http://www.citysearch.com/profile/618927874/atlanta_ga/paces_vine.html", "address": {"city": "Atlanta", "state": "GA", "street": "4300 Paces Ferry Rd SE 250", "postal_code": "30339"}, "capProviderId": null, "distance": null, "has_offers": false, "name": "Paces & Vine", "longitude": -84.466262, "has_menu": true, "awards": null, "user_review_count": 0}, {"business_operation_status": 1, "rating": null, "neighborhood": null, "image": null, "scorecard": null, "featured": false, "sample_categories": "Restaurants", "public_id": "tin-drum-asiacafe-atlanta-2", "id": 627002064, "votes": null, "tagline": null, "has_video": false, "website": null, "offers": null, "latitude": 33.882376, "politanName": "Atlanta, GA Metro ", "phone_number": "6783880515", "tags": [{"primary": true, "id": 1722, "name": "Restaurants"}], "fax_number": null, "expansion": {"count": null, "uri": null}, "impression_id": "000b000000410ced6b2767467f956142ffe81d83f9", "profile": "http://www.citysearch.com/profile/627002064/atlanta_ga/tin_drum_asiacafe.html", "address": {"city": "Atlanta", "state": "GA", "street": "2955 Cobb Pkwy SE", "postal_code": "30339"}, "capProviderId": null, "distance": null, "has_offers": false, "name": "Tin Drum Asiacafe", "longitude": -84.459577, "has_menu": false, "awards": null, "user_review_count": 0}, {"business_operation_status": 1, "rating": null, "neighborhood": null, "image": null, "scorecard": null, "featured": false, "sample_categories": "Restaurants", "public_id": "wing-zone-atlanta", "id": 775256470, "votes": null, "tagline": null, "has_video": false, "website": "http://www.citysearch.com/profile/external/775256470/atlanta_ga/wing_zone.html", "offers": null, "latitude": 33.887519, "politanName": "Atlanta, GA Metro ", "phone_number": "4048755045", "tags": [{"primary": true, "id": 1722, "name": "Restaurants"}], "fax_number": null, "expansion": {"count": null, "uri": null}, "impression_id": "000b000000d56cd20928924d55985f2e13cbd2b379", "profile": "http://www.citysearch.com/profile/775256470/atlanta_ga/wing_zone.html", "address": {"city": "Atlanta", "state": "GA", "street": "900 Circle 75 Pkwy SE", "postal_code": "30339"}, "capProviderId": null, "distance": null, "has_offers": false, "name": "Wing Zone", "longitude": -84.467593, "has_menu": false, "awards": null, "user_review_count": 0}, {"business_operation_status": 1, "rating": null, "neighborhood": null, "image": null, "scorecard": null, "featured": false, "sample_categories": "Restaurants, French", "public_id": "la-madeleine-atlanta-3", "id": 777814890, "votes": null, "tagline": null, "has_video": false, "website": null, "offers": null, "latitude": 33.904695, "politanName": "Atlanta, GA Metro ", "phone_number": "7709528426", "tags": [{"primary": false, "id": 11219, "name": "French"}, {"primary": true, "id": 1722, "name": "Restaurants"}], "fax_number": null, "expansion": {"count": null, "uri": null}, "impression_id": "000b00000075b5e6694a2d490b9520198d54fe0802", "profile": "http://www.citysearch.com/profile/777814890/atlanta_ga/la_madeleine.html", "address": {"city": "Atlanta", "state": "GA", "street": "1931 Powers Ferry Rd Se", "postal_code": "30339"}, "capProviderId": null, "distance": null, "has_offers": false, "name": "La Madeleine", "longitude": -84.46178, "has_menu": false, "awards": null, "user_review_count": 0}, {"business_operation_status": 0, "rating": null, "neighborhood": null, "image": null, "scorecard": null, "featured": false, "sample_categories": "Restaurants", "public_id": "paris-bistro-atlanta-2", "id": 605601560, "votes": null, "tagline": null, "has_video": false, "website": null, "offers": null, "latitude": 33.867677, "politanName": "Atlanta, GA Metro ", "phone_number": "6788420603", "tags": [{"primary": true, "id": 1722, "name": "Restaurants"}], "fax_number": null, "expansion": {"count": null, "uri": null}, "impression_id": "000b000000f27b9b33d6994affb096b3f379e4d07c", "profile": "http://www.citysearch.com/profile/605601560/atlanta_ga/paris_bistro.html", "address": {"city": "Atlanta", "state": "GA", "street": "2859 Paces Ferry Rd Se", "postal_code": "30339"}, "capProviderId": null, "distance": null, "has_offers": false, "name": "Paris Bistro", "longitude": -84.468631, "has_menu": false, "awards": null, "user_review_count": 0}, {"business_operation_status": 1, "rating": null, "neighborhood": null, "image": null, "scorecard": null, "featured": false, "sample_categories": "Restaurants", "public_id": "cafe-overton-atlanta", "id": 611320744, "votes": null, "tagline": null, "has_video": false, "website": null, "offers": null, "latitude": 33.884117, "politanName": "Atlanta, GA Metro ", "phone_number": "7706938591", "tags": [{"primary": true, "id": 1722, "name": "Restaurants"}], "fax_number": null, "expansion": {"count": null, "uri": null}, "impression_id": "000b000000bdf65503e4f6406c845a4e7455316c7c", "profile": "http://www.citysearch.com/profile/611320744/atlanta_ga/cafe_overton.html", "address": {"city": "Atlanta", "state": "GA", "street": "3625 Cumberland Blvd SE", "postal_code": "30339"}, "capProviderId": null, "distance": null, "has_offers": false, "name": "Cafe Overton", "longitude": -84.453917, "has_menu": false, "awards": null, "user_review_count": 0}, {"business_operation_status": 1, "rating": null, "neighborhood": null, "image": null, "scorecard": null, "featured": false, "sample_categories": "Restaurants, Delis And Delicatessens, Carry Out, Shop Online", "public_id": "jimmy-johns-atlanta-10", "id": 653623400, "votes": null, "tagline": null, "has_video": false, "website": "http://www.citysearch.com/profile/external/653623400/atlanta_ga/jimmy_john_s.html", "offers": null, "latitude": 33.866524, "politanName": "Atlanta, GA Metro ", "phone_number": "7708743285", "tags": [{"primary": false, "id": 1727, "name": "Delis And Delicatessens"}, {"primary": false, "id": 11247, "name": "Carry Out"}, {"primary": false, "id": 11375, "name": "Shop Online"}, {"primary": true, "id": 1722, "name": "Restaurants"}], "fax_number": null, "expansion": {"count": null, "uri": null}, "impression_id": "000b000000476e3d1c7a644d70beebf93a85fc7925", "profile": "http://www.citysearch.com/profile/653623400/atlanta_ga/jimmy_john_s.html", "address": {"city": "Atlanta", "state": "GA", "street": "2941 Paces Ferry Rd Se", "postal_code": "30339"}, "capProviderId": null, "distance": null, "has_offers": false, "name": "Jimmy John's", "longitude": -84.466985, "has_menu": false, "awards": null, "user_review_count": 0}, {"business_operation_status": 1, "rating": null, "neighborhood": null, "image": null, "scorecard": null, "featured": false, "sample_categories": "Restaurants, Delis And Delicatessens, Sandwich Shops", "public_id": "my-friends-place-atlanta-10", "id": 682312750, "votes": null, "tagline": null, "has_video": false, "website": "http://www.citysearch.com/profile/external/682312750/atlanta_ga/my_friend_s_place.html", "offers": null, "latitude": 33.88074, "politanName": "Atlanta, GA Metro ", "phone_number": "7708501431", "tags": [{"primary": false, "id": 1727, "name": "Delis And Delicatessens"}, {"primary": false, "id": 1736, "name": "Sandwich Shops"}, {"primary": true, "id": 1722, "name": "Restaurants"}], "fax_number": null, "expansion": {"count": null, "uri": null}, "impression_id": "000b00000006bad97518d74de78b37f2060875def6", "profile": "http://www.citysearch.com/profile/682312750/atlanta_ga/my_friend_s_place.html", "address": {"city": "Atlanta", "state": "GA", "street": "2955 Cobb Pkwy Se # 280", "postal_code": "30339"}, "capProviderId": null, "distance": null, "has_offers": false, "name": "My Friend's Place", "longitude": -84.462229, "has_menu": false, "awards": null, "user_review_count": 3}, {"business_operation_status": 1, "rating": null, "neighborhood": null, "image": null, "scorecard": null, "featured": false, "sample_categories": "Ice Cream Parlors", "public_id": "slush-puppie-of-atlanta-atlanta", "id": 612214754, "votes": null, "tagline": null, "has_video": false, "website": null, "offers": null, "latitude": 33.836397, "politanName": "Atlanta, GA Metro ", "phone_number": "4047924330", "tags": [{"primary": true, "id": 1730, "name": "Ice Cream Parlors"}], "fax_number": null, "expansion": {"count": null, "uri": null}, "impression_id": "000b0000005cb17fdd07f84db487a57f4e99407f3b", "profile": "http://www.citysearch.com/profile/612214754/atlanta_ga/slush_puppie_of_atlanta.html", "address": {"city": "Atlanta", "state": "GA", "street": "4820 N Church Ln SE", "postal_code": "30339"}, "capProviderId": null, "distance": null, "has_offers": false, "name": "Slush Puppie Of Atlanta", "longitude": -84.482929, "has_menu": false, "awards": null, "user_review_count": 0}, {"business_operation_status": 1, "rating": null, "neighborhood": null, "image": null, "scorecard": null, "featured": false, "sample_categories": "Restaurants, Pizza, Carry Out", "public_id": "pizzza-hut-atlanta", "id": 773048570, "votes": null, "tagline": null, "has_video": false, "website": "http://www.citysearch.com/profile/external/773048570/atlanta_ga/pizzza_hut.html", "offers": null, "latitude": 33.878815, "politanName": "Atlanta, GA Metro ", "phone_number": "4044614123", "tags": [{"primary": false, "id": 1722, "name": "Restaurants"}, {"primary": false, "id": 11247, "name": "Carry Out"}, {"primary": true, "id": 11299, "name": "Pizza"}], "fax_number": null, "expansion": {"count": null, "uri": null}, "impression_id": "000b000000cd4d052176e54f64af9be5da290f4314", "profile": "http://www.citysearch.com/profile/773048570/atlanta_ga/pizzza_hut.html", "address": {"city": "Atlanta", "state": "GA", "street": "6000 Atlanta Hartsfield Airpt", "postal_code": "30339"}, "capProviderId": null, "distance": null, "has_offers": false, "name": "Pizzza Hut", "longitude": -84.464518, "has_menu": false, "awards": null, "user_review_count": 0}, {"business_operation_status": 1, "rating": null, "neighborhood": null, "image": null, "scorecard": null, "featured": false, "sample_categories": "Restaurants, Delis And Delicatessens, Sandwich Shops, Carry Out, Soups", "public_id": "subway-atlanta-50", "id": 45113615, "votes": null, "tagline": null, "has_video": false, "website": "http://www.citysearch.com/profile/external/45113615/atlanta_ga/subway.html", "offers": null, "latitude": 33.872557, "politanName": "Atlanta, GA Metro ", "phone_number": "7709512331", "tags": [{"primary": false, "id": 1727, "name": "Delis And Delicatessens"}, {"primary": false, "id": 1736, "name": "Sandwich Shops"}, {"primary": false, "id": 11247, "name": "Carry Out"}, {"primary": false, "id": 11311, "name": "Soups"}, {"primary": false, "id": 11361, "name": "MasterCard"}, {"primary": false, "id": 11382, "name": "Visa"}, {"primary": true, "id": 1722, "name": "Restaurants"}], "fax_number": null, "expansion": {"count": null, "uri": null}, "impression_id": "000b000000205181fad4934118bd3b6732aba695fa", "profile": "http://www.citysearch.com/profile/45113615/atlanta_ga/subway.html", "address": {"city": "Atlanta", "state": "GA", "street": "4355 Cobb Pkwy Ste K", "postal_code": "30339"}, "capProviderId": null, "distance": null, "has_offers": false, "name": "Subway", "longitude": -84.456317, "has_menu": true, "awards": null, "user_review_count": 0}], "histograms": [], "tag_ids": [1722], "uri": "http://api.citygridmedia.com:8080/search/places/v2/search/where?has_offers=false&type=restaurant&format=json&page=5&where=30339&rpp=50&histograms=false&publisher=10000009598&region_type=circle", "did_you_mean": "", "regions": [{"latitude": 33.877209, "default_radius": 2.6, "type": "postal_code", "name": "30339", "longitude": -84.463483}], "call_id": "000b000000b1db356e66214951bb406553fa7d4e0f", "first_hit": 201, "total_hits": 1582, "geo_ids": [26497], "page": 5, "last_hit": 250}}