{"results": {"rpp": 50, "locations": [{"business_operation_status": 1, "rating": null, "neighborhood": null, "image": null, "scorecard": null, "featured": false, "sample_categories": "Barbecue Restaurants", "public_id": "apple-two-peach-barbecue-marietta", "id": 614162144, "votes": null, "tagline": null, "has_video": false, "website": null, "offers": null, "latitude": 33.936816, "politanName": "Atlanta, GA Metro ", "phone_number": "7706756411", "tags": [{"primary": true, "id": 1724, "name": "Barbecue Restaurants"}], "fax_number": null, "expansion": {"count": null, "uri": null}, "impression_id": "000b000000d987798e72c442e1bdf9560262ad2f55", "profile": "http://www.citysearch.com/profile/614162144/marietta_ga/apple_two_peach_barbecue.html", "address": {"city": "Marietta", "state": "GA", "street": "680 Powder Springs St", "postal_code": "30064"}, "capProviderId": null, "distance": null, "has_offers": false, "name": "Apple Two Peach Barbecue", "longitude": -84.557309, "has_menu": false, "awards": null, "user_review_count": 0}, {"business_operation_status": 0, "rating": null, "neighborhood": null, "image": null, "scorecard": null, "featured": false, "sample_categories": "Restaurants, Fast Food, Carry Out, Hamburgers", "public_id": "a-gold-club-escorts-marietta", "id": 44774196, "votes": null, "tagline": null, "has_video": false, "website": "http://www.citysearch.com/profile/external/44774196/marietta_ga/a_gold_club_escorts.html", "offers": null, "latitude": 33.951502, "politanName": "Atlanta, GA Metro ", "phone_number": "7706507335", "tags": [{"primary": false, "id": 11199, "name": "Fast Food"}, {"primary": false, "id": 11247, "name": "Carry Out"}, {"primary": false, "id": 11270, "name": "Hamburgers"}, {"primary": true, "id": 1722, "name": "Restaurants"}], "fax_number": null, "expansion": {"count": null, "uri": null}, "impression_id": "000b000000142c9cd1a4694f42afd59c79dbac416a", "profile": "http://www.citysearch.com/profile/44774196/marietta_ga/a_gold_club_escorts.html", "address": {"city": "Marietta", "state": "GA", "street": "600 Village Trce NE", "postal_code": "30067"}, "capProviderId": null, "distance": null, "has_offers": false, "name": "A Gold Club Escorts", "longitude": -84.414411, "has_menu": false, "awards": null, "user_review_count": 0}, {"business_operation_status": 1, "rating": null, "neighborhood": null, "image": null, "scorecard": null, "featured": false, "sample_categories": "Restaurants", "public_id": "tme-enterprises-iltd-marietta", "id": 631965290, "votes": null, "tagline": null, "has_video": false, "website": "http://www.citysearch.com/profile/external/631965290/marietta_ga/tme_enterprises_iltd.html", "offers": null, "latitude": 33.968631, "politanName": "Atlanta, GA Metro ", "phone_number": "7705652095", "tags": [{"primary": true, "id": 1722, "name": "Restaurants"}], "fax_number": null, "expansion": {"count": null, "uri": null}, "impression_id": "000b000000cbe95a3343394d08af55ad6f6d96c050", "profile": "http://www.citysearch.com/profile/631965290/marietta_ga/tme_enterprises_iltd.html", "address": {"city": "Marietta", "state": "GA", "street": "2169 Roswell Rd", "postal_code": "30062"}, "capProviderId": null, "distance": null, "has_offers": false, "name": "Tme Enterprises Iltd", "longitude": -84.489815, "has_menu": false, "awards": null, "user_review_count": 0}, {"business_operation_status": 1, "rating": null, "neighborhood": null, "image": null, "scorecard": null, "featured": false, "sample_categories": "Restaurants, Food Service Management", "public_id": "eurest-dining-svc-marietta", "id": 632989390, "votes": null, "tagline": null, "has_video": false, "website": "http://www.citysearch.com/profile/external/632989390/marietta_ga/eurest_dining_svc.html", "offers": null, "latitude": 33.929162, "politanName": "Atlanta, GA Metro ", "phone_number": "7706443211", "tags": [{"primary": false, "id": 11120, "name": "Food Service Management"}, {"primary": true, "id": 1722, "name": "Restaurants"}], "fax_number": null, "expansion": {"count": null, "uri": null}, "impression_id": "000b0000003cdb03b09a0e45c8b780f1f411279e8b", "profile": "http://www.citysearch.com/profile/632989390/marietta_ga/eurest_dining_svc.html", "address": {"city": "Marietta", "state": "GA", "street": "814 Livingston Ct Se", "postal_code": "30067"}, "capProviderId": null, "distance": null, "has_offers": false, "name": "Eurest Dining Svc", "longitude": -84.499949, "has_menu": false, "awards": null, "user_review_count": 0}, {"business_operation_status": 1, "rating": null, "neighborhood": null, "image": null, "scorecard": null, "featured": false, "sample_categories": "Restaurants, Shop Online", "public_id": "freshnfit-marietta", "id": 621924400, "votes": null, "tagline": null, "has_video": false, "website": null, "offers": null, "latitude": 33.974036, "politanName": "Atlanta, GA Metro ", "phone_number": "7705092232", "tags": [{"primary": false, "id": 11375, "name": "Shop Online"}, {"primary": true, "id": 1722, "name": "Restaurants"}], "fax_number": null, "expansion": {"count": null, "uri": null}, "impression_id": "000b00000072a48c17653d46feba2a668b6e2954c5", "profile": "http://www.citysearch.com/profile/621924400/marietta_ga/fresh_n_fit.html", "address": {"city": "Marietta", "state": "GA", "street": "2265 Roswell Rd", "postal_code": "30062"}, "capProviderId": null, "distance": null, "has_offers": false, "name": "Fresh-N-Fit", "longitude": -84.485346, "has_menu": false, "awards": null, "user_review_count": 0}, {"business_operation_status": 1, "rating": null, "neighborhood": null, "image": null, "scorecard": null, "featured": false, "sample_categories": "Restaurants", "public_id": "reisner-restaurants-inc-marietta", "id": 751332090, "votes": null, "tagline": null, "has_video": false, "website": null, "offers": null, "latitude": 33.9495, "politanName": "Atlanta, GA Metro ", "phone_number": "6782908012", "tags": [{"primary": true, "id": 1722, "name": "Restaurants"}], "fax_number": null, "expansion": {"count": null, "uri": null}, "impression_id": "000b000000193beb618104483ea27cc3bbb46c93f2", "profile": "http://www.citysearch.com/profile/751332090/marietta_ga/reisner_restaurants_inc.html", "address": {"city": "Marietta", "state": "GA", "street": "51 Cobb Pkwy S", "postal_code": "30060"}, "capProviderId": null, "distance": null, "has_offers": false, "name": "Reisner Restaurants Inc", "longitude": -84.519437, "has_menu": false, "awards": null, "user_review_count": 0}, {"business_operation_status": 1, "rating": null, "neighborhood": null, "image": null, "scorecard": null, "featured": false, "sample_categories": "Restaurants, Eclectic & International", "public_id": "presto-latin-intl-cuisine-marietta", "id": 751337040, "votes": null, "tagline": null, "has_video": false, "website": null, "offers": null, "latitude": 33.951043, "politanName": "Atlanta, GA Metro ", "phone_number": "7709731280", "tags": [{"primary": false, "id": 11259, "name": "Eclectic & International"}, {"primary": true, "id": 1722, "name": "Restaurants"}], "fax_number": null, "expansion": {"count": null, "uri": null}, "impression_id": "000b0000008ecae900a2274aaa806989012ecc66c4", "profile": "http://www.citysearch.com/profile/751337040/marietta_ga/presto_latin_intl_cuisine.html", "address": {"city": "Marietta", "state": "GA", "street": "1157 Roswell Rd", "postal_code": "30062"}, "capProviderId": null, "distance": null, "has_offers": false, "name": "Presto Latin & Intl Cuisine", "longitude": -84.517842, "has_menu": false, "awards": null, "user_review_count": 0}, {"business_operation_status": 1, "rating": null, "neighborhood": null, "image": null, "scorecard": null, "featured": false, "sample_categories": "Ice Cream Parlors, Frozen Yogurt Shops", "public_id": "baskinrobbins-marietta-3", "id": 627672950, "votes": null, "tagline": null, "has_video": false, "website": "http://www.citysearch.com/profile/external/627672950/marietta_ga/baskin_robbins.html", "offers": null, "latitude": 33.942999, "politanName": "Atlanta, GA Metro ", "phone_number": "7704235947", "tags": [{"primary": false, "id": 1729, "name": "Frozen Yogurt Shops"}, {"primary": true, "id": 1730, "name": "Ice Cream Parlors"}], "fax_number": null, "expansion": {"count": null, "uri": null}, "impression_id": "000b000000b2dd37cfb72b498287b1eee3b51ff6b0", "profile": "http://www.citysearch.com/profile/627672950/marietta_ga/baskin_robbins.html", "address": {"city": "Marietta", "state": "GA", "street": "670 S Marietta Pkwy Se", "postal_code": "30060"}, "capProviderId": null, "distance": null, "has_offers": false, "name": "Baskin-Robbins", "longitude": -84.533601, "has_menu": true, "awards": null, "user_review_count": 0}, {"business_operation_status": 1, "rating": null, "neighborhood": null, "image": null, "scorecard": null, "featured": false, "sample_categories": "Restaurants, Mexican", "public_id": "moes-southwest-grill-sandy", "id": 748268220, "votes": null, "tagline": null, "has_video": false, "website": "http://www.citysearch.com/profile/external/748268220/sandy_springs_ga/moe_s_southwest_grill.html", "offers": null, "latitude": 33.921848, "politanName": "Atlanta, GA Metro ", "phone_number": "4044597340", "tags": [{"primary": false, "id": 11208, "name": "Mexican"}, {"primary": true, "id": 1722, "name": "Restaurants"}], "fax_number": null, "expansion": {"count": null, "uri": null}, "impression_id": "000b000000e125751fc2a6435881d8820077734502", "profile": "http://www.citysearch.com/profile/748268220/sandy_springs_ga/moe_s_southwest_grill.html", "address": {"city": "Sandy Springs", "state": "GA", "street": "6090 Roswell Rd", "postal_code": "30328"}, "capProviderId": null, "distance": null, "has_offers": false, "name": "Moe's Southwest Grill", "longitude": -84.379158, "has_menu": false, "awards": null, "user_review_count": 0}, {"business_operation_status": 1, "rating": null, "neighborhood": null, "image": null, "scorecard": null, "featured": false, "sample_categories": "Catering, Restaurants, Cafes", "public_id": "yeon-ahn-inc-atlanta", "id": 754863130, "votes": null, "tagline": null, "has_video": false, "website": null, "offers": null, "latitude": 33.90496, "politanName": "Atlanta, GA Metro ", "phone_number": "7705410057", "tags": [{"primary": false, "id": 1722, "name": "Restaurants"}, {"primary": false, "id": 6190, "name": "Cafes"}, {"primary": true, "id": 1705, "name": "Catering"}], "fax_number": null, "expansion": {"count": null, "uri": null}, "impression_id": "000b000000eaef35e4c6824c1db7f05c13a5d409f3", "profile": "http://www.citysearch.com/profile/754863130/atlanta_ga/yeon_ahn_inc.html", "address": {"city": "Atlanta", "state": "GA", "street": "2100 Riveredge Pkwy NW # C1", "postal_code": "30328"}, "capProviderId": null, "distance": null, "has_offers": false, "name": "Yeon Ahn Inc", "longitude": -84.439737, "has_menu": false, "awards": null, "user_review_count": 0}, {"business_operation_status": 0, "rating": null, "neighborhood": null, "image": null, "scorecard": null, "featured": false, "sample_categories": "Restaurants, Carry Out, Pizza", "public_id": "jets-pizza-mableton", "id": 764891790, "votes": null, "tagline": null, "has_video": false, "website": null, "offers": null, "latitude": 33.79697, "politanName": "Atlanta, GA Metro ", "phone_number": "4046966091", "tags": [{"primary": false, "id": 11247, "name": "Carry Out"}, {"primary": false, "id": 11299, "name": "Pizza"}, {"primary": true, "id": 1722, "name": "Restaurants"}], "fax_number": null, "expansion": {"count": null, "uri": null}, "impression_id": "000b0000001c05e110ac534b70b671cc4e84e12980", "profile": "http://www.citysearch.com/profile/764891790/mableton_ga/jet_s_pizza.html", "address": {"city": "Mableton", "state": "GA", "street": "6375 Discovery Blvd", "postal_code": "30126"}, "capProviderId": null, "distance": null, "has_offers": false, "name": "Jet's Pizza", "longitude": -84.515016, "has_menu": true, "awards": null, "user_review_count": 0}, {"business_operation_status": 1, "rating": null, "neighborhood": null, "image": null, "scorecard": null, "featured": false, "sample_categories": "Restaurants, Pizza, American Express, Debit Card, Discover", "public_id": "stevi-bs-pizza-smyrna", "id": 655867830, "votes": null, "tagline": null, "has_video": false, "website": "http://www.citysearch.com/profile/external/655867830/smyrna_ga/stevi_b_s_pizza.html", "offers": null, "latitude": 33.84362, "politanName": "Atlanta, GA Metro ", "phone_number": "7703198600", "tags": [{"primary": false, "id": 1722, "name": "Restaurants"}, {"primary": false, "id": 11333, "name": "American Express"}, {"primary": false, "id": 11347, "name": "Debit Card"}, {"primary": false, "id": 11349, "name": "Discover"}, {"primary": false, "id": 11361, "name": "MasterCard"}, {"primary": false, "id": 11382, "name": "Visa"}, {"primary": true, "id": 11299, "name": "Pizza"}], "fax_number": null, "expansion": {"count": null, "uri": null}, "impression_id": "000b000000aa4dfea625634203a0d797187f02db4b", "profile": "http://www.citysearch.com/profile/655867830/smyrna_ga/stevi_b_s_pizza.html", "address": {"city": "Smyrna", "state": "GA", "street": "4480 S Cobb Dr Se", "postal_code": "30080"}, "capProviderId": null, "distance": null, "has_offers": false, "name": "Stevi B's Pizza", "longitude": -84.503397, "has_menu": true, "awards": null, "user_review_count": 0}, {"business_operation_status": 1, "rating": null, "neighborhood": null, "image": null, "scorecard": null, "featured": false, "sample_categories": "Restaurants, Bakeries", "public_id": "sweet-tomatoes-sandy-2", "id": 781197010, "votes": null, "tagline": null, "has_video": false, "website": null, "offers": null, "latitude": 33.929435, "politanName": "Atlanta, GA Metro ", "phone_number": "7709139588", "tags": [{"primary": false, "id": 1685, "name": "Bakeries"}, {"primary": true, "id": 1722, "name": "Restaurants"}], "fax_number": null, "expansion": {"count": null, "uri": null}, "impression_id": "000b000000ce99bca507f340b3962cd414b7fdc2f8", "profile": "http://www.citysearch.com/profile/781197010/sandy_springs_ga/sweet_tomatoes.html", "address": {"city": "Sandy Springs", "state": "GA", "street": "6350 Peachtree Dunwoody Rd # B", "postal_code": "30328"}, "capProviderId": null, "distance": null, "has_offers": false, "name": "Sweet Tomatoes", "longitude": -84.355136, "has_menu": false, "awards": null, "user_review_count": 0}, {"business_operation_status": 1, "rating": null, "neighborhood": null, "image": null, "scorecard": null, "featured": false, "sample_categories": "Restaurants", "public_id": "pmtd-restaurants-llc-marietta", "id": 775223360, "votes": null, "tagline": null, "has_video": false, "website": null, "offers": null, "latitude": 33.978517, "politanName": "Atlanta, GA Metro ", "phone_number": "7705788749", "tags": [{"primary": true, "id": 1722, "name": "Restaurants"}], "fax_number": null, "expansion": {"count": null, "uri": null}, "impression_id": "000b000000992b9f6cb8b440d59298a3f5e9342456", "profile": "http://www.citysearch.com/profile/775223360/marietta_ga/pmtd_restaurants_llc.html", "address": {"city": "Marietta", "state": "GA", "street": "3901 Roswell Rd # 315", "postal_code": "30062"}, "capProviderId": null, "distance": null, "has_offers": false, "name": "Pmtd Restaurants LLC", "longitude": -84.438044, "has_menu": false, "awards": null, "user_review_count": 0}, {"business_operation_status": 1, "rating": null, "neighborhood": null, "image": null, "scorecard": null, "featured": false, "sample_categories": "Restaurants", "public_id": "loya-soriano-llc-marietta", "id": 790674770, "votes": null, "tagline": null, "has_video": false, "website": null, "offers": null, "latitude": 33.904705, "politanName": "Atlanta, GA Metro ", "phone_number": "7704348888", "tags": [{"primary": true, "id": 1722, "name": "Restaurants"}], "fax_number": null, "expansion": {"count": null, "uri": null}, "impression_id": "000b0000007a5008efdb474eb8824846643c41162c", "profile": "http://www.citysearch.com/profile/790674770/marietta_ga/loya_soriano_llc.html", "address": {"city": "Marietta", "state": "GA", "street": "2359 Windy Hill Rd Se # 340", "postal_code": "30067"}, "capProviderId": null, "distance": null, "has_offers": false, "name": "Loya Soriano LLC", "longitude": -84.484545, "has_menu": false, "awards": null, "user_review_count": 0}, {"business_operation_status": 1, "rating": null, "neighborhood": null, "image": null, "scorecard": null, "featured": false, "sample_categories": "Restaurants, Catering", "public_id": "corner-cafe-atlanta-3", "id": 790747850, "votes": null, "tagline": null, "has_video": false, "website": null, "offers": null, "latitude": 33.909561, "politanName": "Atlanta, GA Metro ", "phone_number": "7705410057", "tags": [{"primary": false, "id": 1705, "name": "Catering"}, {"primary": true, "id": 1722, "name": "Restaurants"}], "fax_number": null, "expansion": {"count": null, "uri": null}, "impression_id": "000b0000008e0732d8a6ee40e8b69f0e4a5df3494c", "profile": "http://www.citysearch.com/profile/790747850/atlanta_ga/corner_cafe.html", "address": {"city": "Atlanta", "state": "GA", "street": "2100 Riveredge Pkwy # C1", "postal_code": "30328"}, "capProviderId": null, "distance": null, "has_offers": false, "name": "Corner Cafe", "longitude": -84.44041, "has_menu": true, "awards": null, "user_review_count": 0}, {"business_operation_status": 1, "rating": 6.0, "neighborhood": null, "image": null, "scorecard": null, "featured": false, "sample_categories": "Restaurants", "public_id": "daabha-indian-cafe-smyrna", "id": 35682006, "votes": null, "tagline": null, "has_video": false, "website": null, "offers": null, "latitude": 33.885315, "politanName": "Atlanta, GA Metro ", "phone_number": "7704440940", "tags": [{"primary": true, "id": 1722, "name": "Restaurants"}], "fax_number": null, "expansion": {"count": null, "uri": null}, "impression_id": "000b000000c10d04dda33d42e1a2c216167d7fb0ad", "profile": "http://www.citysearch.com/profile/35682006/smyrna_ga/daabha_indian_cafe.html", "address": {"city": "Smyrna", "state": "GA", "street": "2772 Cumberland Blvd SE", "postal_code": "30080"}, "capProviderId": null, "distance": null, "has_offers": false, "name": "Daabha Indian Cafe", "longitude": -84.476776, "has_menu": false, "awards": null, "user_review_count": 1}, {"business_operation_status": 1, "rating": null, "neighborhood": null, "image": null, "scorecard": null, "featured": false, "sample_categories": "Restaurants", "public_id": "nuccis-italian-ice-gelato-marietta", "id": 810739460, "votes": null, "tagline": null, "has_video": false, "website": null, "offers": null, "latitude": 33.976739, "politanName": "Atlanta, GA Metro ", "phone_number": "7703210954", "tags": [{"primary": true, "id": 1722, "name": "Restaurants"}], "fax_number": null, "expansion": {"count": null, "uri": null}, "impression_id": "000b0000009938fef3ed1e40038b0378db63a8a000", "profile": "http://www.citysearch.com/profile/810739460/marietta_ga/nucci_s_italian_ice_gelato.html", "address": {"city": "Marietta", "state": "GA", "street": "1050 E Piedmont Rd # 146", "postal_code": "30062"}, "capProviderId": null, "distance": null, "has_offers": false, "name": "Nucci's Italian Ice & Gelato", "longitude": -84.479676, "has_menu": true, "awards": null, "user_review_count": 1}, {"business_operation_status": 1, "rating": null, "neighborhood": null, "image": null, "scorecard": null, "featured": false, "sample_categories": "Restaurants", "public_id": "restaurante-cuernabaca-y-tqr-atlanta", "id": 801111960, "votes": null, "tagline": null, "has_video": false, "website": null, "offers": null, "latitude": 33.911481, "politanName": "Atlanta, GA Metro ", "phone_number": "4042521202", "tags": [{"primary": true, "id": 1722, "name": "Restaurants"}], "fax_number": null, "expansion": {"count": null, "uri": null}, "impression_id": "000b0000006270fd5aaaa84876bb271910c3d9511f", "profile": "http://www.citysearch.com/profile/801111960/atlanta_ga/restaurante_cuernabaca_y_tqr.html", "address": {"city": "Atlanta", "state": "GA", "street": "120 Northwood Dr", "postal_code": "30342"}, "capProviderId": null, "distance": null, "has_offers": false, "name": "Restaurante Cuernabaca Y Tqr", "longitude": -84.382763, "has_menu": false, "awards": null, "user_review_count": 0}, {"business_operation_status": 1, "rating": null, "neighborhood": null, "image": null, "scorecard": null, "featured": false, "sample_categories": "Restaurants", "public_id": "cancun-seafood-restaurant-smyrna", "id": 807595980, "votes": null, "tagline": null, "has_video": false, "website": null, "offers": null, "latitude": 33.894868, "politanName": "Atlanta, GA Metro ", "phone_number": "7704360565", "tags": [{"primary": true, "id": 1722, "name": "Restaurants"}], "fax_number": null, "expansion": {"count": null, "uri": null}, "impression_id": "000b000000917ce2e5c96b4c9cbe99d09788824531", "profile": "http://www.citysearch.com/profile/807595980/smyrna_ga/cancun_seafood_restaurant.html", "address": {"city": "Smyrna", "state": "GA", "street": "1005 Windy Hill Rd SE", "postal_code": "30080"}, "capProviderId": null, "distance": null, "has_offers": false, "name": "Cancun Seafood Restaurant", "longitude": -84.523746, "has_menu": false, "awards": null, "user_review_count": 0}, {"business_operation_status": 1, "rating": null, "neighborhood": null, "image": null, "scorecard": null, "featured": false, "sample_categories": "Restaurants, Carry Out", "public_id": "red-lobster-marietta-2", "id": 823429220, "votes": null, "tagline": null, "has_video": false, "website": null, "offers": null, "latitude": 33.933612, "politanName": "Atlanta, GA Metro ", "phone_number": "7704276554", "tags": [{"primary": false, "id": 11247, "name": "Carry Out"}, {"primary": true, "id": 1722, "name": "Restaurants"}], "fax_number": null, "expansion": {"count": null, "uri": null}, "impression_id": "000b00000014793cf5f08144c5922f65cc018c5da1", "profile": "http://www.citysearch.com/profile/823429220/marietta_ga/red_lobster.html", "address": {"city": "Marietta", "state": "GA", "street": "780 Cobb Pkwy S", "postal_code": "30060"}, "capProviderId": null, "distance": null, "has_offers": false, "name": "Red Lobster", "longitude": -84.512296, "has_menu": true, "awards": null, "user_review_count": 0}, {"business_operation_status": 1, "rating": null, "neighborhood": null, "image": null, "scorecard": null, "featured": false, "sample_categories": "Coffeehouses", "public_id": "hotlanta-coffee-llc-atlanta", "id": 827183750, "votes": null, "tagline": null, "has_video": false, "website": null, "offers": null, "latitude": 33.910872, "politanName": "Atlanta, GA Metro ", "phone_number": "4042501955", "tags": [{"primary": true, "id": 1726, "name": "Coffeehouses"}], "fax_number": null, "expansion": {"count": null, "uri": null}, "impression_id": "000b0000003a9df8793fa94c57a562b952bcba3db2", "profile": "http://www.citysearch.com/profile/827183750/atlanta_ga/hotlanta_coffee_llc.html", "address": {"city": "Atlanta", "state": "GA", "street": "5655 Glen Errol Rd", "postal_code": "30327"}, "capProviderId": null, "distance": null, "has_offers": false, "name": "Hotlanta Coffee LLC", "longitude": -84.398102, "has_menu": false, "awards": null, "user_review_count": 0}, {"business_operation_status": 1, "rating": null, "neighborhood": null, "image": null, "scorecard": null, "featured": false, "sample_categories": "Barbecue Restaurants", "public_id": "sherrods-barbeque-seafood-marietta", "id": 830343550, "votes": null, "tagline": null, "has_video": false, "website": null, "offers": null, "latitude": 33.963728, "politanName": "Atlanta, GA Metro ", "phone_number": "7704286604", "tags": [{"primary": true, "id": 1724, "name": "Barbecue Restaurants"}], "fax_number": null, "expansion": {"count": null, "uri": null}, "impression_id": "000b0000006ac3224a023c4a269854fa9f47d0d73c", "profile": "http://www.citysearch.com/profile/830343550/marietta_ga/sherrods_barbeque_seafood.html", "address": {"city": "Marietta", "state": "GA", "street": "601 Parkaire Xing", "postal_code": "30068"}, "capProviderId": null, "distance": null, "has_offers": false, "name": "Sherrods Barbeque & Seafood", "longitude": -84.40402, "has_menu": false, "awards": null, "user_review_count": 0}, {"business_operation_status": 1, "rating": null, "neighborhood": null, "image": null, "scorecard": null, "featured": false, "sample_categories": "Restaurants, Steakhouse", "public_id": "fishmonger-steak-seafood-sandy", "id": 777802950, "votes": null, "tagline": null, "has_video": false, "website": null, "offers": null, "latitude": 33.91986, "politanName": "Atlanta, GA Metro ", "phone_number": "4048433474", "tags": [{"primary": false, "id": 11316, "name": "Steakhouse"}, {"primary": true, "id": 1722, "name": "Restaurants"}], "fax_number": null, "expansion": {"count": null, "uri": null}, "impression_id": "000b000000cd185332ceed4311996d9115055a589d", "profile": "http://www.citysearch.com/profile/777802950/sandy_springs_ga/fishmonger_steak_seafood.html", "address": {"city": "Sandy Springs", "state": "GA", "street": "6017 Sandy Springs Cir Ne", "postal_code": "30328"}, "capProviderId": null, "distance": null, "has_offers": false, "name": "Fishmonger Steak & Seafood", "longitude": -84.383898, "has_menu": false, "awards": null, "user_review_count": 0}, {"business_operation_status": 0, "rating": 8.0, "neighborhood": null, "image": null, "scorecard": null, "featured": false, "sample_categories": "Restaurants, Barbecue Restaurants, American Express, Discover, MasterCard", "public_id": "k-c-pit-bbq-atlanta", "id": 36616448, "votes": null, "tagline": null, "has_video": false, "website": null, "offers": null, "latitude": 33.92302, "politanName": "Atlanta, GA Metro ", "phone_number": "4044596497", "tags": [{"primary": false, "id": 1724, "name": "Barbecue Restaurants"}, {"primary": false, "id": 11333, "name": "American Express"}, {"primary": false, "id": 11349, "name": "Discover"}, {"primary": false, "id": 11361, "name": "MasterCard"}, {"primary": false, "id": 11382, "name": "Visa"}, {"primary": true, "id": 1722, "name": "Restaurants"}], "fax_number": null, "expansion": {"count": null, "uri": null}, "impression_id": "000b00000092dbd43a706241e79431c0bd294d509c", "profile": "http://www.citysearch.com/profile/36616448/atlanta_ga/k_c_pit_bbq.html", "address": {"city": "Atlanta", "state": "GA", "street": "234 Hilderbrand Dr NE", "postal_code": "30328"}, "capProviderId": null, "distance": null, "has_offers": false, "name": "K C Pit Bbq", "longitude": -84.37981, "has_menu": false, "awards": null, "user_review_count": 1}, {"business_operation_status": 1, "rating": null, "neighborhood": "Northside, Northside", "image": null, "scorecard": null, "featured": false, "sample_categories": "Restaurants", "public_id": "carlyles-atlanta-3", "id": 787123100, "votes": null, "tagline": null, "has_video": false, "website": "http://www.citysearch.com/profile/external/787123100/atlanta_ga/carlyle_s.html", "offers": null, "latitude": 33.79921, "politanName": "Atlanta, GA Metro ", "phone_number": "4048724231", "tags": [{"primary": true, "id": 1722, "name": "Restaurants"}], "fax_number": null, "expansion": {"count": null, "uri": null}, "impression_id": "000b000000a166793bfa2342b0b38d49040c08607d", "profile": "http://www.citysearch.com/profile/787123100/atlanta_ga/carlyle_s.html", "address": {"city": "Atlanta", "state": "GA", "street": "1500 Southland Cir NW # M", "postal_code": "30318"}, "capProviderId": null, "distance": null, "has_offers": false, "name": "Carlyle's", "longitude": -84.432104, "has_menu": false, "awards": null, "user_review_count": 0}, {"business_operation_status": 1, "rating": null, "neighborhood": null, "image": null, "scorecard": null, "featured": false, "sample_categories": "Restaurants, Mexican", "public_id": "las-tortas-smyrna", "id": 36642548, "votes": null, "tagline": null, "has_video": false, "website": null, "offers": null, "latitude": 33.894337, "politanName": "Atlanta, GA Metro ", "phone_number": "7708050304", "tags": [{"primary": false, "id": 11208, "name": "Mexican"}, {"primary": true, "id": 1722, "name": "Restaurants"}], "fax_number": null, "expansion": {"count": null, "uri": null}, "impression_id": "000b0000000a0ede6cbd07413188c12c457abc9a04", "profile": "http://www.citysearch.com/profile/36642548/smyrna_ga/las_tortas.html", "address": {"city": "Smyrna", "state": "GA", "street": "1026 Windy Hill Rd SE", "postal_code": "30080"}, "capProviderId": null, "distance": null, "has_offers": false, "name": "Las Tortas", "longitude": -84.523128, "has_menu": false, "awards": null, "user_review_count": 0}, {"business_operation_status": 1, "rating": null, "neighborhood": null, "image": null, "scorecard": null, "featured": false, "sample_categories": "Coffeehouses", "public_id": "barista-express-gourmet-coffee-atlanta", "id": 802523940, "votes": null, "tagline": null, "has_video": false, "website": null, "offers": null, "latitude": 33.886437, "politanName": "Atlanta, GA Metro ", "phone_number": "4046971006", "tags": [{"primary": true, "id": 1726, "name": "Coffeehouses"}], "fax_number": null, "expansion": {"count": null, "uri": null}, "impression_id": "000b00000013fe144f76204260a7674335fbec02f4", "profile": "http://www.citysearch.com/profile/802523940/atlanta_ga/barista_express_gourmet_coffee.html", "address": {"city": "Atlanta", "state": "GA", "street": "4756 Woodvale Dr", "postal_code": "30327"}, "capProviderId": null, "distance": null, "has_offers": false, "name": "Barista Express Gourmet Coffee", "longitude": -84.421372, "has_menu": false, "awards": null, "user_review_count": 0}, {"business_operation_status": 0, "rating": null, "neighborhood": null, "image": null, "scorecard": null, "featured": false, "sample_categories": "Restaurants, Delis And Delicatessens, Sandwich Shops, Carry Out", "public_id": "subway-marietta-5", "id": 631969710, "votes": null, "tagline": null, "has_video": false, "website": "http://www.citysearch.com/profile/external/631969710/marietta_ga/subway.html", "offers": null, "latitude": 33.9495, "politanName": "Atlanta, GA Metro ", "phone_number": "7704240520", "tags": [{"primary": false, "id": 1727, "name": "Delis And Delicatessens"}, {"primary": false, "id": 1736, "name": "Sandwich Shops"}, {"primary": false, "id": 11247, "name": "Carry Out"}, {"primary": true, "id": 1722, "name": "Restaurants"}], "fax_number": null, "expansion": {"count": null, "uri": null}, "impression_id": "000b000000adf0e037a1d74c81baac0c3872c441b4", "profile": "http://www.citysearch.com/profile/631969710/marietta_ga/subway.html", "address": {"city": "Marietta", "state": "GA", "street": "51 Cobb Pkwy S", "postal_code": "30060"}, "capProviderId": null, "distance": null, "has_offers": false, "name": "Subway", "longitude": -84.519437, "has_menu": true, "awards": null, "user_review_count": 0}, {"business_operation_status": 1, "rating": null, "neighborhood": null, "image": null, "scorecard": null, "featured": false, "sample_categories": "Restaurants, Pizza, American Express, Discover, MasterCard", "public_id": "pizza-more-marietta", "id": 601298901, "votes": null, "tagline": null, "has_video": false, "website": null, "offers": null, "latitude": 33.90778, "politanName": "Atlanta, GA Metro ", "phone_number": "7706122922", "tags": [{"primary": false, "id": 1722, "name": "Restaurants"}, {"primary": false, "id": 11333, "name": "American Express"}, {"primary": false, "id": 11349, "name": "Discover"}, {"primary": false, "id": 11361, "name": "MasterCard"}, {"primary": false, "id": 11382, "name": "Visa"}, {"primary": true, "id": 11299, "name": "Pizza"}], "fax_number": null, "expansion": {"count": null, "uri": null}, "impression_id": "000b000000def5121c55a64edd9fd362f543685e77", "profile": "http://www.citysearch.com/profile/601298901/marietta_ga/pizza_more.html", "address": {"city": "Marietta", "state": "GA", "street": "1853 Terrell Mill Rd Se", "postal_code": "30067"}, "capProviderId": null, "distance": null, "has_offers": false, "name": "Pizza & More", "longitude": -84.487669, "has_menu": false, "awards": null, "user_review_count": 0}, {"business_operation_status": 0, "rating": null, "neighborhood": null, "image": null, "scorecard": null, "featured": false, "sample_categories": "Restaurants", "public_id": "atlanta-ribs-smyrna", "id": 672295420, "votes": null, "tagline": null, "has_video": false, "website": null, "offers": null, "latitude": 33.841827, "politanName": "Atlanta, GA Metro ", "phone_number": "7704382886", "tags": [{"primary": true, "id": 1722, "name": "Restaurants"}], "fax_number": null, "expansion": {"count": null, "uri": null}, "impression_id": "000b000000b219b49619674b9bb313a0bd128dccea", "profile": "http://www.citysearch.com/profile/672295420/smyrna_ga/atlanta_ribs.html", "address": {"city": "Smyrna", "state": "GA", "street": "4624 Camp Highland Rd SE # 700", "postal_code": "30082"}, "capProviderId": null, "distance": null, "has_offers": false, "name": "Atlanta Ribs", "longitude": -84.505595, "has_menu": false, "awards": null, "user_review_count": 1}, {"business_operation_status": 0, "rating": null, "neighborhood": null, "image": null, "scorecard": null, "featured": false, "sample_categories": "Restaurants", "public_id": "chez-carmelle-pastry-restaurant-smyrna", "id": 672394340, "votes": null, "tagline": null, "has_video": false, "website": null, "offers": null, "latitude": 33.89429, "politanName": "Atlanta, GA Metro ", "phone_number": "7704384331", "tags": [{"primary": true, "id": 1722, "name": "Restaurants"}], "fax_number": null, "expansion": {"count": null, "uri": null}, "impression_id": "000b000000337873ab0e12461d8905d7ec705c8117", "profile": "http://www.citysearch.com/profile/672394340/smyrna_ga/chez_carmelle_pastry_restaurant.html", "address": {"city": "Smyrna", "state": "GA", "street": "560 Windy Hill Rd SE", "postal_code": "30080"}, "capProviderId": null, "distance": null, "has_offers": false, "name": "Chez Carmelle Pastry Restaurant", "longitude": -84.536945, "has_menu": false, "awards": null, "user_review_count": 0}, {"business_operation_status": 1, "rating": null, "neighborhood": "Northwest, Northwest", "image": null, "scorecard": null, "featured": false, "sample_categories": "Delis And Delicatessens, Restaurants", "public_id": "tillmans-deli-catering-atlanta", "id": 3024951, "votes": null, "tagline": null, "has_video": false, "website": null, "offers": null, "latitude": 33.791998, "politanName": "Atlanta, GA Metro ", "phone_number": "4046961302", "tags": [{"primary": false, "id": 1727, "name": "Delis And Delicatessens"}, {"primary": true, "id": 1722, "name": "Restaurants"}], "fax_number": null, "expansion": {"count": null, "uri": null}, "impression_id": "000b00000087b5d5848a234c5a8d273956304d88ff", "profile": "http://www.citysearch.com/profile/3024951/atlanta_ga/tillman_s_deli_catering.html", "address": {"city": "Atlanta", "state": "GA", "street": "3201 Atlanta Industrial Pkwy NW", "postal_code": "30331"}, "capProviderId": null, "distance": null, "has_offers": false, "name": "Tillman's Deli & Catering", "longitude": -84.494999, "has_menu": false, "awards": null, "user_review_count": 0}, {"business_operation_status": 1, "rating": null, "neighborhood": null, "image": null, "scorecard": null, "featured": false, "sample_categories": "Restaurants, Seafood Markets, Italian Food Products, Italian, American Express", "public_id": "mezza-luna-pasta-seafood-smyrna", "id": 801105940, "votes": null, "tagline": null, "has_video": false, "website": "http://www.citysearch.com/profile/external/801105940/smyrna_ga/mezza_luna_pasta_and_seafood.html", "offers": null, "latitude": 33.882797, "politanName": "Atlanta, GA Metro ", "phone_number": "7703190333", "tags": [{"primary": false, "id": 1719, "name": "Seafood Markets"}, {"primary": false, "id": 11154, "name": "Italian Food Products"}, {"primary": false, "id": 11279, "name": "Italian"}, {"primary": false, "id": 11333, "name": "American Express"}, {"primary": false, "id": 11347, "name": "Debit Card"}, {"primary": false, "id": 11349, "name": "Discover"}, {"primary": false, "id": 11361, "name": "MasterCard"}, {"primary": false, "id": 11382, "name": "Visa"}, {"primary": true, "id": 1722, "name": "Restaurants"}], "fax_number": null, "expansion": {"count": null, "uri": null}, "impression_id": "000b0000007bb488d2278f4e818f525e42d61fda12", "profile": "http://www.citysearch.com/profile/801105940/smyrna_ga/mezza_luna_pasta_and_seafood.html", "address": {"city": "Smyrna", "state": "GA", "street": "1669 Spring Rd SE", "postal_code": "30080"}, "capProviderId": null, "distance": null, "has_offers": false, "name": "Mezza Luna Pasta and Seafood", "longitude": -84.504883, "has_menu": false, "awards": null, "user_review_count": 0}, {"business_operation_status": 1, "rating": 10.0, "neighborhood": null, "image": null, "scorecard": null, "featured": false, "sample_categories": "Catering, Restaurants", "public_id": "a-delightful-bitefull-catering-marietta", "id": 43855795, "votes": null, "tagline": null, "has_video": false, "website": "http://www.citysearch.com/profile/external/43855795/marietta_ga/a_delightful_bitefull_catering.html", "offers": null, "latitude": 33.973087, "politanName": "Atlanta, GA Metro ", "phone_number": "7705654146", "tags": [{"primary": false, "id": 1705, "name": "Catering"}, {"primary": true, "id": 1722, "name": "Restaurants"}], "fax_number": null, "expansion": {"count": null, "uri": null}, "impression_id": "000b000000c705609b22204519948e156e833f2c9d", "profile": "http://www.citysearch.com/profile/43855795/marietta_ga/a_delightful_bitefull_catering.html", "address": {"city": "Marietta", "state": "GA", "street": "2235 Sewell Mill Rd", "postal_code": "30062"}, "capProviderId": null, "distance": null, "has_offers": false, "name": "A Delightful Bitefull Catering", "longitude": -84.486914, "has_menu": false, "awards": null, "user_review_count": 1}, {"business_operation_status": 0, "rating": null, "neighborhood": null, "image": null, "scorecard": null, "featured": false, "sample_categories": "Restaurants", "public_id": "dawg-it-smyrna-2", "id": 713402410, "votes": null, "tagline": null, "has_video": false, "website": null, "offers": null, "latitude": 33.831642, "politanName": "Atlanta, GA Metro ", "phone_number": "7704352900", "tags": [{"primary": true, "id": 1722, "name": "Restaurants"}], "fax_number": null, "expansion": {"count": null, "uri": null}, "impression_id": "000b0000002611333e5d114258b79d4036ef4402f0", "profile": "http://www.citysearch.com/profile/713402410/smyrna_ga/dawg_it.html", "address": {"city": "Smyrna", "state": "GA", "street": "4924 S Cobb Dr Se # B", "postal_code": "30080"}, "capProviderId": null, "distance": null, "has_offers": false, "name": "Dawg It", "longitude": -84.493491, "has_menu": false, "awards": null, "user_review_count": 0}, {"business_operation_status": 1, "rating": null, "neighborhood": null, "image": null, "scorecard": null, "featured": false, "sample_categories": "Restaurants, Carry Out, Hamburgers", "public_id": "mc-donalds-marietta-6", "id": 621871240, "votes": null, "tagline": null, "has_video": false, "website": "http://www.citysearch.com/profile/external/621871240/marietta_ga/mc_donald_s.html", "offers": null, "latitude": 33.908723, "politanName": "Atlanta, GA Metro ", "phone_number": "7709801194", "tags": [{"primary": false, "id": 11247, "name": "Carry Out"}, {"primary": false, "id": 11270, "name": "Hamburgers"}, {"primary": true, "id": 1722, "name": "Restaurants"}], "fax_number": null, "expansion": {"count": null, "uri": null}, "impression_id": "000b000000fc8fb3eb5554463c851429603f0d741f", "profile": "http://www.citysearch.com/profile/621871240/marietta_ga/mc_donald_s.html", "address": {"city": "Marietta", "state": "GA", "street": "1785 Cobb Pkwy S", "postal_code": "30060"}, "capProviderId": null, "distance": null, "has_offers": false, "name": "Mc Donald's", "longitude": -84.492745, "has_menu": true, "awards": null, "user_review_count": 0}, {"business_operation_status": 1, "rating": null, "neighborhood": null, "image": null, "scorecard": null, "featured": false, "sample_categories": "Ice Cream Parlors, Restaurants", "public_id": "yoforia-sandy", "id": 748336750, "votes": null, "tagline": null, "has_video": false, "website": null, "offers": null, "latitude": 33.899687, "politanName": "Atlanta, GA Metro ", "phone_number": "7703529555", "tags": [{"primary": false, "id": 1722, "name": "Restaurants"}, {"primary": true, "id": 1730, "name": "Ice Cream Parlors"}], "fax_number": null, "expansion": {"count": null, "uri": null}, "impression_id": "000b000000d6e8e19aaee14b2aade17cada8f3ef6a", "profile": "http://www.citysearch.com/profile/748336750/sandy_springs_ga/yoforia.html", "address": {"city": "Sandy Springs", "state": "GA", "street": "1155 Mount Vernon Hwy NW", "postal_code": "30327"}, "capProviderId": null, "distance": null, "has_offers": false, "name": "Yoforia", "longitude": -84.423806, "has_menu": false, "awards": null, "user_review_count": 0}, {"business_operation_status": 1, "rating": null, "neighborhood": "Northside, Northside, Paces", "image": null, "scorecard": null, "featured": false, "sample_categories": "Restaurants", "public_id": "cafe-at-the-stalls-llc-atlanta", "id": 757939880, "votes": null, "tagline": null, "has_video": false, "website": null, "offers": null, "latitude": 33.829497, "politanName": "Atlanta, GA Metro ", "phone_number": "4043517505", "tags": [{"primary": true, "id": 1722, "name": "Restaurants"}], "fax_number": null, "expansion": {"count": null, "uri": null}, "impression_id": "000b000000fba87bd3d6c04680be85dfe797b9274d", "profile": "http://www.citysearch.com/profile/757939880/atlanta_ga/cafe_at_the_stalls_llc.html", "address": {"city": "Atlanta", "state": "GA", "street": "2731 Ridgewood Rd NW", "postal_code": "30327"}, "capProviderId": null, "distance": null, "has_offers": false, "name": "Cafe At the Stalls Llc", "longitude": -84.448313, "has_menu": false, "awards": null, "user_review_count": 0}, {"business_operation_status": 1, "rating": null, "neighborhood": null, "image": null, "scorecard": null, "featured": false, "sample_categories": "Liquor Stores, Grocery Stores, Restaurants", "public_id": "frankies-food-sports-spirits-atlanta", "id": 762748670, "votes": null, "tagline": null, "has_video": false, "website": null, "offers": null, "latitude": 33.907706, "politanName": "Atlanta, GA Metro ", "phone_number": "4048439444", "tags": [{"primary": false, "id": 1713, "name": "Grocery Stores"}, {"primary": false, "id": 1722, "name": "Restaurants"}, {"primary": true, "id": 1720, "name": "Liquor Stores"}], "fax_number": null, "expansion": {"count": null, "uri": null}, "impression_id": "000b000000fc5386aafd4148dbbe8f3992fffcf9ab", "profile": "http://www.citysearch.com/profile/762748670/atlanta_ga/frankies_food_sports_spirits.html", "address": {"city": "Atlanta", "state": "GA", "street": "5600 Roswell Rd", "postal_code": "30342"}, "capProviderId": null, "distance": null, "has_offers": false, "name": "Frankies Food Sports & Spirits", "longitude": -84.378787, "has_menu": false, "awards": null, "user_review_count": 1}, {"business_operation_status": 1, "rating": null, "neighborhood": null, "image": null, "scorecard": null, "featured": false, "sample_categories": "Restaurants", "public_id": "la-pachanga-marietta", "id": 775202790, "votes": null, "tagline": null, "has_video": false, "website": null, "offers": null, "latitude": 33.905088, "politanName": "Atlanta, GA Metro ", "phone_number": "7708054048", "tags": [{"primary": true, "id": 1722, "name": "Restaurants"}], "fax_number": null, "expansion": {"count": null, "uri": null}, "impression_id": "000b000000b40fa21b3dca4c658dec4cd2c121b7f8", "profile": "http://www.citysearch.com/profile/775202790/marietta_ga/la_pachanga.html", "address": {"city": "Marietta", "state": "GA", "street": "1977 S Cobb Dr SE", "postal_code": "30060"}, "capProviderId": null, "distance": null, "has_offers": false, "name": "La Pachanga", "longitude": -84.542528, "has_menu": false, "awards": null, "user_review_count": 0}, {"business_operation_status": 1, "rating": null, "neighborhood": null, "image": null, "scorecard": null, "featured": false, "sample_categories": "Restaurants, Steakhouse", "public_id": "copacabana-steakhouse-marietta", "id": 775221780, "votes": null, "tagline": null, "has_video": false, "website": null, "offers": null, "latitude": 33.923141, "politanName": "Atlanta, GA Metro ", "phone_number": "7709840057", "tags": [{"primary": false, "id": 11316, "name": "Steakhouse"}, {"primary": true, "id": 1722, "name": "Restaurants"}], "fax_number": null, "expansion": {"count": null, "uri": null}, "impression_id": "000b000000b6c544dbab7c4076a77b9fb285a58bc2", "profile": "http://www.citysearch.com/profile/775221780/marietta_ga/copacabana_steakhouse.html", "address": {"city": "Marietta", "state": "GA", "street": "2555 Delk Rd SE # A7", "postal_code": "30067"}, "capProviderId": null, "distance": null, "has_offers": false, "name": "Copacabana Steakhouse", "longitude": -84.478026, "has_menu": false, "awards": null, "user_review_count": 0}, {"business_operation_status": 1, "rating": null, "neighborhood": null, "image": null, "scorecard": null, "featured": false, "sample_categories": "Restaurants, Chinese", "public_id": "magic-wok-atlanta", "id": 777701890, "votes": null, "tagline": null, "has_video": false, "website": null, "offers": null, "latitude": 33.936227, "politanName": "Atlanta, GA Metro ", "phone_number": "6786380868", "tags": [{"primary": false, "id": 11252, "name": "Chinese"}, {"primary": true, "id": 1722, "name": "Restaurants"}], "fax_number": null, "expansion": {"count": null, "uri": null}, "impression_id": "000b0000009b739863fdeb4ba8adddb3cb3bfcd5a3", "profile": "http://www.citysearch.com/profile/777701890/atlanta_ga/magic_wok.html", "address": {"city": "Atlanta", "state": "GA", "street": "12809 Hwy 9 N", "postal_code": "30328"}, "capProviderId": null, "distance": null, "has_offers": false, "name": "Magic Wok", "longitude": -84.378789, "has_menu": false, "awards": null, "user_review_count": 0}, {"business_operation_status": 1, "rating": null, "neighborhood": null, "image": null, "scorecard": null, "featured": false, "sample_categories": "Restaurants", "public_id": "manna-smyrna", "id": 777817720, "votes": null, "tagline": null, "has_video": false, "website": null, "offers": null, "latitude": 33.879067, "politanName": "Atlanta, GA Metro ", "phone_number": "7704311992", "tags": [{"primary": true, "id": 1722, "name": "Restaurants"}], "fax_number": null, "expansion": {"count": null, "uri": null}, "impression_id": "000b000000385b816778c34b419f62afcce0288eb0", "profile": "http://www.citysearch.com/profile/777817720/smyrna_ga/manna.html", "address": {"city": "Smyrna", "state": "GA", "street": "3120 S Cobb Dr Se", "postal_code": "30080"}, "capProviderId": null, "distance": null, "has_offers": false, "name": "Manna", "longitude": -84.5327, "has_menu": false, "awards": null, "user_review_count": 0}, {"business_operation_status": 1, "rating": null, "neighborhood": null, "image": null, "scorecard": null, "featured": false, "sample_categories": "Restaurants, Barbecue Restaurants", "public_id": "hot-wings-marietta", "id": 682287680, "votes": null, "tagline": null, "has_video": false, "website": null, "offers": null, "latitude": 33.941419, "politanName": "Atlanta, GA Metro ", "phone_number": "7702181589", "tags": [{"primary": false, "id": 1724, "name": "Barbecue Restaurants"}, {"primary": true, "id": 1722, "name": "Restaurants"}], "fax_number": null, "expansion": {"count": null, "uri": null}, "impression_id": "000b0000002b65b908e89343c6b730b75651a4e789", "profile": "http://www.citysearch.com/profile/682287680/marietta_ga/hot_wings.html", "address": {"city": "Marietta", "state": "GA", "street": "981 S Marietta Pkwy Se", "postal_code": "30060"}, "capProviderId": null, "distance": null, "has_offers": false, "name": "Hot Wings", "longitude": -84.522978, "has_menu": true, "awards": null, "user_review_count": 2}, {"business_operation_status": 1, "rating": null, "neighborhood": null, "image": null, "scorecard": null, "featured": false, "sample_categories": "Restaurants", "public_id": "bonz-sports-grill-smyrna", "id": 777729350, "votes": null, "tagline": null, "has_video": false, "website": null, "offers": null, "latitude": 33.873639, "politanName": "Atlanta, GA Metro ", "phone_number": "7704352669", "tags": [{"primary": true, "id": 1722, "name": "Restaurants"}], "fax_number": null, "expansion": {"count": null, "uri": null}, "impression_id": "000b00000079e95ea931ae44c88ce3aa7edaffc267", "profile": "http://www.citysearch.com/profile/777729350/smyrna_ga/bonz_sports_grill.html", "address": {"city": "Smyrna", "state": "GA", "street": "3240 S Cobb Dr Se # N", "postal_code": "30080"}, "capProviderId": null, "distance": null, "has_offers": false, "name": "Bonz Sports Grill", "longitude": -84.530478, "has_menu": false, "awards": null, "user_review_count": 1}, {"business_operation_status": 1, "rating": null, "neighborhood": null, "image": null, "scorecard": null, "featured": false, "sample_categories": "Restaurants", "public_id": "slate-grill-marietta", "id": 777808910, "votes": null, "tagline": null, "has_video": false, "website": null, "offers": null, "latitude": 33.940805, "politanName": "Atlanta, GA Metro ", "phone_number": "7704269777", "tags": [{"primary": true, "id": 1722, "name": "Restaurants"}], "fax_number": null, "expansion": {"count": null, "uri": null}, "impression_id": "000b00000021b385e0b4f74a0ba26c33733b905b2a", "profile": "http://www.citysearch.com/profile/777808910/marietta_ga/slate_grill.html", "address": {"city": "Marietta", "state": "GA", "street": "3348 Farrier Walk Se", "postal_code": "30067"}, "capProviderId": null, "distance": null, "has_offers": false, "name": "Slate Grill", "longitude": -84.45506, "has_menu": false, "awards": null, "user_review_count": 0}, {"business_operation_status": 1, "rating": null, "neighborhood": null, "image": null, "scorecard": null, "featured": false, "sample_categories": "Restaurants, South American", "public_id": "el-hondureno-billares-marietta", "id": 777670670, "votes": null, "tagline": null, "has_video": false, "website": null, "offers": null, "latitude": 33.928458, "politanName": "Atlanta, GA Metro ", "phone_number": "7709532737", "tags": [{"primary": false, "id": 15490, "name": "South American"}, {"primary": true, "id": 1722, "name": "Restaurants"}], "fax_number": null, "expansion": {"count": null, "uri": null}, "impression_id": "000b00000096d0b2f775b84691809b1423a55aa2d8", "profile": "http://www.citysearch.com/profile/777670670/marietta_ga/el_hondureno_billares.html", "address": {"city": "Marietta", "state": "GA", "street": "1033 Franklin Rd Se", "postal_code": "30067"}, "capProviderId": null, "distance": null, "has_offers": false, "name": "El Hondureno Billares", "longitude": -84.492995, "has_menu": false, "awards": null, "user_review_count": 0}, {"business_operation_status": 1, "rating": null, "neighborhood": "Northside, Northside", "image": null, "scorecard": null, "featured": false, "sample_categories": "Ice Cream Parlors", "public_id": "jennis-splend-ice-cream-atlanta", "id": 793231030, "votes": null, "tagline": null, "has_video": false, "website": null, "offers": null, "latitude": 33.78694, "politanName": "Atlanta, GA Metro ", "phone_number": "4043670356", "tags": [{"primary": true, "id": 1730, "name": "Ice Cream Parlors"}], "fax_number": null, "expansion": {"count": null, "uri": null}, "impression_id": "000b00000050befbd90645428eb4927b28f612b21b", "profile": "http://www.citysearch.com/profile/793231030/atlanta_ga/jennis_splend_ice_cream.html", "address": {"city": "Atlanta", "state": "GA", "street": "1198 Howell Mill Rd NW", "postal_code": "30318"}, "capProviderId": null, "distance": null, "has_offers": false, "name": "Jennis Splend Ice Cream", "longitude": -84.411763, "has_menu": false, "awards": null, "user_review_count": 0}, {"business_operation_status": 1, "rating": null, "neighborhood": null, "image": null, "scorecard": null, "featured": false, "sample_categories": "Restaurants", "public_id": "chili-dog-factory-marietta", "id": 672271920, "votes": null, "tagline": null, "has_video": false, "website": null, "offers": null, "latitude": 33.940571, "politanName": "Atlanta, GA Metro ", "phone_number": "6782131114", "tags": [{"primary": true, "id": 1722, "name": "Restaurants"}], "fax_number": null, "expansion": {"count": null, "uri": null}, "impression_id": "000b0000002ee0d7ce9a68494094bf8d83340c10d6", "profile": "http://www.citysearch.com/profile/672271920/marietta_ga/chili_dog_factory.html", "address": {"city": "Marietta", "state": "GA", "street": "940 South Marietta Parkway", "postal_code": "30060"}, "capProviderId": null, "distance": null, "has_offers": false, "name": "Chili Dog Factory", "longitude": -84.525094, "has_menu": false, "awards": null, "user_review_count": 0}], "histograms": [], "tag_ids": [1722], "uri": "http://api.citygridmedia.com:8080/search/places/v2/search/where?has_offers=false&type=restaurant&format=json&page=24&where=30339&rpp=50&histograms=false&publisher=10000009598&region_type=circle", "did_you_mean": "", "regions": [{"latitude": 33.877209, "default_radius": 2.6, "type": "postal_code", "name": "30339", "longitude": -84.463483}], "call_id": "000b00000039ea112b27ea46d4bd521c7e00a6ddc4", "first_hit": 1151, "total_hits": 1582, "geo_ids": [26497], "page": 24, "last_hit": 1200}}