{"results": {"rpp": 50, "locations": [{"business_operation_status": 1, "rating": null, "neighborhood": null, "image": null, "scorecard": null, "featured": false, "sample_categories": "Restaurants", "public_id": "mojo-grill-cuban-cuisine-smyrna", "id": 672444450, "votes": null, "tagline": null, "has_video": false, "website": null, "offers": null, "latitude": 33.879071, "politanName": "Atlanta, GA Metro ", "phone_number": null, "tags": [{"primary": true, "id": 1722, "name": "Restaurants"}], "fax_number": null, "expansion": {"count": null, "uri": null}, "impression_id": "000b0000005a95be09e99a467f9d7cc5dfae0857d0", "profile": "http://www.citysearch.com/profile/672444450/smyrna_ga/mojo_grill_cuban_cuisine.html", "address": {"city": "Smyrna", "state": "GA", "street": "3120 S Cobb Dr SE", "postal_code": "30080"}, "capProviderId": null, "distance": null, "has_offers": false, "name": "Mojo Grill Cuban Cuisine", "longitude": -84.532683, "has_menu": false, "awards": null, "user_review_count": 0}, {"business_operation_status": 1, "rating": 8.0, "neighborhood": null, "image": null, "scorecard": null, "featured": false, "sample_categories": "Restaurants", "public_id": "vittles-restaurant-smyrna", "id": 33561245, "votes": null, "tagline": null, "has_video": false, "website": "http://www.citysearch.com/profile/external/33561245/smyrna_ga/vittle_s_restaurant.html", "offers": null, "latitude": 33.890311, "politanName": "Atlanta, GA Metro ", "phone_number": "7704330047", "tags": [{"primary": true, "id": 1722, "name": "Restaurants"}], "fax_number": null, "expansion": {"count": null, "uri": null}, "impression_id": "000b000000c565a01f2ca341a5b520659a0e0fde4e", "profile": "http://www.citysearch.com/profile/33561245/smyrna_ga/vittle_s_restaurant.html", "address": {"city": "Smyrna", "state": "GA", "street": "2579 S Cobb Dr SE", "postal_code": "30080"}, "capProviderId": null, "distance": null, "has_offers": false, "name": "Vittle's Restaurant", "longitude": -84.536797, "has_menu": true, "awards": null, "user_review_count": 0}, {"business_operation_status": 1, "rating": null, "neighborhood": null, "image": null, "scorecard": null, "featured": false, "sample_categories": "Restaurants", "public_id": "ajr-inc-marietta-2", "id": 682658690, "votes": null, "tagline": null, "has_video": false, "website": null, "offers": null, "latitude": 33.967992, "politanName": "Atlanta, GA Metro ", "phone_number": "7705653753", "tags": [{"primary": true, "id": 1722, "name": "Restaurants"}], "fax_number": null, "expansion": {"count": null, "uri": null}, "impression_id": "000b0000009d93059a8cd1450a87d6449b09e9c709", "profile": "http://www.citysearch.com/profile/682658690/marietta_ga/ajr_inc.html", "address": {"city": "Marietta", "state": "GA", "street": "2945 Robinson Rd Ne", "postal_code": "30068"}, "capProviderId": null, "distance": null, "has_offers": false, "name": "Ajr INC", "longitude": -84.466217, "has_menu": false, "awards": null, "user_review_count": 0}, {"business_operation_status": 1, "rating": null, "neighborhood": null, "image": null, "scorecard": null, "featured": false, "sample_categories": "Restaurants, Japanese", "public_id": "japanese-engine-line-marietta", "id": 775183550, "votes": null, "tagline": null, "has_video": false, "website": null, "offers": null, "latitude": 33.910751, "politanName": "Atlanta, GA Metro ", "phone_number": "7709521200", "tags": [{"primary": false, "id": 11202, "name": "Japanese"}, {"primary": true, "id": 1722, "name": "Restaurants"}], "fax_number": null, "expansion": {"count": null, "uri": null}, "impression_id": "000b000000ecaac5284d614b09a777a77d086ed432", "profile": "http://www.citysearch.com/profile/775183550/marietta_ga/japanese_engine_line.html", "address": {"city": "Marietta", "state": "GA", "street": "1735 Cobb Pkwy S", "postal_code": "30060"}, "capProviderId": null, "distance": null, "has_offers": false, "name": "Japanese Engine Line", "longitude": -84.493702, "has_menu": false, "awards": null, "user_review_count": 0}, {"business_operation_status": 1, "rating": null, "neighborhood": null, "image": null, "scorecard": null, "featured": false, "sample_categories": "Catering, Restaurants, Seafood", "public_id": "uncle-buds-catering-smyrna", "id": 33571244, "votes": null, "tagline": null, "has_video": false, "website": null, "offers": null, "latitude": 33.872853, "politanName": "Atlanta, GA Metro ", "phone_number": "4046425066", "tags": [{"primary": false, "id": 1722, "name": "Restaurants"}, {"primary": false, "id": 11228, "name": "Seafood"}, {"primary": true, "id": 1705, "name": "Catering"}], "fax_number": null, "expansion": {"count": null, "uri": null}, "impression_id": "000b0000004121f9d3df3a4b9bb9aa2a1cc2b17698", "profile": "http://www.citysearch.com/profile/33571244/smyrna_ga/uncle_bud_s_catering.html", "address": {"city": "Smyrna", "state": "GA", "street": "725 Concord Rd SE", "postal_code": "30082"}, "capProviderId": null, "distance": null, "has_offers": false, "name": "Uncle Bud's Catering", "longitude": -84.533536, "has_menu": false, "awards": null, "user_review_count": 0}, {"business_operation_status": 1, "rating": null, "neighborhood": "Northside, Northside", "image": null, "scorecard": null, "featured": false, "sample_categories": "Restaurants, Carry Out, Hamburgers", "public_id": "krystal-atlanta-10", "id": 787117020, "votes": null, "tagline": null, "has_video": false, "website": "http://www.citysearch.com/profile/external/787117020/atlanta_ga/krystal.html", "offers": null, "latitude": 33.794633, "politanName": "Atlanta, GA Metro ", "phone_number": "7709442586", "tags": [{"primary": false, "id": 11247, "name": "Carry Out"}, {"primary": false, "id": 11270, "name": "Hamburgers"}, {"primary": true, "id": 1722, "name": "Restaurants"}], "fax_number": null, "expansion": {"count": null, "uri": null}, "impression_id": "000b000000e0fb1366d7074322aecbb0d04dcde8cb", "profile": "http://www.citysearch.com/profile/787117020/atlanta_ga/krystal.html", "address": {"city": "Atlanta", "state": "GA", "street": "725 Hllwell Hwy NW", "postal_code": "30318"}, "capProviderId": null, "distance": null, "has_offers": false, "name": "Krystal", "longitude": -84.448772, "has_menu": true, "awards": null, "user_review_count": 0}, {"business_operation_status": 1, "rating": null, "neighborhood": null, "image": null, "scorecard": null, "featured": false, "sample_categories": "Restaurants, Carry Out", "public_id": "super-suppers-smyrna", "id": 777798500, "votes": null, "tagline": null, "has_video": false, "website": "http://www.citysearch.com/profile/external/777798500/smyrna_ga/super_suppers.html", "offers": null, "latitude": 33.840772, "politanName": "Atlanta, GA Metro ", "phone_number": "7708035466", "tags": [{"primary": false, "id": 11247, "name": "Carry Out"}, {"primary": true, "id": 1722, "name": "Restaurants"}], "fax_number": null, "expansion": {"count": null, "uri": null}, "impression_id": "000b000000fb998682bd5247acb25dfe02f8c97a31", "profile": "http://www.citysearch.com/profile/777798500/smyrna_ga/super_suppers.html", "address": {"city": "Smyrna", "state": "GA", "street": "1385 Highlands Ridge Rd Se # A", "postal_code": "30082"}, "capProviderId": null, "distance": null, "has_offers": false, "name": "Super Suppers", "longitude": -84.519704, "has_menu": true, "awards": null, "user_review_count": 0}, {"business_operation_status": 1, "rating": null, "neighborhood": null, "image": null, "scorecard": null, "featured": false, "sample_categories": "Restaurants, Cajun & Creole, Carry Out", "public_id": "creole-nouvelle-atlanta-3", "id": 779878750, "votes": null, "tagline": null, "has_video": false, "website": null, "offers": null, "latitude": 33.888809, "politanName": "Atlanta, GA Metro ", "phone_number": "4045004651", "tags": [{"primary": false, "id": 11245, "name": "Cajun & Creole"}, {"primary": false, "id": 11247, "name": "Carry Out"}, {"primary": true, "id": 1722, "name": "Restaurants"}], "fax_number": null, "expansion": {"count": null, "uri": null}, "impression_id": "000b000000fcea0529daed48a89bbbb64e7a405614", "profile": "http://www.citysearch.com/profile/779878750/atlanta_ga/creole_nouvelle.html", "address": {"city": "Atlanta", "state": "GA", "street": "4969 Roswell Rd", "postal_code": "30342"}, "capProviderId": null, "distance": null, "has_offers": false, "name": "Creole Nouvelle", "longitude": -84.381485, "has_menu": false, "awards": null, "user_review_count": 0}, {"business_operation_status": 1, "rating": null, "neighborhood": null, "image": null, "scorecard": null, "featured": false, "sample_categories": "Delis And Delicatessens", "public_id": "kroger-deli-smyrna-4", "id": 705897390, "votes": null, "tagline": null, "has_video": false, "website": null, "offers": null, "latitude": 33.873676, "politanName": "Atlanta, GA Metro ", "phone_number": "7704338380", "tags": [{"primary": true, "id": 1727, "name": "Delis And Delicatessens"}], "fax_number": null, "expansion": {"count": null, "uri": null}, "impression_id": "000b000000a7be2b3da646466ab4083ec1f242c7a8", "profile": "http://www.citysearch.com/profile/705897390/smyrna_ga/kroger_deli.html", "address": {"city": "Smyrna", "state": "GA", "street": "3315 S Cobb Dr Se # 1", "postal_code": "30080"}, "capProviderId": null, "distance": null, "has_offers": false, "name": "Kroger Deli", "longitude": -84.52868, "has_menu": false, "awards": null, "user_review_count": 0}, {"business_operation_status": 1, "rating": null, "neighborhood": null, "image": null, "scorecard": null, "featured": false, "sample_categories": "Restaurants", "public_id": "cosmopolitan-marietta", "id": 793243310, "votes": null, "tagline": null, "has_video": false, "website": null, "offers": null, "latitude": 33.92362, "politanName": "Atlanta, GA Metro ", "phone_number": "7704859213", "tags": [{"primary": true, "id": 1722, "name": "Restaurants"}], "fax_number": null, "expansion": {"count": null, "uri": null}, "impression_id": "000b0000000688e533bc0d42efbf72a300bbde28ac", "profile": "http://www.citysearch.com/profile/793243310/marietta_ga/cosmopolitan.html", "address": {"city": "Marietta", "state": "GA", "street": "2475 Delk Rd Se", "postal_code": "30067"}, "capProviderId": null, "distance": null, "has_offers": false, "name": "Cosmopolitan", "longitude": -84.479496, "has_menu": false, "awards": null, "user_review_count": 0}, {"business_operation_status": 1, "rating": null, "neighborhood": "Northwest, Northwest", "image": null, "scorecard": null, "featured": false, "sample_categories": "Restaurants, Spices", "public_id": "georgia-spice-co-inc-atlanta", "id": 713521050, "votes": null, "tagline": null, "has_video": false, "website": null, "offers": null, "latitude": 33.799035, "politanName": "Atlanta, GA Metro ", "phone_number": "4046966200", "tags": [{"primary": false, "id": 1722, "name": "Restaurants"}, {"primary": true, "id": 11175, "name": "Spices"}], "fax_number": null, "expansion": {"count": null, "uri": null}, "impression_id": "000b000000c0eb22494c8b488998333593c4a0fc03", "profile": "http://www.citysearch.com/profile/713521050/atlanta_ga/georgia_spice_co_inc.html", "address": {"city": "Atlanta", "state": "GA", "street": "3600 Atlanta Industrial Pkwy N", "postal_code": "30331"}, "capProviderId": null, "distance": null, "has_offers": false, "name": "Georgia Spice Co INC", "longitude": -84.497102, "has_menu": false, "awards": null, "user_review_count": 0}, {"business_operation_status": 1, "rating": null, "neighborhood": null, "image": null, "scorecard": null, "featured": false, "sample_categories": "Restaurants", "public_id": "j-gumbos-marietta", "id": 713632110, "votes": null, "tagline": null, "has_video": false, "website": null, "offers": null, "latitude": 33.903919, "politanName": "Atlanta, GA Metro ", "phone_number": "7706121810", "tags": [{"primary": true, "id": 1722, "name": "Restaurants"}], "fax_number": null, "expansion": {"count": null, "uri": null}, "impression_id": "000b0000004a8e741a97c8436d8b9464f641477ec0", "profile": "http://www.citysearch.com/profile/713632110/marietta_ga/j_gumbo_s.html", "address": {"city": "Marietta", "state": "GA", "street": "3000 Windy Hill Rd Se", "postal_code": "30067"}, "capProviderId": null, "distance": null, "has_offers": false, "name": "J Gumbo's", "longitude": -84.4706, "has_menu": true, "awards": null, "user_review_count": 0}, {"business_operation_status": 1, "rating": null, "neighborhood": null, "image": null, "scorecard": null, "featured": false, "sample_categories": "Restaurants, Bistros", "public_id": "paris-bistro-atlanta-12", "id": 801055910, "votes": null, "tagline": null, "has_video": false, "website": null, "offers": null, "latitude": 33.934317, "politanName": "Atlanta, GA Metro ", "phone_number": "6785276499", "tags": [{"primary": false, "id": 13690, "name": "Bistros"}, {"primary": true, "id": 1722, "name": "Restaurants"}], "fax_number": null, "expansion": {"count": null, "uri": null}, "impression_id": "000b00000090b8238cd7774b668368724fed492ad5", "profile": "http://www.citysearch.com/profile/801055910/atlanta_ga/paris_bistro.html", "address": {"city": "Atlanta", "state": "GA", "street": "1 Glenlake Pkwy", "postal_code": "30328"}, "capProviderId": null, "distance": null, "has_offers": false, "name": "Paris Bistro", "longitude": -84.359272, "has_menu": false, "awards": null, "user_review_count": 0}, {"business_operation_status": 1, "rating": null, "neighborhood": null, "image": null, "scorecard": null, "featured": false, "sample_categories": "Restaurants", "public_id": "south-beach-bistro-sandy", "id": 816128040, "votes": null, "tagline": null, "has_video": false, "website": null, "offers": null, "latitude": 33.925302, "politanName": "Atlanta, GA Metro ", "phone_number": "7709344988", "tags": [{"primary": true, "id": 1722, "name": "Restaurants"}], "fax_number": null, "expansion": {"count": null, "uri": null}, "impression_id": "000b0000005d0676d3e62f4106bbe3afe2c4c0e62e", "profile": "http://www.citysearch.com/profile/816128040/sandy_springs_ga/south_beach_bistro.html", "address": {"city": "Sandy Springs", "state": "GA", "street": "5920 Roswell Rd", "postal_code": "30328"}, "capProviderId": null, "distance": null, "has_offers": false, "name": "South Beach Bistro", "longitude": -84.385744, "has_menu": false, "awards": null, "user_review_count": 0}, {"business_operation_status": 1, "rating": null, "neighborhood": null, "image": null, "scorecard": null, "featured": false, "sample_categories": "Restaurants", "public_id": "folia-brazilian-steakhouse-marietta", "id": 831979230, "votes": null, "tagline": null, "has_video": false, "website": "http://www.citysearch.com/profile/external/831979230/marietta_ga/folia_brazilian_steakhouse.html", "offers": null, "latitude": 33.918527, "politanName": "Atlanta, GA Metro ", "phone_number": "7706273170", "tags": [{"primary": true, "id": 1722, "name": "Restaurants"}], "fax_number": null, "expansion": {"count": null, "uri": null}, "impression_id": "000b00000051246ea686354ad8b4fc3eb67e6a4746", "profile": "http://www.citysearch.com/profile/831979230/marietta_ga/folia_brazilian_steakhouse.html", "address": {"city": "Marietta", "state": "GA", "street": "1360 Powers Ferry Rd SE # B165", "postal_code": "30067"}, "capProviderId": null, "distance": null, "has_offers": false, "name": "Folia Brazilian Steakhouse", "longitude": -84.468586, "has_menu": false, "awards": null, "user_review_count": 0}, {"business_operation_status": 1, "rating": null, "neighborhood": null, "image": null, "scorecard": null, "featured": false, "sample_categories": "Coffeehouses, Doughnut Shops", "public_id": "dunkin-donuts-smyrna-6", "id": 773447620, "votes": null, "tagline": null, "has_video": false, "website": "http://www.citysearch.com/profile/external/773447620/smyrna_ga/dunkin_donuts.html", "offers": null, "latitude": 33.830905, "politanName": "Atlanta, GA Metro ", "phone_number": "7704338033", "tags": [{"primary": false, "id": 1726, "name": "Coffeehouses"}, {"primary": true, "id": 1734, "name": "Doughnut Shops"}], "fax_number": null, "expansion": {"count": null, "uri": null}, "impression_id": "000b000000e0f30e2216274c69b9f5118f8f34229b", "profile": "http://www.citysearch.com/profile/773447620/smyrna_ga/dunkin_donuts.html", "address": {"city": "Smyrna", "state": "GA", "street": "4928 S Cobb Dr SE", "postal_code": "30080"}, "capProviderId": null, "distance": null, "has_offers": false, "name": "Dunkin' Donuts", "longitude": -84.493221, "has_menu": false, "awards": null, "user_review_count": 0}, {"business_operation_status": 1, "rating": null, "neighborhood": null, "image": null, "scorecard": null, "featured": false, "sample_categories": "Restaurants", "public_id": "red-house-marietta", "id": 775207480, "votes": null, "tagline": null, "has_video": false, "website": null, "offers": null, "latitude": 33.951025, "politanName": "Atlanta, GA Metro ", "phone_number": "7704277588", "tags": [{"primary": true, "id": 1722, "name": "Restaurants"}], "fax_number": null, "expansion": {"count": null, "uri": null}, "impression_id": "000b000000200351abe79548409307f01c2709c417", "profile": "http://www.citysearch.com/profile/775207480/marietta_ga/red_house.html", "address": {"city": "Marietta", "state": "GA", "street": "35 S Marietta Pkwy SW", "postal_code": "30064"}, "capProviderId": null, "distance": null, "has_offers": false, "name": "Red House", "longitude": -84.551785, "has_menu": false, "awards": null, "user_review_count": 0}, {"business_operation_status": 1, "rating": null, "neighborhood": null, "image": null, "scorecard": null, "featured": false, "sample_categories": "Restaurants, Indian", "public_id": "tanvi-indian-cuisine-smyrna", "id": 780476510, "votes": null, "tagline": null, "has_video": false, "website": null, "offers": null, "latitude": 33.882766, "politanName": "Atlanta, GA Metro ", "phone_number": "7703339899", "tags": [{"primary": false, "id": 11277, "name": "Indian"}, {"primary": true, "id": 1722, "name": "Restaurants"}], "fax_number": null, "expansion": {"count": null, "uri": null}, "impression_id": "000b00000065f626bff4814b38af18346a6150a70e", "profile": "http://www.citysearch.com/profile/780476510/smyrna_ga/tanvi_indian_cuisine.html", "address": {"city": "Smyrna", "state": "GA", "street": "2590 Spring Road Southeast", "postal_code": "30080"}, "capProviderId": null, "distance": null, "has_offers": false, "name": "Tanvi Indian Cuisine", "longitude": -84.478149, "has_menu": false, "awards": null, "user_review_count": 0}, {"business_operation_status": 1, "rating": null, "neighborhood": null, "image": null, "scorecard": null, "featured": false, "sample_categories": "Restaurants", "public_id": "grain-works-marietta", "id": 621976160, "votes": null, "tagline": null, "has_video": false, "website": "http://www.citysearch.com/profile/external/621976160/marietta_ga/grain_works.html", "offers": null, "latitude": 33.923408, "politanName": "Atlanta, GA Metro ", "phone_number": "7709800081", "tags": [{"primary": true, "id": 1722, "name": "Restaurants"}], "fax_number": null, "expansion": {"count": null, "uri": null}, "impression_id": "000b000000440f67764e634649959e5a960540b148", "profile": "http://www.citysearch.com/profile/621976160/marietta_ga/grain_works.html", "address": {"city": "Marietta", "state": "GA", "street": "2160 Kingston Ct Se", "postal_code": "30067"}, "capProviderId": null, "distance": null, "has_offers": false, "name": "Grain Works", "longitude": -84.489216, "has_menu": false, "awards": null, "user_review_count": 0}, {"business_operation_status": 1, "rating": null, "neighborhood": null, "image": null, "scorecard": null, "featured": false, "sample_categories": "Restaurants, Mediterranean", "public_id": "316-cafe-kabob-more-marietta", "id": 672208690, "votes": null, "tagline": null, "has_video": false, "website": null, "offers": null, "latitude": 33.921284, "politanName": "Atlanta, GA Metro ", "phone_number": "7709550804", "tags": [{"primary": false, "id": 11289, "name": "Mediterranean"}, {"primary": true, "id": 1722, "name": "Restaurants"}], "fax_number": null, "expansion": {"count": null, "uri": null}, "impression_id": "000b000000f04446867bdd424a9157816447d5dc92", "profile": "http://www.citysearch.com/profile/672208690/marietta_ga/316_cafe_kabob_more.html", "address": {"city": "Marietta", "state": "GA", "street": "1260 Powers Ferry Road", "postal_code": "30067"}, "capProviderId": null, "distance": null, "has_offers": false, "name": "316 Cafe Kabob & More", "longitude": -84.467848, "has_menu": false, "awards": null, "user_review_count": 0}, {"business_operation_status": 1, "rating": null, "neighborhood": null, "image": null, "scorecard": null, "featured": false, "sample_categories": "Restaurants, Pizza, Carry Out", "public_id": "dominos-pizza-smyrna-7", "id": 713334440, "votes": null, "tagline": null, "has_video": false, "website": "http://www.citysearch.com/profile/external/713334440/smyrna_ga/domino_s_pizza.html", "offers": null, "latitude": 33.921069, "politanName": "Atlanta, GA Metro ", "phone_number": "7709844540", "tags": [{"primary": false, "id": 1722, "name": "Restaurants"}, {"primary": false, "id": 11247, "name": "Carry Out"}, {"primary": true, "id": 11299, "name": "Pizza"}], "fax_number": null, "expansion": {"count": null, "uri": null}, "impression_id": "000b00000096729b0edba24e74884b0a5658938d14", "profile": "http://www.citysearch.com/profile/713334440/smyrna_ga/domino_s_pizza.html", "address": {"city": "Smyrna", "state": "GA", "street": "1230 Powers Rd", "postal_code": "30080"}, "capProviderId": null, "distance": null, "has_offers": false, "name": "Domino's Pizza", "longitude": -84.467591, "has_menu": false, "awards": null, "user_review_count": 0}, {"business_operation_status": 1, "rating": null, "neighborhood": "Northside, Northside", "image": null, "scorecard": null, "featured": false, "sample_categories": "Seafood Markets, Restaurants, Seafood", "public_id": "off-the-dock-seafood-atlanta", "id": 713580320, "votes": null, "tagline": null, "has_video": false, "website": "http://www.citysearch.com/profile/external/713580320/atlanta_ga/off_the_dock_seafood.html", "offers": null, "latitude": 33.79921, "politanName": "Atlanta, GA Metro ", "phone_number": "4045492576", "tags": [{"primary": false, "id": 1722, "name": "Restaurants"}, {"primary": false, "id": 11228, "name": "Seafood"}, {"primary": true, "id": 1719, "name": "Seafood Markets"}], "fax_number": null, "expansion": {"count": null, "uri": null}, "impression_id": "000b000000b192dcd90301411db5b3fd8e145556b0", "profile": "http://www.citysearch.com/profile/713580320/atlanta_ga/off_the_dock_seafood.html", "address": {"city": "Atlanta", "state": "GA", "street": "1500 Southland Cir NW", "postal_code": "30318"}, "capProviderId": null, "distance": null, "has_offers": false, "name": "Off The Dock Seafood", "longitude": -84.432104, "has_menu": false, "awards": null, "user_review_count": 0}, {"business_operation_status": 1, "rating": null, "neighborhood": null, "image": null, "scorecard": null, "featured": false, "sample_categories": "Restaurants", "public_id": "tropicanna-billards-grill-smyrna", "id": 614750544, "votes": null, "tagline": null, "has_video": false, "website": null, "offers": null, "latitude": 33.891092, "politanName": "Atlanta, GA Metro ", "phone_number": "7704320051", "tags": [{"primary": true, "id": 1722, "name": "Restaurants"}], "fax_number": null, "expansion": {"count": null, "uri": null}, "impression_id": "000b00000027c95ecd7785405d9edbbdd20ae4670d", "profile": "http://www.citysearch.com/profile/614750544/smyrna_ga/tropicanna_billards_grill.html", "address": {"city": "Smyrna", "state": "GA", "street": "2540 Atlanta Rd SE", "postal_code": "30080"}, "capProviderId": null, "distance": null, "has_offers": false, "name": "Tropicanna Billards & Grill", "longitude": -84.519025, "has_menu": false, "awards": null, "user_review_count": 0}, {"business_operation_status": 1, "rating": null, "neighborhood": null, "image": null, "scorecard": null, "featured": false, "sample_categories": "Restaurants", "public_id": "wings-101-smyrna", "id": 622039784, "votes": null, "tagline": null, "has_video": false, "website": null, "offers": null, "latitude": 33.894038, "politanName": "Atlanta, GA Metro ", "phone_number": "7709891520", "tags": [{"primary": true, "id": 1722, "name": "Restaurants"}], "fax_number": null, "expansion": {"count": null, "uri": null}, "impression_id": "000b000000d31b05370b53408cabaa1f0179270872", "profile": "http://www.citysearch.com/profile/622039784/smyrna_ga/wings_101.html", "address": {"city": "Smyrna", "state": "GA", "street": "998 Windy Hill Rd SE", "postal_code": "30080"}, "capProviderId": null, "distance": null, "has_offers": false, "name": "Wings 101", "longitude": -84.524382, "has_menu": false, "awards": null, "user_review_count": 0}, {"business_operation_status": 1, "rating": null, "neighborhood": null, "image": null, "scorecard": null, "featured": false, "sample_categories": "Ice Cream Parlors, Deordorant, Soap, Glue, Air Fresheners", "public_id": "ritas-ice-smyrna", "id": 638835090, "votes": null, "tagline": null, "has_video": false, "website": "http://www.citysearch.com/profile/external/638835090/smyrna_ga/rita_s_ice.html", "offers": null, "latitude": 33.842892, "politanName": "Atlanta, GA Metro ", "phone_number": "7706273225", "tags": [{"primary": false, "id": 23400, "name": "Deordorant"}, {"primary": false, "id": 23410, "name": "Soap"}, {"primary": false, "id": 24950, "name": "Glue"}, {"primary": false, "id": 25880, "name": "Air Fresheners"}, {"primary": true, "id": 1730, "name": "Ice Cream Parlors"}], "fax_number": null, "expansion": {"count": null, "uri": null}, "impression_id": "000b000000f55a9693776d4d599fea5488bd6e7350", "profile": "http://www.citysearch.com/profile/638835090/smyrna_ga/rita_s_ice.html", "address": {"city": "Smyrna", "state": "GA", "street": "4500 West Village Pl Se", "postal_code": "30080"}, "capProviderId": null, "distance": null, "has_offers": false, "name": "Rita's Ice", "longitude": -84.490261, "has_menu": false, "awards": null, "user_review_count": 0}, {"business_operation_status": 1, "rating": null, "neighborhood": null, "image": null, "scorecard": null, "featured": false, "sample_categories": "Restaurants, Delis And Delicatessens, Sandwich Shops, Carry Out, MasterCard", "public_id": "subway-marietta-4", "id": 601296783, "votes": null, "tagline": null, "has_video": false, "website": "http://www.citysearch.com/profile/external/601296783/marietta_ga/subway.html", "offers": null, "latitude": 33.906428, "politanName": "Atlanta, GA Metro ", "phone_number": "7709530023", "tags": [{"primary": false, "id": 1727, "name": "Delis And Delicatessens"}, {"primary": false, "id": 1736, "name": "Sandwich Shops"}, {"primary": false, "id": 11247, "name": "Carry Out"}, {"primary": false, "id": 11361, "name": "MasterCard"}, {"primary": false, "id": 11382, "name": "Visa"}, {"primary": true, "id": 1722, "name": "Restaurants"}], "fax_number": null, "expansion": {"count": null, "uri": null}, "impression_id": "000b00000005cffc3f005a457082b9226c1556f0f4", "profile": "http://www.citysearch.com/profile/601296783/marietta_ga/subway.html", "address": {"city": "Marietta", "state": "GA", "street": "1871 Cobb Pkwy S # 400", "postal_code": "30060"}, "capProviderId": null, "distance": null, "has_offers": false, "name": "Subway", "longitude": -84.489855, "has_menu": true, "awards": null, "user_review_count": 0}, {"business_operation_status": 0, "rating": null, "neighborhood": null, "image": null, "scorecard": null, "featured": false, "sample_categories": "Restaurants", "public_id": "roswell-wasabi-sushi-buffet-sandy-spgs", "id": 672886430, "votes": null, "tagline": null, "has_video": false, "website": null, "offers": null, "latitude": 33.91426, "politanName": "Atlanta, GA Metro ", "phone_number": "4042579188", "tags": [{"primary": true, "id": 1722, "name": "Restaurants"}], "fax_number": null, "expansion": {"count": null, "uri": null}, "impression_id": "000b000000d0dd275d8fd5490e9af20bc674db83f3", "profile": "http://www.citysearch.com/profile/672886430/sandy_springs_ga/roswell_wasabi_sushi_buffet.html", "address": {"city": "Sandy Springs", "state": "GA", "street": "5825 Roswell Rd NE", "postal_code": "30328"}, "capProviderId": null, "distance": null, "has_offers": false, "name": "Roswell Wasabi Sushi Buffet", "longitude": -84.379139, "has_menu": false, "awards": null, "user_review_count": 0}, {"business_operation_status": 1, "rating": null, "neighborhood": null, "image": null, "scorecard": null, "featured": false, "sample_categories": "Restaurants", "public_id": "mambo-italiano-atlanta", "id": 672986060, "votes": null, "tagline": null, "has_video": false, "website": null, "offers": null, "latitude": 33.921134, "politanName": "Atlanta, GA Metro ", "phone_number": "4042554444", "tags": [{"primary": true, "id": 1722, "name": "Restaurants"}], "fax_number": null, "expansion": {"count": null, "uri": null}, "impression_id": "000b00000043fa10ad4cab473dae5d032dc86b1abb", "profile": "http://www.citysearch.com/profile/672986060/atlanta_ga/mambo_italiano.html", "address": {"city": "Atlanta", "state": "GA", "street": "227 Sandy Springs Pl NE", "postal_code": "30328"}, "capProviderId": null, "distance": null, "has_offers": false, "name": "Mambo Italiano", "longitude": -84.382587, "has_menu": true, "awards": null, "user_review_count": 1}, {"business_operation_status": 1, "rating": null, "neighborhood": null, "image": null, "scorecard": null, "featured": false, "sample_categories": "Restaurants, Coffee & Tea Shops, Italian, Shop Online", "public_id": "caffe-fortunato-marietta", "id": 713374520, "votes": null, "tagline": null, "has_video": false, "website": "http://www.citysearch.com/profile/external/713374520/marietta_ga/caffe_fortunato.html", "offers": null, "latitude": 33.950996, "politanName": "Atlanta, GA Metro ", "phone_number": "7709511394", "tags": [{"primary": false, "id": 1711, "name": "Coffee & Tea Shops"}, {"primary": false, "id": 11279, "name": "Italian"}, {"primary": false, "id": 11375, "name": "Shop Online"}, {"primary": true, "id": 1722, "name": "Restaurants"}], "fax_number": null, "expansion": {"count": null, "uri": null}, "impression_id": "000b000000205c3eca6e6d4c36a5ccab4df6a1724e", "profile": "http://www.citysearch.com/profile/713374520/marietta_ga/caffe_fortunato.html", "address": {"city": "Marietta", "state": "GA", "street": "255 Village Pkwy Ne", "postal_code": "30067"}, "capProviderId": null, "distance": null, "has_offers": false, "name": "Caffe Fortunato", "longitude": -84.413999, "has_menu": false, "awards": null, "user_review_count": 0}, {"business_operation_status": 1, "rating": null, "neighborhood": null, "image": null, "scorecard": null, "featured": false, "sample_categories": "Ice Cream Parlors", "public_id": "tios-mexican-grill-marietta", "id": 830806670, "votes": null, "tagline": null, "has_video": false, "website": null, "offers": null, "latitude": 33.970818, "politanName": "Atlanta, GA Metro ", "phone_number": "7709779727", "tags": [{"primary": true, "id": 1730, "name": "Ice Cream Parlors"}], "fax_number": null, "expansion": {"count": null, "uri": null}, "impression_id": "000b00000056d1ef78751c4f4ba971a249bbf5cd63", "profile": "http://www.citysearch.com/profile/830806670/marietta_ga/tios_mexican_grill.html", "address": {"city": "Marietta", "state": "GA", "street": "821 Woodmont Dr", "postal_code": "30062"}, "capProviderId": null, "distance": null, "has_offers": false, "name": "Tios Mexican Grill", "longitude": -84.49593, "has_menu": true, "awards": null, "user_review_count": 0}, {"business_operation_status": 1, "rating": null, "neighborhood": null, "image": null, "scorecard": null, "featured": false, "sample_categories": "Restaurants, Pizza", "public_id": "christos-pizza-marietta-2", "id": 620835184, "votes": null, "tagline": null, "has_video": false, "website": null, "offers": null, "latitude": 33.91616, "politanName": "Atlanta, GA Metro ", "phone_number": "7709521965", "tags": [{"primary": false, "id": 11299, "name": "Pizza"}, {"primary": true, "id": 1722, "name": "Restaurants"}], "fax_number": null, "expansion": {"count": null, "uri": null}, "impression_id": "000b000000b8970ed6b87649e497ff34db162fdc75", "profile": "http://www.citysearch.com/profile/620835184/marietta_ga/christos_pizza.html", "address": {"city": "Marietta", "state": "GA", "street": "1453 Terrell Mill Rd SE", "postal_code": "30067"}, "capProviderId": null, "distance": null, "has_offers": false, "name": "Christos Pizza", "longitude": -84.467925, "has_menu": false, "awards": null, "user_review_count": 0}, {"business_operation_status": 1, "rating": null, "neighborhood": null, "image": null, "scorecard": null, "featured": false, "sample_categories": "Delis And Delicatessens, Restaurants", "public_id": "davids-gourmet-atlanta", "id": 33587605, "votes": null, "tagline": null, "has_video": false, "website": null, "offers": null, "latitude": 33.916975, "politanName": "Atlanta, GA Metro ", "phone_number": "7703919410", "tags": [{"primary": false, "id": 1727, "name": "Delis And Delicatessens"}, {"primary": true, "id": 1722, "name": "Restaurants"}], "fax_number": null, "expansion": {"count": null, "uri": null}, "impression_id": "000b00000083ebf9c923704717839f4a056b45c2f6", "profile": "http://www.citysearch.com/profile/33587605/atlanta_ga/david_s_gourmet.html", "address": {"city": "Atlanta", "state": "GA", "street": "6 Concourse Pkwy NE Ste 2250", "postal_code": "30328"}, "capProviderId": null, "distance": null, "has_offers": false, "name": "David's Gourmet", "longitude": -84.356182, "has_menu": false, "awards": null, "user_review_count": 0}, {"business_operation_status": 0, "rating": null, "neighborhood": "Northside, Northside", "image": null, "scorecard": null, "featured": false, "sample_categories": "Restaurants", "public_id": "peppers-restaurant-atlanta", "id": 33614686, "votes": null, "tagline": null, "has_video": false, "website": null, "offers": null, "latitude": 33.819953, "politanName": "Atlanta, GA Metro ", "phone_number": "4043520770", "tags": [{"primary": true, "id": 1722, "name": "Restaurants"}], "fax_number": null, "expansion": {"count": null, "uri": null}, "impression_id": "000b000000717d4431fb184b2f95d03f20562b2d8e", "profile": "http://www.citysearch.com/profile/33614686/atlanta_ga/peppers_restaurant.html", "address": {"city": "Atlanta", "state": "GA", "street": "2611 Bolton Rd NW", "postal_code": "30318"}, "capProviderId": null, "distance": null, "has_offers": false, "name": "Peppers Restaurant", "longitude": -84.449421, "has_menu": true, "awards": null, "user_review_count": 0}, {"business_operation_status": 1, "rating": null, "neighborhood": null, "image": null, "scorecard": null, "featured": false, "sample_categories": "Restaurants, Shop Online", "public_id": "killer-concepts-management-inc-marietta-2", "id": 627641050, "votes": null, "tagline": null, "has_video": false, "website": "http://www.citysearch.com/profile/external/627641050/marietta_ga/killer_concepts_management_inc.html", "offers": null, "latitude": 33.922016, "politanName": "Atlanta, GA Metro ", "phone_number": "7709846350", "tags": [{"primary": false, "id": 11375, "name": "Shop Online"}, {"primary": true, "id": 1722, "name": "Restaurants"}], "fax_number": null, "expansion": {"count": null, "uri": null}, "impression_id": "000b000000069a0ae0b4cd42e0829563350af7b780", "profile": "http://www.citysearch.com/profile/627641050/marietta_ga/killer_concepts_management_inc.html", "address": {"city": "Marietta", "state": "GA", "street": "2700 Delk Rd Se # 135", "postal_code": "30067"}, "capProviderId": null, "distance": null, "has_offers": false, "name": "Killer Concepts Management Inc", "longitude": -84.475071, "has_menu": false, "awards": null, "user_review_count": 0}, {"business_operation_status": 1, "rating": null, "neighborhood": null, "image": null, "scorecard": null, "featured": false, "sample_categories": "Restaurants", "public_id": "new-castle-restaurant-atlanta", "id": 35396298, "votes": null, "tagline": null, "has_video": false, "website": null, "offers": null, "latitude": 33.916678, "politanName": "Atlanta, GA Metro ", "phone_number": "4042553388", "tags": [{"primary": true, "id": 1722, "name": "Restaurants"}], "fax_number": null, "expansion": {"count": null, "uri": null}, "impression_id": "000b0000004f5ccabf2a7b4205944f1e1e4b2c1bd5", "profile": "http://www.citysearch.com/profile/35396298/atlanta_ga/new_castle_restaurant.html", "address": {"city": "Atlanta", "state": "GA", "street": "5920 Roswell Road NE, Ste B111", "postal_code": "30328"}, "capProviderId": null, "distance": null, "has_offers": false, "name": "New Castle Restaurant", "longitude": -84.381718, "has_menu": false, "awards": null, "user_review_count": 0}, {"business_operation_status": 0, "rating": null, "neighborhood": null, "image": null, "scorecard": null, "featured": false, "sample_categories": "Restaurants, Banks", "public_id": "kosher-to-go-bagel-break-atlanta", "id": 45569967, "votes": null, "tagline": null, "has_video": false, "website": null, "offers": null, "latitude": 33.927046, "politanName": "Atlanta, GA Metro ", "phone_number": "4042554390", "tags": [{"primary": false, "id": 1722, "name": "Restaurants"}, {"primary": false, "id": 1622, "name": "Banks"}, {"primary": true, "id": 1723, "name": "Bagel Shops"}], "fax_number": null, "expansion": {"count": null, "uri": null}, "impression_id": "000b00000080aced7006b4404394f29649b7a5c1ce", "profile": "http://www.citysearch.com/profile/45569967/atlanta_ga/kosher_to_go_bagel_break.html", "address": {"city": "Atlanta", "state": "GA", "street": "6333 Roswell Rd NE", "postal_code": "30328"}, "capProviderId": null, "distance": null, "has_offers": false, "name": "Kosher To Go Bagel Break", "longitude": -84.37912, "has_menu": false, "awards": null, "user_review_count": 0}, {"business_operation_status": 0, "rating": null, "neighborhood": null, "image": null, "scorecard": null, "featured": false, "sample_categories": "Restaurants, MasterCard, Visa", "public_id": "mexicali-grill-atlanta", "id": 45569985, "votes": null, "tagline": null, "has_video": false, "website": null, "offers": null, "latitude": 33.936313, "politanName": "Atlanta, GA Metro ", "phone_number": "4042566394", "tags": [{"primary": false, "id": 11361, "name": "MasterCard"}, {"primary": false, "id": 11382, "name": "Visa"}, {"primary": true, "id": 1722, "name": "Restaurants"}], "fax_number": null, "expansion": {"count": null, "uri": null}, "impression_id": "000b000000b5391bb4997444cb9b2f330caeaedbd3", "profile": "http://www.citysearch.com/profile/45569985/atlanta_ga/mexicali_grill.html", "address": {"city": "Atlanta", "state": "GA", "street": "6631 Roswell Rd NE", "postal_code": "30328"}, "capProviderId": null, "distance": null, "has_offers": false, "name": "Mexicali Grill", "longitude": -84.378811, "has_menu": true, "awards": null, "user_review_count": 1}, {"business_operation_status": 1, "rating": null, "neighborhood": "Northside, Northside", "image": null, "scorecard": null, "featured": false, "sample_categories": "Restaurants", "public_id": "khima-atlanta", "id": 672957830, "votes": null, "tagline": null, "has_video": false, "website": null, "offers": null, "latitude": 33.807938, "politanName": "Atlanta, GA Metro ", "phone_number": "4046099666", "tags": [{"primary": true, "id": 1722, "name": "Restaurants"}], "fax_number": null, "expansion": {"count": null, "uri": null}, "impression_id": "000b000000dd228b6072f448189fa23133e2ba06a3", "profile": "http://www.citysearch.com/profile/672957830/atlanta_ga/khima.html", "address": {"city": "Atlanta", "state": "GA", "street": "1954 Howell Mill Rd", "postal_code": "30318"}, "capProviderId": null, "distance": null, "has_offers": false, "name": "Khima", "longitude": -84.412689, "has_menu": false, "awards": null, "user_review_count": 0}, {"business_operation_status": 1, "rating": null, "neighborhood": null, "image": null, "scorecard": null, "featured": false, "sample_categories": "Catering, Restaurants, Delis And Delicatessens, Carry Out, Pizza", "public_id": "johnnys-new-york-style-pizza-marietta-2", "id": 33644147, "votes": null, "tagline": null, "has_video": false, "website": "http://www.citysearch.com/profile/external/33644147/marietta_ga/johnny_s_new_york_style_pizza.html", "offers": null, "latitude": 33.965815, "politanName": "Atlanta, GA Metro ", "phone_number": "6785602228", "tags": [{"primary": false, "id": 1705, "name": "Catering"}, {"primary": false, "id": 1722, "name": "Restaurants"}, {"primary": false, "id": 1727, "name": "Delis And Delicatessens"}, {"primary": false, "id": 11299, "name": "Pizza"}, {"primary": false, "id": 11333, "name": "American Express"}, {"primary": false, "id": 11349, "name": "Discover"}, {"primary": false, "id": 11361, "name": "MasterCard"}, {"primary": false, "id": 11382, "name": "Visa"}, {"primary": true, "id": 11247, "name": "Carry Out"}], "fax_number": null, "expansion": {"count": null, "uri": null}, "impression_id": "000b000000e2f750311a554f749e2f3e9de3052e73", "profile": "http://www.citysearch.com/profile/33644147/marietta_ga/johnny_s_new_york_style_pizza.html", "address": {"city": "Marietta", "state": "GA", "street": "4880 Lower Roswell Rd Suite 155", "postal_code": "30068"}, "capProviderId": null, "distance": null, "has_offers": false, "name": "Johnny's New York Style Pizza", "longitude": -84.410214, "has_menu": true, "awards": null, "user_review_count": 0}, {"business_operation_status": 1, "rating": null, "neighborhood": null, "image": null, "scorecard": null, "featured": false, "sample_categories": "Restaurants", "public_id": "lakeview-cafe-atlanta-3", "id": 33613919, "votes": null, "tagline": null, "has_video": false, "website": null, "offers": null, "latitude": 33.935801, "politanName": "Atlanta, GA Metro ", "phone_number": "6785790028", "tags": [{"primary": true, "id": 1722, "name": "Restaurants"}], "fax_number": null, "expansion": {"count": null, "uri": null}, "impression_id": "000b0000003fb5cea510404f53ac3c5ef842023e45", "profile": "http://www.citysearch.com/profile/33613919/atlanta_ga/lakeview_cafe.html", "address": {"city": "Atlanta", "state": "GA", "street": "10 Glenlake Pkwy NE", "postal_code": "30328"}, "capProviderId": null, "distance": null, "has_offers": false, "name": "Lakeview Cafe", "longitude": -84.361369, "has_menu": false, "awards": null, "user_review_count": 0}, {"business_operation_status": 1, "rating": null, "neighborhood": null, "image": null, "scorecard": null, "featured": false, "sample_categories": "Restaurants, Delis And Delicatessens", "public_id": "wildwood-cafe-marietta", "id": 787135220, "votes": null, "tagline": null, "has_video": false, "website": null, "offers": null, "latitude": 33.905878, "politanName": "Atlanta, GA Metro ", "phone_number": "7709160069", "tags": [{"primary": false, "id": 1727, "name": "Delis And Delicatessens"}, {"primary": true, "id": 1722, "name": "Restaurants"}], "fax_number": null, "expansion": {"count": null, "uri": null}, "impression_id": "000b0000004c4e32e2f4be4547af8f050dd38d2b2f", "profile": "http://www.citysearch.com/profile/787135220/marietta_ga/wildwood_cafe.html", "address": {"city": "Marietta", "state": "GA", "street": "2300 Windy Ridge Pkwy Se", "postal_code": "30067"}, "capProviderId": null, "distance": null, "has_offers": false, "name": "Wildwood Cafe", "longitude": -84.459393, "has_menu": false, "awards": null, "user_review_count": 0}, {"business_operation_status": 1, "rating": null, "neighborhood": null, "image": null, "scorecard": null, "featured": false, "sample_categories": "Restaurants", "public_id": "davids-gourmet-grille-iii-atlanta", "id": 40947163, "votes": null, "tagline": null, "has_video": false, "website": null, "offers": null, "latitude": 33.916903, "politanName": "Atlanta, GA Metro ", "phone_number": "7708040008", "tags": [{"primary": true, "id": 1722, "name": "Restaurants"}], "fax_number": null, "expansion": {"count": null, "uri": null}, "impression_id": "000b0000009b65656910124275a7bc286e7f237c1d", "profile": "http://www.citysearch.com/profile/40947163/atlanta_ga/david_s_gourmet_grille_iii.html", "address": {"city": "Atlanta", "state": "GA", "street": "5 Concourse Pkwy NE", "postal_code": "30328"}, "capProviderId": null, "distance": null, "has_offers": false, "name": "David's Gourmet Grille Iii", "longitude": -84.354615, "has_menu": false, "awards": null, "user_review_count": 0}, {"business_operation_status": 1, "rating": null, "neighborhood": null, "image": null, "scorecard": null, "featured": false, "sample_categories": "Restaurants", "public_id": "americn-cafe-the-inc-marietta", "id": 811839690, "votes": null, "tagline": null, "has_video": false, "website": null, "offers": null, "latitude": 33.96436, "politanName": "Atlanta, GA Metro ", "phone_number": "7705651366", "tags": [{"primary": true, "id": 1722, "name": "Restaurants"}], "fax_number": null, "expansion": {"count": null, "uri": null}, "impression_id": "000b000000e8a7dfa1d35849068450987b72c988dd", "profile": "http://www.citysearch.com/profile/811839690/marietta_ga/americn_cafe_the_inc.html", "address": {"city": "Marietta", "state": "GA", "street": "640 Johnson Ferry Rd", "postal_code": "30068"}, "capProviderId": null, "distance": null, "has_offers": false, "name": "Americn Cafe The Inc", "longitude": -84.411149, "has_menu": false, "awards": null, "user_review_count": 0}, {"business_operation_status": 0, "rating": null, "neighborhood": null, "image": null, "scorecard": null, "featured": false, "sample_categories": "Restaurants", "public_id": "south-beach-bistro-atlanta", "id": 45569984, "votes": null, "tagline": null, "has_video": false, "website": null, "offers": null, "latitude": 33.916678, "politanName": "Atlanta, GA Metro ", "phone_number": "4042528262", "tags": [{"primary": true, "id": 1722, "name": "Restaurants"}], "fax_number": null, "expansion": {"count": null, "uri": null}, "impression_id": "000b000000887b16a1fbbc434da1eec6cad6fe7fc7", "profile": "http://www.citysearch.com/profile/45569984/atlanta_ga/south_beach_bistro.html", "address": {"city": "Atlanta", "state": "GA", "street": "5920 Roswell Rd NE", "postal_code": "30328"}, "capProviderId": null, "distance": null, "has_offers": false, "name": "South Beach Bistro", "longitude": -84.381718, "has_menu": false, "awards": null, "user_review_count": 0}, {"business_operation_status": 1, "rating": null, "neighborhood": null, "image": null, "scorecard": null, "featured": false, "sample_categories": "Restaurants, Barbecue Restaurants", "public_id": "barbeque-bills-smyrna", "id": 825550660, "votes": null, "tagline": null, "has_video": false, "website": null, "offers": null, "latitude": 33.877641, "politanName": "Atlanta, GA Metro ", "phone_number": "7703841227", "tags": [{"primary": false, "id": 1724, "name": "Barbecue Restaurants"}, {"primary": true, "id": 1722, "name": "Restaurants"}], "fax_number": null, "expansion": {"count": null, "uri": null}, "impression_id": "000b000000bbe5346ce26a4f79bbe8258f513d41a2", "profile": "http://www.citysearch.com/profile/825550660/smyrna_ga/barbeque_bill_s.html", "address": {"city": "Smyrna", "state": "GA", "street": "3120 S Cobb Dr SE", "postal_code": "30080"}, "capProviderId": null, "distance": null, "has_offers": false, "name": "Barbeque Bill's", "longitude": -84.532789, "has_menu": false, "awards": null, "user_review_count": 0}, {"business_operation_status": 1, "rating": null, "neighborhood": null, "image": null, "scorecard": null, "featured": false, "sample_categories": "Restaurants", "public_id": "bridge-smoke-grill-marietta", "id": 838772530, "votes": null, "tagline": null, "has_video": false, "website": null, "offers": null, "latitude": 33.927554, "politanName": "Atlanta, GA Metro ", "phone_number": "6789033043", "tags": [{"primary": true, "id": 1722, "name": "Restaurants"}], "fax_number": null, "expansion": {"count": null, "uri": null}, "impression_id": "000b0000005ee599838f2f46319282bf3e865d23fb", "profile": "http://www.citysearch.com/profile/838772530/marietta_ga/bridge_smoke_grill.html", "address": {"city": "Marietta", "state": "GA", "street": "1038 Franklin Rd SE", "postal_code": "30067"}, "capProviderId": null, "distance": null, "has_offers": false, "name": "Bridge Smoke Grill", "longitude": -84.493666, "has_menu": false, "awards": null, "user_review_count": 0}, {"business_operation_status": 1, "rating": null, "neighborhood": null, "image": null, "scorecard": null, "featured": false, "sample_categories": "Restaurants, Traditional American, Hot Dogs", "public_id": "shoneys-restaurant-marietta-2", "id": 39887498, "votes": null, "tagline": null, "has_video": false, "website": null, "offers": null, "latitude": 33.905998, "politanName": "Atlanta, GA Metro ", "phone_number": "7709926060", "tags": [{"primary": false, "id": 1722, "name": "Restaurants"}, {"primary": false, "id": 11274, "name": "Hot Dogs"}, {"primary": true, "id": 11190, "name": "Traditional American"}], "fax_number": null, "expansion": {"count": null, "uri": null}, "impression_id": "000b0000002329a6356ae14f27af4282979b3cb084", "profile": "http://www.citysearch.com/profile/39887498/marietta_ga/shoney_s_restaurant.html", "address": {"city": "Marietta", "state": "GA", "street": "1950 Spectrum Cir SE", "postal_code": "30067"}, "capProviderId": null, "distance": null, "has_offers": false, "name": "Shoney's Restaurant", "longitude": -84.467685, "has_menu": true, "awards": null, "user_review_count": 0}, {"business_operation_status": 1, "rating": null, "neighborhood": null, "image": null, "scorecard": null, "featured": false, "sample_categories": "Restaurants", "public_id": "cool-water-cafe-atlanta", "id": 682535400, "votes": null, "tagline": null, "has_video": false, "website": null, "offers": null, "latitude": 33.906954, "politanName": "Atlanta, GA Metro ", "phone_number": "7709840944", "tags": [{"primary": true, "id": 1722, "name": "Restaurants"}], "fax_number": null, "expansion": {"count": null, "uri": null}, "impression_id": "000b0000001b1fa594d85948338d3479d3bf509e14", "profile": "http://www.citysearch.com/profile/682535400/atlanta_ga/cool_water_cafe.html", "address": {"city": "Atlanta", "state": "GA", "street": "5500 Interstate North Pkwy NW", "postal_code": "30328"}, "capProviderId": null, "distance": null, "has_offers": false, "name": "Cool Water Cafe", "longitude": -84.434288, "has_menu": false, "awards": null, "user_review_count": 0}, {"business_operation_status": 1, "rating": null, "neighborhood": null, "image": null, "scorecard": null, "featured": false, "sample_categories": "Restaurants", "public_id": "hg-regency-inc-atlanta", "id": 732204460, "votes": null, "tagline": null, "has_video": false, "website": null, "offers": null, "latitude": 33.94104, "politanName": "Atlanta, GA Metro ", "phone_number": "4048438119", "tags": [{"primary": true, "id": 1722, "name": "Restaurants"}], "fax_number": null, "expansion": {"count": null, "uri": null}, "impression_id": "000b000000accb0e8b7bea48cabba5189176c4be13", "profile": "http://www.citysearch.com/profile/732204460/atlanta_ga/hg_regency_inc.html", "address": {"city": "Atlanta", "state": "GA", "street": "150 Landsdowne Dr NW", "postal_code": "30328"}, "capProviderId": null, "distance": null, "has_offers": false, "name": "HG Regency Inc", "longitude": -84.39226, "has_menu": false, "awards": null, "user_review_count": 0}, {"business_operation_status": 1, "rating": null, "neighborhood": null, "image": null, "scorecard": null, "featured": false, "sample_categories": "Delis And Delicatessens, Restaurants", "public_id": "european-deli-marietta", "id": 713573470, "votes": null, "tagline": null, "has_video": false, "website": null, "offers": null, "latitude": 33.980787, "politanName": "Atlanta, GA Metro ", "phone_number": "7706939409", "tags": [{"primary": false, "id": 1722, "name": "Restaurants"}, {"primary": true, "id": 1727, "name": "Delis And Delicatessens"}], "fax_number": null, "expansion": {"count": null, "uri": null}, "impression_id": "000b000000e09fe5ee21ef4cf1b5483494b63fd706", "profile": "http://www.citysearch.com/profile/713573470/marietta_ga/european_deli.html", "address": {"city": "Marietta", "state": "GA", "street": "3101 Roswell Rd # F1", "postal_code": "30062"}, "capProviderId": null, "distance": null, "has_offers": false, "name": "European Deli", "longitude": -84.464028, "has_menu": false, "awards": null, "user_review_count": 0}], "histograms": [], "tag_ids": [1722], "uri": "http://api.citygridmedia.com:8080/search/places/v2/search/where?has_offers=false&type=restaurant&format=json&page=25&where=30339&rpp=50&histograms=false&publisher=10000009598&region_type=circle", "did_you_mean": "", "regions": [{"latitude": 33.877209, "default_radius": 2.6, "type": "postal_code", "name": "30339", "longitude": -84.463483}], "call_id": "000b0000009dff1c3eca6f4dfda5ab3ab4b43bbbbc", "first_hit": 1201, "total_hits": 1582, "geo_ids": [26497], "page": 25, "last_hit": 1250}}