{"results": {"rpp": 50, "locations": [{"business_operation_status": 1, "rating": null, "neighborhood": null, "image": null, "scorecard": null, "featured": false, "sample_categories": "Ice Cream Parlors, Debit Card, Discover, MasterCard, Visa", "public_id": "frozyogo-frozen-yogurt-sandy", "id": 790606540, "votes": null, "tagline": null, "has_video": false, "website": null, "offers": null, "latitude": 33.918169, "politanName": "Atlanta, GA Metro ", "phone_number": "4049635367", "tags": [{"primary": false, "id": 11347, "name": "Debit Card"}, {"primary": false, "id": 11349, "name": "Discover"}, {"primary": false, "id": 11361, "name": "MasterCard"}, {"primary": false, "id": 11382, "name": "Visa"}, {"primary": true, "id": 1730, "name": "Ice Cream Parlors"}], "fax_number": null, "expansion": {"count": null, "uri": null}, "impression_id": "000b00000085af45e3393f4a939d460f00bc90f6e6", "profile": "http://www.citysearch.com/profile/790606540/sandy_springs_ga/frozyogo_frozen_yogurt.html", "address": {"city": "Sandy Springs", "state": "GA", "street": "5980 Roswell Rd", "postal_code": "30328"}, "capProviderId": null, "distance": null, "has_offers": false, "name": "Frozyogo Frozen Yogurt", "longitude": -84.379098, "has_menu": false, "awards": null, "user_review_count": 0}, {"business_operation_status": 1, "rating": null, "neighborhood": null, "image": null, "scorecard": null, "featured": false, "sample_categories": "Restaurants, Pizza", "public_id": "uncle-maddios-pizza-joint-marietta", "id": 793238760, "votes": null, "tagline": null, "has_video": false, "website": "http://www.citysearch.com/profile/external/793238760/marietta_ga/uncle_maddio_s_pizza_joint.html", "offers": null, "latitude": 33.980574, "politanName": "Atlanta, GA Metro ", "phone_number": "6783243590", "tags": [{"primary": false, "id": 1722, "name": "Restaurants"}, {"primary": true, "id": 11299, "name": "Pizza"}], "fax_number": null, "expansion": {"count": null, "uri": null}, "impression_id": "000b0000005d2de3a2eb564b10b1871f52a21df2e2", "profile": "http://www.citysearch.com/profile/793238760/marietta_ga/uncle_maddio_s_pizza_joint.html", "address": {"city": "Marietta", "state": "GA", "street": "4101 Roswell Rd # 1100", "postal_code": "30062"}, "capProviderId": null, "distance": null, "has_offers": false, "name": "Uncle Maddio's Pizza Joint", "longitude": -84.433488, "has_menu": false, "awards": null, "user_review_count": 0}, {"business_operation_status": 1, "rating": null, "neighborhood": null, "image": null, "scorecard": null, "featured": false, "sample_categories": "Restaurants", "public_id": "101-concepts-llc-atlanta", "id": 814052870, "votes": null, "tagline": null, "has_video": false, "website": null, "offers": null, "latitude": 33.886941, "politanName": "Atlanta, GA Metro ", "phone_number": "4042500947", "tags": [{"primary": true, "id": 1722, "name": "Restaurants"}], "fax_number": null, "expansion": {"count": null, "uri": null}, "impression_id": "000b000000fb13719d55ef4341822b4347d9546317", "profile": "http://www.citysearch.com/profile/814052870/atlanta_ga/101_concepts_llc.html", "address": {"city": "Atlanta", "state": "GA", "street": "4840 Roswell Rd", "postal_code": "30342"}, "capProviderId": null, "distance": null, "has_offers": false, "name": "101 Concepts LLC", "longitude": -84.382244, "has_menu": false, "awards": null, "user_review_count": 0}, {"business_operation_status": 1, "rating": null, "neighborhood": null, "image": null, "scorecard": null, "featured": false, "sample_categories": "Restaurants", "public_id": "swiss-alpine-bakery-marietta", "id": 814198400, "votes": null, "tagline": null, "has_video": false, "website": null, "offers": null, "latitude": 33.977034, "politanName": "Atlanta, GA Metro ", "phone_number": "7706431100", "tags": [{"primary": true, "id": 1722, "name": "Restaurants"}], "fax_number": null, "expansion": {"count": null, "uri": null}, "impression_id": "000b0000000e5ff710aec14d89aabd769118fdcff5", "profile": "http://www.citysearch.com/profile/814198400/marietta_ga/swiss_alpine_bakery.html", "address": {"city": "Marietta", "state": "GA", "street": "2460 Sheila Ln", "postal_code": "30062"}, "capProviderId": null, "distance": null, "has_offers": false, "name": "Swiss Alpine Bakery", "longitude": -84.475931, "has_menu": false, "awards": null, "user_review_count": 0}, {"business_operation_status": 1, "rating": null, "neighborhood": "Northside, Northside", "image": null, "scorecard": null, "featured": false, "sample_categories": "Restaurants", "public_id": "commune-atlanta-restaurant-llc-atlanta", "id": 814755230, "votes": null, "tagline": null, "has_video": false, "website": null, "offers": null, "latitude": 33.786925, "politanName": "Atlanta, GA Metro ", "phone_number": "4046095000", "tags": [{"primary": true, "id": 1722, "name": "Restaurants"}], "fax_number": null, "expansion": {"count": null, "uri": null}, "impression_id": "000b00000048aeef2e328747e0a11dbc4a4c9afba4", "profile": "http://www.citysearch.com/profile/814755230/atlanta_ga/commune_atlanta_restaurant_llc.html", "address": {"city": "Atlanta", "state": "GA", "street": "1198 Howell Mill Rd NW", "postal_code": "30318"}, "capProviderId": null, "distance": null, "has_offers": false, "name": "Commune Atlanta Restaurant LLC", "longitude": -84.411761, "has_menu": false, "awards": null, "user_review_count": 0}, {"business_operation_status": 1, "rating": null, "neighborhood": null, "image": null, "scorecard": null, "featured": false, "sample_categories": "Restaurants", "public_id": "picoso-taco-factory-marietta", "id": 815654770, "votes": null, "tagline": null, "has_video": false, "website": null, "offers": null, "latitude": 33.950031, "politanName": "Atlanta, GA Metro ", "phone_number": "7707928406", "tags": [{"primary": true, "id": 1722, "name": "Restaurants"}], "fax_number": null, "expansion": {"count": null, "uri": null}, "impression_id": "000b00000082c3e9170aa84d5b928f7c3efe591221", "profile": "http://www.citysearch.com/profile/815654770/marietta_ga/picoso_taco_factory.html", "address": {"city": "Marietta", "state": "GA", "street": "50 Cobb Pkwy S", "postal_code": "30060"}, "capProviderId": null, "distance": null, "has_offers": false, "name": "Picoso Taco Factory", "longitude": -84.520799, "has_menu": false, "awards": null, "user_review_count": 0}, {"business_operation_status": 1, "rating": null, "neighborhood": "Northside, Northside", "image": null, "scorecard": null, "featured": false, "sample_categories": "Restaurants, Gourmet Foods", "public_id": "eclectic-gourmet-atlanta", "id": 829112750, "votes": null, "tagline": null, "has_video": false, "website": null, "offers": null, "latitude": 33.793667, "politanName": "Atlanta, GA Metro ", "phone_number": "4043522888", "tags": [{"primary": false, "id": 11169, "name": "Gourmet Foods"}, {"primary": true, "id": 1722, "name": "Restaurants"}], "fax_number": null, "expansion": {"count": null, "uri": null}, "impression_id": "000b000000397dba626d034535a9ad30ca0885b48b", "profile": "http://www.citysearch.com/profile/829112750/atlanta_ga/eclectic_gourmet.html", "address": {"city": "Atlanta", "state": "GA", "street": "1425 Elswrth Blvd NW", "postal_code": "30318"}, "capProviderId": null, "distance": null, "has_offers": false, "name": "Eclectic Gourmet", "longitude": -84.426109, "has_menu": false, "awards": null, "user_review_count": 0}, {"business_operation_status": 1, "rating": null, "neighborhood": null, "image": null, "scorecard": null, "featured": false, "sample_categories": "Restaurants, Mexican", "public_id": "qdoba-mexican-grill-atlanta-3", "id": 748281200, "votes": null, "tagline": null, "has_video": false, "website": "http://www.citysearch.com/profile/external/748281200/atlanta_ga/qdoba_mexican_grill.html", "offers": null, "latitude": 33.907264, "politanName": "Atlanta, GA Metro ", "phone_number": "4043038800", "tags": [{"primary": false, "id": 11208, "name": "Mexican"}, {"primary": true, "id": 1722, "name": "Restaurants"}], "fax_number": null, "expansion": {"count": null, "uri": null}, "impression_id": "000b0000003bf63def7ad0483d98c685608a957876", "profile": "http://www.citysearch.com/profile/748281200/atlanta_ga/qdoba_mexican_grill.html", "address": {"city": "Atlanta", "state": "GA", "street": "5610 Glenridge Dr NE", "postal_code": "30342"}, "capProviderId": null, "distance": null, "has_offers": false, "name": "Qdoba Mexican Grill", "longitude": -84.364485, "has_menu": false, "awards": null, "user_review_count": 0}, {"business_operation_status": 1, "rating": null, "neighborhood": null, "image": null, "scorecard": null, "featured": false, "sample_categories": "Restaurants, Barbecue Restaurants", "public_id": "kc-bbq-pit-sandy", "id": 762805800, "votes": null, "tagline": null, "has_video": false, "website": null, "offers": null, "latitude": 33.926619, "politanName": "Atlanta, GA Metro ", "phone_number": "4042579092", "tags": [{"primary": false, "id": 1724, "name": "Barbecue Restaurants"}, {"primary": true, "id": 1722, "name": "Restaurants"}], "fax_number": null, "expansion": {"count": null, "uri": null}, "impression_id": "000b0000008297113bae734d80af101646a7cb6561", "profile": "http://www.citysearch.com/profile/762805800/sandy_springs_ga/kc_bbq_pit.html", "address": {"city": "Sandy Springs", "state": "GA", "street": "6317 Roswell Rd NE", "postal_code": "30328"}, "capProviderId": null, "distance": null, "has_offers": false, "name": "Kc BBQ Pit", "longitude": -84.379116, "has_menu": false, "awards": null, "user_review_count": 0}, {"business_operation_status": 1, "rating": null, "neighborhood": "Northside, Northside", "image": null, "scorecard": null, "featured": false, "sample_categories": "Restaurants, Seafood Markets, Seafood", "public_id": "taste-for-seafood-atlanta", "id": 762806070, "votes": null, "tagline": null, "has_video": false, "website": null, "offers": null, "latitude": 33.788168, "politanName": "Atlanta, GA Metro ", "phone_number": "4043520829", "tags": [{"primary": false, "id": 1719, "name": "Seafood Markets"}, {"primary": false, "id": 11228, "name": "Seafood"}, {"primary": true, "id": 1722, "name": "Restaurants"}], "fax_number": null, "expansion": {"count": null, "uri": null}, "impression_id": "000b000000d37ed91ebb2a4670836e172da70ed07a", "profile": "http://www.citysearch.com/profile/762806070/atlanta_ga/taste_for_seafood.html", "address": {"city": "Atlanta", "state": "GA", "street": "1222 Menlo Dr NW", "postal_code": "30318"}, "capProviderId": null, "distance": null, "has_offers": false, "name": "Taste For Seafood", "longitude": -84.424383, "has_menu": false, "awards": null, "user_review_count": 0}, {"business_operation_status": 1, "rating": null, "neighborhood": null, "image": null, "scorecard": null, "featured": false, "sample_categories": "Restaurants, Delis And Delicatessens", "public_id": "zero-sub-smyrna", "id": 764935550, "votes": null, "tagline": null, "has_video": false, "website": "http://www.citysearch.com/profile/external/764935550/smyrna_ga/zero_sub.html", "offers": null, "latitude": 33.843682, "politanName": "Atlanta, GA Metro ", "phone_number": "6783093600", "tags": [{"primary": false, "id": 1727, "name": "Delis And Delicatessens"}, {"primary": true, "id": 1722, "name": "Restaurants"}], "fax_number": null, "expansion": {"count": null, "uri": null}, "impression_id": "000b000000ba33ec81b4b0465594b4cdb59e4cc2f7", "profile": "http://www.citysearch.com/profile/764935550/smyrna_ga/zero_sub.html", "address": {"city": "Smyrna", "state": "GA", "street": "4480 S Cobb Dr SE", "postal_code": "30080"}, "capProviderId": null, "distance": null, "has_offers": false, "name": "Zero Sub", "longitude": -84.503845, "has_menu": false, "awards": null, "user_review_count": 0}, {"business_operation_status": 1, "rating": null, "neighborhood": "Northside, Northside", "image": null, "scorecard": null, "featured": false, "sample_categories": "Restaurants, Carry Out", "public_id": "churchs-chicken-atlanta-28", "id": 764836370, "votes": null, "tagline": null, "has_video": false, "website": null, "offers": null, "latitude": 33.794633, "politanName": "Atlanta, GA Metro ", "phone_number": "4047940183", "tags": [{"primary": false, "id": 11247, "name": "Carry Out"}, {"primary": true, "id": 1722, "name": "Restaurants"}], "fax_number": null, "expansion": {"count": null, "uri": null}, "impression_id": "000b000000b8e4edcbbe72489c9d7c2c5c2cf60ce4", "profile": "http://www.citysearch.com/profile/764836370/atlanta_ga/church_s_chicken.html", "address": {"city": "Atlanta", "state": "GA", "street": "3160 Hllwell Pkwy NW", "postal_code": "30318"}, "capProviderId": null, "distance": null, "has_offers": false, "name": "Church's Chicken", "longitude": -84.448772, "has_menu": false, "awards": null, "user_review_count": 0}, {"business_operation_status": 1, "rating": null, "neighborhood": null, "image": null, "scorecard": null, "featured": false, "sample_categories": "Ice Cream Parlors, Restaurants, Dessert Shops", "public_id": "tongue-slide-water-ice-mableton", "id": 41608412, "votes": null, "tagline": null, "has_video": false, "website": null, "offers": null, "latitude": 33.813153, "politanName": "Atlanta, GA Metro ", "phone_number": "7707452233", "tags": [{"primary": false, "id": 1722, "name": "Restaurants"}, {"primary": false, "id": 1728, "name": "Dessert Shops"}, {"primary": true, "id": 1730, "name": "Ice Cream Parlors"}], "fax_number": null, "expansion": {"count": null, "uri": null}, "impression_id": "000b000000cfbc561512ae475d89a2c8ad71afda2f", "profile": "http://www.citysearch.com/profile/41608412/mableton_ga/tongue_slide_water_ice.html", "address": {"city": "Mableton", "state": "GA", "street": "296 Veterans Memorial Hwy SE", "postal_code": "30126"}, "capProviderId": null, "distance": null, "has_offers": false, "name": "Tongue Slide Water Ice", "longitude": -84.54604, "has_menu": false, "awards": null, "user_review_count": 0}, {"business_operation_status": 1, "rating": null, "neighborhood": null, "image": null, "scorecard": null, "featured": false, "sample_categories": "Restaurants, Traditional American, Carry Out", "public_id": "hardees-atlanta-2", "id": 43874171, "votes": null, "tagline": null, "has_video": false, "website": null, "offers": null, "latitude": 33.899543, "politanName": "Atlanta, GA Metro ", "phone_number": "4049829989", "tags": [{"primary": false, "id": 11190, "name": "Traditional American"}, {"primary": false, "id": 11247, "name": "Carry Out"}, {"primary": true, "id": 1722, "name": "Restaurants"}], "fax_number": null, "expansion": {"count": null, "uri": null}, "impression_id": "000b000000197f8514361241d5870984efa10ba98b", "profile": "http://www.citysearch.com/profile/43874171/atlanta_ga/hardee_s.html", "address": {"city": "Atlanta", "state": "GA", "street": "808 S Powers Ct NW", "postal_code": "30327"}, "capProviderId": null, "distance": null, "has_offers": false, "name": "Hardee's", "longitude": -84.413984, "has_menu": false, "awards": null, "user_review_count": 0}, {"business_operation_status": 1, "rating": 8.0, "neighborhood": null, "image": null, "scorecard": null, "featured": false, "sample_categories": "Restaurants, Traditional American, Carry Out, American Express, Discover", "public_id": "ruby-tuesday-marietta", "id": 43851545, "votes": null, "tagline": null, "has_video": false, "website": "http://www.citysearch.com/profile/external/43851545/marietta_ga/ruby_tuesday.html", "offers": null, "latitude": 33.922906, "politanName": "Atlanta, GA Metro ", "phone_number": "7709339050", "tags": [{"primary": false, "id": 11190, "name": "Traditional American"}, {"primary": false, "id": 11247, "name": "Carry Out"}, {"primary": false, "id": 11333, "name": "American Express"}, {"primary": false, "id": 11349, "name": "Discover"}, {"primary": false, "id": 11361, "name": "MasterCard"}, {"primary": false, "id": 11375, "name": "Shop Online"}, {"primary": false, "id": 11382, "name": "Visa"}, {"primary": true, "id": 1722, "name": "Restaurants"}], "fax_number": null, "expansion": {"count": null, "uri": null}, "impression_id": "000b000000164c2f85f68648fb8ac45b0f638eeebf", "profile": "http://www.citysearch.com/profile/43851545/marietta_ga/ruby_tuesday.html", "address": {"city": "Marietta", "state": "GA", "street": "2435 Delk Rd SE", "postal_code": "30067"}, "capProviderId": null, "distance": null, "has_offers": false, "name": "Ruby Tuesday", "longitude": -84.485017, "has_menu": true, "awards": null, "user_review_count": 2}, {"business_operation_status": 1, "rating": null, "neighborhood": null, "image": null, "scorecard": null, "featured": false, "sample_categories": "Restaurants", "public_id": "hacienda-los-mariachis-smyrna", "id": 806154260, "votes": null, "tagline": null, "has_video": false, "website": null, "offers": null, "latitude": 33.87498, "politanName": "Atlanta, GA Metro ", "phone_number": "7704324730", "tags": [{"primary": true, "id": 1722, "name": "Restaurants"}], "fax_number": null, "expansion": {"count": null, "uri": null}, "impression_id": "000b0000006161c7a837f1413399f79b97e1ce5fff", "profile": "http://www.citysearch.com/profile/806154260/smyrna_ga/hacienda_los_mariachis.html", "address": {"city": "Smyrna", "state": "GA", "street": "821 Concord Rd SE", "postal_code": "30080"}, "capProviderId": null, "distance": null, "has_offers": false, "name": "Hacienda Los Mariachis", "longitude": -84.529694, "has_menu": false, "awards": null, "user_review_count": 0}, {"business_operation_status": 1, "rating": null, "neighborhood": null, "image": null, "scorecard": null, "featured": false, "sample_categories": "Restaurants, Barbecue Restaurants", "public_id": "smokin-js-bbq-marietta", "id": 809243680, "votes": null, "tagline": null, "has_video": false, "website": "http://www.citysearch.com/profile/external/809243680/marietta_ga/smokin_js_bbq.html", "offers": null, "latitude": 33.969959, "politanName": "Atlanta, GA Metro ", "phone_number": "7709731003", "tags": [{"primary": false, "id": 1724, "name": "Barbecue Restaurants"}, {"primary": true, "id": 1722, "name": "Restaurants"}], "fax_number": null, "expansion": {"count": null, "uri": null}, "impression_id": "000b000000eaf92b14c0a448a5a9a6db47f73695e1", "profile": "http://www.citysearch.com/profile/809243680/marietta_ga/smokin_js_bbq.html", "address": {"city": "Marietta", "state": "GA", "street": "2145 Roswell Rd", "postal_code": "30062"}, "capProviderId": null, "distance": null, "has_offers": false, "name": "Smokin Js BBQ", "longitude": -84.490616, "has_menu": true, "awards": null, "user_review_count": 0}, {"business_operation_status": 1, "rating": null, "neighborhood": null, "image": null, "scorecard": null, "featured": false, "sample_categories": "Restaurants, Carry Out, American Express, Discover, MasterCard", "public_id": "zaxbys-marietta-3", "id": 45992346, "votes": null, "tagline": null, "has_video": false, "website": "http://www.citysearch.com/profile/external/45992346/marietta_ga/zaxby_s.html", "offers": null, "latitude": 33.966731, "politanName": "Atlanta, GA Metro ", "phone_number": "6785608100", "tags": [{"primary": false, "id": 11247, "name": "Carry Out"}, {"primary": false, "id": 11333, "name": "American Express"}, {"primary": false, "id": 11349, "name": "Discover"}, {"primary": false, "id": 11361, "name": "MasterCard"}, {"primary": false, "id": 11382, "name": "Visa"}, {"primary": false, "id": 12839, "name": "Chicken"}, {"primary": true, "id": 1722, "name": "Restaurants"}], "fax_number": null, "expansion": {"count": null, "uri": null}, "impression_id": "000b000000fa2302de9976481ebd983c91fc555710", "profile": "http://www.citysearch.com/profile/45992346/marietta_ga/zaxby_s.html", "address": {"city": "Marietta", "state": "GA", "street": "730 Johnson Ferry Rd", "postal_code": "30068"}, "capProviderId": null, "distance": null, "has_offers": false, "name": "Zaxby's", "longitude": -84.411978, "has_menu": true, "awards": null, "user_review_count": 0}, {"business_operation_status": 1, "rating": null, "neighborhood": null, "image": null, "scorecard": null, "featured": false, "sample_categories": "Restaurants", "public_id": "roswell-wasabi-sandy", "id": 826043430, "votes": null, "tagline": null, "has_video": false, "website": null, "offers": null, "latitude": 33.914432, "politanName": "Atlanta, GA Metro ", "phone_number": "4042579188", "tags": [{"primary": true, "id": 1722, "name": "Restaurants"}], "fax_number": null, "expansion": {"count": null, "uri": null}, "impression_id": "000b0000006db68d08f8f34b69985b6d27d3647e32", "profile": "http://www.citysearch.com/profile/826043430/sandy_springs_ga/roswell_wasabi.html", "address": {"city": "Sandy Springs", "state": "GA", "street": "5825 Roswell Rd", "postal_code": "30328"}, "capProviderId": null, "distance": null, "has_offers": false, "name": "Roswell Wasabi", "longitude": -84.378919, "has_menu": false, "awards": null, "user_review_count": 0}, {"business_operation_status": 1, "rating": null, "neighborhood": null, "image": null, "scorecard": null, "featured": false, "sample_categories": "Restaurants", "public_id": "lakeview-cafe-atlanta-2", "id": 3020361, "votes": null, "tagline": null, "has_video": false, "website": null, "offers": null, "latitude": 33.916636, "politanName": "Atlanta, GA Metro ", "phone_number": "7706710652", "tags": [{"primary": true, "id": 1722, "name": "Restaurants"}], "fax_number": null, "expansion": {"count": null, "uri": null}, "impression_id": "000b000000a0dbe3863465455bb9f90d18107dae1a", "profile": "http://www.citysearch.com/profile/3020361/atlanta_ga/lakeview_cafe.html", "address": {"city": "Atlanta", "state": "GA", "street": "5901 Peachtree Dunwoody Rd NE", "postal_code": "30328"}, "capProviderId": null, "distance": null, "has_offers": false, "name": "Lakeview Cafe", "longitude": -84.350104, "has_menu": false, "awards": null, "user_review_count": 0}, {"business_operation_status": 1, "rating": null, "neighborhood": null, "image": null, "scorecard": null, "featured": false, "sample_categories": "Restaurants", "public_id": "seven-star-marietta", "id": 837717560, "votes": null, "tagline": null, "has_video": false, "website": null, "offers": null, "latitude": 33.905115, "politanName": "Atlanta, GA Metro ", "phone_number": "7706900083", "tags": [{"primary": true, "id": 1722, "name": "Restaurants"}], "fax_number": null, "expansion": {"count": null, "uri": null}, "impression_id": "000b000000e7678d7508e34d7bbf068da2f022970d", "profile": "http://www.citysearch.com/profile/837717560/marietta_ga/seven_star.html", "address": {"city": "Marietta", "state": "GA", "street": "3000 Windy Hill Rd SE", "postal_code": "30067"}, "capProviderId": null, "distance": null, "has_offers": false, "name": "Seven Star", "longitude": -84.465716, "has_menu": false, "awards": null, "user_review_count": 0}, {"business_operation_status": 1, "rating": null, "neighborhood": null, "image": null, "scorecard": null, "featured": false, "sample_categories": "Restaurants", "public_id": "handinhand-atlanta", "id": 2995397, "votes": null, "tagline": null, "has_video": false, "website": null, "offers": null, "latitude": 33.914823, "politanName": "Atlanta, GA Metro ", "phone_number": "4042562585", "tags": [{"primary": true, "id": 1722, "name": "Restaurants"}], "fax_number": null, "expansion": {"count": null, "uri": null}, "impression_id": "000b000000703cbeb3dd784421999d7faf1181257f", "profile": "http://www.citysearch.com/profile/2995397/atlanta_ga/hand_in_hand.html", "address": {"city": "Atlanta", "state": "GA", "street": "5825 Glenridge Dr NE Ste 1-208", "postal_code": "30328"}, "capProviderId": null, "distance": null, "has_offers": false, "name": "Hand-In-Hand", "longitude": -84.361566, "has_menu": false, "awards": null, "user_review_count": 0}, {"business_operation_status": 1, "rating": 8.0, "neighborhood": null, "image": null, "scorecard": null, "featured": false, "sample_categories": "Restaurants", "public_id": "olgas-porch-marietta", "id": 44772180, "votes": null, "tagline": null, "has_video": false, "website": null, "offers": null, "latitude": 33.980787, "politanName": "Atlanta, GA Metro ", "phone_number": "7709774622", "tags": [{"primary": true, "id": 1722, "name": "Restaurants"}], "fax_number": null, "expansion": {"count": null, "uri": null}, "impression_id": "000b0000003371a3c576854ebea1ffb63e48c8c184", "profile": "http://www.citysearch.com/profile/44772180/marietta_ga/olgas_porch.html", "address": {"city": "Marietta", "state": "GA", "street": "3101 Roswell Rd", "postal_code": "30062"}, "capProviderId": null, "distance": null, "has_offers": false, "name": "Olgas Porch", "longitude": -84.464028, "has_menu": false, "awards": null, "user_review_count": 1}, {"business_operation_status": 1, "rating": null, "neighborhood": null, "image": null, "scorecard": null, "featured": false, "sample_categories": "Restaurants", "public_id": "mocha-delights-marietta", "id": 45551238, "votes": null, "tagline": null, "has_video": false, "website": null, "offers": null, "latitude": 33.902448, "politanName": "Atlanta, GA Metro ", "phone_number": "7709567612", "tags": [{"primary": true, "id": 1722, "name": "Restaurants"}], "fax_number": null, "expansion": {"count": null, "uri": null}, "impression_id": "000b000000448e04b9cba742388b64a9c8d5281a14", "profile": "http://www.citysearch.com/profile/45551238/marietta_ga/mocha_delights.html", "address": {"city": "Marietta", "state": "GA", "street": "2470 Windy Hill Rd SE Ste 148", "postal_code": "30067"}, "capProviderId": null, "distance": null, "has_offers": false, "name": "Mocha Delights", "longitude": -84.480786, "has_menu": false, "awards": null, "user_review_count": 0}, {"business_operation_status": 1, "rating": null, "neighborhood": null, "image": null, "scorecard": null, "featured": false, "sample_categories": "Restaurants, Coffeehouses", "public_id": "drinkmor-coffee-smyrna", "id": 672304430, "votes": null, "tagline": null, "has_video": false, "website": null, "offers": null, "latitude": 33.850095, "politanName": "Atlanta, GA Metro ", "phone_number": "4047948900", "tags": [{"primary": false, "id": 1726, "name": "Coffeehouses"}, {"primary": true, "id": 1722, "name": "Restaurants"}], "fax_number": null, "expansion": {"count": null, "uri": null}, "impression_id": "000b0000003aa077141e684dc2a473bae950b76fd6", "profile": "http://www.citysearch.com/profile/672304430/smyrna_ga/drinkmor_coffee.html", "address": {"city": "Smyrna", "state": "GA", "street": "4715 Atlanta Rd SE", "postal_code": "30080"}, "capProviderId": null, "distance": null, "has_offers": false, "name": "Drinkmor Coffee", "longitude": -84.493468, "has_menu": false, "awards": null, "user_review_count": 0}, {"business_operation_status": 1, "rating": null, "neighborhood": null, "image": null, "scorecard": null, "featured": false, "sample_categories": "Restaurants", "public_id": "monterrey-restaurant-smyrna-2", "id": 682346770, "votes": null, "tagline": null, "has_video": false, "website": null, "offers": null, "latitude": 33.871956, "politanName": "Atlanta, GA Metro ", "phone_number": "7704339344", "tags": [{"primary": true, "id": 1722, "name": "Restaurants"}], "fax_number": null, "expansion": {"count": null, "uri": null}, "impression_id": "000b00000010c5315998164c24b0228fd73ce549fc", "profile": "http://www.citysearch.com/profile/682346770/smyrna_ga/monterrey_restaurant.html", "address": {"city": "Smyrna", "state": "GA", "street": "3326 S Cobb Dr Se", "postal_code": "30080"}, "capProviderId": null, "distance": null, "has_offers": false, "name": "Monterrey Restaurant", "longitude": -84.52909, "has_menu": false, "awards": null, "user_review_count": 0}, {"business_operation_status": 1, "rating": null, "neighborhood": null, "image": null, "scorecard": null, "featured": false, "sample_categories": "Restaurants, Barbecue Restaurants, Carry Out, Pizza, American Express", "public_id": "wing-street-atlanta-3", "id": 682674540, "votes": null, "tagline": null, "has_video": false, "website": "http://www.citysearch.com/profile/external/682674540/atlanta_ga/wing_street.html", "offers": null, "latitude": 33.888836, "politanName": "Atlanta, GA Metro ", "phone_number": "4042529007", "tags": [{"primary": false, "id": 1724, "name": "Barbecue Restaurants"}, {"primary": false, "id": 11247, "name": "Carry Out"}, {"primary": false, "id": 11299, "name": "Pizza"}, {"primary": false, "id": 11333, "name": "American Express"}, {"primary": false, "id": 11349, "name": "Discover"}, {"primary": false, "id": 11361, "name": "MasterCard"}, {"primary": false, "id": 11382, "name": "Visa"}, {"primary": true, "id": 1722, "name": "Restaurants"}], "fax_number": null, "expansion": {"count": null, "uri": null}, "impression_id": "000b00000001165dae3fed44a387baa2df30de7b9c", "profile": "http://www.citysearch.com/profile/682674540/atlanta_ga/wing_street.html", "address": {"city": "Atlanta", "state": "GA", "street": "4920 Roswell Rd", "postal_code": "30342"}, "capProviderId": null, "distance": null, "has_offers": false, "name": "Wing Street", "longitude": -84.382296, "has_menu": false, "awards": null, "user_review_count": 0}, {"business_operation_status": 1, "rating": null, "neighborhood": null, "image": null, "scorecard": null, "featured": false, "sample_categories": "Restaurants", "public_id": "chequers-seafood-marietta", "id": 607866154, "votes": null, "tagline": null, "has_video": false, "website": null, "offers": null, "latitude": 33.983785, "politanName": "Atlanta, GA Metro ", "phone_number": "7709779324", "tags": [{"primary": true, "id": 1722, "name": "Restaurants"}], "fax_number": null, "expansion": {"count": null, "uri": null}, "impression_id": "000b000000ece7cd4c6689420ea8c0dca9f6b0f409", "profile": "http://www.citysearch.com/profile/607866154/marietta_ga/chequers_seafood.html", "address": {"city": "Marietta", "state": "GA", "street": "1402 Johnson Ferry Rd", "postal_code": "30062"}, "capProviderId": null, "distance": null, "has_offers": false, "name": "Chequers Seafood", "longitude": -84.427049, "has_menu": false, "awards": null, "user_review_count": 0}, {"business_operation_status": 0, "rating": null, "neighborhood": null, "image": null, "scorecard": null, "featured": false, "sample_categories": "Restaurants, Delis And Delicatessens", "public_id": "philly-connection-marietta", "id": 2909538, "votes": null, "tagline": null, "has_video": false, "website": null, "offers": null, "latitude": 33.921284, "politanName": "Atlanta, GA Metro ", "phone_number": "7709849633", "tags": [{"primary": false, "id": 1727, "name": "Delis And Delicatessens"}, {"primary": true, "id": 1722, "name": "Restaurants"}], "fax_number": null, "expansion": {"count": null, "uri": null}, "impression_id": "000b000000abd529489eb84444b148c335dc22937f", "profile": "http://www.citysearch.com/profile/2909538/marietta_ga/philly_connection.html", "address": {"city": "Marietta", "state": "GA", "street": "1260 Powers Ferry Rd SE Ste E", "postal_code": "30067"}, "capProviderId": null, "distance": null, "has_offers": false, "name": "Philly Connection", "longitude": -84.467848, "has_menu": true, "awards": null, "user_review_count": 0}, {"business_operation_status": 1, "rating": null, "neighborhood": null, "image": null, "scorecard": null, "featured": false, "sample_categories": "Restaurants, Bars & Clubs, Bars & Pubs, Mexican", "public_id": "el-sol-mexican-bar-grill-smyrna", "id": 732151620, "votes": null, "tagline": null, "has_video": false, "website": null, "offers": null, "latitude": 33.865738, "politanName": "Atlanta, GA Metro ", "phone_number": "6782146686", "tags": [{"primary": false, "id": 164, "name": "Bars & Clubs"}, {"primary": false, "id": 1686, "name": "Bars & Pubs"}, {"primary": false, "id": 11208, "name": "Mexican"}, {"primary": true, "id": 1722, "name": "Restaurants"}], "fax_number": null, "expansion": {"count": null, "uri": null}, "impression_id": "000b0000006e148c2de2ab49f8804d17b8c26a83ad", "profile": "http://www.citysearch.com/profile/732151620/smyrna_ga/el_sol_mexican_bar_grill.html", "address": {"city": "Smyrna", "state": "GA", "street": "3599 Atlanta Rd SE", "postal_code": "30080"}, "capProviderId": null, "distance": null, "has_offers": false, "name": "El Sol Mexican Bar & Grill", "longitude": -84.492245, "has_menu": false, "awards": null, "user_review_count": 0}, {"business_operation_status": 1, "rating": null, "neighborhood": "Northside, Northside", "image": null, "scorecard": null, "featured": false, "sample_categories": "Restaurants, Barbecue Restaurants", "public_id": "b-l-d-wings-express-inc-atlanta", "id": 762723050, "votes": null, "tagline": null, "has_video": false, "website": null, "offers": null, "latitude": 33.785196, "politanName": "Atlanta, GA Metro ", "phone_number": "4047929550", "tags": [{"primary": false, "id": 1724, "name": "Barbecue Restaurants"}, {"primary": true, "id": 1722, "name": "Restaurants"}], "fax_number": null, "expansion": {"count": null, "uri": null}, "impression_id": "000b00000023871ba9f9104eb198b5c1740a0e175c", "profile": "http://www.citysearch.com/profile/762723050/atlanta_ga/b_l_d_wings_express_inc.html", "address": {"city": "Atlanta", "state": "GA", "street": "1015 W Marietta St NW", "postal_code": "30318"}, "capProviderId": null, "distance": null, "has_offers": false, "name": "B L D Wings Express Inc", "longitude": -84.42021, "has_menu": false, "awards": null, "user_review_count": 0}, {"business_operation_status": 1, "rating": null, "neighborhood": null, "image": null, "scorecard": null, "featured": false, "sample_categories": "Restaurants, Bars & Clubs, Bars & Pubs, General Government Offices, Traditional American", "public_id": "pub-marietta", "id": 764931910, "votes": null, "tagline": null, "has_video": false, "website": null, "offers": null, "latitude": 33.943645, "politanName": "Atlanta, GA Metro ", "phone_number": "7704272500", "tags": [{"primary": false, "id": 1722, "name": "Restaurants"}, {"primary": false, "id": 164, "name": "Bars & Clubs"}, {"primary": false, "id": 1686, "name": "Bars & Pubs"}, {"primary": false, "id": 1756, "name": "General Government Offices"}, {"primary": false, "id": 11190, "name": "Traditional American"}, {"primary": false, "id": 12736, "name": "Wedding Supplies"}], "fax_number": null, "expansion": {"count": null, "uri": null}, "impression_id": "000b000000363966e36d714e489232255f310903ed", "profile": "http://www.citysearch.com/profile/764931910/marietta_ga/pub.html", "address": {"city": "Marietta", "state": "GA", "street": "500 Powder Springs St", "postal_code": "30064"}, "capProviderId": null, "distance": null, "has_offers": false, "name": "Pub", "longitude": -84.552498, "has_menu": true, "awards": null, "user_review_count": 0}, {"business_operation_status": 1, "rating": null, "neighborhood": null, "image": null, "scorecard": null, "featured": false, "sample_categories": "Sandwich Shops, Restaurants, Delis And Delicatessens, Carry Out", "public_id": "firehouse-subs-sandy-3", "id": 766791930, "votes": null, "tagline": null, "has_video": false, "website": null, "offers": null, "latitude": 33.907264, "politanName": "Atlanta, GA Metro ", "phone_number": "6787058878", "tags": [{"primary": false, "id": 1722, "name": "Restaurants"}, {"primary": false, "id": 1727, "name": "Delis And Delicatessens"}, {"primary": false, "id": 11247, "name": "Carry Out"}, {"primary": true, "id": 1736, "name": "Sandwich Shops"}], "fax_number": null, "expansion": {"count": null, "uri": null}, "impression_id": "000b0000000f36864d710d476784e272af47fe5b4c", "profile": "http://www.citysearch.com/profile/766791930/sandy_springs_ga/firehouse_subs.html", "address": {"city": "Sandy Springs", "state": "GA", "street": "5610 Glenridge Dr NE # 102", "postal_code": "30342"}, "capProviderId": null, "distance": null, "has_offers": false, "name": "Firehouse Subs", "longitude": -84.364485, "has_menu": true, "awards": null, "user_review_count": 0}, {"business_operation_status": 0, "rating": null, "neighborhood": null, "image": null, "scorecard": null, "featured": false, "sample_categories": "Restaurants, Carry Out", "public_id": "back-yard-burgers-marietta-2", "id": 2909690, "votes": null, "tagline": null, "has_video": false, "website": "http://www.citysearch.com/profile/external/2909690/marietta_ga/back_yard_burgers.html", "offers": null, "latitude": 33.914806, "politanName": "Atlanta, GA Metro ", "phone_number": "7709161888", "tags": [{"primary": false, "id": 11247, "name": "Carry Out"}, {"primary": true, "id": 1722, "name": "Restaurants"}], "fax_number": null, "expansion": {"count": null, "uri": null}, "impression_id": "000b0000006b06779355f84ca9bda927a92f1cf2a7", "profile": "http://www.citysearch.com/profile/2909690/marietta_ga/back_yard_burgers.html", "address": {"city": "Marietta", "state": "GA", "street": "2340 Windy Hill Rd SE", "postal_code": "30067"}, "capProviderId": null, "distance": null, "has_offers": false, "name": "Back Yard Burgers", "longitude": -84.459043, "has_menu": true, "awards": null, "user_review_count": 0}, {"business_operation_status": 1, "rating": null, "neighborhood": null, "image": null, "scorecard": null, "featured": false, "sample_categories": "Restaurants", "public_id": "tme-enterprises-i-ltd-marietta-2", "id": 787135780, "votes": null, "tagline": null, "has_video": false, "website": null, "offers": null, "latitude": 33.968654, "politanName": "Atlanta, GA Metro ", "phone_number": "7705652051", "tags": [{"primary": true, "id": 1722, "name": "Restaurants"}], "fax_number": null, "expansion": {"count": null, "uri": null}, "impression_id": "000b0000006419968775204f4f8b467b62326653ed", "profile": "http://www.citysearch.com/profile/787135780/marietta_ga/tme_enterprises_i_ltd.html", "address": {"city": "Marietta", "state": "GA", "street": "2169 Roswell Rd", "postal_code": "30062"}, "capProviderId": null, "distance": null, "has_offers": false, "name": "Tme Enterprises I LTD", "longitude": -84.48981, "has_menu": false, "awards": null, "user_review_count": 0}, {"business_operation_status": 1, "rating": null, "neighborhood": "Northside, Northside", "image": null, "scorecard": null, "featured": false, "sample_categories": "Restaurants", "public_id": "j-r-c-monger-inc-atlanta", "id": 764871060, "votes": null, "tagline": null, "has_video": false, "website": "http://www.citysearch.com/profile/external/764871060/atlanta_ga/j_r_c_monger_inc.html", "offers": null, "latitude": 33.794633, "politanName": "Atlanta, GA Metro ", "phone_number": "4047941523", "tags": [{"primary": true, "id": 1722, "name": "Restaurants"}], "fax_number": null, "expansion": {"count": null, "uri": null}, "impression_id": "000b0000009e74654b63324d9f8f67a9a2b1408301", "profile": "http://www.citysearch.com/profile/764871060/atlanta_ga/j_r_c_monger_inc.html", "address": {"city": "Atlanta", "state": "GA", "street": "2061 Hllwell Pkwy NW", "postal_code": "30318"}, "capProviderId": null, "distance": null, "has_offers": false, "name": "J R C Monger Inc", "longitude": -84.448772, "has_menu": false, "awards": null, "user_review_count": 0}, {"business_operation_status": 1, "rating": null, "neighborhood": null, "image": null, "scorecard": null, "featured": false, "sample_categories": "Restaurants, Barbecue Restaurants", "public_id": "wings-sushi-atlanta", "id": 766797230, "votes": null, "tagline": null, "has_video": false, "website": "http://www.citysearch.com/profile/external/766797230/atlanta_ga/wings_sushi.html", "offers": null, "latitude": 33.917883, "politanName": "Atlanta, GA Metro ", "phone_number": "4704282863", "tags": [{"primary": false, "id": 1724, "name": "Barbecue Restaurants"}, {"primary": true, "id": 1722, "name": "Restaurants"}], "fax_number": null, "expansion": {"count": null, "uri": null}, "impression_id": "000b000000d061cec562b24d188b81a00b3ff6aaca", "profile": "http://www.citysearch.com/profile/766797230/atlanta_ga/wings_sushi.html", "address": {"city": "Atlanta", "state": "GA", "street": "5975 Roswell Rd NE", "postal_code": "30328"}, "capProviderId": null, "distance": null, "has_offers": false, "name": "Wings & Sushi", "longitude": -84.377671, "has_menu": true, "awards": null, "user_review_count": 1}, {"business_operation_status": 1, "rating": null, "neighborhood": null, "image": null, "scorecard": null, "featured": false, "sample_categories": "Restaurants", "public_id": "doce-sabor-marietta", "id": 775199690, "votes": null, "tagline": null, "has_video": false, "website": null, "offers": null, "latitude": 33.918554, "politanName": "Atlanta, GA Metro ", "phone_number": "7702260434", "tags": [{"primary": true, "id": 1722, "name": "Restaurants"}], "fax_number": null, "expansion": {"count": null, "uri": null}, "impression_id": "000b0000000717440f070d4f439a107b8e3bce3ea3", "profile": "http://www.citysearch.com/profile/775199690/marietta_ga/doce_sabor.html", "address": {"city": "Marietta", "state": "GA", "street": "1360 Powers Ferry Rd SE # B165", "postal_code": "30067"}, "capProviderId": null, "distance": null, "has_offers": false, "name": "Doce Sabor", "longitude": -84.468587, "has_menu": false, "awards": null, "user_review_count": 0}, {"business_operation_status": 1, "rating": null, "neighborhood": null, "image": null, "scorecard": null, "featured": false, "sample_categories": "Restaurants, Japanese", "public_id": "mt-fuji-marietta", "id": 779710710, "votes": null, "tagline": null, "has_video": false, "website": null, "offers": null, "latitude": 33.947797, "politanName": "Atlanta, GA Metro ", "phone_number": "7704280955", "tags": [{"primary": false, "id": 11202, "name": "Japanese"}, {"primary": true, "id": 1722, "name": "Restaurants"}], "fax_number": null, "expansion": {"count": null, "uri": null}, "impression_id": "000b000000b1de68890c294e48b3cf2ead66acccfb", "profile": "http://www.citysearch.com/profile/779710710/marietta_ga/mt_fuji.html", "address": {"city": "Marietta", "state": "GA", "street": "180 Cobb Pkwy S # 26", "postal_code": "30060"}, "capProviderId": null, "distance": null, "has_offers": false, "name": "Mt Fuji", "longitude": -84.519997, "has_menu": false, "awards": null, "user_review_count": 4}, {"business_operation_status": 1, "rating": null, "neighborhood": null, "image": null, "scorecard": null, "featured": false, "sample_categories": "Restaurants", "public_id": "hudson-grille-sandy", "id": 781203350, "votes": null, "tagline": null, "has_video": false, "website": null, "offers": null, "latitude": 33.926611, "politanName": "Atlanta, GA Metro ", "phone_number": "4042553010", "tags": [{"primary": true, "id": 1722, "name": "Restaurants"}], "fax_number": null, "expansion": {"count": null, "uri": null}, "impression_id": "000b0000001ee0040948134ac7b5dbb1aab4b8537a", "profile": "http://www.citysearch.com/profile/781203350/sandy_springs_ga/hudson_grille.html", "address": {"city": "Sandy Springs", "state": "GA", "street": "6317 Roswell Rd", "postal_code": "30328"}, "capProviderId": null, "distance": null, "has_offers": false, "name": "Hudson Grille", "longitude": -84.379089, "has_menu": true, "awards": null, "user_review_count": 0}, {"business_operation_status": 1, "rating": null, "neighborhood": null, "image": null, "scorecard": null, "featured": false, "sample_categories": "Restaurants, Pizza", "public_id": "athens-pizza-house-sandy", "id": 790630640, "votes": null, "tagline": null, "has_video": false, "website": null, "offers": null, "latitude": 33.920848, "politanName": "Atlanta, GA Metro ", "phone_number": "7702570252", "tags": [{"primary": false, "id": 1722, "name": "Restaurants"}, {"primary": true, "id": 11299, "name": "Pizza"}], "fax_number": null, "expansion": {"count": null, "uri": null}, "impression_id": "000b000000caf20406973c4aeea717f51d115c6745", "profile": "http://www.citysearch.com/profile/790630640/sandy_springs_ga/athens_pizza_house.html", "address": {"city": "Sandy Springs", "state": "GA", "street": "6075 Roswell Rd", "postal_code": "30328"}, "capProviderId": null, "distance": null, "has_offers": false, "name": "Athens Pizza House", "longitude": -84.378325, "has_menu": false, "awards": null, "user_review_count": 0}, {"business_operation_status": 1, "rating": null, "neighborhood": "Northside, Northside", "image": null, "scorecard": null, "featured": false, "sample_categories": "Coffeehouses", "public_id": "joe-muggs-atlanta", "id": 810208510, "votes": null, "tagline": null, "has_video": false, "website": null, "offers": null, "latitude": 33.810148, "politanName": "Atlanta, GA Metro ", "phone_number": "4043500461", "tags": [{"primary": true, "id": 1726, "name": "Coffeehouses"}], "fax_number": null, "expansion": {"count": null, "uri": null}, "impression_id": "000b000000d552bc43eb7f4c04a5d04f4de4caa5af", "profile": "http://www.citysearch.com/profile/810208510/atlanta_ga/joe_muggs.html", "address": {"city": "Atlanta", "state": "GA", "street": "2020 Howell Mill Rd NW", "postal_code": "30318"}, "capProviderId": null, "distance": null, "has_offers": false, "name": "Joe Muggs", "longitude": -84.413501, "has_menu": false, "awards": null, "user_review_count": 0}, {"business_operation_status": 1, "rating": null, "neighborhood": null, "image": null, "scorecard": null, "featured": false, "sample_categories": "Restaurants", "public_id": "dantannas-c-n-n-center-atlanta", "id": 836292460, "votes": null, "tagline": null, "has_video": false, "website": null, "offers": null, "latitude": 33.936291, "politanName": "Atlanta, GA Metro ", "phone_number": "4047058873", "tags": [{"primary": true, "id": 1722, "name": "Restaurants"}], "fax_number": null, "expansion": {"count": null, "uri": null}, "impression_id": "000b00000071776475d25240dea866c1de5380a421", "profile": "http://www.citysearch.com/profile/836292460/atlanta_ga/dantanna_s_c_n_n_center.html", "address": {"city": "Atlanta", "state": "GA", "street": "6649 Roswell Rd", "postal_code": "30328"}, "capProviderId": null, "distance": null, "has_offers": false, "name": "Dantanna's C N N Center", "longitude": -84.378282, "has_menu": false, "awards": null, "user_review_count": 0}, {"business_operation_status": 1, "rating": null, "neighborhood": null, "image": null, "scorecard": null, "featured": false, "sample_categories": "Restaurants", "public_id": "asian-grill-marietta", "id": 813218910, "votes": null, "tagline": null, "has_video": false, "website": null, "offers": null, "latitude": 33.948939, "politanName": "Atlanta, GA Metro ", "phone_number": "6785602037", "tags": [{"primary": true, "id": 1722, "name": "Restaurants"}], "fax_number": null, "expansion": {"count": null, "uri": null}, "impression_id": "000b000000e1cf444582aa438db469d59429f6ce24", "profile": "http://www.citysearch.com/profile/813218910/marietta_ga/asian_grill.html", "address": {"city": "Marietta", "state": "GA", "street": "279 Powers Ferry Rd SE # F", "postal_code": "30067"}, "capProviderId": null, "distance": null, "has_offers": false, "name": "Asian Grill", "longitude": -84.503582, "has_menu": false, "awards": null, "user_review_count": 0}, {"business_operation_status": 1, "rating": null, "neighborhood": null, "image": null, "scorecard": null, "featured": false, "sample_categories": "Restaurants", "public_id": "vuelve-a-la-vida-marietta", "id": 814278210, "votes": null, "tagline": null, "has_video": false, "website": null, "offers": null, "latitude": 33.904786, "politanName": "Atlanta, GA Metro ", "phone_number": "7708019450", "tags": [{"primary": true, "id": 1722, "name": "Restaurants"}], "fax_number": null, "expansion": {"count": null, "uri": null}, "impression_id": "000b000000b9b35569394c483f8f9605971ae43664", "profile": "http://www.citysearch.com/profile/814278210/marietta_ga/vuelve_a_la_vida.html", "address": {"city": "Marietta", "state": "GA", "street": "1991 S Cobb Dr SE", "postal_code": "30060"}, "capProviderId": null, "distance": null, "has_offers": false, "name": "Vuelve A La Vida", "longitude": -84.542421, "has_menu": true, "awards": null, "user_review_count": 0}, {"business_operation_status": 1, "rating": null, "neighborhood": null, "image": null, "scorecard": null, "featured": false, "sample_categories": "Restaurants, Office Building Operators", "public_id": "river-edge1-cafe-atlanta", "id": 3020701, "votes": null, "tagline": null, "has_video": false, "website": null, "offers": null, "latitude": 33.906954, "politanName": "Atlanta, GA Metro ", "phone_number": "7709527787", "tags": [{"primary": false, "id": 1722, "name": "Restaurants"}, {"primary": true, "id": 3787, "name": "Office Building Operators"}], "fax_number": null, "expansion": {"count": null, "uri": null}, "impression_id": "000b000000e948fd82486f428880b6153d0ffa28bf", "profile": "http://www.citysearch.com/profile/3020701/atlanta_ga/river_edge1_cafe.html", "address": {"city": "Atlanta", "state": "GA", "street": "5500 Interstate North Pkwy NW", "postal_code": "30328"}, "capProviderId": null, "distance": null, "has_offers": false, "name": "River Edge1 Cafe", "longitude": -84.434288, "has_menu": false, "awards": null, "user_review_count": 0}, {"business_operation_status": 1, "rating": null, "neighborhood": null, "image": null, "scorecard": null, "featured": false, "sample_categories": "Restaurants", "public_id": "z-bar-ranch-restaurants-l-atlanta", "id": 732234960, "votes": null, "tagline": null, "has_video": false, "website": null, "offers": null, "latitude": 33.936187, "politanName": "Atlanta, GA Metro ", "phone_number": "4048432561", "tags": [{"primary": true, "id": 1722, "name": "Restaurants"}], "fax_number": null, "expansion": {"count": null, "uri": null}, "impression_id": "000b0000004621067c7d7f4518ac77c681792b5f74", "profile": "http://www.citysearch.com/profile/732234960/atlanta_ga/z_bar_ranch_restaurants_l.html", "address": {"city": "Atlanta", "state": "GA", "street": "340 Seamarsh Ct NW", "postal_code": "30328"}, "capProviderId": null, "distance": null, "has_offers": false, "name": "Z Bar Ranch Restaurants L", "longitude": -84.399923, "has_menu": false, "awards": null, "user_review_count": 0}, {"business_operation_status": 1, "rating": null, "neighborhood": null, "image": null, "scorecard": null, "featured": false, "sample_categories": "Restaurants", "public_id": "buen-provecho-restaurant-llc-marietta", "id": 626498024, "votes": null, "tagline": null, "has_video": false, "website": "http://www.citysearch.com/profile/external/626498024/marietta_ga/buen_provecho_restaurant_llc.html", "offers": null, "latitude": 33.902637, "politanName": "Atlanta, GA Metro ", "phone_number": "7707123188", "tags": [{"primary": true, "id": 1722, "name": "Restaurants"}], "fax_number": null, "expansion": {"count": null, "uri": null}, "impression_id": "000b000000f6b92a2ef24640b8be1725d44b258aa3", "profile": "http://www.citysearch.com/profile/626498024/marietta_ga/buen_provecho_restaurant_llc.html", "address": {"city": "Marietta", "state": "GA", "street": "2468 Windy Hill Rd SE Ste 600", "postal_code": "30067"}, "capProviderId": null, "distance": null, "has_offers": false, "name": "Buen Provecho Restaurant LLC", "longitude": -84.48176, "has_menu": false, "awards": null, "user_review_count": 0}, {"business_operation_status": 1, "rating": null, "neighborhood": null, "image": null, "scorecard": null, "featured": false, "sample_categories": "Restaurants, Chinese", "public_id": "canton-cook-sandy", "id": 748331290, "votes": null, "tagline": null, "has_video": false, "website": "http://www.citysearch.com/profile/external/748331290/sandy_springs_ga/canton_cook.html", "offers": null, "latitude": 33.937491, "politanName": "Atlanta, GA Metro ", "phone_number": "4042558000", "tags": [{"primary": false, "id": 11252, "name": "Chinese"}, {"primary": true, "id": 1722, "name": "Restaurants"}], "fax_number": null, "expansion": {"count": null, "uri": null}, "impression_id": "000b000000a1230b23e55440ac8aceb55f4e582c7a", "profile": "http://www.citysearch.com/profile/748331290/sandy_springs_ga/canton_cook.html", "address": {"city": "Sandy Springs", "state": "GA", "street": "6690 Roswell Rd NE", "postal_code": "30328"}, "capProviderId": null, "distance": null, "has_offers": false, "name": "Canton Cook", "longitude": -84.378317, "has_menu": false, "awards": null, "user_review_count": 0}, {"business_operation_status": 1, "rating": null, "neighborhood": null, "image": null, "scorecard": null, "featured": false, "sample_categories": "Restaurants, Caribbean", "public_id": "island-vibes-llc-smyrna", "id": 751350600, "votes": null, "tagline": null, "has_video": false, "website": "http://www.citysearch.com/profile/external/751350600/smyrna_ga/island_vibes_llc.html", "offers": null, "latitude": 33.901234, "politanName": "Atlanta, GA Metro ", "phone_number": "7702721956", "tags": [{"primary": false, "id": 11195, "name": "Caribbean"}, {"primary": true, "id": 1722, "name": "Restaurants"}], "fax_number": null, "expansion": {"count": null, "uri": null}, "impression_id": "000b000000aa2044d54e314b40a2ea57019f13cf01", "profile": "http://www.citysearch.com/profile/751350600/smyrna_ga/island_vibes_llc.html", "address": {"city": "Smyrna", "state": "GA", "street": "2092 Cobb Pkwy SE", "postal_code": "30080"}, "capProviderId": null, "distance": null, "has_offers": false, "name": "Island Vibes LLC", "longitude": -84.488366, "has_menu": false, "awards": null, "user_review_count": 1}], "histograms": [], "tag_ids": [1722], "uri": "http://api.citygridmedia.com:8080/search/places/v2/search/where?has_offers=false&type=restaurant&format=json&page=28&where=30339&rpp=50&histograms=false&publisher=10000009598&region_type=circle", "did_you_mean": "", "regions": [{"latitude": 33.877209, "default_radius": 2.6, "type": "postal_code", "name": "30339", "longitude": -84.463483}], "call_id": "000b000000f2d46b77615a4b4c970d12d83c4aacea", "first_hit": 1351, "total_hits": 1582, "geo_ids": [26497], "page": 28, "last_hit": 1400}}